~Version Information
VERS.                      2.0: CWLS Log ASCII Standard - VERSION 2.0
WRAP.                       NO: One line per depth step
~Well Information Block
STRT.FT               530.0000: 
STOP.FT              1298.0000: 
STEP.FT                 0.1000: 
NULL.                -999.2500: 
COMP.          Pioneer Natural Resources: COMPANY
WELL.            Keiko 14-6 Tr: WELL
FLD.           Purgatoire River: FIELD
LOC.           462' FSL & 1202' FWL: LOCATION
PROV.                 Colorado: PROVINCE
CNTY.               Las Animas: COUNTRY
SRVC.                Patterson: SERVICE COMPANY
DATE.          Fri Dec 30 07:26:03 2005: LOG DATE
UWI.           05 071 08629 00: UNIQUE WELL ID
~Curve Information Block
DEPT.FT            0 000 00 00: Depth
DCAL.in                       : CDL Caliper
RHOB.g/cc                     : CDL Bulk Density
RHOC.g/cc                     : CDL Density Correction
DPOR.pu                       : CDL Density Porosity
GR.GAPI                       : Gamma Ray
~Parameter Information Block
~A  Depth       DCAL        RHOB        RHOC        DPOR         GR     
# ...
  1134.8000      7.8994      2.7021      0.1209     -3.1595     86.7445
  1134.9000      7.8994      2.6956      0.1320     -2.7638     81.6564
  1135.0000      7.9057      2.7050      0.1076     -3.3319     80.9792
  1135.1000      7.9057      2.7340      0.1191     -5.0888     79.4475
  1135.2000      7.9057      2.7636      0.1354     -6.8828     77.7049
  1135.3000      7.9106      2.7771      0.1323     -7.7053     78.3007
  1135.4000      7.9106      2.7766      0.1397     -7.6749     78.9871
  1135.5000      7.9018      2.7619      0.1579     -6.7816     77.5496
  1135.6000      7.9018      2.7400      0.0633     -5.4550     75.9610
  1135.7000      7.9018      2.7381      0.0322     -5.3422     76.4544
  1135.8000      7.9002      2.7571      0.1244     -6.4915     78.4185
  1135.9000      7.9002      2.7643      0.0878     -6.9285     80.4601
  1136.0000      7.9002      2.7500      0.0555     -6.0615     83.1200
  1136.1000      7.9002      2.7265      0.0100     -4.6379     87.1389
  1136.2000      7.9002      2.6946      0.0258     -2.7033     90.0139
  1136.3000      7.9008      2.6523      0.0077     -0.1386     91.6719
  1136.4000      7.9008      2.6188     -0.0371      1.8896     97.9113
  1136.5000      7.9006      2.6149      0.0105      2.1288    107.8292
  1136.6000      7.9006      2.6322      0.0166      1.0790    112.3369
  1136.7000      7.9006      2.6450      0.0722      0.3022    109.3140
  1136.8000      7.9005      2.6352      0.0770      0.8997    104.1444
  1136.9000      7.9005      2.6091      0.0623      2.4769    101.6729
  1137.0000      7.8981      2.5859      0.0664      3.8857    101.2262
  1137.1000      7.8981      2.5731      0.0556      4.6618     99.0253
  1137.2000      7.8981      2.5694      0.0328      4.8833     95.3570
  1137.3000      7.8996      2.5777      0.0454      4.3832     94.7839
  1137.4000      7.8996      2.5982      0.0917      3.1382     99.0503
  1137.5000      7.8974      2.6201      0.1051      1.8093    103.5479
  1137.6000      7.8974      2.6368      0.1364      0.8027    103.1512
  1137.7000      7.8974      2.6475      0.1368      0.1493    100.8685
  1137.8000      7.8960      2.6498      0.1359      0.0147    104.1646
  1137.9000      7.8960      2.6433      0.1171      0.4078    113.6652
  1138.0000      7.9120      2.6266      0.1307      1.4199    122.5475
  1138.1000      7.9120      2.5961      0.0785      3.2644    127.6232
  1138.2000      7.9120      2.5574      0.0649      5.6130    131.2756
  1138.3000      7.9343      2.5182      0.0717      7.9907    134.2461
  1138.4000      7.9343      2.4875      0.0075      9.8490    140.1889
  1138.5000      7.9358      2.4766      0.0481     10.5120    153.0459
  1138.6000      7.9358      2.4813      0.0149     10.2265    168.3555
  1138.7000      7.9358      2.4875      0.0282      9.8472    178.5713
  1138.8000      7.9357      2.4878     -0.0096      9.8308    180.0366
  1138.9000      7.9357      2.4877     -0.0038      9.8353    174.5792
  1139.0000      7.9376      2.4927      0.0300      9.5314    167.2082
  1139.1000      7.9376      2.5025      0.0514      8.9412    164.6299
  1139.2000      7.9376      2.5171      0.0146      8.0558    171.1439
  1139.3000      7.9348      2.5301      0.0518      7.2693    180.5933
  1139.4000      7.9348      2.5287      0.0597      7.3491    183.6016
  1139.5000      7.9355      2.5114      0.0594      8.3975    177.1832
  1139.6000      7.9355      2.4944     -0.0044      9.4323    166.7207
  1139.7000      7.9355      2.4943      0.0033      9.4377    163.9993
  1139.8000      7.9351      2.5040      0.0246      8.8501    172.0607
  1139.9000      7.9351      2.5051      0.0466      8.7847    179.5120
  1140.0000      7.9329      2.4926      0.0526      9.5400    178.9180
  1140.1000      7.9329      2.4737      0.0079     10.6870    172.9125
  1140.2000      7.9329      2.4568      0.0299     11.7100    166.9306
  1140.3000      7.9347      2.4491     -0.0011     12.1730    164.6058
  1140.4000      7.9347      2.4508      0.0139     12.0744    165.2555
  1140.5000      7.9350      2.4515      0.0305     12.0309    166.8448
  1140.6000      7.9350      2.4533     -0.0217     11.9206    167.8736
  1140.7000      7.9350      2.4678      0.0098     11.0422    165.0301
  1140.8000      7.9352      2.4816      0.0778     10.2044    159.8090
  1140.9000      7.9352      2.4807      0.0531     10.2593    156.1723
  1141.0000      7.9350      2.4872      0.0180      9.8646    156.7170
  1141.1000      7.9350      2.5168      0.0615      8.0705    160.4243
  1141.2000      7.9350      2.5438      0.1388      6.4346    160.7815
  1141.3000      7.9373      2.5486      0.0747      6.1449    159.1076
  1141.4000      7.9373      2.5483      0.0607      6.1657    159.5895
  1141.5000      7.9370      2.5587      0.0638      5.5334    158.3302
  1141.6000      7.9370      2.5765      0.0849      4.4547    151.6390
  1141.7000      7.9370      2.5922      0.0922      3.5058    144.0424
  1141.8000      7.9351      2.6008      0.0852      2.9819    142.8827
  1141.9000      7.9351      2.5988      0.1064      3.1038    147.3142
  1142.0000      7.9341      2.5780      0.0827      4.3644    148.9976
  1142.1000      7.9341      2.5405      0.0685      6.6393    145.4327
  1142.2000      7.9341      2.5055      0.0069      8.7555    143.2728
  1142.3000      7.9370      2.4933     -0.0087      9.4995    145.3808
  1142.4000      7.9370      2.5046     -0.0082      8.8129    150.3900
  1142.5000      7.9358      2.5244      0.0357      7.6142    157.8009
  1142.6000      7.9358      2.5353      0.0636      6.9513    164.8622
  1142.7000      7.9358      2.5242      0.0565      7.6216    167.9081
  1142.8000      7.9344      2.4915      0.0214      9.6075    164.6530
  1142.9000      7.9344      2.4591     -0.0351     11.5701    158.1005
  1143.0000      7.9341      2.4549     -0.0151     11.8214    155.0580
  1143.1000      7.9341      2.4829      0.0594     10.1291    159.3201
  1143.2000      7.9341      2.5205      0.0788      7.8481    167.1948
  1143.3000      7.9311      2.5384      0.1432      6.7609    171.5800
  1143.4000      7.9311      2.5226      0.1051      7.7237    171.8262
  1143.5000      7.9352      2.4895      0.0691      9.7251    170.4210
  1143.6000      7.9352      2.4629      0.0586     11.3418    166.7751
  1143.7000      7.9352      2.4498      0.0687     12.1306    161.6211
  1143.8000      7.9358      2.4484      0.0481     12.2155    158.0234
  1143.9000      7.9358      2.4530      0.0980     11.9383    158.4345
  1144.0000      7.9343      2.4594      0.0682     11.5508    159.7957
  1144.1000      7.9343      2.4782      0.0338     10.4135    156.0170
  1144.2000      7.9343      2.5149      0.0794      8.1857    148.9755
  1144.3000      7.9354      2.5512      0.0986      5.9872    146.6292
  1144.4000      7.9354      2.5743      0.0993      4.5855    151.6012
  1144.5000      7.9347      2.5893      0.1134      3.6804    157.5310
  1144.6000      7.9347      2.5928      0.1980      3.4648    159.8957
  1144.7000      7.9347      2.5784      0.1740      4.3416    159.7703
  1144.8000      7.9343      2.5555      0.1889      5.7270    155.8803
  1144.9000      7.9343      2.5341      0.1176      7.0248    146.5275
  1145.0000      7.9343      2.5143      0.1087      8.2217    140.8575
  1145.1000      7.9343      2.4970      0.0579      9.2731    148.5598
  1145.2000      7.9343      2.4896      0.0484      9.7210    159.1273
  1145.3000      7.9343      2.4958      0.0400      9.3454    158.5657
  1145.4000      7.9343      2.5065      0.0505      8.6998    153.0414
  1145.5000      7.9306      2.5109      0.0776      8.4328    152.8028
  1145.6000      7.9306      2.5098      0.0919      8.4976    155.2216
  1145.7000      7.9306      2.5090      0.1333      8.5465    157.7642
  1145.8000      7.9333      2.5040      0.1332      8.8478    158.7530
  1145.9000      7.9333      2.4863      0.1133      9.9217    157.0522
