~Version Information
VERS.                      2.0: CWLS Log ASCII Standard - VERSION 2.0
WRAP.                       NO: One line per depth step
~Well Information Block
STRT.FT                -9.0000: 
STOP.FT              1754.0000: 
STEP.FT                 0.2500: 
NULL.                -999.2500: 
COMP.          Pioneer Natural Resources: COMPANY
WELL.          Touchstone 11-32 Tr: WELL
FLD.           Purgatorie River: FIELD
LOC.           782' FNL & 840' FWL--: LOCATION
CNTY.               Las Animas: COUNTY
SRVC.          Patterson Wireline: SERVICE COMPANY
DATE.          Mon Mar 06 09:18:09 2006: LOG DATE
UWI.           05 071 08626 00: UNIQUE WELL ID
STAT.                       CO: STATE
~Curve Information Block
DEPT.FT            0 000 00 00: Depth
CCL.                          : Casing Collar Locator
TT3.usec                      : CBL 3' Travel Time
AMP3.mV                       : CBL 3' Amplitude
GR.GAPI                       : Gamma Ray
~Parameter Information Block
~A  Depth       CCL         TT3         AMP3         GR     
# ...
  1163.5000      0.0000    995.5221      7.8313    116.5712
  1163.7500      0.0000   1018.0473      7.6758    113.6078
  1164.0000      0.0000   1020.0351      7.5436    110.6545
  1164.2500      0.0000    994.7617      7.4436    107.8177
  1164.5000      0.0000    950.2397      7.3795    105.5321
  1164.7500      0.0000    902.7711      7.3497    104.6899
  1165.0000      0.0000    864.1362      7.3460    106.2782
  1165.2500      0.0000    836.0283      7.3571    110.3058
  1165.5000      0.0000    814.9526      7.3749    115.3488
  1165.7500      0.0000    798.7838      7.3981    119.7223
  1166.0000      0.0000    787.5168      7.4283    123.0271
  1166.2500      0.0000    780.3305      7.4644    126.0891
  1166.5000      0.0000    774.9459      7.5029    129.4475
  1166.7500      0.0000    770.1698      7.5427    132.4165
  1167.0000      0.0000    767.4801      7.5867    133.8692
  1167.2500      0.0000    769.5757      7.6367    133.6492
  1167.5000      0.0000    777.8416      7.6893    132.8073
  1167.7500      0.0000    791.2085      7.7380    132.3978
  1168.0000      0.0000    806.8022      7.7761    132.4032
  1168.2500      0.0000    821.4904      7.7994    132.0197
  1168.5000      0.0000    833.2067      7.8077    130.5917
  1168.7500      0.0000    841.1469      7.8030    128.0490
  1169.0000      0.0000    844.8418      7.7859    124.8241
  1169.2500      0.0000    843.3001      7.7532    121.6488
  1169.5000      0.0000    835.4822      7.7014    119.1341
  1169.7500      0.0000    821.6644      7.6304    117.3994
  1170.0000      0.0000    804.0781      7.5412    116.4294
  1170.2500      0.0000    786.0991      7.4328    116.9352
  1170.5000      0.0000    770.9340      7.3086    120.1736
  1170.7500      0.0000    760.9388      7.1844    126.1994
  1171.0000      0.0000    757.5913      7.0835    132.5696
  1171.2500      0.0000    761.6183      7.0203    135.8010
  1171.5000      0.0000    772.9579      6.9919    134.5933
  1171.7500      0.0000    790.2839      6.9846    131.1424
  1172.0000      0.0000    810.7351      6.9851    128.9307
  1172.2500      0.0000    831.0919      6.9869    129.5733
  1172.5000      0.0000    849.6273      6.9917    131.9848
  1172.7500      0.0000    866.3083      7.0065    134.0673
  1173.0000      0.0000    881.3212      7.0378    134.6890
  1173.2500      0.0000    894.1716      7.0867    134.1819
  1173.5000      0.0000    904.1323      7.1494    133.4039
  1173.7500      0.0000    910.8660      7.2213    132.7110
  1174.0000      0.0000    914.5994      7.2997    131.8580
  1174.2500      0.0000    915.9702      7.3813    130.5830
  1174.5000      0.0000    915.5961      7.4577    128.8348
  1174.7500      0.0000    913.4698      7.5149    126.3562
  1175.0000      0.0000    908.6967      7.5420    122.5143
  1175.2500      0.0000    900.1179      7.5423    117.0887
  1175.5000      0.0000    887.7667      7.5329    111.1688
  1175.7500      0.0000    873.7845      7.5331    106.6296
  1176.0000      0.0000    861.3376      7.5511    104.3543
  1176.2500      0.0000    851.9199      7.5794    103.2923
  1176.5000      0.0000    843.5217      7.6024    101.6359
  1176.7500      0.0000    831.8978      7.6079     98.7002
  1177.0000      0.0000    814.7391      7.5922     95.1880
  1177.2500      0.0000    795.2215      7.5575     91.8213
  1177.5000      0.0000    780.6825      7.5064     88.4950
  1177.7500      0.0000    777.0845      7.4416     84.8952
  1178.0000      0.0000    784.5252      7.3678     81.1854
  1178.2500      0.0000    796.9953      7.2920     77.6434
  1178.5000      0.0000    805.5854      7.2190     73.9571
  1178.7500      0.0000    803.6052      7.1492     69.5046
  1179.0000      0.0000    790.9686      7.0822     64.5308
  1179.2500      0.0000    773.7831      7.0189     60.6489
  1179.5000      0.0000    759.1423      6.9588     59.7392
  1179.7500      0.0000    750.6579      6.9002     62.2748
  1180.0000      0.0000    748.4493      6.8441     66.7449
  1180.2500      0.0000    751.3013      6.7985     70.5892
  1180.5000      0.0000    757.8141      6.7748     71.8487
  1180.7500      0.0000    766.4840      6.7780     70.4369
  1181.0000      0.0000    776.3996      6.8000     68.0749
  1181.2500      0.0000    788.2803      6.8229     66.6802
  1181.5000      0.0000    804.0558      6.8343     66.5887
  1181.7500      0.0000    824.2158      6.8390     66.4704
  1182.0000      0.0000    844.7911      6.8557     64.9503
  1182.2500      0.0000    857.2320      6.9010     62.0270
  1182.5000      0.0000    853.0604      6.9758     58.9379
  1182.7500      0.0000    830.8718      7.0680     57.1472
  1183.0000      0.0000    798.8440      7.1678     57.6083
  1183.2500      0.0000    768.7957      7.2778     60.4323
  1183.5000      0.0000    747.3806      7.4114     64.7846
  1183.7500      0.0000    733.2097      7.5820     69.2921
  1184.0000      0.0000    721.2065      7.7902     72.8442
  1184.2500      0.0000    708.3884      8.0071     74.9545
  1184.5000      0.0000    696.1824      8.1549     75.5011
  1184.7500      0.0000    689.0091      8.1237     74.4930
  1185.0000      0.0000    691.0209      7.8534     72.0889
  1185.2500      0.0000    702.6336      7.4179     68.6168
  1185.5000      0.0000    719.2969      6.9943     64.6659
  1185.7500      0.0000    734.1259      6.7266     61.1934
  1186.0000      0.0000    742.4868      6.6338     59.1875
  1186.2500      2.0000    744.0370      6.6412     59.0148
  1186.5000      0.0000    741.4077      6.6637     60.1652
  1186.7500      0.0000    739.0535      6.6638     61.6381
  1187.0000      0.0000    743.1078      6.6653     62.6517
  1187.2500      0.0000    759.3348      6.7181     63.2683
  1187.5000      0.0000    788.6579      6.8230     64.2725
  1187.7500      0.0000    824.0847      6.9024     66.1295
  1188.0000      0.0000    853.4829      6.8778     68.2699
  1188.2500      0.0000    867.5261      6.7613     69.7619
  1188.5000      0.0000    865.6770      6.6376     70.4054
  1188.7500      0.0000    854.4513      6.5752     70.8743
  1189.0000      0.0000    840.9186      6.5851     72.0904
  1189.2500      0.0000    828.7514      6.6412     74.6364
  1189.5000      0.0000    818.9546      6.7095     78.4019
  1189.7500      0.0000    811.4273      6.7636     82.5528
  1190.0000      0.0000    805.2631      6.7913     85.9751
  1190.2500      0.0000    799.3808      6.7979     87.8397
  1190.5000      0.0000    793.6945      6.7997     87.8102
  1190.7500      0.0000    789.0457      6.8136     85.9952
  1191.0000      0.0000    786.0161      6.8457     83.0251
  1191.2500      0.0000    784.3737      6.8895     80.2426
  1191.5000      0.0000    783.5386      6.9338     79.4363
  1191.7500      0.0000    783.1824      6.9732     81.7952
  1192.0000      0.0000    783.5125      7.0124     86.8012
  1192.2500      0.0000    785.3570      7.0626     92.3850
  1192.5000      0.0000    789.9559      7.1347     96.5326
  1192.7500      0.0000    798.1765      7.2348     98.6540
  1193.0000      0.0000    809.5701      7.3625     99.2502
  1193.2500      0.0000    822.1547      7.5097     98.8933
  1193.5000      0.0000    832.9100      7.6599     98.1359
  1193.7500      0.0000    838.1903      7.7938     97.9099
  1194.0000      0.0000    834.8262      7.8984     99.2948
  1194.2500      0.0000    822.6863      7.9729    102.8949
  1194.5000      0.0000    806.1204      8.0245    108.4135
  1194.7500      0.0000    791.7302      8.0578    114.3949
  1195.0000      0.0000    785.0607      8.0651    118.5616
  1195.2500      0.0000    789.4637      8.0266    119.2568
  1195.5000      0.0000    805.6212      7.9223    116.8785
  1195.7500      0.0000    830.0994      7.7449    113.6765
  1196.0000      0.0000    855.5607      7.5055    112.1120
  1196.2500      0.0000    874.1036      7.2307    113.4385
  1196.5000      0.0000    880.5623      6.9578    117.3882
  1196.7500      0.0000    873.9008      6.7261    122.6089
