~Version Information
VERS.                      2.0: CWLS Log ASCII Standard - VERSION 2.0
WRAP.                       NO: One line per depth step
~Well Information Block
STRT.FT               520.0000: 
STOP.FT              2555.2500: 
STEP.FT                 0.2500: 
NULL.                -999.2500: 
COMP.          Pioneer Natural Resources: COMPANY
WELL.          Horsefeathers 24-34: WELL
FLD.           Purgatoire River: FIELD
LOC.           183' FSL & 1570' FWL--: LOCATION
CNTY.               Las Animas: COUNTY
SRVC.                Patterson: SERVICE COMPANY
DATE.          Sun Feb 05 17:35:59 2006: LOG DATE
UWI.           05 071 08675 00: UNIQUE WELL ID
STAT.                 Colorado: STATE
~Curve Information Block
DEPT.FT            0 000 00 00: Depth
SN.Ohm-m                      : IEL Short Normal
SP.mV                         : IEL Spontaneous Potential
DIR.Ohm-m                     : IEL Induction Resistivity
GR.GAPI                       : Gamma Ray
~Parameter Information Block
NPORSHIFT.              0.0000: NPORSHIFT
~A  Depth        SN          SP         DIR          GR     
# ...
  2128.0000     11.4175     48.3441     10.5145    154.7862
  2128.2500     11.3310     48.3521     10.5740    154.8864
  2128.5000     11.2644     48.2880     10.6000    155.0542
  2128.7500     11.2341     48.1685     10.5978    155.0123
  2129.0000     11.2460     48.0208     10.5711    154.3016
  2129.2500     11.2921     47.8795     10.5197    153.4779
  2129.5000     11.3497     47.7812     10.4401    152.5891
  2129.7500     11.3850     47.7559     10.3276    152.7343
  2130.0000     11.3636     47.8194     10.1799    154.1613
  2130.2500     11.2613     47.9672      9.9970    155.6616
  2130.5000     11.0697     48.1749      9.7811    158.3942
  2130.7500     10.7963     48.4040      9.5360    160.3477
  2131.0000     10.4618     48.6117      9.2694    162.7007
  2131.2500     10.0962     48.7624      8.9936    163.3918
  2131.5000      9.7339     48.8355      8.7250    163.2401
  2131.7500      9.4072     48.8283      8.4799    163.0181
  2132.0000      9.1393     48.7527      8.2696    163.4372
  2132.2500      8.9384     48.6292      8.0977    164.1363
  2132.5000      8.7983     48.4799      7.9605    165.0213
  2132.7500      8.7052     48.3233      7.8499    165.1820
  2133.0000      8.6457     48.1722      7.7566    164.6960
  2133.2500      8.6116     48.0345      7.6733    163.8512
  2133.5000      8.5993     47.9147      7.5979    161.6421
  2133.7500      8.6082     47.8152      7.5339    159.6952
  2134.0000      8.6382     47.7378      7.4896    157.0255
  2134.2500      8.6861     47.6831      7.4750    156.0544
  2134.5000      8.7429     47.6496      7.4974    156.3555
  2134.7500      8.7981     47.6339      7.5590    157.6121
  2135.0000      8.8464     47.6309      7.6562    160.1194
  2135.2500      8.8913     47.6344      7.7814    161.2756
  2135.5000      8.9419     47.6384      7.9245    160.8062
  2135.7500      9.0085     47.6386      8.0759    158.8742
  2136.0000      9.0965     47.6332      8.2266    154.7381
  2136.2500      9.2014     47.6230      8.3691    152.2236
  2136.5000      9.3086     47.6110      8.4968    150.1345
  2136.7500      9.4013     47.6018      8.6042    150.0506
  2137.0000      9.4699     47.6003      8.6875    151.4561
  2137.2500      9.5149     47.6112      8.7459    152.9937
  2137.5000      9.5440     47.6382      8.7835    155.5173
  2137.7500      9.5656     47.6837      8.8085    157.0270
  2138.0000      9.5843     47.7489      8.8301    158.6551
  2138.2500      9.6002     47.8335      8.8536    159.1823
  2138.5000      9.6110     47.9364      8.8791    159.0627
  2138.7500      9.6161     48.0556      8.9034    158.4401
  2139.0000      9.6195     48.1884      8.9254    157.0267
  2139.2500      9.6300     48.3315      8.9499    156.0773
  2139.5000      9.6586     48.4813      8.9872    155.0217
  2139.7500      9.7154     48.6338      9.0491    154.5024
  2140.0000      9.8063     48.7851      9.1443    153.6658
  2140.2500      9.9328     48.9313      9.2746    153.0972
  2140.5000     10.0898     49.0696      9.4343    152.7463
  2140.7500     10.2655     49.1980      9.6119    153.0287
  2141.0000     10.4454     49.3158      9.7927    153.5932
  2141.2500     10.6176     49.4233      9.9625    153.1169
  2141.5000     10.7757     49.5221     10.1101    149.4968
  2141.7500     10.9174     49.6145     10.2298    145.0117
  2142.0000     11.0417     49.7035     10.3207    136.9182
  2142.2500     11.1468     49.7922     10.3854    132.1225
  2142.5000     11.2295     49.8834     10.4270    127.4885
  2142.7500     11.2868     49.9793     10.4479    126.2358
  2143.0000     11.3206     50.0809     10.4511    126.6003
  2143.2500     11.3384     50.1878     10.4410    127.9811
  2143.5000     11.3480     50.2977     10.4227    131.1971
  2143.7500     11.3524     50.4069     10.3994    133.7892
  2144.0000     11.3490     50.5103     10.3717    137.9575
  2144.2500     11.3351     50.6025     10.3400    140.8682
  2144.5000     11.3136     50.6785     10.3073    145.5423
  2144.7500     11.2933     50.7350     10.2813    148.7064
  2145.0000     11.2853     50.7709     10.2712    152.1710
  2145.2500     11.2966     50.7887     10.2828    152.5198
  2145.5000     11.3285     50.7938     10.3141    149.5721
  2145.7500     11.3780     50.7945     10.3556    146.3970
  2146.0000     11.4429     50.8003     10.3951    142.8226
  2146.2500     11.5251     50.8197     10.4267    142.3071
  2146.5000     11.6355     50.8580     10.4573    143.8309
  2146.7500     11.8006     50.9151     10.5067    145.2039
  2147.0000     12.0635     50.9839     10.6013    146.2814
  2147.2500     12.4774     51.0492     10.7660    146.5254
  2147.5000     13.0877     51.0886     11.0187    147.7350
  2147.7500     13.9128     51.0737     11.3701    149.6278
  2148.0000     14.9358     50.9741     11.8250    152.9537
  2148.2500     16.1226     50.7610     12.3873    153.8485
  2148.5000     17.4678     50.4125     13.0631    150.0766
  2148.7500     19.0418     49.9190     13.8648    142.9260
  2149.0000     20.9962     49.2872     14.8117    125.4413
  2149.2500     23.4952     48.5418     15.9255    111.0285
  2149.5000     26.5779     47.7260     17.2172     89.9247
  2149.7500     30.0170     46.8964     18.6627     78.5590
  2150.0000     33.2944     46.1169     20.1756     67.3364
  2150.2500     35.7795     45.4491     21.5903     63.6250
  2150.5000     37.0172     44.9433     22.6837     62.9272
  2150.7500     36.9100     44.6301     23.2461     65.3976
  2151.0000     35.6768     44.5159     23.1710     73.2756
  2151.2500     33.6732     44.5831     22.5037     81.0769
  2151.5000     31.2352     44.7938     21.4140     95.6121
  2151.7500     28.6261     45.0980     20.1163    106.3441
  2152.0000     26.0553     45.4423     18.7931    122.4738
  2152.2500     23.6950     45.7795     17.5574    132.2767
  2152.5000     21.6614     46.0746     16.4570    143.6416
  2152.7500     19.9843     46.3094     15.4981    148.0563
  2153.0000     18.6128     46.4811     14.6678    149.4778
  2153.2500     17.4654     46.5998     13.9492    147.4547
  2153.5000     16.4885     46.6825     13.3308    141.7243
  2153.7500     15.6813     46.7471     12.8097    137.3810
  2154.0000     15.0725     46.8074     12.3911    132.1409
  2154.2500     14.6778     46.8706     12.0808    130.3171
  2154.5000     14.4735     46.9367     11.8776    130.3533
  2154.7500     14.3974     47.0002     11.7685    131.6174
  2155.0000     14.3673     47.0529     11.7299    133.4570
  2155.2500     14.3107     47.0867     11.7333    133.6789
  2155.5000     14.1952     47.0963     11.7532    132.4454
  2155.7500     14.0398     47.0809     11.7710    131.5839
  2156.0000     13.8930     47.0445     11.7761    132.3921
  2156.2500     13.7890     46.9962     11.7622    134.9143
  2156.5000     13.7155     46.9485     11.7215    140.9075
  2156.7500     13.6213     46.9153     11.6426    145.2352
  2157.0000     13.4533     46.9091     11.5129    150.2438
  2157.2500     13.1913     46.9385     11.3262    151.9823
  2157.5000     12.8553     47.0062     11.0882    152.4711
  2157.7500     12.4875     47.1088     10.8161    152.0756
  2158.0000     12.1310     47.2380     10.5330    151.4308
  2158.2500     11.8191     47.3826     10.2622    151.0280
  2158.5000     11.5741     47.5316     10.0255    149.8629
  2158.7500     11.4059     47.6764      9.8418    148.4066
  2159.0000     11.3089     47.8128      9.7252    145.0099
  2159.2500     11.2617     47.9399      9.6828    141.7491
  2159.5000     11.2328     48.0605      9.7133    134.8819
  2159.7500     11.1926     48.1773      9.8067    129.1601
  2160.0000     11.1241     48.2911      9.9457    120.7918
  2160.2500     11.0290     48.3991     10.1080    117.0251
  2160.5000     10.9241     48.4942     10.2695    115.7398
  2160.7500     10.8325     48.5666     10.4074    117.3768
  2161.0000     10.7720     48.6078     10.5037    121.6899
  2161.2500     10.7473     48.6157     10.5458    125.1280
