~Version Information
 VERS.                                  2.0 : CWLS LAS VERSION
 WRAP.                                   NO : WRAPING MODE
 SWARE .                 MController 2.5.0N : SOFTWARE VERSION
~Well Information
 WELL.                         John K 12-28 : WELL
 COMP.       Pioneer Natural Resources, USA : COMPANY
 FLD.                       Purgatory River : FIELD
 LOC.               SW/NW Sec 28 T32S R 65W : LOCATION
 DATE.                              4/07/06 : DATE(S) LOGGED
 SRVC.       Blanco Geological Services LLC : SERVICE COMPANY
 STAT.                             Colorado : STATE
 CNTY.                           Las Animas : COUNTY
 CTRY.                                  USA : COUNTRY
 API.                       05-071-08723-00 : API NUMBER
 STRT.FT                             321.00 : START DEPTH
 STOP.FT                            1440.00 : STOP DEPTH
 STEP.FT                               1.00 : DEPTH INCREMENT
 NULL.                                -9999 : NULL VALUE
~Curve information
 DEPTH.FT                                   :
 ROP.MIN/FT                                 :
 GAS.UNITS                                  :
~ASCII Log data
# ...
      1321.0         0.30       1188.5 
      1322.0         0.33       1089.4 
      1323.0         0.38       1002.1 
      1324.0         0.30        894.3 
      1325.0         0.33        831.3 
      1326.0         0.27        781.1 
      1327.0         0.30        761.3 
      1328.0         0.27        730.6 
      1329.0         0.30        699.9 
      1330.0         0.30        676.7 
      1331.0         0.27        645.0 
      1332.0         0.30        579.0 
      1333.0         0.20        543.6 
      1334.0         0.23        566.2 
      1335.0         0.25        622.8 
      1336.0         0.20        662.2 
      1337.0         0.27        686.8 
      1338.0         0.27        680.7 
      1339.0         0.23        678.4 
      1340.0         0.23        703.0 
      1341.0         0.27        728.9 
      1342.0         5.53       3575.2 
      1343.0         0.43       2765.6 
      1344.0         0.43       1715.7 
      1345.0         0.40       1153.4 
      1346.0         0.30       1105.9 
      1347.0         0.37       1276.1 
      1348.0         0.30       1392.3 
      1349.0         0.27       1454.6 
      1350.0         0.30       1458.0 
      1351.0         0.32       1370.7 
      1352.0         0.27       1244.7 
      1353.0         0.33       1126.8 
      1354.0         0.30       1017.0 
      1355.0         0.27        964.4 
      1356.0         0.30        888.3 
      1357.0         0.30        800.7 
      1358.0         0.27        733.3 
      1359.0         0.30        695.2 
      1360.0         0.27        665.9 
      1361.0         0.27        652.8 
      1362.0         0.35        651.1 
      1363.0         0.30        648.0 
      1364.0         0.30        660.9 
      1365.0         0.30        699.3 
      1366.0         0.27        728.2 
      1367.0         0.27        731.6 
      1368.0         0.33        720.5 
      1369.0         0.30        673.0 
      1370.0         0.33        635.9 
      1371.0         0.30        609.3 
      1372.0         5.03       2819.8 
      1373.0         0.57       2473.1 
      1374.0         0.57       1441.1 
      1375.0         0.57        990.4 
      1376.0         0.53       1215.7 
      1377.0         0.48       1264.6 
      1378.0         0.30       1201.3 
      1379.0         0.27       1091.4 
      1380.0         0.30        986.0 
      1381.0         0.30        918.6 
      1382.0         0.33        853.9 
      1383.0         0.30        771.0 
      1384.0         0.33        709.7 
      1385.0         0.40        651.1 
      1386.0         0.42        619.7 
      1387.0         0.30        607.6 
      1388.0         0.27        599.2 
      1389.0         0.30        623.5 
      1390.0         0.30        658.2 
      1391.0         0.30        681.4 
      1392.0         0.30        683.8 
      1393.0         0.53        664.9 
      1394.0         0.63        580.0 
      1395.0         0.58        598.9 
      1396.0         0.50        603.2 
      1397.0         0.40        588.1 
      1398.0         0.33        510.6 
      1399.0         0.33        502.2 
      1400.0         0.37        504.9 
      1401.0         0.33        504.9 
      1402.0         5.30       2660.1 
      1403.0         0.50       1818.5 
      1404.0         0.47       1144.7 
      1405.0         0.43       1091.8 
      1406.0         0.37       1141.0 
      1407.0         0.30       1181.0 
      1408.0         0.35       1186.8 
      1409.0         0.33       1153.8 
      1410.0         0.30       1069.5 
      1411.0         0.33        980.9 
      1412.0         0.47        938.8 
      1413.0         0.40        868.1 
      1414.0         0.30        784.5 
      1415.0         0.30        719.5 
      1416.0         0.30        693.2 
      1417.0         0.27        675.7 
      1418.0         0.32        620.4 
      1419.0         0.30        541.2 
      1420.0         0.30        486.7 
      1421.0         0.47        472.9 
      1422.0         0.30        521.7 
      1423.0         0.33        602.9 
      1424.0         0.27        650.4 
      1425.0         2.02        655.1 
      1426.0         0.30        160.8 
      1427.0         0.40        186.2 
      1428.0         0.33        222.8 
      1429.0         0.33        341.0 
      1430.0         0.30        440.3 
      1431.0         0.43        951.3 
      1432.0         4.83       3460.9 
      1433.0         0.47       3431.0 
      1434.0         0.40       2274.7 
      1435.0         0.47       1577.3 
      1436.0         0.40       1109.6 
      1437.0         0.40       1120.1 
      1438.0         0.42       1141.6 
      1439.0         0.40       1165.5 
      1440.0         0.43       1143.6 
