~Version Information
VERS.                      2.0: CWLS Log ASCII Standard - VERSION 2.0
WRAP.                       NO: One line per depth step
~Well Information Block
STRT.FT                -6.5000: 
STOP.FT              1467.0000: 
STEP.FT                 0.2500: 
NULL.                -999.2500: 
COMP.          Pioneer Natural Resources: COMPANY
WELL.          Surtees 23-34 Tr: WELL
FLD.           Purgatorie River: FIELD
LOC.           1559' FSL & 1997' FWL--: LOCATION
PROV.                       CO: PROVINCE
CNTY.               Las Animas: COUNTRY
SRVC.          Patterson Wireline: SERVICE COMPANY
DATE.          Tue Aug 02 13:04:45 2005: LOG DATE
UWI.           05 071 08449 00: UNIQUE WELL ID
~Curve Information Block
DEPT.FT            0 000 00 00: Depth
CCL.                          : Casing Collar Locator
TT3.usec                      : CBL 3' Travel Time
AMP3.mV                       : CBL 3' Amplitude
GR.GAPI                       : Gamma Ray
~Parameter Information Block
~A  Depth       CCL         TT3         AMP3         GR     
# ...
   965.0000      0.0000    835.7034      8.1470     94.5452
   965.2500      0.0000    838.4966      8.1007     90.8936
   965.5000      0.0000    836.3970      8.0760     91.7614
   965.7500      0.0000    830.3302      8.0670     95.5813
   966.0000      0.0000    822.7239      8.0671    100.4147
   966.2500      0.0000    816.2508      8.0641    105.3462
   966.5000      0.0000    812.0648      8.0268    110.0554
   966.7500      0.0000    809.2357      7.9011    113.5614
   967.0000      0.0000    806.7395      7.6378    114.4939
   967.2500      0.0000    806.6086      7.2426    112.7277
   967.5000      0.0000    814.8970      6.7951    109.7513
   967.7500      0.0000    838.8781      6.3988    106.9896
   968.0000      0.0000    882.2488      6.1142    104.3484
   968.2500      0.0000    941.1212      5.9567    100.6475
   968.5000      0.0000   1003.7362      5.9304     94.9417
   968.7500      0.0000   1056.1161      6.0258     87.3096
   969.0000     -2.0000   1090.3075      6.1959     78.8930
   969.2500      2.0000   1107.6011      6.3732     71.3737
   969.5000      0.0000   1114.1356      6.5151     66.0495
   969.7500      0.0000   1114.2021      6.6395     63.2355
   970.0000      0.0000   1106.9348      6.8244     62.6154
   970.2500      0.0000   1087.5592      7.1508     63.9278
   970.5000      0.0000   1051.7360      7.6118     66.9081
   970.7500      0.0000   1000.5766      8.0944     70.8132
   971.0000      0.0000    942.1842      8.4789     74.7646
   971.2500      0.0000    887.2720      8.7328     78.5639
   971.5000      0.0000    843.0067      8.8879     82.4021
   971.7500      0.0000    811.5771      8.9702     85.7765
   972.0000      0.0000    793.2818      8.9857     87.6283
   972.2500      0.0000    788.2118      8.9442     87.8725
   972.5000      0.0000    794.3601      8.8681     88.1325
   972.7500      0.0000    806.1349      8.7855     90.4830
   973.0000      0.0000    816.7741      8.7245     95.6370
   973.2500      0.0000    822.7604      8.7046    102.3233
   973.5000      0.0000    825.4342      8.7270    107.9561
   973.7500      0.0000    828.2203      8.7749    109.9447
   974.0000      0.0000    832.7835      8.8246    107.0732
   974.2500      0.0000    838.0692      8.8582    100.2893
   974.5000      0.0000    842.1271      8.8713     92.4049
   974.7500      0.0000    843.7430      8.8704     86.8912
   975.0000      0.0000    842.2253      8.8647     86.3926
   975.2500      0.0000    836.5609      8.8558     91.6158
   975.5000      0.0000    825.8102      8.8390    101.1868
   975.7500      0.0000    810.9253      8.8161    112.6037
   976.0000      0.0000    795.6770      8.8013    123.4992
   976.2500      0.0000    784.5029      8.8136    132.2386
   976.5000      0.0000    778.9844      8.8661    137.8399
   976.7500      0.0000    777.4957      8.9616    139.7647
   977.0000      0.0000    778.7520      9.0903    138.0910
   977.2500      0.0000    784.1485      9.2302    134.0541
   977.5000      0.0000    795.3566      9.3569    130.1488
   977.7500      0.0000    810.7151      9.4551    128.8043
   978.0000      0.0000    825.5508      9.5182    130.4216
   978.2500      0.0000    835.7512      9.5378    133.0635
   978.5000      0.0000    840.1833      9.5014    134.4196
   978.7500      0.0000    840.3161      9.4055    133.8111
   979.0000      0.0000    838.7253      9.2740    132.1529
   979.2500      0.0000    837.7823      9.1593    130.4711
   979.5000      0.0000    838.4472      9.1187    129.0261
   979.7500      0.0000    839.6540      9.1754    127.6460
   980.0000      0.0000    838.7902      9.3035    126.1781
   980.2500      0.0000    832.9676      9.4520    124.4703
   980.5000      0.0000    820.5577      9.5843    122.5539
   980.7500      0.0000    802.4625      9.6871    121.1632
   981.0000      0.0000    782.2032      9.7544    121.4598
   981.2500      0.0000    764.4349      9.7737    123.5736
   981.5000      0.0000    752.9951      9.7332    125.7464
   981.7500      0.0000    749.2387      9.6354    125.6852
   982.0000      0.0000    751.2781      9.5053    122.8184
   982.2500      0.0000    755.4121      9.3813    118.7729
   982.5000      0.0000    759.1482      9.2921    115.6672
   982.7500      0.0000    762.8752      9.2381    114.3501
   983.0000      0.0000    768.9026      9.2010    114.3382
   983.2500      0.0000    779.3330      9.1684    114.9613
   983.5000      0.0000    794.2833      9.1432    116.0887
   983.7500      0.0000    811.2339      9.1306    117.7113
   984.0000      0.0000    826.1566      9.1244    119.4198
   984.2500      0.0000    835.9410      9.1047    120.8045
   984.5000      0.0000    839.9336      9.0514    122.0983
   984.7500      0.0000    839.5167      8.9602    124.0012
   985.0000      0.0000    836.7786      8.8497    126.8117
   985.2500      0.0000    833.2731      8.7474    129.7470
   985.5000      0.0000    829.4056      8.6708    131.2486
   985.7500      0.0000    824.9664      8.6213    130.3198
   986.0000      0.0000    820.3869      8.5938    127.6814
   986.2500      0.0000    816.8405      8.5831    125.3844
   986.5000      0.0000    814.8220      8.5819    124.9499
   986.7500      0.0000    813.4327      8.5802    125.7918
   987.0000      0.0000    811.6541      8.5729    125.6403
   987.2500      0.0000    809.8616      8.5683    122.7689
   987.5000      0.0000    809.5698      8.5843    117.8169
   987.7500      0.0000    811.7736      8.6336    113.3801
   988.0000      0.0000    815.6114      8.7137    111.9846
   988.2500      0.0000    818.5938      8.8123    114.4254
   988.5000      0.0000    818.4655      8.9183    119.4404
   988.7500      0.0000    815.0758      9.0272    124.5598
   989.0000      0.0000    810.2145      9.1365    127.6026
   989.2500      0.0000    805.4347      9.2416    127.8362
   989.5000      0.0000    800.1620      9.3384    125.7759
   989.7500      0.0000    792.2090      9.4255    121.9896
   990.0000      0.0000    780.6122      9.5008    116.5032
   990.2500      0.0000    768.1057      9.5600    109.5022
   990.5000      0.0000    759.8627      9.6023    102.2265
   990.7500      0.0000    758.9947      9.6327     96.6635
   991.0000      0.0000    763.8642      9.6562     94.1239
   991.2500      0.0000    770.1801      9.6714     94.2796
   991.5000      0.0000    774.4501      9.6736     95.7407
   991.7500      0.0000    774.8566      9.6592     97.3106
   992.0000      0.0000    770.8970      9.6295     98.4626
   992.2500      0.0000    763.9514      9.5879     99.0997
   992.5000      0.0000    757.1687      9.5345     99.4271
   992.7500      0.0000    753.6641      9.4625     99.8764
   993.0000      0.0000    755.2034      9.3661    100.7274
   993.2500      0.0000    761.9849      9.2539    101.8449
   993.5000      0.0000    772.3232      9.1510    102.8308
   993.7500      0.0000    782.9858      9.0822    103.3140
   994.0000      0.0000    791.0985      9.0536    103.2123
   994.2500      0.0000    795.8071      9.0510    102.8864
   994.5000      0.0000    797.9808      9.0535    102.9298
   994.7500      0.0000    798.9077      9.0486    103.5284
   995.0000      0.0000    799.5331      9.0357    103.9409
   995.2500      0.0000    800.4580      9.0206    102.8047
   995.5000      0.0000    801.9980      9.0085     99.2530
   995.7500      0.0000    803.8459      9.0015     93.8230
   996.0000      0.0000    804.6387      8.9997     88.2281
   996.2500      0.0000    802.3847      9.0006     84.2008
   996.5000      0.0000    796.0774      9.0004     82.3377
   996.7500      0.0000    786.8741      8.9951     81.7733
   997.0000      0.0000    777.2460      8.9840     80.9044
   997.2500      0.0000    769.3432      8.9727     78.5277
   997.5000      0.0000    764.9454      8.9720     74.3779
   997.7500      0.0000    765.9975      8.9931     68.7625
   998.0000      0.0000    773.2425      9.0408     62.1179
   998.2500      0.0000    784.4524      9.1096     55.1929
