~Version Information
 VERS.                                  2.0 : CWLS LAS VERSION
 WRAP.                                   NO : WRAPING MODE
 SWARE .                 MController 2.5.0N : SOFTWARE VERSION
~Well Information
 WELL.                    Hanginstone 21-27 : WELL
 COMP.   Pioneer Natural Resources USA, Inc : COMPANY
 FLD.                      Purgatoire River : FIELD
 LOC.                NE/NW Sec 27 T32S R67W : LOCATION
 DATE.                         1/05-07/2006 : DATE(S) LOGGED
 SRVC.       BLANCO Geological Services LLC : SERVICE COMPANY
 STAT.                                   CO : STATE
 CNTY.                           Las Animas : COUNTY
 CTRY.                                  USA : COUNTRY
 API.                       05-071-08632-00 : API NUMBER
 STRT.FT                             907.00 : START DEPTH
 STOP.FT                            2970.00 : STOP DEPTH
 STEP.FT                               1.00 : DEPTH INCREMENT
 NULL.                                -9999 : NULL VALUE
~Curve information
 DEPTH.FT                                   :
 ROP.MIN/FT                                 :
 GAS.UNITS                                  :
~ASCII Log data
# ...
      1907.0         0.33        154.0 
      1908.0         0.33        125.9 
      1909.0         0.20        127.9 
      1910.0         0.23        123.5 
      1911.0         0.17        109.9 
      1912.0         0.27        107.4 
      1913.0         0.17        108.2 
      1914.0         0.13        109.0 
      1915.0         0.20        111.1 
      1916.0         0.27        113.0 
      1917.0         0.25        114.0 
      1918.0         0.17        114.4 
      1919.0         0.23        114.8 
      1920.0         0.10        114.9 
      1921.0        18.02       1286.2 
      1922.0         0.40         29.5 
      1923.0         0.43         33.6 
      1924.0         0.43         46.1 
      1925.0         0.38         64.6 
      1926.0         0.37         63.1 
      1927.0         0.40         61.6 
      1928.0         0.33         63.6 
      1929.0         0.23         62.3 
      1930.0         0.23         57.0 
      1931.0         0.23         54.9 
      1932.0         0.30         54.2 
      1933.0         0.27         54.3 
      1934.0         0.23         54.5 
      1935.0         0.27         54.8 
      1936.0         0.25         55.4 
      1937.0         0.30         56.2 
      1938.0         0.20         56.7 
      1939.0         0.13         56.9 
      1940.0         0.17         56.8 
      1941.0         0.20         57.1 
      1942.0         0.20         57.6 
      1943.0         0.30         58.4 
      1944.0         0.33         58.7 
      1945.0         0.30         58.8 
      1946.0         0.30         59.2 
      1947.0         0.30         59.5 
      1948.0         0.30         59.4 
      1949.0         0.22         59.2 
      1950.0         0.13         59.1 
      1951.0         4.35        142.7 
      1952.0         1.10        126.0 
      1953.0         0.30         59.0 
      1954.0         0.13         38.5 
      1955.0         0.10         30.4 
      1956.0         0.55         28.1 
      1957.0         0.13         17.6 
      1958.0         0.17         17.1 
      1959.0         0.37         14.0 
      1960.0         0.37         11.7 
      1961.0         0.40          9.7 
      1962.0         0.37         10.0 
      1963.0         0.33         34.0 
      1964.0         0.30         35.4 
      1965.0         0.37         24.3 
      1966.0         0.13         20.0 
      1967.0         0.37         22.9 
      1968.0         0.25         13.3 
      1969.0         0.43         15.4 
      1970.0         0.37         15.0 
      1971.0         0.37         18.8 
      1972.0         0.33         19.7 
      1973.0         0.37         16.5 
      1974.0         0.43         12.2 
      1975.0         0.40          9.7 
      1976.0         0.45          8.1 
      1977.0         0.37         10.6 
      1978.0         0.30         13.9 
      1979.0         0.23         16.5 
      1980.0         0.13         19.2 
      1981.0         9.25       2814.4 
      1982.0         0.30        930.4 
      1983.0         0.50        966.4 
      1984.0         0.43        996.4 
      1985.0         0.20       1018.7 
      1986.0         0.17       1026.7 
      1987.0         0.20       1042.6 
      1988.0         0.33       1096.8 
      1989.0         0.27       1141.6 
      1990.0         0.13       1165.2 
      1991.0         0.20       1215.4 
      1992.0         0.27       1551.7 
      1993.0         0.52       4667.1 
      1994.0         0.50       3735.5 
      1995.0         0.37       1660.5 
      1996.0         0.43       1458.3 
      1997.0         0.47       1384.2 
      1998.0         0.33        971.1 
      1999.0         0.33        626.8 
      2000.0         0.27        440.0 
      2001.0         0.35        140.0 
      2002.0         0.30         83.1 
      2003.0         0.30         53.9 
      2004.0         0.43         37.1 
      2005.0         0.40         24.4 
      2006.0         0.27         16.6 
      2007.0         0.20         16.9 
      2008.0         0.37         23.2 
      2009.0         0.40         37.1 
      2010.0         0.17         43.3 
      2011.0         5.27       3814.7 
      2012.0         0.17       1312.4 
      2013.0         0.43       1311.8 
      2014.0         0.17       1263.3 
      2015.0         0.17       1256.5 
      2016.0         0.30       1262.9 
      2017.0         0.23       1254.2 
      2018.0         0.42       1253.1 
      2019.0         0.33       1268.6 
      2020.0         0.33       1295.6 
      2021.0         0.30       1278.1 
      2022.0         0.30       1302.3 
      2023.0         0.30       1309.1 
      2024.0         0.30       1323.6 
      2025.0         0.27       1326.9 
      2026.0         0.30       1349.5 
      2027.0         0.27       1387.2 
      2028.0         0.33       1414.9 
      2029.0         0.32       1473.2 
      2030.0         0.33       1468.4 
      2031.0         0.33       1462.4 
      2032.0         0.33       1469.4 
      2033.0         0.37       1472.1 
      2034.0         0.30       1520.7 
      2035.0         0.37       1823.9 
      2036.0         0.33       1783.4 
      2037.0         0.33       2154.1 
      2038.0         0.37       2045.9 
      2039.0         0.32       2112.3 
      2040.0         0.40       1278.1 
      2041.0        12.22       2231.9 
      2042.0         0.33        975.9 
      2043.0         0.35       1004.5 
      2044.0         0.33       1016.0 
      2045.0         0.33       1051.7 
      2046.0         0.40       1060.8 
      2047.0         0.43       1084.7 
      2048.0         0.40       1083.3 
      2049.0         0.40       1099.5 
      2050.0         0.47       1137.9 
      2051.0         0.47       1147.0 
      2052.0         0.45       1195.9 
      2053.0         0.33       1238.0 
      2054.0         0.37       1420.3 
      2055.0         0.33       4020.9 
      2056.0         0.37       3831.5 
      2057.0         0.37       1391.3 
      2058.0         0.40        869.7 
      2059.0         0.37        692.9 
      2060.0         0.33        461.4 
      2061.0         0.35        106.3 
      2062.0         0.40         65.2 
      2063.0         0.40         52.5 
      2064.0         0.40         36.9 
      2065.0         0.40         15.5 
      2066.0         0.33         11.6 
      2067.0         0.30          9.9 
      2068.0         0.10          8.8 
      2069.0         0.23          9.0 
      2070.0         0.52          9.5 
      2071.0        11.85       1526.7 
      2072.0         2.45         26.2 
      2073.0         0.07         26.3 
      2074.0         0.33         26.2 
      2075.0         0.13         30.5 
      2076.0         0.07         32.8 
      2077.0         0.17         32.2 
      2078.0         0.33         31.8 
      2079.0         0.27         38.3 
      2080.0         0.33         41.3 
      2081.0         0.30         70.1 
      2082.0         0.23         80.7 
      2083.0         0.28         84.0 
      2084.0         0.27         85.4 
      2085.0         0.23         81.9 
      2086.0         0.20         86.4 
      2087.0         0.23         85.5 
      2088.0         0.30         78.9 
      2089.0         0.33         67.1 
      2090.0         0.30         60.5 
      2091.0         0.20         55.1 
      2092.0         0.27         42.4 
      2093.0         0.23         21.1 
      2094.0         0.27         13.8 
      2095.0         0.30         14.2 
      2096.0         0.25         13.1 
      2097.0         0.13         11.7 
      2098.0         0.23         10.9 
      2099.0         0.40         10.6 
      2100.0         2.78         27.7 
      2101.0         5.45        386.2 
      2102.0         0.57        297.4 
      2103.0         0.38        143.1 
      2104.0         0.27         64.0 
      2105.0         0.27         39.1 
      2106.0         0.17         30.8 
