~Version Information
VERS.                      2.0: CWLS Log ASCII Standard - VERSION 2.0
WRAP.                       NO: One line per depth step
~Well Information Block
STRT.FT                -6.7500: 
STOP.FT              1121.2500: 
STEP.FT                 0.2500: 
NULL.                -999.2500: 
COMP.          Pioneer Natural Resources: COMPANY
WELL.              Draco 31-21: WELL
FLD.           Purgatorie River: FIELD
LOC.           491' FNL & 2446' FEL--: LOCATION
CNTY.               Las Animas: COUNTY
SRVC.          Patterson Wireline: SERVICE COMPANY
DATE.          Mon Feb 06 09:50:04 2006: LOG DATE
UWI.           05 071 08672 00: UNIQUE WELL ID
STAT.                       CO: STATE
~Curve Information Block
DEPT.FT            0 000 00 00: Depth
CCL.                          : Casing Collar Locator
TT3.usec                      : CBL 3' Travel Time
AMP3.mV                       : CBL 3' Amplitude
GR.GAPI                       : Gamma Ray
~Parameter Information Block
~A  Depth       CCL         TT3         AMP3         GR     
# ...
   596.2500      0.0000    690.7661     12.8224    132.1604
   596.5000      0.0000    710.2108     12.9089    136.5325
   596.7500      0.0000    710.9325     12.9688    142.2662
   597.0000      0.0000    692.4382     13.0769    146.3444
   597.2500      0.0000    652.2234     13.2916    145.7969
   597.5000      0.0000    594.0950     13.5945    139.9498
   597.7500      0.0000    533.5803     13.9083    130.7718
   598.0000      0.0000    489.2613     14.1752    121.3237
   598.2500      0.0000    466.1458     14.4105    113.9597
   598.5000      0.0000    451.6065     14.6815    109.5070
   598.7500      0.0000    430.4312     15.0557    107.4794
   599.0000      0.0000    399.9445     15.5885    107.0097
   599.2500      0.0000    368.2585     16.3390    107.8514
   599.5000      0.0000    343.0160     17.3416    110.4868
   599.7500      0.0000    326.0107     18.5218    115.1521
   600.0000      0.0000    315.5745     19.6521    120.7834
   600.2500      0.0000    309.7233     20.4311    124.9316
   600.5000      0.0000    306.9813     20.6490    125.0013
   600.7500      0.0000    306.1919     20.3114    120.0897
   601.0000      0.0000    306.5772     19.6202    111.7312
   601.2500      0.0000    307.8699     18.8352    102.7184
   601.5000      0.0000    310.2968     18.1365     95.2691
   601.7500      0.0000    314.1333     17.5807     90.0853
   602.0000      0.0000    319.0734     17.1452     86.4986
   602.2500      0.0000    324.1194     16.7919     83.4267
   602.5000      0.0000    328.3716     16.4948     80.8001
   602.7500      0.0000    331.7837     16.2341     80.3212
   603.0000      0.0000    334.8118     15.9922     84.4905
   603.2500      0.0000    337.5539     15.7591     94.4693
   603.5000      0.0000    339.6587     15.5317    108.6441
   603.7500      0.0000    340.8953     15.3081    123.3347
   604.0000      0.0000    341.4297     15.0861    134.9966
   604.2500      0.0000    341.6062     14.8669    141.6885
   604.5000      0.0000    341.6927     14.6586    142.8962
   604.7500      0.0000    341.8250     14.4770    139.0315
   605.0000      0.0000    342.0450     14.3363    131.5529
   605.2500      0.0000    342.3365     14.2307    122.7855
   605.5000      0.0000    342.6635     14.1256    114.8311
   605.7500      0.0000    343.0070     13.9781    108.6644
   606.0000      0.0000    343.4051     13.7774    104.2998
   606.2500      0.0000    343.9938     13.5587    101.4570
   606.5000      0.0000    345.0880     13.3706    100.1048
   606.7500      0.0000    347.1748     13.2338    100.7005
   607.0000      0.0000    350.7010     13.1357    103.7931
   607.2500      0.0000    355.7559     13.0542    109.1302
   607.5000      0.0000    362.2956     12.9753    115.2591
   607.7500      0.0000    370.9739     12.8961    120.2539
   608.0000      0.0000    383.9728     12.8206    123.0384
   608.2500      0.0000    404.1937     12.7504    124.1683
   608.5000      0.0000    431.3736     12.6808    125.3942
   608.7500      0.0000    457.6689     12.6126    128.3555
   609.0000      0.0000    470.0969     12.5634    133.3925
   609.2500      0.0000    461.4184     12.5578    139.2533
   609.5000      0.0000    437.4869     12.6053    143.8242
   609.7500      0.0000    411.1978     12.7001    145.3211
   610.0000      0.0000    391.1987     12.8351    143.0427
   610.2500      0.0000    378.4412     13.0027    137.3420
   610.5000      0.0000    370.4889     13.1836    129.4254
   610.7500      0.0000    365.6656     13.3412    121.5249
   611.0000      0.0000    363.6702     13.4309    116.6659
   611.2500      0.0000    364.3205     13.4202    117.0708
   611.5000      0.0000    366.7051     13.3115    122.3310
   611.7500      0.0000    369.6320     13.1435    129.4921
   612.0000      0.0000    372.6253     12.9676    135.0995
   612.2500      0.0000    375.7823     12.8232    137.1344
   612.5000      0.0000    378.8052     12.7327    135.5181
   612.7500      0.0000    380.6915     12.7052    131.4125
   613.0000      0.0000    380.3706     12.7333    126.2615
   613.2500      0.0000    377.5440     12.7958    121.4300
   613.5000      0.0000    373.5624     12.8691    118.2576
   613.7500      0.0000    371.9944     12.9384    117.6061
   614.0000      0.0000    378.1654     12.9988    119.1994
   614.2500      0.0000    396.6646     13.0487    121.9634
   614.5000      0.0000    426.5298     13.0842    125.0633
   614.7500      0.0000    457.7152     13.0984    128.2952
   615.0000      0.0000    476.2722     13.0828    131.7046
   615.2500      0.0000    478.2535     13.0306    135.3527
   615.5000      0.0000    477.5233     12.9396    139.3199
   615.7500      0.0000    495.2614     12.8157    143.4607
   616.0000      0.0000    540.6467     12.6755    147.1389
   616.2500      0.0000    602.8066     12.5430    149.5836
   616.5000      0.0000    660.7991     12.4404    150.5725
   616.7500      0.0000    699.8790     12.3749    150.5241
   617.0000      0.0000    718.4431     12.3331    150.0813
   617.2500      0.0000    722.5999     12.2901    149.9833
   617.5000      0.0000    717.5262     12.2298    151.2670
   617.7500      0.0000    704.5916     12.1613    154.9127
   618.0000      0.0000    685.4139     12.1162    160.7053
   618.2500      0.0000    666.8055     12.1253    166.5638
   618.5000      0.0000    659.0100     12.1926    169.7645
   618.7500      0.0000    667.0374     12.2919    169.3382
   619.0000      0.0000    685.1138     12.3867    166.9994
   619.2500      0.0000    701.1842     12.4552    165.3164
   619.5000      0.0000    704.6274     12.5006    165.0694
   619.7500      0.0000    688.6481     12.5451    164.5205
   620.0000      0.0000    650.2318     12.6167    161.0045
   620.2500      0.0000    593.7618     12.7378    153.1521
   620.5000      0.0000    534.9395     12.9185    142.0546
   620.7500      0.0000    496.1292     13.1511    130.8981
   621.0000      0.0000    492.6246     13.4098    123.3000
   621.2500      0.0000    520.0681     13.6631    121.0118
   621.5000      0.0000    554.0626     13.8914    122.4966
   621.7500      0.0000    564.9782     14.0921    123.8836
   622.0000      0.0000    538.4338     14.2664    121.7377
   622.2500      0.0000    484.3362     14.4059    115.1539
   622.5000      0.0000    426.3476     14.4924    105.7633
   622.7500      0.0000    383.2130     14.5132     96.4137
   623.0000      0.0000    359.8747     14.4720     89.5742
   623.2500      0.0000    352.7054     14.3821     85.9927
   623.5000      0.0000    359.4738     14.2395     84.5235
   623.7500      0.0000    384.5003     13.9919     83.4135
   624.0000      0.0000    435.2981     13.5457     81.7301
   624.2500      0.0000    512.5994     12.8507     79.5073
   624.5000      0.0000    602.8846     12.0013     76.9211
   624.7500      0.0000    683.8262     11.2058     73.7384
   625.0000      0.0000    739.8199     10.6112     69.7831
   625.2500      0.0000    771.4619     10.1872     66.0130
   625.5000      2.0000    790.0634      9.8062     64.7732
   625.7500      2.0000    805.6005      9.3998     68.2828
   626.0000      0.0000    819.4208      9.0243     76.6227
   626.2500      0.0000    824.6776      8.8193     87.4894
   626.5000      0.0000    813.0865      8.9090     97.9407
   626.7500      0.0000    783.5444      9.3001    106.0128
   627.0000      0.0000    744.2502      9.8698    110.8459
   627.2500      0.0000    705.9995     10.4840    112.1961
   627.5000      0.0000    675.6620     11.0985    110.5396
   627.7500      0.0000    655.6854     11.7100    107.3346
   628.0000      0.0000    644.8939     12.2709    104.4380
   628.2500      0.0000    637.9954     12.7246    103.0206
   628.5000      0.0000    626.3036     13.0962    103.3156
   628.7500      0.0000    600.0219     13.5011    105.4235
   629.0000      0.0000    553.1148     14.0742    109.8376
   629.2500      0.0000    489.9274     14.8930    116.7110
   629.5000      0.0000    424.9315     15.9264    124.6234
