~Version Information
 VERS.                                  2.0 : CWLS LAS VERSION
 WRAP.                                   NO : WRAPING MODE
 SWARE .                 MController 2.5.0J : SOFTWARE VERSION
~Well Information
 WELL.                    Buena Vista 31-03 : WELL
 COMP.    Pioneer Natural Resources USA Inc : COMPANY
 FLD.                      Purgatoire River : FIELD
 LOC.                  NWNE Sec03 T35S R65W : LOCATION
 DATE.                             01/24/06 : DATE(S) LOGGED
 SRVC.       Blanco Geological Services LLC : SERVICE COMPANY
 STAT.                             Colorado : STATE
 CNTY.                           Las Animas : COUNTY
 CTRY.                                  USA : COUNTRY
 API.                          05-071-08663 : API NUMBER
 STRT.FT                             175.00 : START DEPTH
 STOP.FT                            1165.00 : STOP DEPTH
 STEP.FT                               1.00 : DEPTH INCREMENT
 NULL.                                -9999 : NULL VALUE
~Curve information
 DEPTH.FT                                   :
 ROP.MIN/FT                                 :
 GAS.UNITS                                  :
~ASCII Log data
# ...
       375.0         0.23          2.9 
       376.0         0.23          3.3 
       377.0         0.23          4.1 
       378.0         0.27          5.1 
       379.0         0.20          5.1 
       380.0         0.20          5.8 
       381.0         0.17          5.4 
       382.0         0.17          3.7 
       383.0         0.20          2.7 
       384.0         0.23          0.6 
       385.0         0.23          0.1 
       386.0         2.55         15.5 
       387.0         0.37          4.3 
       388.0         0.40          3.6 
       389.0         0.30          2.9 
       390.0         0.38          2.0 
       391.0         0.43          2.1 
       392.0         0.47          2.2 
       393.0         0.37          1.5 
       394.0         0.43          2.0 
       395.0         0.40          1.7 
       396.0         0.40          1.7 
       397.0         0.40          1.9 
       398.0         0.38          1.5 
       399.0         0.40          1.6 
       400.0         0.53          2.4 
       401.0         0.43          1.3 
       402.0         0.30          1.2 
       403.0         0.37          1.7 
       404.0         0.37          1.1 
       405.0         0.47          1.7 
       406.0         0.38          1.5 
       407.0         0.43          1.5 
       408.0         0.53          1.4 
       409.0         0.57          1.8 
       410.0         0.67          6.0 
       411.0         0.27          5.4 
       412.0         0.20          5.4 
       413.0         0.20          4.2 
       414.0         0.20          3.4 
       415.0         0.25          3.1 
       416.0         5.28         10.9 
       417.0         0.67          2.2 
       418.0         0.78          2.1 
       419.0         0.37          1.6 
       420.0         0.27          1.5 
       421.0         0.30          2.0 
       422.0         0.27          2.3 
       423.0         0.27          2.0 
       424.0         0.23          1.5 
       425.0         0.27          1.4 
       426.0         0.27          1.2 
       427.0         0.30          1.2 
       428.0         0.27          1.1 
       429.0         0.27          1.7 
       430.0         0.28          1.9 
       431.0         0.27          1.8 
       432.0         0.27          1.5 
       433.0         0.30          1.3 
       434.0         0.27          1.3 
       435.0         0.27          1.2 
       436.0         0.27          1.5 
       437.0         0.30          1.1 
       438.0         0.27          0.8 
       439.0         0.30          2.0 
       440.0         0.27          2.0 
       441.0         0.30          1.5 
       442.0         0.38          0.8 
       443.0         0.37          0.9 
       444.0         1.00          0.4 
       445.0         0.60          8.2 
       446.0         1.35          6.6 
       447.0         0.40          1.4 
       448.0         0.47          0.9 
       449.0         0.70          0.9 
       450.0         0.30          0.2 
       451.0         0.27          0.6 
       452.0         0.27          0.3 
       453.0         0.30          0.1 
       454.0         0.27          0.2 
       455.0         0.25          2.2 
       456.0         0.27          2.7 
       457.0         0.23          2.4 
       458.0         0.23          2.2 
       459.0         0.30          1.1 
       460.0         0.30          0.8 
       461.0         0.30          0.6 
       462.0         0.30          0.3 
       463.0         0.30          0.1 
       464.0         0.30          1.6 
       465.0         0.27          2.6 
       466.0         0.27          2.4 
       467.0         0.28          1.8 
       468.0         0.30          1.5 
       469.0         0.30          0.8 
       470.0         0.30          0.5 
       471.0         0.27          0.4 
       472.0         0.30          0.7 
       473.0         0.27          1.9 
       474.0         0.30          1.7 
       475.0         0.33          1.5 
       476.0         2.92         10.2 
       477.0         0.17          5.9 
       478.0         0.23          4.7 
       479.0         0.30          4.9 
       480.0         0.30          4.8 
       481.0         0.28          4.9 
       482.0         0.30          4.4 
       483.0         0.27          4.8 
       484.0         0.27          4.7 
       485.0         0.30          4.8 
       486.0         0.30          3.9 
       487.0         0.27          4.1 
       488.0         0.30          3.8 
       489.0         0.27          3.9 
       490.0         0.27          3.6 
       491.0         0.23          3.9 
       492.0         0.27          3.2 
       493.0         0.23          2.9 
       494.0         0.28          3.6 
       495.0         0.27          3.6 
       496.0         0.27          2.8 
       497.0         0.27          3.3 
       498.0         0.27          4.0 
       499.0         0.27          3.9 
       500.0         0.30          3.2 
       501.0         0.27          3.2 
       502.0         0.23          3.2 
       503.0         0.27          2.7 
       504.0         0.27          2.5 
       505.0         0.23          2.5 
       506.0         3.02          7.9 
       507.0         0.40          5.8 
       508.0         0.42          3.8 
       509.0         0.37          3.5 
       510.0         0.33          3.0 
       511.0         0.30          2.9 
       512.0         0.33          2.8 
       513.0         0.33          2.8 
       514.0         0.30          2.9 
       515.0         0.33          2.8 
       516.0         0.30          2.8 
       517.0         0.23          3.1 
       518.0         0.28          4.3 
       519.0         0.23          3.7 
       520.0         0.20          3.2 
       521.0         0.23          3.2 
       522.0         0.23          3.2 
       523.0         0.27          3.4 
       524.0         0.23          2.8 
       525.0         0.23          3.3 
       526.0         0.27          2.9 
       527.0         0.30          3.3 
       528.0         0.27          2.8 
       529.0         0.20          2.8 
       530.0         0.23          2.9 
       531.0         0.23          3.3 
       532.0         0.25          3.2 
       533.0         0.27          2.5 
       534.0         0.27          1.9 
       535.0         0.27          0.9 
       536.0         2.48          8.6 
       537.0         0.17          6.3 
       538.0         0.27          5.9 
       539.0         0.30          4.2 
       540.0         0.40          3.1 
       541.0         0.27          3.3 
       542.0         0.27          2.7 
       543.0         0.23          2.9 
       544.0         0.27          2.8 
       545.0         0.23          3.2 
       546.0         0.23          2.9 
       547.0         0.23          2.6 
       548.0         0.27          2.9 
       549.0         0.25          2.9 
       550.0         0.17          3.3 
       551.0         0.20          2.7 
       552.0         0.17          2.7 
       553.0         0.23         42.6 
       554.0         0.23        111.7 
       555.0         0.23         88.0 
       556.0         0.23         74.5 
       557.0         0.17         31.4 
       558.0         0.20         24.7 
       559.0         0.23         13.3 
       560.0         0.23          7.8 
       561.0         0.27          5.6 
       562.0         0.23          3.5 
       563.0         0.20          3.6 
       564.0         0.17          3.6 
       565.0         0.28          2.6 
       566.0         4.05         11.5 
       567.0         0.83          5.4 
       568.0         0.73          4.5 
       569.0         0.63          4.6 
       570.0         0.42          5.0 
       571.0         0.40          5.1 
       572.0         0.33          4.8 
       573.0         0.43          4.2 
       574.0         0.40          4.5 
