~Version Information
VERS.                      2.0: CWLS Log ASCII Standard - VERSION 2.0
WRAP.                       NO: One line per depth step
~Well Information Block
STRT.FT                -8.2500: 
STOP.FT              2119.7500: 
STEP.FT                 0.2500: 
NULL.                -999.2500: 
COMP.          Pioneer Natural Resources: COMPANY
WELL.          Hemisphere 32-24: WELL
FLD.           Purgatorie River: FIELD
LOC.           1850' FNL & 2284' FEL--: LOCATION
PROV.                       CO: PROVINCE
CNTY.               Las Animas: COUNTRY
SRVC.          Patterson Wireline: SERVICE COMPANY
DATE.          Sat Aug 27 08:06:42 2005: LOG DATE
UWI.           05 071 08440 00: UNIQUE WELL ID
~Curve Information Block
DEPT.FT            0 000 00 00: Depth
CCL.                          : Casing Collar Locator
TT3.usec                      : CBL 3' Travel Time
AMP3.mV                       : CBL 3' Amplitude
GR.GAPI                       : Gamma Ray
~Parameter Information Block
~A  Depth       CCL         TT3         AMP3         GR     
# ...
   427.2500      0.0000    837.7946      7.6615    122.4573
   427.5000      0.0000    840.5937      7.6417    119.6902
   427.7500      0.0000    839.6096      7.6330    118.9810
   428.0000      0.0000    836.7645      7.6382    120.4992
   428.2500      0.0000    834.8223      7.6572    123.7789
   428.5000      0.0000    834.6840      7.6795    128.1722
   428.7500      0.0000    834.1757      7.6875    132.4357
   429.0000      0.0000    830.0955      7.6687    134.4622
   429.2500      0.0000    821.6461      7.6231    132.2617
   429.5000      0.0000    811.6198      7.5642    125.8260
   429.7500      0.0000    804.0752      7.5115    117.9529
   430.0000      0.0000    801.1132      7.4804    112.7135
   430.2500      0.0000    802.0548      7.4733    112.8198
   430.5000      0.0000    805.0901      7.4803    118.1868
   430.7500      0.0000    808.7354      7.4875    126.3823
   431.0000      0.0000    811.7756      7.4865    134.2236
   431.2500      0.0000    813.0113      7.4759    139.3791
   431.5000      0.0000    811.9495      7.4604    141.0806
   431.7500      0.0000    809.4028      7.4462    139.9585
   432.0000      0.0000    806.8286      7.4381    137.5594
   432.2500      0.0000    805.1592      7.4359    135.7942
   432.5000      0.0000    804.4348      7.4328    136.2647
   432.7500      0.0000    804.2499      7.4190    139.5200
   433.0000      0.0000    804.2330      7.3874    144.5252
   433.2500      0.0000    804.1918      7.3397    148.8649
   433.5000      0.0000    804.0688      7.2855    150.1955
   433.7500      0.0000    803.8788      7.2379    148.2227
   434.0000      0.0000    803.6612      7.2076    145.1544
   434.2500      0.0000    803.4502      7.1998    143.6679
   434.5000      0.0000    803.2602      7.2158    144.3604
   434.7500      0.0000    803.0953      7.2544    145.3560
   435.0000      0.0000    802.9613      7.3126    144.1184
   435.2500      0.0000    802.8571      7.3836    139.4272
   435.5000      0.0000    802.7537      7.4546    132.1729
   435.7500      0.0000    802.5582      7.5099    124.6830
   436.0000      0.0000    802.0602      7.5388    119.1642
   436.2500      0.0000    800.8441      7.5414    116.4840
   436.5000      0.0000    798.3084      7.5263    115.9825
   436.7500      0.0000    793.9706      7.5045    116.0767
   437.0000      0.0000    787.9267      7.4878    115.2270
   437.2500      0.0000    781.0117      7.4875    112.7585
   437.5000      0.0000    774.6179      7.5092    109.0384
   437.7500      0.0000    770.4898      7.5444    105.0844
   438.0000      0.0000    770.2044      7.5710    102.0969
   438.2500      0.0000    773.9286      7.5651    100.8468
   438.5000      0.0000    779.6272      7.5160    100.9386
   438.7500      0.0000    784.3260      7.4364    100.9186
   439.0000      0.0000    786.4707      7.3582     99.5213
   439.2500      0.0000    786.6904      7.3176     96.6384
   439.5000      0.0000    786.4704      7.3341     92.9827
   439.7500      0.0000    786.8950      7.4025     89.1811
   440.0000      0.0000    788.5710      7.5025     85.5440
   440.2500      0.0000    791.6605      7.6133     82.4844
   440.5000      0.0000    795.6958      7.7191     80.6558
   440.7500      0.0000    800.0385      7.8028     80.6094
   441.0000      0.0000    804.6920      7.8444     82.6284
   441.2500      0.0000    810.0854      7.8346     86.7869
   441.5000      0.0000    815.8321      7.7926     92.6242
   441.7500      0.0000    820.2382      7.7646     98.6574
   442.0000      0.0000    821.7661      7.7998    102.8448
   442.2500      0.0000    820.9231      7.9275    104.2966
   442.5000      0.0000    819.8737      8.1508    104.6042
   442.7500      0.0000    819.9387      8.4485    106.7159
   443.0000      0.0000    820.2941      8.7825    111.9991
   443.2500      0.0000    819.6027      9.1144    118.6937
   443.5000      0.0000    817.8057      9.4225    123.7012
   443.7500      0.0000    815.2046      9.7055    125.7614
   444.0000      0.0000    810.8549      9.9698    126.3395
   444.2500      0.0000    803.6812     10.2101    127.2922
   444.5000      0.0000    794.9662     10.3966    128.5069
   444.7500      0.0000    788.3912     10.4828    128.4647
   445.0000      0.0000    787.8660     10.4308    126.2341
   445.2500      0.0000    796.1353     10.2327    121.8594
   445.5000      0.0000    815.2938      9.9077    115.4262
   445.7500      0.0000    847.8539      9.4905    106.9672
   446.0000      0.0000    895.5056      9.0246     97.2783
   446.2500      0.0000    954.2098      8.5546     88.1143
   446.5000      0.0000   1009.9734      8.1102     81.1594
   446.7500      0.0000   1042.7830      7.6936     76.8319
   447.0000      0.0000   1038.7738      7.2945     74.4840
   447.2500      0.0000   1001.2792      6.9180     73.7991
   447.5000      0.0000    949.8817      6.5993     75.5145
   447.7500      0.0000    906.1837      6.3854     80.5766
   448.0000      0.0000    878.9758      6.2873     89.0399
   448.2500      0.0000    864.7958      6.2424     99.8462
   448.5000      0.0000    861.3068      6.1497    111.0996
   448.7500      0.0000    873.6993      5.9720    120.3563
   449.0000      0.0000    906.4672      5.7806    125.4975
   449.2500      0.0000    955.1487      5.6719    126.3255
   449.5000      0.0000   1009.1677      5.6677    125.2783
   449.7500      0.0000   1058.4249      5.7187    125.7044
   450.0000     -2.0000   1095.2047      5.7737    129.1321
   450.2500      0.0000   1113.3986      5.8251    134.4553
   450.5000      0.0000   1108.7188      5.9043    139.4537
   450.7500      0.0000   1080.6356      6.0475    142.3988
   451.0000      0.0000   1035.7340      6.2600    142.5719
   451.2500      0.0000    988.3339      6.5105    140.3795
   451.5000      0.0000    952.5491      6.7612    137.1977
   451.7500      0.0000    931.1978      6.9877    134.3741
   452.0000      0.0000    915.6877      7.1731    132.2563
   452.2500      0.0000    898.7350      7.3079    130.4161
   452.5000      0.0000    883.9665      7.4005    128.3129
   452.7500      0.0000    881.5151      7.4692    125.2447
   453.0000      0.0000    896.6063      7.5259    120.4345
   453.2500      0.0000    923.1434      7.5733    114.0282
   453.5000      0.0000    947.3651      7.6137    107.4954
   453.7500      0.0000    958.6603      7.6534    102.2032
   454.0000      0.0000    957.6453      7.6958     98.1585
   454.2500      0.0000    952.1108      7.7332     94.9659
   454.5000      0.0000    945.9335      7.7455     93.5634
   454.7500      0.0000    935.2598      7.7147     95.8691
   455.0000      0.0000    915.1351      7.6425    102.5656
   455.2500      0.0000    886.0712      7.5505    111.8219
   455.5000      0.0000    852.8545      7.4627    120.4840
   455.7500      0.0000    819.2707      7.3904    126.3649
   456.0000      0.0000    786.3790      7.3327    129.2363
   456.2500      0.0000    755.3928      7.2848    129.8403
   456.5000      0.0000    730.0619      7.2434    128.7144
   456.7500      0.0000    714.9358      7.2070    126.3889
   457.0000      0.0000    711.1702      7.1737    123.9302
   457.2500      0.0000    714.2598      7.1389    122.2981
   457.5000      0.0000    716.8947      7.0979    121.3647
   457.7500      0.0000    714.8129      7.0562    120.0625
   458.0000      0.0000    709.4944      7.0347    117.3288
   458.2500      0.0000    704.9272      7.0581    112.8180
   458.5000      0.0000    703.7460      7.1323    107.1078
   458.7500      0.0000    707.4546      7.2358    101.4008
   459.0000      0.0000    717.6392      7.3350     96.9261
   459.2500      0.0000    734.1867      7.4075     94.3838
   459.5000      0.0000    753.0047      7.4517     93.5517
   459.7500      0.0000    767.6000      7.4788     93.0268
   460.0000      0.0000    773.1627      7.4996     90.6019
   460.2500      0.0000    768.7820      7.5196     84.6281
   460.5000      0.0000    756.5963      7.5417     75.3725
