~Version Information
 VERS.                                  2.0 : CWLS LAS VERSION
 WRAP.                                   NO : WRAPING MODE
 SWARE .                 MController 2.5.0N : SOFTWARE VERSION
~Well Information
 WELL.                     Red Raider 22-15 : WELL
 COMP.       Pioneer Natural Resources, LLC : COMPANY
 FLD.                       Purgatory River : FIELD
 LOC.                 SE/NW Sec15 T33S R65W : LOCATION
 DATE.                              4/10/06 : DATE(S) LOGGED
 SRVC.      Blanco Geological Services, LLC : SERVICE COMPANY
 STAT.                             Colorado : STATE
 CNTY.                           Las Animas : COUNTY
 CTRY.                                  USA : COUNTRY
 API.                       05-071-08718-00 : API NUMBER
 STRT.FT                             442.00 : START DEPTH
 STOP.FT                            1036.00 : STOP DEPTH
 STEP.FT                               1.00 : DEPTH INCREMENT
 NULL.                                -9999 : NULL VALUE
~Curve information
 DEPTH.FT                                   :
 ROP.MIN/FT                                 :
 GAS.UNITS                                  :
~ASCII Log data
# ...
       642.0         0.27         21.9 
       643.0         0.27         22.1 
       644.0         0.30         21.7 
       645.0         0.23         20.8 
       646.0         0.27         20.1 
       647.0         0.27         20.7 
       648.0         0.27         22.0 
       649.0         0.27         21.2 
       650.0         0.23         21.8 
       651.0         0.30         21.6 
       652.0        30.53       1282.8 
       653.0         0.50         39.7 
       654.0         0.40         23.8 
       655.0         0.30         26.2 
       656.0         0.30         26.7 
       657.0         0.20         25.6 
       658.0         0.23         23.6 
       659.0         0.23         21.3 
       660.0         0.20         20.2 
       661.0         0.20         19.2 
       662.0         0.20         17.4 
       663.0         0.17         16.7 
       664.0         0.23         16.0 
       665.0         0.22         15.7 
       666.0         0.17         15.6 
       667.0         0.17         16.2 
       668.0         0.20         18.1 
       669.0         0.17         18.7 
       670.0         0.20         21.4 
       671.0         0.20         26.7 
       672.0         0.23         40.9 
       673.0         0.27         55.2 
       674.0         0.20         65.0 
       675.0         0.20         71.1 
       676.0         0.27         71.7 
       677.0         0.23         69.8 
       678.0         0.27         66.6 
       679.0         0.27         63.8 
       680.0         0.28         59.5 
       681.0         0.27         54.8 
       682.0         3.75        125.4 
       683.0         0.47        131.6 
       684.0         0.37         96.9 
       685.0         0.40         63.1 
       686.0         0.37         72.9 
       687.0         0.33         74.4 
       688.0         0.37         68.8 
       689.0         0.38         57.2 
       690.0         0.33         48.4 
       691.0         0.33         40.4 
       692.0         0.33         35.8 
       693.0         0.37         35.0 
       694.0         0.27         34.3 
       695.0         0.33         32.7 
       696.0         0.30         33.3 
       697.0         0.30         33.3 
       698.0         0.30         33.0 
       699.0         0.30         32.3 
       700.0         0.32         32.8 
       701.0         0.30         32.8 
       702.0         0.27         32.8 
       703.0         0.30         32.7 
       704.0         0.30         32.4 
       705.0         0.27         33.1 
       706.0         0.27         32.6 
       707.0         0.23         31.6 
       708.0         0.20         31.4 
       709.0         0.17         31.5 
       710.0         0.13         31.7 
       711.0         0.30         31.4 
       712.0         4.83        167.3 
       713.0         0.50         84.8 
       714.0         0.33         51.8 
       715.0         0.30         47.0 
       716.0         0.27         54.3 
       717.0         0.33         56.6 
       718.0         0.27         52.6 
       719.0         0.32         47.7 
       720.0         0.30         41.0 
       721.0         0.30         37.3 
       722.0         0.27         34.8 
       723.0         0.20         33.9 
       724.0         0.23         33.6 
       725.0         0.23         32.4 
       726.0         0.33         62.4 
       727.0         0.30         93.6 
       728.0         0.33        128.7 
       729.0         0.30        156.4 
       730.0         0.27        163.3 
       731.0         0.28        164.3 
       732.0         0.27        161.5 
       733.0         0.27        153.0 
       734.0         0.27        143.9 
       735.0         0.27        134.3 
       736.0         0.27        120.7 
       737.0         0.27        111.8 
       738.0         0.30        110.4 
       739.0         0.30        111.5 
       740.0         0.30        113.9 
       741.0         0.30        120.0 
       742.0         5.50        344.3 
       743.0         0.43        286.9 
       744.0         0.50        296.8 
       745.0         0.43        261.0 
       746.0         0.45        229.6 
       747.0         0.33        212.5 
       748.0         0.27        201.1 
       749.0         0.33        193.7 
       750.0         0.23        223.7 
       751.0         0.27        270.5 
       752.0         0.23        306.4 
       753.0         0.27        317.8 
       754.0         0.30        317.4 
       755.0         0.30        313.8 
       756.0         0.37        308.3 
       757.0         0.35        303.5 
       758.0         0.30        282.5 
       759.0         0.33        272.0 
       760.0         0.37        265.3 
       761.0         0.30        253.1 
       762.0         0.37        248.2 
       763.0         0.37        243.8 
       764.0         0.33        240.7 
       765.0         0.33        237.9 
       766.0         0.33        237.7 
       767.0         0.35        237.6 
       768.0         0.33        234.5 
       769.0         0.37        229.1 
       770.0         0.47        226.2 
       771.0         0.40        227.4 
       772.0         4.08       2128.1 
       773.0         0.53        886.6 
       774.0         0.45        754.2 
       775.0         0.43        831.7 
       776.0         0.37        837.4 
       777.0         0.30        778.8 
       778.0         0.30        730.3 
       779.0         0.37        685.8 
       780.0         0.33        660.9 
       781.0         0.30        659.2 
       782.0         0.30        673.0 
       783.0         0.30        670.3 
       784.0         0.32        649.1 
       785.0         0.30        592.5 
       786.0         0.33        573.9 
       787.0         0.27        569.5 
       788.0         0.33        580.0 
       789.0         0.27        582.7 
       790.0         0.30        600.2 
       791.0         0.30        608.6 
       792.0         0.37        600.5 
       793.0         0.40        590.8 
       794.0         0.27        593.1 
       795.0         0.25        597.2 
       796.0         0.23        612.3 
       797.0         0.30        610.6 
       798.0         0.27        588.4 
       799.0         0.20        564.8 
       800.0         0.23        554.0 
       801.0         0.23        552.7 
       802.0         3.42       2117.7 
       803.0         0.27       2093.4 
       804.0         0.40       1712.0 
       805.0         0.37       1166.6 
       806.0         0.40       1102.9 
       807.0         0.38       1114.7 
       808.0         0.37       1103.9 
       809.0         0.37       1020.7 
       810.0         0.57        923.0 
       811.0         0.73        763.6 
       812.0         0.77        750.5 
       813.0         0.52        647.0 
       814.0         0.43        619.7 
       815.0         0.43        624.5 
       816.0         0.37        630.5 
       817.0         0.37        636.9 
       818.0         0.37        645.7 
       819.0         0.23        649.1 
       820.0         0.30        647.7 
       821.0         0.33        643.7 
       822.0         0.40        665.2 
       823.0         0.48        721.8 
       824.0         0.47        751.5 
       825.0         0.40        734.0 
       826.0         0.37        740.4 
       827.0         0.37        737.3 
       828.0         0.30        677.7 
       829.0         0.37        629.9 
       830.0         0.43        599.9 
       831.0         0.32        593.8 
       832.0         4.15       2170.6 
       833.0         0.37       1321.9 
       834.0         0.33       1096.1 
       835.0         0.33        982.3 
       836.0         0.40        927.0 
       837.0         0.40        876.5 
       838.0         0.30        787.2 
       839.0         0.23        747.4 
       840.0         0.35        716.4 
       841.0         0.37        679.7 
