~Version Information
VERS.                      2.0: CWLS Log ASCII Standard - VERSION 2.0
WRAP.                       NO: One line per depth step
~Well Information Block
STRT.FT               -16.0000: 
STOP.FT              2827.7500: 
STEP.FT                 0.2500: 
NULL.                -999.2500: 
COMP.          Pioneer Natural Resources: COMPANY
WELL.          Touchstone 11-32: WELL
FLD.           Purgatorie River: FIELD
LOC.           853' FNL & 407' FWL--: LOCATION
CNTY.               Las Animas: COUNTY
SRVC.          Patterson Wireline: SERVICE COMPANY
DATE.          Wed Mar 15 10:09:19 2006: LOG DATE
UWI.           05 071 08564 00: UNIQUE WELL ID
STAT.                       CO: STATE
~Curve Information Block
DEPT.FT            0 000 00 00: Depth
CCL.                          : Casing Collar Locator
TT3.usec                      : CBL 3' Travel Time
AMP3.mV                       : CBL 3' Amplitude
GR.GAPI                       : Gamma Ray
~Parameter Information Block
~A  Depth       CCL         TT3         AMP3         GR     
# ...
   721.0000      0.0000    592.5501     15.8264    118.7389
   721.2500      0.0000    564.6690     15.8702    115.4573
   721.5000      0.0000    564.8146     15.8196    115.2413
   721.7500      0.0000    592.6829     15.7713    117.2725
   722.0000      0.0000    635.1815     15.7916    120.1579
   722.2500      0.0000    675.2394     15.8840    122.3675
   722.5000      0.0000    702.2220     16.0071    122.4659
   722.7500      0.0000    715.6232     16.1159    119.4641
   723.0000      0.0000    720.8999     16.1877    113.6861
   723.2500      0.0000    723.4474     16.2180    107.2630
   723.5000      0.0000    725.7955     16.2039    102.8531
   723.7500      0.0000    728.1250     16.1425    101.3484
   724.0000      0.0000    729.8088     16.0439    101.2217
   724.2500      0.0000    730.2278     15.9342    100.3630
   724.5000      0.0000    728.3138     15.8388     98.0060
   724.7500      0.0000    721.2236     15.7674     94.5863
   725.0000      0.0000    703.7350     15.7161     90.4260
   725.2500      0.0000    670.6769     15.6804     85.3570
   725.5000      0.0000    622.8900     15.6632     79.6139
   725.7500      0.0000    572.1769     15.6695     74.5806
   726.0000      0.0000    538.2857     15.6956     72.1103
   726.2500      0.0000    537.1838     15.7285     72.7993
   726.5000      0.0000    569.5874     15.7569     75.0794
   726.7500      0.0000    620.2411     15.7843     76.4001
   727.0000      0.0000    668.9029     15.8231     75.3857
   727.2500      0.0000    702.9776     15.8753     72.7275
   727.5000      0.0000    721.2201     15.9219     70.0934
   727.7500      0.0000    728.2562     15.9353     68.3791
   728.0000      0.0000    727.3592     15.9034     66.9818
   728.2500      0.0000    717.8419     15.8390     64.6594
   728.5000      0.0000    698.3162     15.7652     60.9753
   728.7500      0.0000    671.2728     15.6948     56.7364
   729.0000      0.0000    642.0905     15.6254     53.0417
   729.2500      0.0000    613.7559     15.5512     50.3462
   729.5000      0.0000    587.3158     15.4775     48.7999
   729.7500      0.0000    567.0469     15.4239     49.0393
   730.0000      0.0000    556.7417     15.4188     51.9689
   730.2500      0.0000    550.2105     15.4862     57.8721
   730.5000      0.0000    536.7736     15.6292     66.1752
   730.7500      0.0000    519.7672     15.8188     75.9667
   731.0000      0.0000    519.5887     16.0068     86.4158
   731.2500      0.0000    552.5262     16.1575     96.7670
   731.5000      0.0000    611.7418     16.2707    106.2265
   731.7500      0.0000    672.6238     16.3782    113.9226
   732.0000      0.0000    712.5228     16.5159    118.7441
   732.2500      0.0000    722.2554     16.6876    119.3803
   732.5000      0.0000    703.0346     16.8427    115.2634
   732.7500      0.0000    660.7714     16.8854    107.6603
   733.0000      0.0000    607.1976     16.7324     99.1017
   733.2500      0.0000    562.2992     16.3918     91.5354
   733.5000      0.0000    548.2916     15.9660     85.5600
   733.7500      0.0000    577.5020     15.5308     81.3069
   734.0000      0.0000    644.4772     15.0396     79.0932
   734.2500      0.0000    727.0749     14.4242     78.7553
   734.5000      0.0000    796.9324     13.7466     78.8967
   734.7500      0.0000    835.1937     13.1575     77.4695
   735.0000      2.0000    841.0208     12.7378     73.3009
   735.2500     -2.0000    824.1025     12.4620     66.9417
   735.5000      0.0000    790.7312     12.2946     60.1131
   735.7500      0.0000    739.7184     12.2877     54.7269
   736.0000      0.0000    672.4440     12.5899     52.2175
   736.2500      0.0000    604.5463     13.3231     52.9905
   736.5000      0.0000    561.8954     14.3861     56.2350
   736.7500      0.0000    559.9714     15.4162     60.5835
   737.0000      0.0000    589.0184     16.0528     64.9314
   737.2500      0.0000    624.4882     16.2242     68.5686
   737.5000      0.0000    651.0959     16.1197     70.9548
   737.7500      0.0000    671.2741     15.9508     71.7425
   738.0000      0.0000    690.3537     15.8189     70.9904
   738.2500      0.0000    701.7030     15.7515     69.3079
   738.5000      0.0000    693.1260     15.7554     67.6489
   738.7500      0.0000    666.1089     15.8204     66.6764
   739.0000      0.0000    641.9087     15.9115     66.3036
   739.2500      0.0000    642.9559     15.9877     65.9720
   739.5000      0.0000    668.4203     16.0303     65.3160
   739.7500      0.0000    692.1440     16.0547     64.5568
   740.0000      0.0000    686.4436     16.0929     64.3728
   740.2500      0.0000    646.1534     16.1626     65.3607
   740.5000      0.0000    588.9792     16.2525     67.4521
   740.7500      0.0000    534.7903     16.3411     69.9425
   741.0000      0.0000    488.9068     16.4262     72.1916
   741.2500      0.0000    446.6202     16.5247     74.1001
   741.5000      0.0000    407.0127     16.6438     75.9769
   741.7500      0.0000    375.4801     16.7665     78.4212
   742.0000      0.0000    355.9623     16.8680     82.3330
   742.2500      0.0000    346.8939     16.9349     88.5053
   742.5000      0.0000    344.5697     16.9592     96.8903
   742.7500      0.0000    347.8640     16.9242    106.2517
   743.0000      0.0000    360.7535     16.8074    114.5423
   743.2500      0.0000    391.9713     16.5994    120.0824
   743.5000      0.0000    449.8700     16.3179    122.9887
   743.7500      0.0000    532.6989     16.0077    125.3743
   744.0000      0.0000    622.4544     15.7256    129.6144
   744.2500      0.0000    691.3549     15.5154    136.1372
   744.5000      0.0000    717.9070     15.3886    142.6501
   744.7500      0.0000    700.1764     15.3270    145.3512
   745.0000      0.0000    658.1501     15.3017    141.4075
   745.2500      0.0000    623.1411     15.2852    131.0336
   745.5000      0.0000    616.2365     15.2526    117.4868
   745.7500      0.0000    631.0612     15.1821    105.1315
   746.0000      0.0000    640.8849     15.0621     97.4252
   746.2500      0.0000    625.1323     14.8999     96.0957
   746.5000      0.0000    586.3560     14.7243    101.2197
   746.7500      0.0000    542.4578     14.5740    111.4473
   747.0000      0.0000    508.6615     14.4736    124.3400
   747.2500      0.0000    488.5375     14.4159    137.1234
   747.5000      0.0000    479.3017     14.3681    147.6184
   747.7500      0.0000    483.3752     14.2951    154.8538
   748.0000      0.0000    511.1927     14.1802    159.0705
   748.2500      0.0000    568.6925     14.0302    161.2852
   748.5000      0.0000    644.7047     13.8704    162.7672
   748.7500      0.0000    716.4337     13.7356    164.5552
   749.0000      0.0000    767.0433     13.6547    166.7986
   749.2500      0.0000    794.8815     13.6328    168.2305
   749.5000      0.0000    807.6849     13.6440    166.8866
   749.7500      0.0000    812.8433     13.6478    162.2049
   750.0000      0.0000    813.5283     13.6166    156.3117
   750.2500      0.0000    810.3205     13.5477    152.5322
   750.5000      0.0000    803.8723     13.4553    152.6002
   750.7500      0.0000    795.9982     13.3559    155.6173
   751.0000      0.0000    789.1050     13.2613    159.3914
   751.2500      0.0000    784.9528     13.1809    162.1818
   751.5000      0.0000    784.0005     13.1272    163.3249
   751.7500      0.0000    785.4849     13.1192    162.7854
   752.0000      0.0000    787.7410     13.1796    160.5213
   752.2500      0.0000    788.8549     13.3239    156.4339
   752.5000      0.0000    787.5263     13.5453    150.7936
   752.7500      0.0000    783.1371     13.8135    144.4570
   753.0000      0.0000    774.3705     14.0962    138.6153
   753.2500      0.0000    758.7069     14.3840    134.5116
   753.5000      0.0000    735.5366     14.6853    133.1715
   753.7500      0.0000    709.9968     14.9996    134.8374
   754.0000      0.0000    689.2111     15.3028    138.5324
   754.2500      0.0000    671.0059     15.5645    142.5581
