~Version Information
 VERS.                                  2.0 : CWLS LAS VERSION
 WRAP.                                   NO : WRAPING MODE
 SWARE .                 MController 2.5.0N : SOFTWARE VERSION
~Well Information
 WELL.                         Quartz 13-22 : WELL
 COMP.    Pioneer Natural Resouces USA Inc. : COMPANY
 FLD.                      Purgatoire River : FIELD
 LOC.             NW/SW Sec 22 , T34S, R65W : LOCATION
 DATE.                             12/15/05 : DATE(S) LOGGED
 SRVC.       BLANCO Geological Services LLC : SERVICE COMPANY
 STAT.                                   CO : STATE
 CNTY.                           Las Animas : COUNTY
 CTRY.                                  USA : COUNTRY
 API.                          05-071-08638 : API NUMBER
 STRT.FT                             437.00 : START DEPTH
 STOP.FT                            1030.00 : STOP DEPTH
 STEP.FT                               1.00 : DEPTH INCREMENT
 NULL.                                -9999 : NULL VALUE
~Curve information
 DEPTH.FT                                   :
 ROP.MIN/FT                                 :
 GAS.UNITS                                  :
~ASCII Log data
# ...
       637.0         0.23         44.8 
       638.0         0.23         45.6 
       639.0         0.23         45.5 
       640.0         0.25         42.3 
       641.0         0.23         37.9 
       642.0         0.23         36.8 
       643.0         0.23         37.3 
       644.0         0.23         37.0 
       645.0         0.23         35.8 
       646.0         0.23         35.9 
       647.0         0.20         35.0 
       648.0         0.37         35.1 
       649.0         0.30         39.1 
       650.0         0.33         41.4 
       651.0         2.95        164.8 
       652.0         0.43         54.1 
       653.0         0.43         53.0 
       654.0         0.38         47.6 
       655.0         0.37         41.0 
       656.0         0.30         36.5 
       657.0         0.40         32.4 
       658.0         0.33         32.1 
       659.0         0.37         30.7 
       660.0         0.37         31.2 
       661.0         0.33         31.3 
       662.0         0.33         31.3 
       663.0         0.42         37.1 
       664.0         0.37         36.8 
       665.0         0.47         34.0 
       666.0         0.40         32.1 
       667.0         0.40         30.4 
       668.0         0.43         30.3 
       669.0         0.33         30.2 
       670.0         0.30         33.0 
       671.0         0.27         36.6 
       672.0         0.30         38.3 
       673.0         0.38         39.6 
       674.0         0.30         34.6 
       675.0         0.43         30.8 
       676.0         0.23         30.2 
       677.0         0.27         29.1 
       678.0         0.23         30.2 
       679.0         0.23         28.0 
       680.0         0.33         29.8 
       681.0         2.18         42.8 
       682.0         0.17         74.9 
       683.0         0.27        113.7 
       684.0         0.37         76.3 
       685.0         0.40         53.4 
       686.0         0.40         51.3 
       687.0         0.43         46.9 
       688.0         0.32         44.9 
       689.0         0.30         41.5 
       690.0         0.27         37.3 
       691.0         0.30         34.1 
       692.0         0.30         32.6 
       693.0         0.33         36.2 
       694.0         0.27         37.8 
       695.0         0.40         38.6 
       696.0         0.27         38.2 
       697.0         0.23         37.8 
       698.0         0.30         38.5 
       699.0         0.25         37.1 
       700.0         0.20         38.1 
       701.0         0.20         41.9 
       702.0         0.20        121.6 
       703.0         0.30        214.9 
       704.0         0.33        304.9 
       705.0         0.33        314.0 
       706.0         0.27        296.1 
       707.0         0.27        282.4 
       708.0         0.30        251.8 
       709.0         0.27        232.4 
       710.0         0.42        228.1 
       711.0         2.40        221.2 
       712.0         0.17        217.0 
       713.0         0.57       1076.8 
       714.0         0.65        646.9 
       715.0         0.57        491.6 
       716.0         0.47        445.2 
       717.0         0.50        440.0 
       718.0         0.47        158.7 
       719.0         0.50        146.2 
       720.0         0.48        133.1 
       721.0         0.50        128.5 
       722.0         0.50        123.0 
       723.0         0.47        122.0 
       724.0         0.53        118.8 
       725.0         0.50        118.7 
       726.0         0.43        116.6 
       727.0         0.42        118.6 
       728.0         0.43        115.0 
       729.0         0.50        111.7 
       730.0         0.47        112.3 
       731.0         0.37        107.3 
       732.0         0.47        106.4 
       733.0         0.40        100.2 
       734.0         0.33        102.2 
       735.0         0.35        102.1 
       736.0         0.30        102.2 
       737.0         0.30        150.5 
       738.0         0.23        166.4 
       739.0         0.33        321.6 
       740.0         0.47        940.5 
       741.0         3.32       2452.6 
       742.0         0.27       1162.9 
       743.0         0.43       1043.3 
       744.0         0.50       1021.1 
       745.0         0.40        978.6 
       746.0         0.38        917.0 
       747.0         0.43        801.0 
       748.0         0.47        670.8 
       749.0         0.33        680.8 
       750.0         0.37        677.9 
       751.0         0.30        646.6 
       752.0         0.33        685.0 
       753.0         0.43        690.8 
       754.0         0.45        659.5 
       755.0         0.40        637.6 
       756.0         0.33        630.8 
       757.0         0.33        622.8 
       758.0         0.37        659.8 
       759.0         0.33        666.0 
       760.0         0.37        637.3 
       761.0         0.37        617.0 
       762.0         0.37        607.0 
       763.0         0.33        604.7 
       764.0         0.35        592.2 
       765.0         0.33        603.4 
       766.0         0.27        710.4 
       767.0         0.23        855.4 
       768.0         0.23       1065.2 
       769.0         0.30       1195.8 
       770.0         0.27       1268.9 
       771.0         4.42       5133.5 
       772.0         0.45       1947.9 
       773.0         0.47       1752.0 
       774.0         0.50       1574.7 
       775.0         0.50       1403.9 
       776.0         0.47       1261.2 
       777.0         0.50       1179.6 
       778.0         0.50       1180.0 
       779.0         0.52       1160.3 
       780.0         0.47       1149.0 
       781.0         0.50       1146.5 
       782.0         0.53       1156.8 
       783.0         0.57       1149.4 
       784.0         0.43       1102.6 
       785.0         0.27       1109.4 
       786.0         0.27       1130.3 
       787.0         0.38       1142.3 
       788.0         0.43       1100.0 
       789.0         0.37       1044.9 
       790.0         0.40       1034.6 
       791.0         0.37       1109.4 
       792.0         0.37       1138.7 
       793.0         0.40       1152.9 
       794.0         0.43       1064.9 
       795.0         0.42       1032.7 
       796.0         0.40       1030.4 
       797.0         0.27       1041.7 
       798.0         0.40       1034.9 
       799.0         0.40       1034.6 
       800.0         0.27        875.1 
       801.0         5.60       5069.4 
       802.0         0.67       1332.1 
       803.0         0.57       1357.5 
       804.0         0.47       1155.8 
       805.0         0.37       1078.5 
       806.0         0.47       1040.1 
       807.0         0.38       1047.8 
       808.0         0.43       1017.5 
       809.0         0.40       1022.1 
       810.0         0.37       1016.6 
       811.0         0.40        974.7 
       812.0         0.33        942.1 
       813.0         0.33       1059.8 
       814.0         0.27       1094.6 
       815.0         0.37       1106.8 
       816.0         0.45       1075.2 
       817.0         0.40       1026.6 
       818.0         0.47        996.0 
       819.0         0.43        972.1 
       820.0         0.40       1003.7 
       821.0         0.27       1010.5 
       822.0         0.40       1024.3 
       823.0         0.30        999.8 
       824.0         0.35        997.6 
       825.0         0.37        987.9 
       826.0         0.33        981.1 
       827.0         0.37       1007.2 
       828.0         0.27        987.6 
       829.0         0.47        960.2 
       830.0         0.27        927.6 
       831.0         3.48       3419.7 
       832.0         0.63       1502.2 
       833.0         0.58       1368.2 
       834.0         0.37       1124.2 
       835.0         0.33       1241.5 
       836.0         0.33       1258.6 
