~Version Information
VERS.                      2.0: CWLS Log ASCII Standard - VERSION 2.0
WRAP.                       NO: One line per depth step
~Well Information Block
STRT.FT                10.0000: 
STOP.FT              1063.0000: 
STEP.FT                 0.1000: 
NULL.                -999.2500: 
COMP.          Pioneer Natural Resources: COMPANY
WELL.                Mac 22-36: WELL
FLD.           Purgatorie River: FIELD
LOC.           2545' FNL & 1398' FWL: LOCATION
PROV.                 Colorado: PROVINCE
CNTY.               Las Animas: COUNTRY
SRVC.                Patterson: SERVICE COMPANY
DATE.          Mon Dec 05 10:55:42 2005: LOG DATE
UWI.                          : UNIQUE WELL ID
~Curve Information Block
DEPT.FT            0 000 00 00: Depth
DCAL.in                       : CDL Caliper
RHOB.g/cc                     : CDL Bulk Density
RHOC.g/cc                     : CDL Density Correction
DPOR.pu                       : CDL Density Porosity
GR.GAPI                       : Gamma Ray
NPOR.pu                       : Neutron Porosity
~Parameter Information Block
~A  Depth       DCAL        RHOB        RHOC        DPOR         GR         NPOR    
# ...
    77.2000      2.7444      2.1998      2.4083     -0.0090    113.6280     23.6354
    77.3000      2.7444      2.1972      2.3480     -0.0091    118.3609     24.1656
    77.4000      2.7444      2.1899      2.3650     -0.0092    117.7387     24.9224
    77.5000      2.7444      2.1851      2.4026     -0.0093    113.6975     25.1136
    77.6000      2.7444      2.1763      2.3740     -0.0095    109.3042     24.8106
    77.7000      2.7444      2.1656      2.3748     -0.0097    106.6877     24.3256
    77.8000      2.7444      2.1608      2.3518     -0.0098    105.8251     23.7440
    77.9000      2.7444      2.1650      2.3520     -0.0097    104.1537     23.4461
    78.0000      2.7444      2.1709      2.3532     -0.0096    102.9337     23.5439
    78.1000      2.7444      2.1665      2.3661     -0.0097    102.6157     23.5765
    78.2000      2.7444      2.1525      2.3374     -0.0100    101.5519     23.5110
    78.3000      2.7444      2.1425      2.3253     -0.0102    100.9797     23.7009
    78.4000      2.7444      2.1423      2.3560     -0.0102    102.0530     24.0123
    78.5000      2.7444      2.1451      2.3281     -0.0101    104.0214     24.2874
    78.6000      2.7444      2.1436      2.3746     -0.0101    105.3079     24.5757
    78.7000      2.7444      2.1358      2.3320     -0.0103    106.2736     24.6027
    78.8000      2.7444      2.1302      2.3303     -0.0104    108.8422     24.2101
    78.9000      2.7444      2.1372      2.3345     -0.0103    110.3740     23.6734
    79.0000      2.7444      2.1497      2.3882     -0.0100    108.6623     23.4253
    79.1000      2.7444      2.1528      2.3286     -0.0099    106.5478     23.7527
    79.2000      2.7444      2.1498      2.3359     -0.0100    105.9233     24.4888
    79.3000      2.7444      2.1509      2.3357     -0.0100    106.5934     25.1868
    79.4000      2.7444      2.1567      2.3492     -0.0099    107.2050     25.5399
    79.5000      2.7444      2.1612      2.3372     -0.0098    107.4926     25.5492
    79.6000      2.7444      2.1578      2.3495     -0.0099    109.3428     25.6976
    79.7000      2.7444      2.1467      2.3361     -0.0101    112.4484     26.2668
    79.8000      2.7444      2.1392      2.3211     -0.0102    114.9014     26.7045
    79.9000      2.7444      2.1418      2.3465     -0.0102    117.0767     26.7542
    80.0000      2.7444      2.1488      2.3429     -0.0100    118.1199     26.7418
    80.1000      2.7444      2.1525      2.3622     -0.0100    117.0251     26.7153
    80.2000      2.7444      2.1499      2.3187     -0.0100    116.7159     26.5527
    80.3000      2.7444      2.1464      2.3306     -0.0101    118.2317     26.2153
    80.4000      2.7444      2.1473      2.3577     -0.0101    118.0950     25.7744
    80.5000      2.7444      2.1496      2.3378     -0.0100    116.0859     25.5455
    80.6000      2.7444      2.1497      2.3532     -0.0100    114.3518     25.8149
    80.7000      2.7444      2.1462      2.3544     -0.0101    112.2271     26.2699
    80.8000      2.7444      2.1403      2.3709     -0.0102    109.9111     26.2515
    80.9000      2.7444      2.1378      2.3463     -0.0102    108.6490     25.7838
    81.0000      2.7444      2.1447      2.3645     -0.0101    107.0941     25.5606
    81.1000      2.7444      2.1510      2.3754     -0.0100    104.9346     25.9398
    81.2000      2.7444      2.1403      2.3505     -0.0102    103.8006     26.5424
    81.3000      2.7444      2.1165      2.2919     -0.0107    103.4793     26.9153
    81.4000      2.7444      2.0968      2.3300     -0.0111    103.3053     26.8760
    81.5000      2.7444      2.0884      2.2809     -0.0112    104.8385     26.6712
    81.6000      2.7444      2.0960      2.2793     -0.0111    108.1381     26.7737
    81.7000      2.7444      2.1189      2.3378     -0.0106    111.2093     27.0878
    81.8000      2.7444      2.1439      2.3366     -0.0101    113.0869     27.1464
    81.9000      2.7444      2.1561      2.3762     -0.0099    112.1424     27.0224
    82.0000      2.7444      2.1505      2.3504     -0.0100    108.9172     26.9477
    82.1000      2.7444      2.1415      2.2780     -0.0102    106.7647     26.7549
    82.2000      2.7444      2.1464      2.3396     -0.0101    105.7923     26.3732
    82.3000      2.7444      2.1602      2.3111     -0.0098    106.1925     26.2117
    82.4000      2.7444      2.1695      2.3699     -0.0096    110.2308     26.4301
    82.5000      2.7444      2.1700      2.3341     -0.0096    113.3615     26.6237
    82.6000      2.7444      2.1662      2.3346     -0.0097    110.3110     26.5307
    82.7000      2.7444      2.1598      2.3337     -0.0098    107.3490     26.1520
    82.8000      2.7444      2.1507      2.3284     -0.0100    110.4226     25.6056
    82.9000      2.7444      2.1426      2.3321     -0.0102    115.3521     25.1444
    83.0000      2.7444      2.1370      2.3486     -0.0103    116.4875     24.7479
    83.1000      2.7444      2.1360      2.2845     -0.0103    112.5518     24.3874
    83.2000      2.7444      2.1419      2.3457     -0.0102    107.5196     24.2541
    83.3000      2.7444      2.1479      2.3353     -0.0100    104.8943     24.3944
    83.4000      2.7444      2.1516      2.3225     -0.0100    105.0375     24.8519
    83.5000      2.7444      2.1607      2.3337     -0.0098    106.9700     25.5645
    83.6000      2.7444      2.1772      2.3696     -0.0095    108.5981     26.2021
    83.7000      2.7444      2.1923      2.3765     -0.0092    108.3448     26.4229
    83.8000      2.7444      2.1982      2.3694     -0.0090    106.9322     26.1695
    83.9000      2.7444      2.1927      2.3696     -0.0092    107.7810     25.8948
    84.0000      2.7444      2.1790      2.3752     -0.0094    111.5849     25.9099
    84.1000      2.7444      2.1678      2.3327     -0.0096    112.3876     26.0230
    84.2000      2.7444      2.1742      2.3122     -0.0095    108.1626     25.9384
    84.3000      2.7444      2.1960      2.3647     -0.0091    105.3574     25.6751
    84.4000      2.7444      2.2083      2.4066     -0.0088    107.0492     25.5761
    84.5000      2.7444      2.1974      2.3779     -0.0091    109.0213     25.6284
    84.6000      2.7444      2.1736      2.3573     -0.0095    107.9240     25.6576
    84.7000      2.7444      2.1517      2.3204     -0.0100    104.8422     25.7794
    84.8000      2.7444      2.1396      2.3363     -0.0102    101.2238     25.8332
    84.9000      2.7444      2.1331      2.3450     -0.0103     97.7448     25.8100
    85.0000      2.7444      2.1249      2.3187     -0.0105     96.8973     26.1978
    85.1000      2.7444      2.1205      2.2733     -0.0106     99.7330     26.8494
    85.2000      2.7444      2.1268      2.3234     -0.0105    104.1434     26.9841
    85.3000      2.7444      2.1389      2.3142     -0.0102    108.5098     26.7095
    85.4000      2.7444      2.1504      2.3527     -0.0100    111.0869     26.8901
    85.5000      2.7444      2.1617      2.3308     -0.0098    110.6252     27.4576
    85.6000      2.7444      2.1775      2.3257     -0.0095    107.0759     27.8314
    85.7000      2.7444      2.1927      2.3725     -0.0092    101.8904     27.9047
    85.8000      2.7444      2.1980      2.3632     -0.0090    100.5822     27.6885
    85.9000      2.7444      2.1957      2.3760     -0.0091    105.5007     27.3663
    86.0000      2.7444      2.1888      2.3404     -0.0092    109.7032     26.8988
    86.1000      2.7444      2.1715      2.3639     -0.0096    107.7076     26.2683
    86.2000      2.7444      2.1466      2.3308     -0.0101    102.6589     26.0745
    86.3000      2.7444      2.1334      2.2896     -0.0103     99.9324     26.5425
    86.4000      2.7444      2.1381      2.3329     -0.0102    100.1353     27.0456
    86.5000      2.7444      2.1447      2.3450     -0.0101    101.6343     27.1037
    86.6000      2.7444      2.1406      2.3035     -0.0102    105.0583     26.6227
    86.7000      2.7444      2.1272      2.3469     -0.0105    108.2493     25.8470
