~Version Information
VERS.                      2.0: CWLS Log ASCII Standard - VERSION 2.0
WRAP.                       NO: One line per depth step
~Well Information Block
STRT.FT                -8.2500: 
STOP.FT              2119.7500: 
STEP.FT                 0.2500: 
NULL.                -999.2500: 
COMP.          Pioneer Natural Resources: COMPANY
WELL.          Hemisphere 32-24: WELL
FLD.           Purgatorie River: FIELD
LOC.           1850' FNL & 2284' FEL--: LOCATION
PROV.                       CO: PROVINCE
CNTY.               Las Animas: COUNTRY
SRVC.          Patterson Wireline: SERVICE COMPANY
DATE.          Sat Aug 27 08:06:42 2005: LOG DATE
UWI.           05 071 08440 00: UNIQUE WELL ID
~Curve Information Block
DEPT.FT            0 000 00 00: Depth
CCL.                          : Casing Collar Locator
TT3.usec                      : CBL 3' Travel Time
AMP3.mV                       : CBL 3' Amplitude
GR.GAPI                       : Gamma Ray
~Parameter Information Block
~A  Depth       CCL         TT3         AMP3         GR     
# ...
  2102.2500      0.0000    628.5212      9.4245     56.9269
  2102.5000      0.0000    613.2186      9.5231     53.8573
  2102.7500      0.0000    606.6686      9.5313     53.0872
  2103.0000      0.0000    613.1611      9.4569     54.4579
  2103.2500      0.0000    628.4710      9.3496     56.8538
  2103.5000      0.0000    644.1144      9.2694     59.0571
  2103.7500      0.0000    654.5880      9.2526     60.4090
  2104.0000      0.0000    659.5675      9.2986     61.1273
  2104.2500      0.0000    661.2377      9.3786     62.1453
  2104.5000      0.0000    661.5403      9.4559     64.3215
  2104.7500      0.0000    661.4312      9.5027     67.4173
  2105.0000      0.0000    661.2433      9.5068     69.5924
  2105.2500      0.0000    661.0721      9.4706     67.9989
  2105.5000      0.0000    660.9607      9.4059     60.4484
  2105.7500      0.0000    660.9205      9.3276     47.2369
  2106.0000      0.0000    660.9494      9.2478     31.5394
  2106.2500      0.0000    661.0204      9.1729     17.5874
  2106.5000      0.0000    661.0719      9.1042      8.0463
  2106.7500      0.0000    661.0355      9.0403      2.9797
  2107.0000      0.0000    660.8920      8.9814      0.8842
  2107.2500      0.0000    660.6877      8.9299      0.2082
  2107.5000      0.0000    660.4875      8.8889      0.0383
  2107.7500      0.0000    660.3300      8.8580      0.0050
  2108.0000      0.0000    660.2249      8.8341      0.0000
  2108.2500      0.0000    660.1828      8.8140   -999.2500
  2108.5000      0.0000    660.2709      8.7946   -999.2500
  2108.7500      0.0000    660.6731      8.7713   -999.2500
  2109.0000      0.0000    661.7104      8.7380   -999.2500
  2109.2500      0.0000    663.6957      8.6913   -999.2500
  2109.5000      0.0000    666.5153      8.6311   -999.2500
  2109.7500      0.0000    669.2440      8.5574   -999.2500
  2110.0000      0.0000    670.0419      8.4632   -999.2500
  2110.2500      0.0000    665.7057      8.3162   -999.2500
  2110.5000      0.0000    649.4381      8.0251   -999.2500
  2110.7500      0.0000    608.7656      7.4268   -999.2500
  2111.0000      0.0000    530.2631      6.3613   -999.2500
  2111.2500      0.0000    412.9035      4.8353   -999.2500
  2111.5000      0.0000    277.3028      3.1170   -999.2500
  2111.7500      0.0000    156.0926      1.6058   -999.2500
  2112.0000      0.0000     72.1125      0.5696   -999.2500
  2112.2500      0.0000     26.9385      0.0159   -999.2500
  2112.5000      0.0000      8.0513     -0.2146   -999.2500
  2112.7500      0.0000      1.9085     -0.2893   -999.2500
  2113.0000      0.0000      0.3537     -0.3082   -999.2500
  2113.2500      0.0000      0.0470     -0.3119   -999.2500
  2113.5000      0.0000   -999.2500   -999.2500   -999.2500
  2113.7500      0.0000   -999.2500   -999.2500   -999.2500
  2114.0000      0.0000   -999.2500   -999.2500   -999.2500
  2114.2500      0.0000   -999.2500   -999.2500   -999.2500
  2114.5000      0.0000   -999.2500   -999.2500   -999.2500
  2114.7500      0.0000   -999.2500   -999.2500   -999.2500
  2115.0000      0.0000   -999.2500   -999.2500   -999.2500
  2115.2500      0.0000   -999.2500   -999.2500   -999.2500
  2115.5000      0.0000   -999.2500   -999.2500   -999.2500
  2115.7500      0.0000   -999.2500   -999.2500   -999.2500
  2116.0000      0.0000   -999.2500   -999.2500   -999.2500
  2116.2500      0.0000   -999.2500   -999.2500   -999.2500
  2116.5000      0.0000   -999.2500   -999.2500   -999.2500
  2116.7500      0.0000   -999.2500   -999.2500   -999.2500
  2117.0000      2.0000   -999.2500   -999.2500   -999.2500
  2117.2500     -2.0000   -999.2500   -999.2500   -999.2500
  2117.5000      0.0000   -999.2500   -999.2500   -999.2500
  2117.7500      0.0000   -999.2500   -999.2500   -999.2500
  2118.0000      0.0000   -999.2500   -999.2500   -999.2500
  2118.2500      0.0000   -999.2500   -999.2500   -999.2500
  2118.5000      0.0000   -999.2500   -999.2500   -999.2500
  2118.7500      0.0000   -999.2500   -999.2500   -999.2500
  2119.0000      0.0000   -999.2500   -999.2500   -999.2500
  2119.2500   -999.2500   -999.2500   -999.2500   -999.2500
  2119.5000   -999.2500   -999.2500   -999.2500   -999.2500
  2119.7500   -999.2500   -999.2500   -999.2500   -999.2500
