~Version Information
 VERS.                                  2.0 : CWLS LAS VERSION
 WRAP.                                   NO : WRAPING MODE
 SWARE .                 MController 2.5.0J : SOFTWARE VERSION
~Well Information
 WELL.                    Greenwood 43-29Tr : WELL
 COMP.    Pioneer Natural Resources USA Inc : COMPANY
 FLD.                      Purgatoire River : FIELD
 LOC.                 NE/SE SEC29 T32S R67W : LOCATION
 DATE.                          08/30-31/05 : DATE(S) LOGGED
 SRVC.       Blanco Geological Services LLC : SERVICE COMPANY
 STAT.                             Colorado : STATE
 CNTY.                           Las Animas : COUNTY
 CTRY.                                  USA : COUNTRY
 API.                       05-071-08478-00 : API NUMBER
 STRT.FT                             941.00 : START DEPTH
 STOP.FT                            2097.00 : STOP DEPTH
 STEP.FT                               1.00 : DEPTH INCREMENT
 NULL.                                -9999 : NULL VALUE
~Curve information
 DEPTH.FT                                   :
 ROP.MIN/FT                                 :
 GAS.UNITS                                  :
~ASCII Log data
# ...
      1341.0         0.18        609.5 
      1342.0         0.17        683.8 
      1343.0         0.17        683.8 
      1344.0         0.23        804.7 
      1345.0         0.40        909.1 
      1346.0         2.65       1251.3 
      1347.0         0.57        679.7 
      1348.0         0.37        730.8 
      1349.0         0.33        770.1 
      1350.0         0.27        781.2 
      1351.0         0.23        781.5 
      1352.0         0.23        763.5 
      1353.0         0.20        763.5 
      1354.0         0.10        756.8 
      1355.0         0.20        750.8 
      1356.0         0.30        744.7 
      1357.0         0.28        736.5 
      1358.0         0.27        724.1 
      1359.0         0.30        724.7 
      1360.0         0.30        720.9 
      1361.0         0.27        819.3 
      1362.0         0.23       1210.0 
      1363.0         0.20       2073.6 
      1364.0         0.20       2164.4 
      1365.0         0.27       2750.3 
      1366.0         0.33       3211.1 
      1367.0         0.27       3296.2 
      1368.0         0.23       3248.9 
      1369.0         0.23       3159.4 
      1370.0         0.25       3040.7 
      1371.0         0.23       2867.1 
      1372.0         0.40       2780.4 
      1373.0         0.37       2801.4 
      1374.0         0.30       3788.1 
      1375.0         0.33       4690.1 
      1376.0         2.55       5925.4 
      1377.0         0.53       2507.8 
      1378.0         0.47       1998.4 
      1379.0         0.37       1708.9 
      1380.0         0.37       1696.2 
      1381.0         0.33       1596.9 
      1382.0         0.32       1547.1 
      1383.0         0.30       1496.0 
      1384.0         0.30       1449.3 
      1385.0         0.30       1431.2 
      1386.0         0.27       1375.7 
      1387.0         0.27       1356.0 
      1388.0         0.23       1335.1 
      1389.0         0.30       1316.7 
      1390.0         0.27       1302.4 
      1391.0         0.27       1259.5 
      1392.0         0.33       1237.9 
      1393.0         0.33       1222.7 
      1394.0         0.28       1170.0 
      1395.0         0.23       1071.0 
      1396.0         0.23       1071.0 
      1397.0         0.27       1048.5 
      1398.0         0.23        732.4 
      1399.0         0.27        667.3 
      1400.0         0.27        658.1 
      1401.0         0.30        646.7 
      1402.0         0.80        830.7 
      1403.0         0.85       1283.3 
      1404.0         0.87       1293.2 
      1405.0         1.50       1183.0 
      1406.0         7.13       2918.5 
      1407.0         0.72        909.1 
      1408.0         0.63        863.8 
      1409.0         0.53        793.6 
      1410.0         0.40        760.9 
      1411.0         0.23        766.0 
      1412.0         0.27        772.7 
      1413.0         0.27        775.8 
      1414.0         0.27        781.5 
      1415.0         0.30        788.8 
      1416.0         0.28        791.7 
      1417.0         0.27        807.3 
      1418.0         0.27        803.1 
      1419.0         0.30        801.5 
      1420.0         0.27        793.3 
      1421.0         0.27        741.9 
      1422.0         0.33        721.9 
      1423.0         0.37        776.2 
      1424.0         0.27        789.5 
      1425.0         0.27        791.7 
      1426.0         0.23        784.4 
      1427.0         0.10        784.4 
      1428.0         0.10        759.0 
      1429.0         0.07        759.0 
      1430.0         0.18        711.7 
      1431.0         0.30        702.2 
      1432.0         0.30        667.3 
      1433.0         0.27        703.2 
      1434.0         0.27        770.1 
      1435.0         0.23        796.8 
      1436.0         2.38        965.6 
      1437.0         0.53        805.4 
      1438.0         0.33        789.2 
      1439.0         0.37        771.1 
      1440.0         0.30        756.5 
      1441.0         0.30        718.7 
      1442.0         0.27        691.7 
      1443.0         0.27        702.8 
      1444.0         0.27        701.9 
      1445.0         0.28        699.7 
      1446.0         0.27        697.4 
      1447.0         0.20        697.4 
      1448.0         0.13        696.8 
      1449.0         0.27        699.3 
      1450.0         0.23        703.2 
      1451.0         0.27        706.3 
      1452.0         0.20        703.5 
      1453.0         0.27        701.3 
      1454.0         0.23        699.3 
      1455.0         0.23        700.3 
      1456.0         0.30        699.3 
      1457.0         0.33        704.1 
      1458.0         0.28        690.8 
      1459.0         0.27        680.3 
      1460.0         0.27        622.2 
      1461.0         0.23        636.2 
      1462.0         0.20        689.8 
      1463.0         0.17        689.8 
      1464.0         0.27        753.0 
      1465.0         0.10        771.7 
      1466.0         1.47        920.6 
      1467.0         0.48        826.3 
      1468.0         0.33        743.5 
      1469.0         0.30        745.0 
      1470.0         0.37        747.3 
      1471.0         0.33        743.1 
      1472.0         0.37        736.8 
      1473.0         0.27        718.1 
      1474.0         0.27        716.8 
      1475.0         0.23        695.5 
      1476.0         0.27        690.1 
      1477.0         0.27        679.4 
      1478.0         0.25        679.4 
      1479.0         0.27        676.8 
      1480.0         0.23        675.9 
      1481.0         0.27        676.8 
      1482.0         0.27        675.5 
      1483.0         0.20        680.6 
      1484.0         0.17        682.8 
      1485.0         0.30        678.1 
      1486.0         0.20        676.5 
      1487.0         0.23        673.0 
      1488.0         0.23        666.7 
      1489.0         0.20        666.7 
      1490.0         0.23        636.2 
      1491.0         0.23        619.4 
      1492.0         0.23        624.4 
      1493.0         0.25        659.0 
      1494.0         0.27        701.9 
      1495.0         0.23        738.1 
      1496.0         2.20        861.5 
      1497.0         0.17        730.1 
      1498.0         0.17        727.0 
      1499.0         0.32        725.7 
      1500.0         0.30        718.4 
      1501.0         0.23        709.5 
      1502.0         0.27        698.4 
      1503.0         0.27        689.5 
      1504.0         0.30        681.9 
      1505.0         0.27        669.8 
      1506.0         0.30        667.0 
      1507.0         0.30        662.2 
      1508.0         0.27        657.1 
      1509.0         0.27        647.9 
      1510.0         0.23        653.6 
      1511.0         0.28        655.5 
      1512.0         0.27        668.2 
      1513.0         0.27        670.8 
      1514.0         0.20        671.1 
      1515.0         0.17        668.2 
      1516.0         0.13        667.9 
      1517.0         0.23        667.9 
      1518.0         0.13        654.0 
      1519.0         0.23        624.8 
      1520.0         0.23        616.5 
      1521.0         0.23        612.4 
      1522.0         0.20        644.4 
      1523.0         0.30        657.1 
      1524.0         0.27        696.2 
      1525.0         0.10        725.4 
      1526.0         1.65        849.8 
      1527.0         0.57        748.5 
      1528.0         0.37        706.6 
      1529.0         0.30        713.0 
      1530.0         0.40        712.7 
      1531.0         0.32        708.6 
      1532.0         0.27        674.6 
      1533.0         0.30        666.7 
      1534.0         0.23        658.7 
      1535.0         0.27        652.1 
      1536.0         0.20        650.8 
      1537.0         0.27        647.3 
      1538.0         0.27        647.9 
      1539.0         0.23        647.6 
      1540.0         0.30        645.7 
