~Version Information
VERS.                      2.0: CWLS Log ASCII Standard - VERSION 2.0
WRAP.                       NO: One line per depth step
~Well Information Block
STRT.FT                 0.0000: 
STOP.FT              1923.5000: 
STEP.FT                 0.2500: 
NULL.                -999.2500: 
COMP.          Petrogulf Corporation: COMPANY
WELL.            Montoya 7-14R: WELL
FLD.           Purgatorie River: FIELD
LOC.           628' FSL & 454' FWL: LOCATION
STAT.                 Colorado: State
CNTY.               Las Animas: COUNTY
CTRY. USA : Country
SECT. 7 : Section
TOWN. 33S : Township
RANG. 67W : Range
SRVC.                Patterson: SERVICE COMPANY
DATE.          Wed Nov 09 12:02:27 2005: LOG DATE
API. 05-071-08554                         : UNIQUE WELL ID
~Curve Information Block
DEPT.FT            0 000 00 00: Depth
CCL.                          : Casing Collar Locator
TT3.usec                      : CBL 3' Travel Time
AMP3.mV                       : CBL 3' Amplitude
GR.GAPI                       : Gamma Ray
~Parameter Information Block
~A  Depth       CCL         TT3         AMP3         GR     
# ...
   502.5000      0.0000    258.3332     80.1751    101.1179
   502.7500      0.0000    258.3113     80.3560    104.1352
   503.0000      0.0000    258.3035     80.5170    105.7143
   503.2500      0.0000    258.3096     80.5807    104.6742
   503.5000      0.0000    258.3163     80.5502    100.7818
   503.7500      0.0000    258.3127     80.4737     95.2250
   504.0000      0.0000    258.2946     80.4004     89.9518
   504.2500      0.0000    258.2646     80.3590     86.3555
   504.5000      0.0000    258.2383     80.3494     84.6924
   504.7500      0.0000    258.2373     80.3699     84.5151
   505.0000      0.0000    258.2617     80.4439     85.1281
   505.2500      0.0000    258.2860     80.5667     85.7724
   505.5000      0.0000    258.2890     80.6569     86.0541
   505.7500      0.0000    258.2735     80.6308     86.4355
   506.0000      0.0000    258.2523     80.5002     87.9190
   506.2500      0.0000    258.2368     80.3386     90.9523
   506.5000      0.0000    258.2367     80.1992     94.7099
   506.7500      0.0000    258.2546     80.1114     97.6041
   507.0000      0.0000    258.2833     80.0973     98.4675
   507.2500      0.0000    258.3095     80.1551     97.2177
   507.5000      0.0000    258.3226     80.2469     94.4625
   507.7500      0.0000    258.3222     80.3267     90.6155
   508.0000      0.0000    258.3107     80.3823     85.5530
   508.2500      0.0000    258.2921     80.4316     79.1521
   508.5000      0.0000    258.2836     80.4884     71.8943
   508.7500      0.0000    258.2999     80.5448     64.7573
   509.0000      0.0000    258.3299     80.5688     58.7191
   509.2500      0.0000    258.3536     80.5327     54.3912
   509.5000      0.0000    258.3650     80.4506     51.7921
   509.7500      0.0000    258.3631     80.3563     50.3483
   510.0000      0.0000    258.3335     80.2814     49.3158
   510.2500      0.0000    258.2719     80.2548     48.2700
   510.5000      0.0000    258.2175     80.2592     47.2268
   510.7500      0.0000    258.2112     80.2527     46.4579
   511.0000      0.0000    258.2381     80.2536     46.1436
   511.2500      0.0000    258.2591     80.3088     45.9830
   511.5000      0.0000    258.2660     80.4073     45.2767
   511.7500      0.0000    258.2718     80.4951     43.6527
   512.0000      0.0000    258.2761     80.5520     41.5533
   512.2500      0.0000    258.2689     80.6006     39.7929
   512.5000      0.0000    258.2552     80.6359     38.7922
   512.7500      0.0000    258.2517     80.6146     38.4332
   513.0000      0.0000    258.2606     80.5352     38.5203
   513.2500      0.0000    258.2690     80.4577     39.0638
   513.5000      0.0000    258.2730     80.4255     39.9942
   513.7500      0.0000    258.2758     80.4241     40.8302
   514.0000      0.0000    258.2748     80.4198     40.9880
   514.2500      0.0000    258.2702     80.4013     40.4347
   514.5000      0.0000    258.2700     80.3798     39.7576
   514.7500      0.0000    258.2784     80.3679     39.5710
   515.0000      0.0000    258.2940     80.3652     40.0746
   515.2500      0.0000    258.3175     80.3605     41.1532
   515.5000      0.0000    258.3443     80.3530     42.6756
   515.7500      0.0000    258.3585     80.3563     44.6398
   516.0000      0.0000    258.3528     80.3628     47.1414
   516.2500      0.0000    258.3394     80.3456     50.3118
   516.5000      0.0000    258.3283     80.3069     54.4009
   516.7500      0.0000    258.3166     80.2783     59.8602
   517.0000      0.0000    258.3029     80.2745     67.0766
   517.2500      0.0000    258.2952     80.2818     75.8606
   517.5000      0.0000    258.3047     80.2811     85.3359
   517.7500      0.0000    258.3366     80.2672     94.5488
   518.0000      0.0000    258.3848     80.2437    103.1671
   518.2500      0.0000    258.4346     80.2140    111.2851
   518.5000      0.0000    258.4622     80.2150    118.4322
   518.7500      0.0000    258.4418     80.2960    123.0997
   519.0000      0.0000    258.3782     80.4155    123.8142
   519.2500      0.0000    258.3089     80.4754    120.8393
   519.5000      0.0000    258.2608     80.4616    116.3491
   519.7500      0.0000    258.2350     80.4455    112.5965
   520.0000      0.0000    258.2224     80.4709    110.0527
   520.2500      0.0000    258.2120     80.5152    107.5060
   520.5000      0.0000    258.2007     80.5434    103.8623
   520.7500      0.0000    258.2013     80.5377     99.5863
   521.0000      0.0000    258.2229     80.4973     96.3084
   521.2500      0.0000    258.2528     80.4566     95.2034
   521.5000      0.0000    258.2713     80.4648     95.9400
   521.7500      0.0000    258.2738     80.5214     97.1989
   522.0000      0.0000    258.2715     80.5742     97.9718
   522.2500      0.0000    258.2745     80.5908     98.0978
   522.5000      0.0000    258.2766     80.5939     97.8257
   522.7500      0.0000    258.2626     80.6175     97.3061
   523.0000      0.0000    258.2364     80.6474     96.5355
   523.2500      0.0000    258.2259     80.6323     95.5391
   523.5000      0.0000    258.2394     80.5715     94.6347
   523.7500      0.0000    258.2356     80.5289     94.5641
   524.0000      0.0000    258.1805     80.5357     96.0179
   524.2500      0.0000    258.1123     80.5594     98.7412
   524.5000      0.0000    258.0937     80.5682    101.2603
   524.7500      0.0000    258.1274     80.5496    101.9760
   525.0000      0.0000    258.1778     80.4871    100.6440
   525.2500      0.0000    258.2282     80.3880     98.4901
   525.5000      0.0000    258.2729     80.2982     96.9479
   525.7500      0.0000    258.2989     80.2556     96.6683
   526.0000      0.0000    258.3083     80.2648     97.5077
   526.2500      0.0000    258.3173     80.2945     98.8389
   526.5000      0.0000    258.3247     80.2967     99.8655
   526.7500      0.0000    258.3095     80.2785    100.1446
   527.0000      0.0000    258.2665     80.2993    100.0281
   527.2500      0.0000    258.2260     80.3735    100.3342
   527.5000      0.0000    258.2177     80.4569    101.4093
   527.7500      0.0000    258.2388     80.4994    102.6180
   528.0000      0.0000    258.2725     80.4804    102.8752
   528.2500      0.0000    258.3002     80.4431    101.8064
   528.5000      0.0000    258.3060     80.4559    100.3913
   528.7500      0.0000    258.2922     80.5062    100.3081
   529.0000      0.0000    258.2751     80.5061    102.4368
   529.2500      0.0000    258.2665     80.4209    105.8786
   529.5000      0.0000    258.2630     80.3168    108.4581
   529.7500      0.0000    258.2508     80.2631    108.4446
   530.0000      0.0000    258.2249     80.2681    105.9725
   530.2500      0.0000    258.1969     80.3236    102.5863
   530.5000      0.0000    258.1828     80.4204     99.3801
   530.7500      0.0000    258.1852     80.5241     96.0816
   531.0000      0.0000    258.1861     80.5951     92.1186
   531.2500      0.0000    258.1730     80.6083     87.9976
   531.5000      0.0000    258.1660     80.5466     85.1387
   531.7500      0.0000    258.1924     80.4240     84.4358
   532.0000      0.0000    258.2393     80.2970     85.2275
   532.2500      0.0000    258.2630     80.1553     85.8644
   532.5000      0.0000    258.2497     79.6621     85.2942
   532.7500      0.0000    258.2592     77.9686     84.0552
   533.0000      0.0000    258.4590     74.3043     83.8155
   533.2500      0.0000    259.1177     69.3598     85.9977
   533.5000      0.0000    260.4044     65.0534     90.5316
   533.7500      0.0000    262.0977     62.1287     95.5647
   534.0000      0.0000    263.6537     60.0149     98.6395
   534.2500      0.0000    264.6787     58.7073     98.6344
   534.5000      0.0000    265.1934     58.3285     96.5112
   534.7500     -2.0000    265.4084     58.3771     94.0441
   535.0000      0.0000    265.4730     58.4306     92.2340
   535.2500      2.0000    265.4695     58.3866     90.9630
   535.5000      0.0000    265.4653     58.1716     89.4213
   535.7500      0.0000    265.4602     57.8246     86.7171
