~Version Information
VERS.                      2.0: CWLS Log ASCII Standard - VERSION 2.0
WRAP.                       NO: One line per depth step
~Well Information Block
STRT.FT                31.2500: 
STOP.FT               700.7500: 
STEP.FT                 0.2500: 
NULL.                -999.2500: 
COMP.          XTO Energy Inc.: COMPANY
WELL.          Golden Eagle 20-14: WELL
FLD.           Purgatrorie River: FIELD
LOC.           587' FSL & 2478' FWL--: LOCATION
STAT.                       CO: State
CNTY.               Las Animas: COUNTY
CTRY. USA : Country
SECT. 20 : Section
TOWN. 33S : Township
RANG. 67W : Range
SRVC.          Patterson Wireline: SERVICE COMPANY
DATE.          Sat Dec 10 15:54:00 2005: LOG DATE
API.           05 071 08614 00: UNIQUE WELL ID
~Curve Information Block
DEPT.FT            0 000 00 00: Depth
CCL.                          : Casing Collar Locator
TT3.usec                      : CBL 3' Travel Time
AMP3.mV                       : CBL 3' Amplitude
GR.GAPI                       : Gamma Ray
~Parameter Information Block
~A  Depth       CCL         TT3         AMP3         GR     
# ...
    64.7500      0.0000    894.0000      2.3930    169.6858
    65.0000      0.0000    894.0000      2.3979    162.0109
    65.2500      0.0000    894.0000      2.4028    152.0674
    65.5000      0.0000    894.0000      2.4085    142.7056
    65.7500      0.0000    894.0000      2.4134    136.2411
    66.0000      0.0000    894.0000      2.4141    133.5429
    66.2500      0.0000    894.0000      2.4087    134.3066
    66.5000      0.0000    894.0000      2.3985    137.6744
    66.7500      0.0000    894.0000      2.3883    142.4331
    67.0000      0.0000    894.0000      2.3838    147.1908
    67.2500      0.0000    894.0000      2.3872    150.8637
    67.5000      0.0000    894.0000      2.3964    152.9318
    67.7500      0.0000    894.0000      2.4070    153.1287
    68.0000      0.0000    894.0000      2.4169    151.1353
    68.2500      0.0000    894.0000      2.4258    146.7418
    68.5000      0.0000    894.0000      2.4332    139.9558
    68.7500      0.0000    894.0000      2.4366    130.7748
    69.0000      0.0000    894.0000      2.4351    119.3339
    69.2500      0.0000    894.0000      2.4309    106.5172
    69.5000      0.0000    894.0000      2.4263     93.8978
    69.7500      0.0000    894.0000      2.4207     82.8414
    70.0000      0.0000    894.0000      2.4114     74.1578
    70.2500      0.0000    894.0000      2.3988     68.6711
    70.5000      0.0000    894.0000      2.3875     67.2781
    70.7500      0.0000    894.0000      2.3818     69.8473
    71.0000      0.0000    894.0000      2.3817     74.4996
    71.2500      0.0000    894.0000      2.3841     78.7519
    71.5000      0.0000    894.0000      2.3864     81.5528
    71.7500      0.0000    894.0000      2.3877     84.0214
    72.0000      0.0000    894.0000      2.3882     88.2220
    72.2500      0.0000    894.0000      2.3885     95.2181
    72.5000      0.0000    894.0000      2.3891    104.1491
    72.7500      0.0000    894.0000      2.3905    112.9947
    73.0000      0.0000    894.0000      2.3936    119.9191
    73.2500      0.0000    894.0000      2.3986    123.8051
    73.5000      0.0000    894.0000      2.4043    124.1330
    73.7500      0.0000    894.0000      2.4090    121.2197
    74.0000      0.0000    894.0000      2.4112    116.6075
    74.2500      0.0000    894.0000      2.4103    112.4120
    74.5000      0.0000    894.0000      2.4063    109.8641
    74.7500      0.0000    894.0000      2.4006    108.8375
    75.0000      0.0000    894.0000      2.3964    108.8052
    75.2500      0.0000    894.0000      2.3969    109.5475
    75.5000      0.0000    894.0000      2.4019    110.7967
    75.7500      0.0000    894.0000      2.4073    111.9864
    76.0000      0.0000    894.0000      2.4088    112.7221
    76.2500      0.0000    894.0000      2.4059    112.9760
    76.5000      0.0000    894.0000      2.4016    112.6972
    76.7500      0.0000    894.0000      2.3999    111.7807
    77.0000      0.0000    894.0000      2.4030    110.6320
    77.2500      0.0000    894.0000      2.4103    110.2334
    77.5000      0.0000    894.0000      2.4193    111.1087
    77.7500      0.0000    894.0000      2.4270    112.2974
    78.0000      0.0000    894.0000      2.4301    111.7392
    78.2500      0.0000    894.0000      2.4265    107.8587
    78.5000      0.0000    894.0000      2.4152    100.8734
    78.7500      0.0000    894.0000      2.3977     92.8199
    79.0000      0.0000    894.0000      2.3777     86.4418
    79.2500      0.0000    894.0000      2.3601     83.7113
    79.5000      0.0000    894.0000      2.3495     84.8980
    79.7500      0.0000    894.0000      2.3490     88.7792
    80.0000      0.0000    894.0000      2.3581     93.6849
    80.2500      0.0000    894.0000      2.3731     98.4465
    80.5000      0.0000    894.0000      2.3893    102.6420
    80.7500      0.0000    894.0000      2.4034    106.1808
    81.0000      0.0000    894.0000      2.4137    108.9349
    81.2500      0.0000    894.0000      2.4192    111.0384
    81.5000      0.0000    894.0000      2.4196    113.1850
    81.7500      0.0000    894.0000      2.4156    115.9749
    82.0000      0.0000    894.0000      2.4093    119.0617
    82.2500      0.0000    894.0000      2.4033    121.4061
    82.5000      0.0000    894.0000      2.3993    122.1937
    82.7500      0.0000    894.0000      2.3971    121.1088
    83.0000      0.0000    894.0000      2.3960    117.9490
    83.2500      0.0000    894.0000      2.3962    112.8120
    83.5000      0.0000    894.0000      2.3979    107.0148
    83.7500      0.0000    894.0000      2.3996    103.0902
    84.0000      0.0000    894.0000      2.3991    103.1268
    84.2500      0.0000    894.0000      2.3958    107.3553
    84.5000      0.0000    894.0000      2.3910    114.5865
    84.7500      0.0000    894.0000      2.3862    123.3125
    85.0000      0.0000    894.0000      2.3825    131.9236
    85.2500      0.0000    894.0000      2.3828    138.6777
    85.5000      0.0000    894.0000      2.3902    142.3714
    85.7500      0.0000    894.0000      2.4052    142.9483
    86.0000      0.0000    894.0000      2.4235    141.1374
    86.2500      0.0000    894.0000      2.4375    137.7418
    86.5000      0.0000    894.0000      2.4419    133.4395
    86.7500      0.0000    894.0000      2.4355    128.7971
    87.0000      0.0000    894.0000      2.4210    124.0217
    87.2500      0.0000    894.0000      2.4025    118.9436
    87.5000      0.0000    894.0000      2.3851    113.6087
    87.7500      0.0000    894.0000      2.3732    108.8073
    88.0000      0.0000    894.0000      2.3692    105.8412
    88.2500      0.0000    894.0000      2.3719    105.9207
    88.5000      0.0000    894.0000      2.3782    109.6038
    88.7500      0.0000    894.0000      2.3851    116.2712
    89.0000      0.0000    894.0000      2.3920    124.2287
    89.2500      0.0000    894.0000      2.3998    131.7097
    89.5000      0.0000    894.0000      2.4085    137.5228
    89.7500      0.0000    894.0000      2.4165    140.6498
    90.0000      0.0000    894.0000      2.4206    140.1497
    90.2500      0.0000    894.0000      2.4186    136.0700
    90.5000      0.0000    894.0000      2.4115    129.9261
    90.7500      0.0000    894.0000      2.4041    123.8524
    91.0000      0.0000    894.0000      2.4019    119.4603
    91.2500      0.0000    894.0000      2.4064    117.1934
    91.5000      0.0000    894.0000      2.4136    116.1063
    91.7500      0.0000    894.0000      2.4171    114.5030
    92.0000      0.0000    894.0000      2.4123    111.4357
    92.2500      0.0000    894.0000      2.3995    107.4766
    92.5000      0.0000    894.0000      2.3845    103.7460
    92.7500     -1.0513    894.0000      2.3748    100.7488
    93.0000      0.0000    894.0000      2.3747     98.6925
    93.2500      1.9626    894.0000      2.3822     98.2845
    93.5000     -0.5490    894.0000      2.3930    100.3163
    93.7500      0.0000    894.0000      2.4028    104.6328
    94.0000      0.0000    894.0000      2.4085    110.1638
    94.2500      0.0000    894.0000      2.4091    115.8543
    94.5000      0.0000    894.0000      2.4068    121.2005
    94.7500      0.0000    894.0000      2.4057    126.1447
    95.0000      0.0000    894.0000      2.4082    130.6596
    95.2500      0.0000    894.0000      2.4119    134.1163
    95.5000      0.0000    894.0000      2.4128    135.2890
    95.7500      0.0000    894.0000      2.4109    133.7461
    96.0000      0.0000    894.0000      2.4094    131.0049
    96.2500      0.0000    894.0000      2.4090    129.3983
    96.5000      0.0000    894.0000      2.4061    129.7989
    96.7500      0.0000    894.0000      2.3980    131.0647
    97.0000      0.0000    894.0000      2.3872    131.5228
    97.2500      0.0000    894.0000      2.3792    130.4281
    97.5000      0.0000    894.0000      2.3772    128.2271
    97.7500      0.0000    894.0000      2.3797    126.0932
    98.0000      0.0000    894.0000      2.3834    125.3201
