~Version Information
VERS.                      2.0: CWLS Log ASCII Standard - VERSION 2.0
WRAP.                       NO: One line per depth step
~Well Information Block
STRT.FT                10.0000: 
STOP.FT              1485.0000: 
STEP.FT                 0.1000: 
NULL.                -999.2500: 
COMP.          Pioneer Natural Resources: COMPANY
WELL.          Old Faithful 21-2: WELL
FLD.           Purgatorie River: FIELD
LOC.           806' FNL & 2509' FWL: LOCATION
PROV.                 Colorado: PROVINCE
CNTY.               Las Animas: COUNTRY
SRVC.                Patterson: SERVICE COMPANY
DATE.          Wed Dec 07 13:17:12 2005: LOG DATE
UWI.                          : UNIQUE WELL ID
~Curve Information Block
DEPT.FT            0 000 00 00: Depth
DCAL.in                       : CDL Caliper
RHOB.g/cc                     : CDL Bulk Density
RHOC.g/cc                     : CDL Density Correction
DPOR.pu                       : CDL Density Porosity
GR.GAPI                       : Gamma Ray
NPOR.pu                       : Neutron Porosity
~Parameter Information Block
~A  Depth       DCAL        RHOB        RHOC        DPOR         GR         NPOR    
# ...
   787.6000      8.1115      2.6456      0.0422      0.2694    126.5906     23.6668
   787.7000      8.1115      2.6355      0.0187      0.8790    135.4616     23.6341
   787.8000      8.0832      2.6306      0.0525      1.1733    145.6471     23.4129
   787.9000      8.0832      2.6331      0.0441      1.0257    151.3864     23.4867
   788.0000      8.0882      2.6409      0.0664      0.5493    152.2425     23.8731
   788.1000      8.0882      2.6436      0.1142      0.3880    154.6983     24.2564
   788.2000      8.0882      2.6265      0.1213      1.4218    161.1268     24.6010
   788.3000      8.1136      2.5876      0.1105      3.7823    166.3266     25.1960
   788.4000      8.1136      2.5459      0.0203      6.3062    165.2177     25.9752
   788.5000      8.1699      2.5308     -0.0226      7.2235    160.6392     26.2858
   788.6000      8.1699      2.5395      0.0606      6.6980    159.7096     25.9032
   788.7000      8.1699      2.5408      0.0219      6.6152    164.0077     25.2978
   788.8000      8.1834      2.5349     -0.0484      6.9776    169.8229     24.9274
   788.9000      8.1834      2.5397      0.0467      6.6836    173.8068     24.9910
   789.0000      8.1834      2.5443      0.0516      6.4054    173.6904     25.2033
   789.1000      8.1834      2.5350      0.0548      6.9695    169.3752     25.1724
   789.2000      8.1834      2.5268      0.0050      7.4639    165.5859     25.0452
   789.3000      8.2021      2.5414      0.0144      6.5804    166.6734     25.0247
   789.4000      8.2021      2.5686      0.0908      4.9353    168.8564     25.0859
   789.5000      8.2559      2.5751      0.0784      4.5396    169.6064     25.1600
   789.6000      8.2559      2.5550      0.0120      5.7593    172.2517     25.2540
   789.7000      8.2559      2.5343     -0.0343      7.0151    175.4791     25.4351
   789.8000      8.3299      2.5257      0.0268      7.5313    176.2153     25.5676
   789.9000      8.3299      2.5229     -0.0286      7.7028    177.1434     25.4220
   790.0000      8.3233      2.5203     -0.0204      7.8598    178.3298     25.0530
   790.1000      8.3233      2.5093     -0.0037      8.5302    175.4676     24.7761
   790.2000      8.3233      2.4878     -0.0107      9.8273    168.9413     24.7084
   790.3000      8.3193      2.4688     -0.0184     10.9793    164.5726     24.7126
   790.4000      8.3193      2.4600     -0.0199     11.5178    166.3595     24.6538
   790.5000      8.3152      2.4608     -0.0689     11.4660    169.9107     24.6901
   790.6000      8.3152      2.4713     -0.0006     10.8299    169.9850     24.9828
   790.7000      8.3152      2.4906     -0.0303      9.6592    168.7778     25.4367
   790.8000      8.3185      2.5203      0.0127      7.8621    168.3221     25.9283
   790.9000      8.3185      2.5490      0.0481      6.1209    167.6378     26.4281
   791.0000      8.3348      2.5577      0.0381      5.5934    167.8700     26.8227
   791.1000      8.3348      2.5527      0.0166      5.8975    169.2652     27.0740
   791.2000      8.3348      2.5486      0.0187      6.1478    170.5481     27.4392
   791.3000      8.2417      2.5379      0.0443      6.7969    172.6075     27.7969
   791.4000      8.2417      2.5150      0.0127      8.1814    173.3291     27.5958
   791.5000      8.2142      2.4930     -0.0111      9.5174    171.3857     26.9170
   791.6000      8.2142      2.4767      0.0180     10.5027    169.1250     26.3915
   791.7000      8.2142      2.4590      0.0193     11.5779    166.1795     26.3143
   791.8000      8.1839      2.4476     -0.0449     12.2655    162.6647     26.3909
   791.9000      8.1839      2.4557      0.0411     11.7778    160.9248     26.1992
   792.0000      8.1828      2.4715      0.0792     10.8199    161.0800     25.8542
   792.1000      8.1828      2.4799      0.0606     10.3069    162.5691     25.7563
   792.2000      8.1828      2.4871      0.0468      9.8727    165.4983     25.8150
   792.3000      8.1843      2.5029      0.1064      8.9133    168.0423     25.6901
   792.4000      8.1843      2.5228      0.1136      7.7071    168.6366     25.4507
   792.5000      8.1857      2.5319      0.0838      7.1572    168.0842     25.3753
   792.6000      8.1857      2.5219      0.0019      7.7608    167.4313     25.5220
   792.7000      8.1857      2.5095     -0.0124      8.5164    166.1054     25.8613
   792.8000      8.2026      2.5185      0.0513      7.9680    164.1055     26.1445
   792.9000      8.2026      2.5469      0.1003      6.2466    163.4219     26.0289
   793.0000      8.1936      2.5734      0.1307      4.6411    164.2608     25.4842
   793.1000      8.1936      2.5817      0.1539      4.1412    164.4084     24.6563
   793.2000      8.1936      2.5734      0.1193      4.6435    163.1719     23.7385
   793.3000      8.1848      2.5472      0.1754      6.2325    162.0598     22.9916
   793.4000      8.1848      2.4842      0.1406     10.0498    162.7537     22.4491
   793.5000      8.1793      2.3965      0.0679     15.3627    165.8666     21.7984
   793.6000      8.1793      2.3262      0.0954     19.6226    169.7785     20.8606
   793.7000      8.1793      2.2858      0.0840     22.0725    171.8665     19.8808
   793.8000      8.1841      2.2628      0.0342     23.4691    172.7158     19.1719
   793.9000      8.1841      2.2493      0.0569     24.2823    172.8139     18.8807
   794.0000      8.1997      2.2414      0.0693     24.7659    169.5886     18.9088
   794.1000      8.1997      2.2368      0.0225     25.0439    162.8392     19.1057
   794.2000      8.1997      2.2332      0.0432     25.2606    156.8832     19.5240
   794.3000      8.3122      2.2247      0.0728     25.7746    156.0713     20.0747
   794.4000      8.3122      2.2124      0.0605     26.5200    158.4175     20.5172
   794.5000      8.4073      2.2093     -0.0178     26.7084    158.0665     20.9165
   794.6000      8.4073      2.2245      0.0079     25.7850    153.9202     21.3485
   794.7000      8.4073      2.2582     -0.0050     23.7454    150.2070     21.7723
   794.8000      8.3207      2.3096      0.0391     20.6294    148.4812     22.3776
   794.9000      8.3207      2.3741      0.0337     16.7212    147.8760     23.2467
   795.0000      8.2535      2.4365      0.1143     12.9372    147.4215     23.9994
   795.1000      8.2535      2.4834      0.1105     10.0970    145.4491     24.3771
   795.2000      8.2535      2.5218      0.1634      7.7686    143.6479     24.5961
   795.3000      8.2007      2.5609      0.1872      5.3971    146.5875     24.7546
   795.4000      8.2007      2.5875      0.1919      3.7875    153.0383     24.6022
   795.5000      8.2273      2.5841      0.1428      3.9926    156.1451     24.1730
   795.6000      8.2273      2.5619      0.0699      5.3418    154.3562     23.9431
   795.7000      8.2273      2.5520      0.0494      5.9405    152.4880     24.0676
   795.8000      8.2568      2.5606      0.0698      5.4206    152.3959     24.1905
   795.9000      8.2568      2.5619      0.0671      5.3407    151.7293     24.2645
   796.0000      8.2909      2.5440      0.0036      6.4248    148.8528     24.6182
   796.1000      8.2909      2.5251      0.0064      7.5720    144.0724     25.0769
   796.2000      8.2909      2.5237     -0.0270      7.6566    140.1675     25.2119
   796.3000      8.3045      2.5361      0.0018      6.9058    138.3198     25.0255
   796.4000      8.3045      2.5426      0.0156      6.5070    136.7497     24.7392
   796.5000      8.3295      2.5360     -0.0478      6.9120    134.4196     24.5004
   796.6000      8.3295      2.5282     -0.0197      7.3822    131.8577     24.3229
   796.7000      8.3295      2.5304     -0.0067      7.2469    130.0287     24.1396
   796.8000      8.2762      2.5418      0.0157      6.5549    129.0525     24.0090
   796.9000      8.2762      2.5504      0.0445      6.0389    128.6601     24.0960
   797.0000      8.1866      2.5477     -0.0010      6.1975    129.0776     24.3256
   797.1000      8.1866      2.5467     -0.0175      6.2578    128.9370     24.4318
