~Version Information
 VERS.                                  2.0 : CWLS LAS VERSION
 WRAP.                                   NO : WRAPING MODE
 SWARE .                 MController 2.5.0N : SOFTWARE VERSION
~Well Information
 WELL.                            AMX 13-13 : WELL
 COMP.  Pioneer Natural Resources USA, Inc. : COMPANY
 FLD.                      Purgatoire River : FIELD
 LOC.                      NW/SW 13-32S-68W : LOCATION
 DATE.                          12/18-19/05 : DATE(S) LOGGED
 SRVC.       BLANCO Geological Services LLC : SERVICE COMPANY
 STAT.                                   CO : STATE
 CNTY.                           Las Animas : COUNTY
 CTRY.                                  USA : COUNTRY
 API.                          05-071-08630 : API NUMBER
 STRT.FT                             496.00 : START DEPTH
 STOP.FT                            2875.00 : STOP DEPTH
 STEP.FT                               1.00 : DEPTH INCREMENT
 NULL.                                -9999 : NULL VALUE
~Curve information
 DEPTH.FT                                   :
 ROP.MIN/FT                                 :
 GAS.UNITS                                  :
~ASCII Log data
# ...
       696.0         0.27          4.5 
       697.0         0.33          4.5 
       698.0         0.33          4.5 
       699.0         0.35          4.5 
       700.0         0.30          5.9 
       701.0         0.30         16.9 
       702.0         0.30         28.1 
       703.0         0.30         30.7 
       704.0         0.33         30.8 
       705.0         0.30         26.8 
       706.0         0.30         22.2 
       707.0         0.30         16.6 
       708.0         0.30         12.6 
       709.0         0.35         10.2 
       710.0         0.33          8.3 
       711.0         0.30          7.0 
       712.0         0.30          6.6 
       713.0         0.30          6.2 
       714.0         0.30          5.7 
       715.0         0.40          5.6 
       716.0         2.15          9.1 
       717.0         0.37          6.4 
       718.0         0.40          6.2 
       719.0         0.33          5.8 
       720.0         0.33          5.6 
       721.0         0.30          5.4 
       722.0         0.30          5.4 
       723.0         0.30          5.3 
       724.0         0.32          5.3 
       725.0         0.30          5.3 
       726.0         0.33          5.4 
       727.0         0.30          5.3 
       728.0         0.30          5.1 
       729.0         0.33          5.1 
       730.0         0.47          5.2 
       731.0         0.30          5.1 
       732.0         0.33          5.3 
       733.0         0.33          5.1 
       734.0         0.32          5.4 
       735.0         0.33          5.3 
       736.0         0.30          5.3 
       737.0         0.30          5.4 
       738.0         0.30          5.4 
       739.0         0.30          5.5 
       740.0         0.33          5.3 
       741.0         0.30          5.2 
       742.0         0.30          5.5 
       743.0         0.27          5.4 
       744.0         0.33          5.2 
       745.0         0.32          5.3 
       746.0         1.93          9.1 
       747.0         0.40          6.2 
       748.0         0.43          5.4 
       749.0         0.33          5.5 
       750.0         0.38          5.6 
       751.0         0.33          5.6 
       752.0         0.30          5.7 
       753.0         0.30          5.8 
       754.0         0.43          5.6 
       755.0         0.30          5.5 
       756.0         0.30          5.5 
       757.0         0.30          5.4 
       758.0         0.30          5.4 
       759.0         0.33          5.5 
       760.0         0.28          5.5 
       761.0         0.27          5.6 
       762.0         0.27          5.5 
       763.0         0.23          5.3 
       764.0         0.23          5.3 
       765.0         0.23          5.3 
       766.0         0.27          5.3 
       767.0         0.27          5.2 
       768.0         0.23          5.3 
       769.0         0.27          5.3 
       770.0         0.23          5.3 
       771.0         0.23          5.3 
       772.0         0.27          5.3 
       773.0         0.25          5.3 
       774.0         0.23          5.4 
       775.0         0.30          5.9 
       776.0         1.83          9.3 
       777.0         0.60          7.2 
       778.0         0.48          5.7 
       779.0         0.33          5.3 
       780.0         0.30          5.2 
       781.0         0.37          5.3 
       782.0         0.33          5.2 
       783.0         0.30          5.2 
       784.0         0.33          5.3 
       785.0         0.33          5.2 
       786.0         0.30          5.4 
       787.0         0.27          5.2 
       788.0         0.23          5.4 
       789.0         0.32          5.4 
       790.0         0.33          5.4 
       791.0         0.30          5.5 
       792.0         0.30          5.6 
       793.0         0.33          5.5 
       794.0         0.33          5.4 
       795.0         0.33          5.3 
       796.0         0.33          5.5 
       797.0         0.33          5.5 
       798.0         0.30          5.6 
       799.0         0.32          5.7 
       800.0         0.30          5.7 
       801.0         0.30          5.7 
       802.0         0.33          5.8 
       803.0         0.33          5.7 
       804.0         0.43          5.8 
       805.0         0.40          7.8 
       806.0         1.42          9.5 
       807.0         0.53          5.8 
       808.0         0.43          5.5 
       809.0         0.30          5.5 
       810.0         0.37          5.7 
       811.0         0.43          5.4 
       812.0         0.37          5.3 
       813.0         0.30          5.4 
       814.0         0.32          5.6 
       815.0         0.30          5.5 
       816.0         0.30          5.4 
       817.0         0.23          5.5 
       818.0         0.30          5.7 
       819.0         0.30          5.6 
       820.0         0.33          5.6 
       821.0         0.37          5.7 
       822.0         0.30          5.6 
       823.0         0.33          5.6 
       824.0         0.27          5.6 
       825.0         0.45          5.4 
       826.0         0.37          5.4 
       827.0         0.27          5.4 
       828.0         0.27          5.4 
       829.0         0.33          5.3 
       830.0         0.33          5.1 
       831.0         0.30          5.4 
       832.0         0.27          5.2 
       833.0         0.27          5.4 
       834.0         0.27          5.4 
       835.0         0.27          5.7 
       836.0         2.32          9.1 
       837.0         0.40          6.0 
       838.0         0.33          5.5 
       839.0         0.33          5.3 
       840.0         0.32          5.2 
       841.0         0.33          5.2 
       842.0         0.27          5.3 
       843.0         0.30          5.3 
       844.0         0.27          5.2 
       845.0         0.27          5.3 
       846.0         0.30          5.3 
       847.0         0.27          5.0 
       848.0         0.27          5.3 
       849.0         0.30          5.1 
       850.0         0.27          5.2 
       851.0         0.23          5.2 
       852.0         0.32          5.7 
       853.0         0.37          5.2 
       854.0         0.37          4.9 
       855.0         0.30          5.0 
       856.0         0.27          5.0 
       857.0         0.30          5.3 
       858.0         0.37          5.1 
       859.0         0.33          4.9 
       860.0         0.27          4.8 
       861.0         0.30          5.1 
       862.0         0.32          5.0 
       863.0         0.30          5.0 
       864.0         0.33          4.8 
       865.0         0.27          5.1 
       866.0         2.30          7.5 
       867.0         0.35          4.4 
       868.0         0.33          4.5 
       869.0         0.27          4.3 
       870.0         0.30          4.4 
       871.0         0.30          4.4 
       872.0         0.27          4.4 
       873.0         0.27          4.4 
       874.0         0.27          4.6 
       875.0         0.30          4.8 
       876.0         0.27          5.6 
       877.0         0.27          6.6 
       878.0         0.25          7.7 
       879.0         0.20          8.2 
       880.0         0.20          7.8 
       881.0         0.23          7.3 
       882.0         0.20          6.8 
       883.0         0.20          6.8 
       884.0         0.20          6.9 
       885.0         0.20          6.7 
       886.0         0.23          6.7 
       887.0         0.20          6.5 
       888.0         0.23          6.3 
       889.0         0.20          5.6 
       890.0         0.20          4.7 
       891.0         0.23          4.3 
       892.0         0.23          4.3 
       893.0         0.23          4.2 
       894.0         0.28          4.2 
       895.0         0.33          4.5 
