~Version Information
VERS.                      2.0: CWLS Log ASCII Standard - VERSION 2.0
WRAP.                       NO: One line per depth step
~Well Information Block
STRT.FT               -14.0000: 
STOP.FT               951.0000: 
STEP.FT                 0.2500: 
NULL.                -999.2500: 
COMP.          Pioneer Natural Resources: COMPANY
WELL.             Giggle 21-22: WELL
FLD.           Purgatoire River: FIELD
LOC.           950' FNL & 2094' FWL: LOCATION
CNTY.               Las Animas: COUNTY
SRVC.                         : SERVICE COMPANY
DATE.          Mon Apr 17 17:51:33 2006: LOG DATE
UWI.           05 071 08726 00: UNIQUE WELL ID
STAT.                       CO: STATE
~Curve Information Block
DEPT.FT            0 000 00 00: Depth
CCL.                          : Casing Collar Locator
TT3.usec                      : CBL 3' Travel Time
AMP3.mV                       : CBL 3' Amplitude
GR.GAPI                       : Gamma Ray
~Parameter Information Block
~A  Depth       CCL         TT3         AMP3         GR     
# ...
   421.5000      0.0000    694.9324      8.0170    136.3692
   421.7500      0.0000    698.9708      8.0233    146.0101
   422.0000      0.0000    703.7250      7.8915    150.8579
   422.2500      0.0000    707.0903      7.6476    151.2175
   422.5000      0.0000    707.2931      7.3852    148.8911
   422.7500      0.0000    704.4267      7.2127    146.0963
   423.0000      0.0000    700.3120      7.1736    144.6203
   423.2500      0.0000    696.8687      7.2137    145.3216
   423.5000      0.0000    694.8616      7.2419    148.0335
   423.7500      0.0000    693.9911      7.2217    151.8059
   424.0000      0.0000    693.6266      7.1996    155.0660
   424.2500      0.0000    693.3233      7.2444    155.8655
   424.5000      0.0000    693.0297      7.3687    152.8555
   424.7500      0.0000    693.2055      7.5146    146.4948
   425.0000      0.0000    694.8082      7.6123    138.9397
   425.2500      0.0000    698.8799      7.6411    132.4376
   425.5000      0.0000    705.7200      7.6319    128.0312
   425.7500      0.0000    714.2059      7.6188    125.8227
   426.0000      0.0000    721.8314      7.5987    125.8323
   426.2500      0.0000    725.5610      7.5416    128.0434
   426.5000      0.0000    723.3611      7.4365    131.8655
   426.7500      0.0000    715.9536      7.3178    136.2584
   427.0000      0.0000    707.2518      7.2352    140.6389
   427.2500      0.0000    702.1944      7.2016    145.2997
   427.5000      0.0000    703.3498      7.1877    150.6958
   427.7500      0.0000    709.3120      7.1680    156.6348
   428.0000      0.0000    716.0981      7.1551    162.3067
   428.2500      0.0000    719.9336      7.1774    166.9373
   428.5000      0.0000    719.1304      7.2309    170.2051
   428.7500      0.0000    714.3043      7.2743    171.9245
   429.0000      0.0000    707.5358      7.2817    171.5627
   429.2500      0.0000    701.1129      7.2816    168.4592
   429.5000      0.0000    696.4113      7.3228    162.5802
   429.7500      0.0000    693.5810      7.4115    154.9846
   430.0000      0.0000    692.1083      7.5013    147.6479
   430.2500      0.0000    691.5716      7.5541    142.7189
   430.5000      0.0000    691.9891      7.5914    141.4285
   430.7500      0.0000    693.7057      7.6666    143.4665
   431.0000      0.0000    696.9918      7.7929    147.3268
   431.2500      0.0000    701.6785      7.9300    151.1639
   431.5000      0.0000    707.1801      8.0413    153.6977
   431.7500      0.0000    712.8406      8.1327    154.8381
   432.0000      0.0000    718.1005      8.2224    155.4664
   432.2500      0.0000    722.3606      8.2951    156.4789
   432.5000      0.0000    724.8869      8.2975    157.9853
   432.7500      0.0000    724.9081      8.1684    159.1091
   433.0000      0.0000    721.9074      7.8735    158.4617
   433.2500      0.0000    716.1837      7.4313    155.2331
   433.5000      0.0000    709.2653      6.9155    149.9959
   433.7500      0.0000    703.4553      6.4202    144.0020
   434.0000      0.0000    700.6126      6.0128    137.7848
   434.2500      0.0000    701.0322      5.7197    131.0023
   434.5000      0.0000    703.1462      5.5619    123.3881
   434.7500      0.0000    704.6181      5.5808    115.2861
   435.0000      0.0000    704.8721      5.7933    107.3900
   435.2500      4.1226    706.9521      6.1300    100.2710
   435.5000      0.0000    715.3895      6.4492     94.1732
   435.7500     -3.1284    730.8475      6.6182     89.3146
   436.0000      0.0000    748.0049      6.5872     86.1598
   436.2500      0.0000    760.3032      6.4189     84.9711
   436.5000      2.0215    765.4044      6.2609     85.1763
   436.7500      0.0000    764.2092      6.2487     85.7053
   437.0000      0.0000    757.0380      6.4010     86.1780
   437.2500      0.0000    744.0827      6.6299     87.4064
   437.5000      0.0000    728.0601      6.8563     90.3474
   437.7500      0.0000    713.3998      7.0859     94.6129
   438.0000      0.0000    703.0793      7.3692     98.3730
   438.2500      0.0000    697.3275      7.7239     99.8752
   438.5000      0.0000    694.7050      8.1050     98.9806
   438.7500      0.0000    693.5856      8.4233     97.2925
   439.0000      0.0000    692.9147      8.5792     96.9368
   439.2500      0.0000    692.3115      8.5146     99.1694
   439.5000      0.0000    691.8201      8.2624    103.9595
   439.7500      0.0000    691.5994      7.9413    110.7077
   440.0000      0.0000    691.7026      7.6763    118.9642
   440.2500      0.0000    691.9711      7.5213    128.1537
   440.5000      0.0000    692.0280      7.4663    136.9061
   440.7500      0.0000    691.2704      7.4963    143.5211
   441.0000      0.0000    688.9415      7.6116    147.3217
   441.2500      0.0000    684.5470      7.7904    148.9194
   441.5000      0.0000    678.6491      7.9613    148.9649
   441.7500      0.0000    673.4377      8.0351    147.3322
   442.0000      0.0000    672.1761      7.9726    143.9087
   442.2500      0.0000    677.3409      7.8235    139.6989
   442.5000      0.0000    688.5712      7.6889    136.6558
   442.7500      0.0000    702.1648      7.6366    136.4906
   443.0000      0.0000    712.9768      7.6477    139.6538
   443.2500      0.0000    717.4759      7.6464    145.1385
   443.5000      0.0000    715.5431      7.5814    151.0401
   443.7500      0.0000    709.8398      7.4751    155.5756
   444.0000      0.0000    703.6839      7.3992    157.9603
   444.2500      0.0000    699.1995      7.4050    158.6313
   444.5000      0.0000    696.8575      7.4741    158.9140
   444.7500      0.0000    696.1984      7.5346    160.2759
   445.0000      0.0000    696.7394      7.5296    163.0981
   445.2500      0.0000    698.2844      7.4684    166.0007
   445.5000      0.0000    700.5654      7.4088    167.1591
   445.7500      0.0000    702.7756      7.3936    166.6651
   446.0000      0.0000    703.7573      7.4089    166.9176
   446.2500      0.0000    702.9360      7.3979    170.0230
   446.5000      0.0000    700.9996      7.3177    175.0785
   446.7500      0.0000    699.4937      7.1929    178.7940
   447.0000      0.0000    699.8110      7.1133    178.9327
   447.2500      0.0000    702.3625      7.1590    176.4114
   447.5000      0.0000    706.1500      7.3186    173.7508
   447.7500      0.0000    709.0601      7.4858    172.4637
   448.0000      0.0000    709.2294      7.5485    172.4790
   448.2500      0.0000    706.5358      7.4904    173.1629
   448.5000      0.0000    702.5585      7.4052    173.9028
   448.7500      0.0000    699.0559      7.4161    173.7809
   449.0000      0.0000    696.7744      7.5779    171.4026
   449.2500      0.0000    695.5544      7.8338    165.6562
   449.5000      0.0000    695.0332      8.0474    156.7754
   449.7500      0.0000    695.0631      8.0928    146.4558
   450.0000      0.0000    695.7576      7.9487    136.8698
   450.2500      0.0000    697.3158      7.7252    129.5254
   450.5000      0.0000    699.6040      7.5933    124.6561
   450.7500      0.0000    701.7792      7.6640    121.3801
   451.0000      0.0000    702.6234      7.9077    118.6615
   451.2500      0.0000    701.5762      8.1757    116.1829
   451.5000      0.0000    699.3005      8.3173    114.0323
   451.7500      0.0000    697.0219      8.3040    111.6840
   452.0000      0.0000    695.4916      8.2429    107.8642
   452.2500      0.0000    694.7145      8.2562    101.6994
   452.5000      0.0000    694.3756      8.3517     93.8314
   452.7500      0.0000    694.2421      8.4251     86.2848
   453.0000      0.0000    694.2376      8.3744     81.2349
   453.2500      0.0000    694.3491      8.1953     79.7417
   453.5000      0.0000    694.5529      7.9802     81.3177
   453.7500      0.0000    694.7924      7.8451     84.4200
   454.0000      0.0000    694.9901      7.8458     87.3957
   454.2500      0.0000    695.0777      7.9341     89.3529
   454.5000      0.0000    695.0425      7.9916     90.5109
   454.7500      0.0000    694.9504      7.9380     91.6851
