~Version Information
VERS.                      2.0: CWLS Log ASCII Standard - VERSION 2.0
WRAP.                       NO: One line per depth step
~Well Information Block
STRT.FT               485.0000: 
STOP.FT              1030.5000: 
STEP.FT                 0.1000: 
NULL.                -999.2500: 
COMP.          Pioneer Natural Resources: COMPANY
WELL.          Red Raider 22-15: WELL
FLD.           Purgatoire River: FIELD
LOC.           1809' FNL & 2107' FWL: LOCATION
CNTY.               Las Animas: COUNTY
SRVC.                Patterson: SERVICE COMPANY
DATE.          Tue Apr 11 10:06:17 2006: LOG DATE
UWI.           05 071 08718 00: UNIQUE WELL ID
STAT.                 Colorado: STATE
~Curve Information Block
DEPT.FT            0 000 00 00: Depth
DCAL.in                       : CDL Caliper
RHOB.g/cc                     : CDL Bulk Density
RHOC.g/cc                     : CDL Density Correction
DPOR.pu                       : CDL Density Porosity
GR.GAPI                       : Gamma Ray
NPOR.pu                       : Neutron Porosity
~Parameter Information Block
~A  Depth       DCAL        RHOB        RHOC        DPOR         GR         NPOR    
# ...
   629.0000      8.0341      2.5014      0.0572      9.0044    177.4716     32.1031
   629.1000      8.0341      2.5108      0.0988      8.4394    174.8709     32.7909
   629.2000      8.0341      2.5100      0.0698      8.4858    171.9935     33.3050
   629.3000      8.0338      2.5181      0.0845      7.9943    173.1807     33.3514
   629.4000      8.0338      2.5376      0.1294      6.8103    178.0602     33.0274
   629.5000      8.0342      2.5502      0.1001      6.0494    182.0434     32.5328
   629.6000      8.0342      2.5573      0.0890      5.6158    182.7003     31.9910
   629.7000      8.0342      2.5706      0.1212      4.8141    181.1600     31.6754
   629.8000      8.0345      2.5802      0.1268      4.2274    178.1196     31.5512
   629.9000      8.0345      2.5781      0.1284      4.3569    172.5228     31.3260
   630.0000      8.0348      2.5744      0.0805      4.5817    165.2445     30.7752
   630.1000      8.0348      2.5734      0.1255      4.6427    160.7460     29.8914
   630.2000      8.0348      2.5624      0.1423      5.3081    160.9572     29.2613
   630.3000      8.0354      2.5458      0.0912      6.3145    162.7524     29.4163
   630.4000      8.0354      2.5503      0.0975      6.0448    163.3812     30.0611
   630.5000      8.0357      2.5731      0.1435      4.6632    164.3207     30.7878
   630.6000      8.0357      2.5782      0.1011      4.3530    163.5000     31.4388
   630.7000      8.0357      2.5576      0.0621      5.5981    160.8023     31.9157
   630.8000      8.0356      2.5364      0.0800      6.8874    158.3915     32.2498
   630.9000      8.0356      2.5266      0.0416      7.4769    153.3852     32.3267
   631.0000      8.0354      2.5227      0.0797      7.7131    148.6483     31.9488
   631.1000      8.0354      2.5205      0.0813      7.8480    149.4467     31.4824
   631.2000      8.0354      2.5233      0.0708      7.6774    153.4995     31.3288
   631.3000      8.0354      2.5322      0.0836      7.1369    156.1397     31.2550
   631.4000      8.0354      2.5487      0.0426      6.1423    155.6500     31.1981
   631.5000      8.0350      2.5690      0.1230      4.9094    151.9173     31.2286
   631.6000      8.0350      2.5767      0.0880      4.4402    146.3076     31.1957
   631.7000      8.0350      2.5680      0.0625      4.9685    143.4301     31.1052
   631.8000      8.0336      2.5515      0.0703      5.9714    143.6440     31.1151
   631.9000      8.0336      2.5386      0.0161      6.7534    145.9137     31.5546
   632.0000      8.0324      2.5390      0.0312      6.7301    150.1161     32.0309
   632.1000      8.0324      2.5418      0.0536      6.5560    151.0853     31.5833
   632.2000      8.0324      2.5320      0.0174      7.1523    146.8207     30.3402
   632.3000      8.0329      2.5131     -0.0301      8.2948    142.0730     29.5157
   632.4000      8.0329      2.4971     -0.0195      9.2680    141.2543     29.8192
   632.5000      8.0335      2.4912     -0.0533      9.6246    143.9169     30.4657
   632.6000      8.0335      2.4974      0.0089      9.2456    145.1071     30.4957
   632.7000      8.0335      2.5096      0.0073      8.5103    141.9871     30.0783
   632.8000      8.0335      2.5200     -0.0307      7.8788    138.3145     29.6911
   632.9000      8.0335      2.5267      0.0195      7.4744    138.0249     29.5830
   633.0000      8.0335      2.5288      0.0250      7.3468    140.1676     29.5959
   633.1000      8.0335      2.5290     -0.0038      7.3311    143.0697     29.4629
   633.2000      8.0335      2.5255      0.0526      7.5440    150.1873     29.2408
   633.3000      8.0338      2.5076      0.0058      8.6295    159.5448     28.8109
   633.4000      8.0338      2.4778      0.0281     10.4364    158.8172     28.1582
   633.5000      8.0344      2.4561     -0.0518     11.7502    145.6764     27.5859
   633.6000      8.0344      2.4583     -0.0025     11.6205    133.4283     27.0284
   633.7000      8.0344      2.4742      0.0247     10.6563    130.9538     26.5909
   633.8000      8.0345      2.4906     -0.0199      9.6581    136.1502     26.7110
   633.9000      8.0345      2.5121      0.0156      8.3551    143.5460     27.1554
   634.0000      8.0340      2.5368      0.0670      6.8596    147.1177     27.2624
   634.1000      8.0340      2.5474      0.1088      6.2196    144.5972     26.7485
   634.2000      8.0340      2.5349      0.0564      6.9766    139.8497     25.8179
   634.3000      8.0340      2.5110      0.0461      8.4235    139.0467     25.0125
   634.4000      8.0340      2.4928      0.0581      9.5302    143.5269     24.7396
   634.5000      8.0338      2.4912      0.0643      9.6248    147.9921     24.9695
   634.6000      8.0338      2.5041      0.0803      8.8437    149.9062     25.4371
   634.7000      8.0338      2.5187      0.0972      7.9575    149.2092     25.7802
   634.8000      8.0326      2.5259      0.0549      7.5242    145.0788     26.0362
   634.9000      8.0326      2.5246      0.0703      7.6018    140.1322     26.4783
   635.0000      8.0315      2.5175      0.0881      8.0282    135.8437     27.1740
   635.1000      8.0315      2.5095      0.0441      8.5146    132.7474     27.7265
   635.2000      8.0315      2.5134      0.0299      8.2776    133.2125     27.5469
   635.3000      8.0315      2.5379      0.0854      6.7966    135.7699     27.1029
   635.4000      8.0315      2.5700      0.1124      4.8512    138.6481     27.2650
   635.5000      8.0326      2.5934      0.1183      3.4274    143.1880     27.7003
   635.6000      8.0326      2.6046      0.0974      2.7530    145.9502     28.0037
   635.7000      8.0326      2.6032      0.0900      2.8341    139.3822     28.5449
   635.8000      8.0345      2.5933      0.0788      3.4371    125.0305     29.2420
   635.9000      8.0345      2.5880      0.0983      3.7603    113.4131     29.7719
   636.0000      8.0353      2.5972      0.0883      3.2013    108.6505     29.8368
   636.1000      8.0353      2.6152      0.0394      2.1069    106.8214     29.0905
   636.2000      8.0353      2.6224      0.0647      1.6752    105.8085     28.0600
   636.3000      8.0335      2.6035      0.0427      2.8167    105.1858     27.4239
   636.4000      8.0335      2.5711      0.0250      4.7837    103.4352     27.1433
   636.5000      8.0321      2.5573     -0.0197      5.6181    103.0062     27.0613
   636.6000      8.0321      2.5731      0.0241      4.6600    106.6142     27.0963
   636.7000      8.0321      2.5903      0.0562      3.6199    111.0094     27.4070
   636.8000      8.0320      2.5900      0.0333      3.6347    113.0393     28.0397
   636.9000      8.0320      2.5851      0.0026      3.9307    112.5761     28.3342
   637.0000      8.0320      2.5797      0.0573      4.2577    109.4353     28.2071
   637.1000      8.0320      2.5639      0.0488      5.2211    106.7004     28.4856
   637.2000      8.0320      2.5478      0.0046      6.1922    108.3848     29.0645
   637.3000      8.0314      2.5541     -0.0102      5.8137    113.6601     28.9892
   637.4000      8.0314      2.5766      0.0616      4.4515    119.4868     28.6172
   637.5000      8.0312      2.5899      0.0208      3.6440    124.0253     28.8428
   637.6000      8.0312      2.5937     -0.0056      3.4126    125.3692     29.5904
   637.7000      8.0312      2.5966      0.0383      3.2370    121.8196     30.5015
   637.8000      8.0309      2.5941      0.0303      3.3878    115.3583     31.2927
   637.9000      8.0309      2.5929      0.0008      3.4623    110.1286     31.8045
   638.0000      8.0295      2.5946      0.0808      3.3570    106.9119     32.2906
   638.1000      8.0295      2.5879      0.0032      3.7614    104.8513     32.7922
   638.2000      8.0295      2.5883     -0.0041      3.7386    105.5352     32.7280
   638.3000      8.0282      2.6084      0.0194      2.5194    109.8887     32.0295
   638.4000      8.0282      2.6253      0.0435      1.4981    114.0825     31.6087
   638.5000      8.0279      2.6250      0.0230      1.5178    110.9645     31.6984
