~Version Information
VERS.                      2.0: CWLS Log ASCII Standard - VERSION 2.0
WRAP.                       NO: One line per depth step
~Well Information Block
STRT.FT                 0.0000: 
STOP.FT               816.5000: 
STEP.FT                 0.1000: 
NULL.                -999.2500: 
COMP.          Pioneer Natural Resources: COMPANY
WELL.           Weissach 32-32: WELL
FLD.           Purgatorie River: FIELD
LOC.           2193' FNL & 2256' FEL: LOCATION
STAT.                 Colorado: State
CNTY.               Las Animas: COUNTY
CTRY. USA : Country
SECT. 32 : Section
TOWN. 33S : Township
RANG. 66W : Range
SRVC.                Patterson: SERVICE COMPANY
DATE.          Mon Sep 26 09:15:29 2005: LOG DATE
API. 05-071-08523                         : UNIQUE WELL ID
~Curve Information Block
DEPT.FT            0 000 00 00: Depth
DCAL.in                       : CDL Caliper
RHOB.g/cc                     : CDL Bulk Density
RHOC.g/cc                     : CDL Density Correction
DPOR.pu                       : CDL Density Porosity
GR.GAPI                       : Gamma Ray
NPOR.pu                       : Neutron Porosity
~Parameter Information Block
~A  Depth       DCAL        RHOB        RHOC        DPOR         GR         NPOR    
# ...
   691.2000      7.8415      2.3914      0.0448     15.6738     73.0455     19.5705
   691.3000      7.8420      2.3932      0.0063     15.5613     72.5164     19.6654
   691.4000      7.8420      2.4074      0.0330     14.7024     72.5161     19.9923
   691.5000      7.8441      2.4246      0.0828     13.6585     77.1963     20.0382
   691.6000      7.8441      2.4314      0.0582     13.2497     83.4502     19.8126
   691.7000      7.8441      2.4256      0.0823     13.5999     84.7388     19.7562
   691.8000      7.8552      2.4100      0.0525     14.5430     80.9262     19.8907
   691.9000      7.8552      2.3963      0.0515     15.3738     76.0472     19.9730
   692.0000      7.8270      2.4024      0.0327     15.0090     73.5664     20.0339
   692.1000      7.8270      2.4252      0.0906     13.6213     76.0965     20.1724
   692.2000      7.8270      2.4362      0.0982     12.9587     82.2814     20.4179
   692.3000      7.8295      2.4247      0.0578     13.6537     87.0421     20.7035
   692.4000      7.8295      2.4133      0.0420     14.3451     86.1663     20.8376
   692.5000      7.8464      2.4187     -0.0026     14.0168     82.6902     20.8989
   692.6000      7.8464      2.4272      0.0803     13.5024     82.7436     20.9044
   692.7000      7.8464      2.4140      0.0367     14.3000     85.5537     20.6428
   692.8000      7.8804      2.3903      0.0045     15.7368     86.0319     20.4803
   692.9000      7.8804      2.3866      0.0341     15.9611     84.2493     20.7594
   693.0000      7.8667      2.4008      0.0693     15.1050     83.3430     20.9711
   693.1000      7.8667      2.4140      0.0642     14.3041     83.3609     20.7215
   693.2000      7.8667      2.4264      0.0572     13.5508     83.7769     20.3655
   693.3000      7.8745      2.4405      0.0712     12.6939     85.3764     20.1200
   693.4000      7.8745      2.4483      0.0833     12.2261     85.2905     19.7331
   693.5000      7.8904      2.4471      0.0570     12.2994     81.2639     19.2500
   693.6000      7.8904      2.4443      0.0411     12.4656     77.8063     18.9883
   693.7000      7.8904      2.4489      0.0515     12.1907     76.8806     18.8105
   693.8000      7.8794      2.4633      0.0692     11.3155     75.9567     18.4668
   693.9000      7.8794      2.4773      0.0667     10.4690     74.7234     18.2128
   694.0000      7.8801      2.4762      0.0625     10.5326     73.4766     18.1848
   694.1000      7.8801      2.4596      0.0393     11.5424     72.4370     18.0239
   694.2000      7.8801      2.4312      0.0282     13.2600     73.0334     17.8048
   694.3000      7.8853      2.3947     -0.0115     15.4708     75.0684     18.0980
   694.4000      7.8853      2.3693     -0.0463     17.0145     78.7811     18.9361
   694.5000      7.8986      2.3785     -0.0308     16.4530     84.3904     19.7477
   694.6000      7.8986      2.4155      0.0801     14.2115     87.8249     20.1687
   694.7000      7.8986      2.4481      0.0922     12.2337     86.9658     20.3961
   694.8000      7.8959      2.4612      0.0837     11.4404     85.2272     20.5725
   694.9000      7.8959      2.4587      0.0755     11.5952     83.7012     20.5442
   695.0000      7.8915      2.4442      0.0858     12.4708     81.2328     20.1885
   695.1000      7.8915      2.4243      0.0540     13.6773     78.5172     19.6438
   695.2000      7.8915      2.4180      0.0043     14.0586     77.2922     19.3110
   695.3000      7.8869      2.4352      0.0265     13.0177     78.2017     19.2829
   695.4000      7.8869      2.4557      0.0905     11.7746     79.2779     19.2697
   695.5000      7.8913      2.4596      0.0625     11.5404     80.5244     19.2667
   695.6000      7.8913      2.4526      0.0373     11.9666     82.9061     19.4955
   695.7000      7.8913      2.4441      0.0602     12.4801     84.2393     19.9256
   695.8000      7.8786      2.4351      0.0489     13.0213     83.0809     20.3478
   695.9000      7.8786      2.4310      0.0569     13.2718     79.9966     20.4805
   696.0000      7.8894      2.4324      0.0492     13.1849     76.7837     20.4270
   696.1000      7.8894      2.4276      0.0567     13.4767     75.9049     20.5418
   696.2000      7.8894      2.4084      0.0667     14.6419     77.3296     20.6056
   696.3000      7.8856      2.3806      0.0009     16.3302     78.8353     20.2801
   696.4000      7.8856      2.3619     -0.0321     17.4591     79.3599     19.9117
   696.5000      7.8746      2.3648      0.0078     17.2832     79.9566     19.9042
   696.6000      7.8746      2.3801      0.0147     16.3576     81.1824     20.1005
   696.7000      7.8746      2.3945      0.0074     15.4876     81.1716     20.1706
   696.8000      7.8817      2.4036      0.0485     14.9339     79.3475     20.2927
   696.9000      7.8817      2.4067      0.0446     14.7438     77.2658     20.7801
   697.0000      7.8911      2.4078      0.0269     14.6795     75.8885     21.4842
   697.1000      7.8911      2.4069      0.0567     14.7327     75.9898     22.0299
   697.2000      7.8911      2.3973      0.0318     15.3144     77.9859     22.2725
   697.3000      7.8780      2.3791      0.0315     16.4184     81.4205     22.4618
   697.4000      7.8780      2.3655     -0.0094     17.2400     84.2239     22.5300
   697.5000      7.8795      2.3734     -0.0149     16.7637     85.3193     22.2438
   697.6000      7.8795      2.3963      0.0658     15.3771     85.5859     21.6802
   697.7000      7.8795      2.4118      0.0380     14.4385     83.5253     21.0952
   697.8000      7.9048      2.4167      0.0209     14.1384     78.8250     20.9055
   697.9000      7.9048      2.4174      0.0826     14.0989     76.1694     21.1261
   698.0000      7.9032      2.4144      0.0632     14.2785     77.8276     21.3020
   698.1000      7.9032      2.4125      0.0451     14.3940     81.7823     21.2299
   698.2000      7.9032      2.4090      0.0857     14.6074     85.3561     21.0861
   698.3000      7.8965      2.3970      0.0495     15.3320     86.3281     21.0437
   698.4000      7.8965      2.3832      0.0287     16.1690     85.7435     21.1278
   698.5000      7.9034      2.3776      0.0175     16.5067     85.8374     21.4188
   698.6000      7.9034      2.3803      0.0658     16.3484     85.5042     21.9457
   698.7000      7.9034      2.3852      0.0501     16.0487     84.1431     22.5161
   698.8000      7.8996      2.3983      0.0079     15.2549     82.7969     22.6528
   698.9000      7.8996      2.4255      0.0747     13.6066     79.6688     22.3067
   699.0000      7.8877      2.4508      0.0999     12.0748     74.5485     21.8721
   699.1000      7.8877      2.4575      0.1013     11.6681     71.9394     21.4037
   699.2000      7.8877      2.4488      0.0962     12.1940     74.3316     20.8485
   699.3000      7.9001      2.4380      0.0541     12.8466     79.9092     20.5351
   699.4000      7.9001      2.4336      0.0615     13.1156     83.4629     20.8626
   699.5000      7.8980      2.4347      0.0748     13.0491     81.3032     21.5343
   699.6000      7.8980      2.4375      0.0593     12.8793     76.8118     21.9761
   699.7000      7.8980      2.4351      0.0586     13.0216     75.0325     22.1016
   699.8000      7.8840      2.4214      0.0492     13.8531     75.9031     21.8115
   699.9000      7.8840      2.4047      0.0383     14.8693     76.3724     21.2202
   700.0000      7.8890      2.4015      0.0370     15.0635     76.5721     20.6532
   700.1000      7.8890      2.4167      0.0231     14.1398     78.9596     19.9692
   700.2000      7.8890      2.4356      0.0750     12.9916     82.3350     19.2882
   700.3000      7.9041      2.4444      0.0297     12.4602     82.7207     19.0044
   700.4000      7.9041      2.4416      0.1129     12.6319     80.1076     19.0075
   700.5000      7.9134      2.4301      0.0363     13.3299     78.2271     19.0779
   700.6000      7.9134      2.4260      0.0123     13.5771     79.1426     19.2561
   700.7000      7.9134      2.4387      0.0661     12.8063     81.5489     19.5770
