~Version Information
VERS.                      2.0: CWLS Log ASCII Standard - VERSION 2.0
WRAP.                       NO: One line per depth step
~Well Information Block
STRT.FT               875.0000: 
STOP.FT              2947.2000: 
STEP.FT                 0.1000: 
NULL.                -999.2500: 
COMP.          Pioneer Natural Resources: COMPANY
WELL.          Hanginstone 21-27: WELL
FLD.           Purgatoire River: FIELD
LOC.           1186' FNL & 1606' FWL--: LOCATION
PROV.                 Colorado: PROVINCE
CNTY.               Las Animas: COUNTRY
SRVC.                Patterson: SERVICE COMPANY
DATE.          Mon Jan 09 07:31:45 2006: LOG DATE
UWI.           05 071 08632 00: UNIQUE WELL ID
~Curve Information Block
DEPT.FT            0 000 00 00: Depth
DCAL.in                       : CDL Caliper
RHOB.g/cc                     : CDL Bulk Density
RHOC.g/cc                     : CDL Density Correction
DPOR.pu                       : CDL Density Porosity
NPOR.pu                       : Neutron Porosity
GR.GAPI                       : Gamma Ray
~Parameter Information Block
~A  Depth       DCAL        RHOB        RHOC        DPOR        NPOR         GR     
# ...
  1691.0000      7.9917      2.4214     -0.0231     13.8569     28.4050    137.8062
  1691.1000      7.9917      2.3541     -0.0793     17.9358     28.9854    137.8223
  1691.2000      7.9917      2.2828     -0.0627     22.2524     29.8228    134.5210
  1691.3000      7.9896      2.2012     -0.0786     27.1989     30.8856    129.6804
  1691.4000      7.9896      2.1221     -0.0927     31.9936     31.7372    124.8860
  1691.5000      7.9821      2.0688     -0.0822     35.2248     32.0221    120.8957
  1691.6000      7.9821      2.0429     -0.0654     36.7934     31.8944    119.1944
  1691.7000      7.9821      2.0366     -0.0510     37.1751     31.6804    120.9100
  1691.8000      7.9692      2.0555     -0.0534     36.0332     31.3989    122.8226
  1691.9000      7.9692      2.1138      0.0505     32.4987     30.9493    123.8604
  1692.0000      7.9591      2.2115      0.1937     26.5746     30.2568    127.4018
  1692.1000      7.9591      2.3351      0.3056     19.0853     29.4910    131.5251
  1692.2000      7.9591      2.4653      0.3661     11.1958     29.0843    134.1356
  1692.3000      7.9552      2.5615      0.4443      5.3664     29.0602    137.6080
  1692.4000      7.9552      2.5818      0.3701      4.1354     29.1383    139.9218
  1692.5000      7.9496      2.5441      0.2283      6.4204     29.2946    140.7120
  1692.6000      7.9496      2.5099      0.1976      8.4895     29.4569    144.7360
  1692.7000      7.9496      2.5018      0.1879      8.9801     29.3821    152.5045
  1692.8000      7.9423      2.4900      0.2040      9.6958     29.0478    158.4167
  1692.9000      7.9423      2.4630      0.0204     11.3312     28.6281    157.2773
  1693.0000      7.9378      2.4499      0.0612     12.1300     28.2183    152.6540
  1693.1000      7.9378      2.4624      0.0602     11.3701     27.9204    151.9360
  1693.2000      7.9378      2.4846      0.0710     10.0230     27.7047    154.9524
  1693.3000      7.9349      2.5015      0.0697      9.0006     27.4033    158.6752
  1693.4000      7.9349      2.5122      0.0903      8.3500     27.3575    163.8555
  1693.5000      7.9344      2.5300      0.0612      7.2754     27.8017    167.4536
  1693.6000      7.9344      2.5621      0.0835      5.3284     28.0576    161.8971
  1693.7000      7.9344      2.5918      0.0996      3.5248     27.7744    151.0892
  1693.8000      7.9354      2.6057      0.0692      2.6842     27.5636    144.9594
  1693.9000      7.9354      2.6096      0.1001      2.4469     27.6617    140.7846
  1694.0000      7.9373      2.6057      0.0977      2.6836     27.6014    132.9703
  1694.1000      7.9373      2.5970      0.0442      3.2130     27.3130    126.1501
  1694.2000      7.9373      2.5946      0.0254      3.3577     27.1639    126.5970
  1694.3000      7.9385      2.5936      0.0642      3.4182     27.1480    132.6600
  1694.4000      7.9385      2.5782      0.0343      4.3543     27.0382    135.4957
  1694.5000      7.9385      2.5519      0.0294      5.9433     26.6998    133.1203
  1694.6000      7.9385      2.5302      0.0689      7.2593     26.3074    131.3973
  1694.7000      7.9385      2.5240      0.0468      7.6334     26.1065    129.8048
  1694.8000      7.9377      2.5478      0.0385      6.1957     25.9436    127.8165
  1694.9000      7.9377      2.5990      0.1243      3.0914     25.6767    128.7805
  1695.0000      7.9369      2.6436      0.1857      0.3879     25.4025    128.9217
  1695.1000      7.9369      2.6642      0.1262     -0.8630     25.2959    126.1983
  1695.2000      7.9369      2.6870      0.1040     -2.2453     25.4047    125.9946
  1695.3000      7.9365      2.7230      0.1660     -4.4232     25.4334    128.4496
  1695.4000      7.9365      2.7416      0.1588     -5.5501     25.2223    128.7444
  1695.5000      7.9369      2.7240      0.1392     -4.4862     25.1484    123.4496
  1695.6000      7.9369      2.6896      0.0736     -2.4008     25.5162    116.4477
  1695.7000      7.9369      2.6651      0.0419     -0.9164     25.9404    114.8606
  1695.8000      7.9374      2.6527      0.0639     -0.1639     25.9390    118.2101
  1695.9000      7.9374      2.6420     -0.0120      0.4844     25.8083    122.1650
  1696.0000      7.9370      2.6242      0.0245      1.5639     26.0388    124.8017
  1696.1000      7.9370      2.5915     -0.0135      3.5472     26.4092    124.7895
  1696.2000      7.9370      2.5593     -0.0226      5.4945     26.3864    121.0128
  1696.3000      7.9374      2.5495      0.0578      6.0909     26.0278    116.7130
  1696.4000      7.9374      2.5585      0.0293      5.5448     25.8874    117.6816
  1696.5000      7.9390      2.5725      0.0677      4.6940     26.0835    120.9997
  1696.6000      7.9390      2.5853      0.0571      3.9200     26.1764    117.8012
  1696.7000      7.9390      2.5945      0.0781      3.3621     25.9533    110.4161
  1696.8000      7.9384      2.5903      0.0813      3.6199     25.4527    110.0174
  1696.9000      7.9384      2.5751      0.0371      4.5421     24.8464    118.0569
  1697.0000      7.9353      2.5702      0.0272      4.8342     24.3108    121.7965
  1697.1000      7.9353      2.5843      0.0570      3.9805     23.8882    114.6071
  1697.2000      7.9353      2.6071      0.0824      2.5984     23.6749    106.0535
  1697.3000      7.9348      2.6234      0.0820      1.6112     23.3757    102.0644
  1697.4000      7.9348      2.6232      0.0965      1.6227     22.4632     98.6547
  1697.5000      7.9359      2.6126      0.0395      2.2689     21.1836     93.2891
  1697.6000      7.9359      2.6061      0.0313      2.6576     20.3920     87.3996
  1697.7000      7.9359      2.6028      0.0642      2.8607     20.2250     83.4498
  1697.8000      7.9344      2.5918      0.0200      3.5283     20.0249     77.7653
  1697.9000      7.9344      2.5781      0.0378      4.3600     19.3582     69.4218
  1698.0000      7.9251      2.5784      0.0117      4.3410     18.4139     66.4189
  1698.1000      7.9251      2.6019      0.0343      2.9179     17.8956     68.9184
  1698.2000      7.9251      2.6331      0.0816      1.0263     18.2187     67.8908
  1698.3000      7.9141      2.6523      0.0976     -0.1385     18.8934     60.7823
  1698.4000      7.9141      2.6636      0.0896     -0.8222     19.3286     53.0178
  1698.5000      7.9269      2.6747      0.1439     -1.4953     19.5005     46.5801
  1698.6000      7.9269      2.6780      0.1429     -1.6999     19.6640     41.1843
  1698.7000      7.9269      2.6661      0.1340     -0.9784     19.8348     39.3273
  1698.8000      7.9743      2.6350      0.1300      0.9078     20.1372     40.7466
  1698.9000      7.9743      2.5782      0.0796      4.3513     21.0724     41.2020
  1699.0000      8.0333      2.4928      0.0597      9.5286     22.6469     40.9132
  1699.1000      8.0333      2.3905     -0.0116     15.7285     24.0554     43.0430
  1699.2000      8.0333      2.2998     -0.0362     21.2244     24.8381     46.2021
  1699.3000      8.0759      2.2498     -0.0820     24.2563     25.3500     49.8427
  1699.4000      8.0759      2.2500     -0.0525     24.2440     25.7617     56.2573
  1699.5000      8.0898      2.2880     -0.0300     21.9417     25.9165     65.9348
  1699.6000      8.0898      2.3423      0.0533     18.6500     25.8832     76.9647
  1699.7000      8.0898      2.3963      0.1159     15.3770     25.7583     84.1278
  1699.8000      8.0786      2.4529      0.2217     11.9449     25.6356     86.8667
  1699.9000      8.0786      2.5291      0.3012      7.3272     25.6606     94.5443
  1700.0000      8.0510      2.6189      0.3794      1.8833     25.7170    108.2664
  1700.1000      8.0510      2.6788      0.4153     -1.7466     25.6566    117.3909
  1700.2000      8.0510      2.6950      0.2753     -2.7277     25.5173    118.0376
  1700.3000      8.0261      2.7120      0.2085     -3.7593     25.3527    114.4881
  1700.4000      8.0261      2.7440      0.2534     -5.6948     25.3942    111.7294
  1700.5000      8.0115      2.7499      0.2063     -6.0550     25.8703    113.8913
