~Version Information
VERS.                      2.0: CWLS Log ASCII Standard - VERSION 2.0
WRAP.                       NO: One line per depth step
~Well Information Block
STRT.FT                -7.2500: 
STOP.FT              1273.5000: 
STEP.FT                 0.2500: 
NULL.                -999.2500: 
COMP.          Pioneer Natural Resources: COMPANY
WELL.            Keiko 14-6 Tr: WELL
FLD.           Purgatorie River: FIELD
LOC.           462' FSL & 1202' FWL--: LOCATION
PROV.                       CO: PROVINCE
CNTY.               Las Animas: COUNTRY
SRVC.          Patterson Wireline: SERVICE COMPANY
DATE.          Wed Jan 04 09:22:19 2006: LOG DATE
UWI.           05 071 08629 00: UNIQUE WELL ID
~Curve Information Block
DEPT.FT            0 000 00 00: Depth
CCL.                          : Casing Collar Locator
TT3.usec                      : CBL 3' Travel Time
AMP3.mV                       : CBL 3' Amplitude
GR.GAPI                       : Gamma Ray
~Parameter Information Block
~A  Depth       CCL         TT3         AMP3         GR     
# ...
   830.2500      0.0000    707.8123      9.4947     55.5937
   830.5000      0.0000    710.4619      9.5493     60.6344
   830.7500      0.0000    713.8613      9.5768     66.3029
   831.0000      0.0000    717.2850      9.6056     72.8263
   831.2500      0.0000    719.4915      9.6553     80.7605
   831.5000      0.0000    718.8497      9.7268     90.5478
   831.7500      0.0000    714.8104      9.8101    101.5461
   832.0000      0.0000    709.0198      9.8993    111.9249
   832.2500      0.0000    703.6386      9.9985    119.8050
   832.5000      0.0000    698.0890     10.1149    124.3516
   832.7500      0.0000    688.6370     10.2460    125.8724
   833.0000      0.0000    672.8632     10.3724    125.2970
   833.2500      0.0000    654.5720     10.4648    123.5491
   833.5000      0.0000    641.7386     10.5031    121.0057
   833.7500      0.0000    637.4152     10.4931    117.4764
   834.0000      0.0000    634.0105     10.4597    113.0494
   834.2500      0.0000    618.9550     10.4215    108.8164
   834.5000      0.0000    586.1057     10.3782    106.2579
   834.7500      0.0000    541.1987     10.3238    105.8200
   835.0000      0.0000    497.4022     10.2647    106.5222
   835.2500      0.0000    467.4150     10.2149    107.0220
   835.5000      0.0000    459.6026     10.1751    106.4695
   835.7500      0.0000    477.6721     10.1233    104.1793
   836.0000      0.0000    518.8875     10.0300     99.3930
   836.2500      0.0000    572.1859      9.8840     92.0343
   836.5000      0.0000    622.3365      9.7074     83.3800
   836.7500      0.0000    658.7801      9.5497     75.6355
   837.0000      0.0000    679.9594      9.4653     70.8673
   837.2500      0.0000    689.5692      9.4897     70.0497
   837.5000      0.0000    690.6039      9.6257     72.7188
   837.7500      0.0000    682.8124      9.8414     77.5091
   838.0000      0.0000    663.8686     10.0811     83.1535
   838.2500      0.0000    633.4028     10.2868     88.9539
   838.5000      0.0000    598.2225     10.4175     94.4738
   838.7500      0.0000    572.3328     10.4596     99.1850
   839.0000      0.0000    566.3250     10.4262    102.6463
   839.2500      0.0000    574.9764     10.3498    105.0107
   839.5000      0.0000    579.9823     10.2688    107.2334
   839.7500      0.0000    568.9672     10.2116    110.2856
   840.0000      0.0000    550.4467     10.1881    113.7510
   840.2500      0.0000    547.1516     10.1913    115.7584
   840.5000      0.0000    574.1955     10.2046    114.9908
   840.7500      0.0000    624.9653     10.2088    112.2534
   841.0000      0.0000    678.0230     10.1868    109.4031
   841.2500      0.0000    715.0447     10.1291    107.2284
   841.5000      0.0000    731.0907     10.0441    105.0636
   841.7500      0.0000    731.4832      9.9626    102.0541
   842.0000      0.0000    723.8018      9.9255     98.2297
   842.2500      0.0000    713.4290      9.9574     94.6059
   842.5000      0.0000    703.3807     10.0467     92.5146
   842.7500      0.0000    695.3343     10.1480     92.4837
   843.0000      0.0000    689.9609     10.2044     93.5115
   843.2500      0.0000    686.9987     10.1780     93.6052
   843.5000      0.0000    685.7011     10.0698     91.0887
   843.7500      0.0000    685.4623      9.9158     85.4884
   844.0000      0.0000    686.0809      9.7652     77.8068
   844.2500      0.0000    687.5794      9.6574     70.4671
   844.5000      0.0000    689.7499      9.6081     66.4057
   844.7500      0.0000    691.7861      9.6062     67.1982
   845.0000      0.0000    692.5582      9.6203     71.8386
   845.2500      0.0000    691.5325      9.6154     77.6743
   845.5000      0.0000    689.3372      9.5677     82.4452
   845.7500      0.0000    687.2819      9.4723     85.2616
   846.0000      0.0000    686.5179      9.3423     86.2729
   846.2500      0.0000    687.6987      9.2022     86.2473
   846.5000      0.0000    690.8495      9.0764     86.3081
   846.7500      0.0000    694.9846      8.9805     87.1520
   847.0000      0.0000    698.1184      8.9196     88.1988
   847.2500      0.0000    698.4301      8.8910     88.0599
   847.5000      0.0000    695.6929      8.8884     86.1390
   847.7500      0.0000    691.0378      8.9058     83.3892
   848.0000      0.0000    684.8210      8.9398     81.3104
   848.2500      0.0000    674.3262      8.9918     80.5662
   848.5000      0.0000    653.6812      9.0663     80.7610
   848.7500      0.0000    617.9217      9.1654     81.1902
   849.0000      0.0000    570.5369      9.2810     81.4184
   849.2500      0.0000    527.8244      9.3908     81.3351
   849.5000      0.0000    511.5945      9.4625     81.0643
   849.7500      0.0000    532.6502      9.4680     80.8922
   850.0000      0.0000    580.9315      9.4019     81.1491
   850.2500      0.0000    633.7994      9.2880     82.2679
   850.5000      0.0000    673.7628      9.1654     85.0938
   850.7500      0.0000    697.4445      9.0658     90.7610
   851.0000      0.0000    710.6591      9.0036     99.5749
   851.2500      0.0000    719.7730      8.9828    110.0239
   851.5000      0.0000    728.1002      9.0041    119.5172
   851.7500      0.0000    736.4786      9.0620    126.1361
   852.0000      0.0000    744.3918      9.1363    129.2932
   852.2500      0.0000    750.7865      9.1959    129.2608
   852.5000      0.0000    754.9507      9.2162    127.0947
   852.7500      0.0000    756.8870      9.1960    124.6275
   853.0000      0.0000    756.8732      9.1558    123.1651
   853.2500      0.0000    754.8942      9.1215    122.1719
   853.5000      0.0000    750.7963      9.1089    120.2410
   853.7500      0.0000    745.1436      9.1204    117.2481
   854.0000      0.0000    739.7117      9.1517    114.5349
   854.2500      0.0000    736.5714      9.1968    112.9529
   854.5000      0.0000    736.3093      9.2493    111.6006
   854.7500      0.0000    737.4288      9.3025    108.9132
   855.0000      0.0000    737.8723      9.3510    104.6409
   855.2500      0.0000    736.8770      9.3922    100.2777
   855.5000      0.0000    735.0393      9.4267     97.4344
   855.7500      0.0000    733.1992      9.4582     96.2431
   856.0000      0.0000    732.0738      9.4906     95.5975
   856.2500      0.0000    732.3000      9.5240     94.3923
   856.5000      0.0000    733.2513      9.5546     92.0424
   856.7500      0.0000    731.0490      9.5805     88.2119
   857.0000      0.0000    718.4586      9.6050     82.8185
   857.2500      0.0000    688.6248      9.6293     76.6404
   857.5000      0.0000    641.1678      9.6380     71.6881
   857.7500      0.0000    585.4726      9.5927     70.2401
   858.0000      0.0000    536.5440      9.4490     72.7801
   858.2500      0.0000    506.3215      9.1886     76.9843
   858.5000      0.0000    498.1755      8.8526     79.3223
   858.7500      0.0000    507.8231      8.5465     77.8416
   859.0000      0.0000    526.9916      8.3742     73.4333
   859.2500      0.0000    546.0302      8.3315     68.8190
   859.5000      0.0000    555.3747      8.2952     66.4138
   859.7500      0.0000    548.1115      8.1690     66.6141
   860.0000      0.0000    524.4073      8.0050     67.7737
   860.2500      0.0000    493.0101      7.9273     67.9479
   860.5000      0.0000    464.9531      7.9793     66.6388
   860.7500     -2.0000    445.3548      8.0965     64.8848
   861.0000      2.0000    433.8295      8.1957     64.0255
   861.2500      0.0000    431.5060      8.2575     64.6037
   861.5000      0.0000    443.5157      8.3394     66.2121
   861.7500      0.0000    474.0416      8.5153     68.0001
   862.0000      0.0000    520.2554      8.7863     69.1209
   862.2500      0.0000    570.0219      9.0735     68.9256
   862.5000      0.0000    605.4121      9.3246     67.2742
   862.7500      0.0000    613.1629      9.5777     64.8299
   863.0000      0.0000    594.7059      9.8815     62.7018
   863.2500      0.0000    564.0628     10.2006     61.6868
   863.5000      0.0000    535.1985     10.4459     61.9424
