~Version Information
VERS.                      2.0: CWLS Log ASCII Standard - VERSION 2.0
WRAP.                       NO: One line per depth step
~Well Information Block
STRT.FT                -9.2500: 
STOP.FT              1854.7500: 
STEP.FT                 0.2500: 
NULL.                -999.2500: 
COMP.          Pioneer Natural Resources: COMPANY
WELL.          State Wildlife 32-16 Tr: WELL
FLD.           Purgatoire River: FIELD
LOC.           1838' FNL & 1850' FEL--: LOCATION
STAT.                       CO: State
CNTY.               Las Animas: COUNTY
CTRY. USA : Country
SECT. 16 : Section
TOWN. 32S : Township
RANG. 66W : Range
SRVC.          Patterson Wireline: SERVICE COMPANY
DATE.          Tue Nov 22 10:17:13 2005: LOG DATE
API.           05 071 08568 00: UNIQUE WELL ID
~Curve Information Block
DEPT.FT            0 000 00 00: Depth
CCL.                          : Casing Collar Locator
TT3.usec                      : CBL 3' Travel Time
AMP3.mV                       : CBL 3' Amplitude
GR.GAPI                       : Gamma Ray
~Parameter Information Block
~A  Depth       CCL         TT3         AMP3         GR     
# ...
  1598.7500      0.0000    729.8937      7.5756     83.0509
  1599.0000      0.0000    729.3851      7.5350     81.7333
  1599.2500      0.0000    729.0039      7.5735     82.7394
  1599.5000      0.0000    728.8076      7.7040     85.9219
  1599.7500      0.0000    728.7734      7.9025     90.7489
  1600.0000      0.0000    728.8533      8.1232     95.9793
  1600.2500      0.0000    728.9996      8.3208    100.0770
  1600.5000      0.0000    729.1616      8.4634    102.5481
  1600.7500      0.0000    729.3114      8.5371    104.5760
  1601.0000      0.0000    729.4784      8.5475    107.7740
  1601.2500      0.0000    729.7285      8.5153    112.4029
  1601.5000      0.0000    730.1078      8.4666    117.1553
  1601.7500      0.0000    730.6042      8.4187    120.5129
  1602.0000      0.0000    731.1411      8.3700    121.8717
  1602.2500      0.0000    731.5969      8.3011    121.5451
  1602.5000      0.0000    731.8631      8.1890    120.2654
  1602.7500      0.0000    731.9136      8.0222    118.6763
  1603.0000      0.0000    731.8191      7.8101    116.8265
  1603.2500      0.0000    731.6849      7.5821    114.1454
  1603.5000      0.0000    731.5848      7.3769    110.2572
  1603.7500      0.0000    731.5510      7.2260    105.8140
  1604.0000      0.0000    731.5974      7.1411    102.3280
  1604.2500      0.0000    731.7298      7.1139    101.3043
  1604.5000      0.0000    731.9473      7.1227    103.5204
  1604.7500      0.0000    732.2771      7.1444    108.7137
  1605.0000      0.0000    732.8716      7.1618    115.6658
  1605.2500      0.0000    734.1583      7.1620    122.9333
  1605.5000      0.0000    736.8547      7.1316    129.8949
  1605.7500      0.0000    741.5237      7.0622    136.9510
  1606.0000      0.0000    747.6699      6.9603    144.4675
  1606.2500      0.0000    753.2482      6.8457    151.8102
  1606.5000      0.0000    755.6231      6.7411    157.8032
  1606.7500      0.0000    753.5492      6.6664    162.2031
  1607.0000      0.0000    748.2125      6.6340    166.5788
  1607.2500      0.0000    742.1826      6.6375    173.3523
  1607.5000      0.0000    737.4714      6.6496    183.3338
  1607.7500      0.0000    734.6609      6.6399    193.9825
  1608.0000      0.0000    733.4567      6.5971    200.6781
  1608.2500      0.0000    733.5610      6.5318    200.2041
  1608.5000      0.0000    734.9564      6.4618    192.8777
  1608.7500      0.0000    737.5571      6.3951    181.5652
  1609.0000      0.0000    740.7891      6.3230    169.3572
  1609.2500      0.0000    743.7232      6.2331    158.1574
  1609.5000      0.0000    745.6415      6.1327    148.6084
  1609.7500      0.0000    746.2217      6.0567    140.7647
  1610.0000      0.0000    745.2739      6.0447    134.7998
  1610.2500      0.0000    742.8667      6.1044    131.1398
  1610.5000      0.0000    739.7099      6.2010    129.9908
  1610.7500      0.0000    736.8597      6.2836    130.8798
  1611.0000      0.0000    734.9474      6.3190    132.7249
  1611.2500      0.0000    733.9136      6.3052    134.3319
  1611.5000      0.0000    733.3558      6.2603    134.8412
  1611.7500      0.0000    732.9087      6.2037    133.8294
  1612.0000      0.0000    732.3229      6.1436    131.3707
  1612.2500      0.0000    731.3375      6.0794    128.3596
  1612.5000      0.0000    729.5093      6.0127    126.3505
  1612.7500      0.0000    726.3376      5.9560    126.3750
  1613.0000      0.0000    721.9486      5.9282    127.7865
  1613.2500      0.0000    717.7709      5.9390    128.2849
  1613.5000      0.0000    715.9610      5.9759    124.9642
  1613.7500      0.0000    717.5575      6.0069    115.9903
  1614.0000      0.0000    721.4253      5.9982    102.3847
  1614.2500      0.0000    725.3906      5.9351     88.1262
  1614.5000      0.0000    728.0881      5.8303     77.5140
  1614.7500      0.0000    729.4756      5.7158     72.1172
  1615.0000      0.0000    730.1000      5.6244     70.5288
  1615.2500      0.0000    730.3889      5.5747     70.5372
  1615.5000      0.0000    730.5112      5.5681     70.7020
  1615.7500      0.0000    730.5261      5.5966     70.3341
  1616.0000      0.0000    730.4844      5.6488     69.2681
  1616.2500      0.0000    730.4297      5.7115     67.9507
  1616.5000      0.0000    730.3643      5.7680     66.9341
  1616.7500      0.0000    730.2616      5.8006     65.8862
  1617.0000      0.0000    730.1028      5.7965     63.5367
  1617.2500      0.0000    729.9035      5.7533     58.9940
  1617.5000      0.0000    729.7144      5.6799     52.9620
  1617.7500      0.0000    729.5975      5.5887     47.3339
  1618.0000      0.0000    729.5919      5.4849     43.7252
  1618.2500      0.0000    729.6870      5.3654     42.6907
  1618.5000      0.0000    729.8206      5.2275     43.9615
  1618.7500      0.0000    729.8702      5.0762     46.6872
  1619.0000      0.0000    729.5936      4.9204     49.6196
  1619.2500      0.0000    728.5128      4.7635     51.7882
  1619.5000      0.0000    725.8881      4.6026     53.0056
  1619.7500      0.0000    721.0587      4.4387     53.4322
  1620.0000      0.0000    714.2070      4.2861     53.0708
  1620.2500      0.0000    706.8617      4.1730     52.1592
  1620.5000      0.0000    701.2513      4.1427     51.6002
  1620.7500      0.0000    698.8539      4.2437     52.2644
  1621.0000      0.0000    699.8090      4.4941     53.8642
  1621.2500      0.0000    703.6653      4.8517     55.0618
  1621.5000      2.0000    709.9566      5.2316     54.9300
  1621.7500      0.0000    717.7983      5.5487     54.0283
  1622.0000      0.0000    725.8487      5.7377     53.9431
  1622.2500      0.0000    733.2561      5.7621     56.1299
  1622.5000      0.0000    740.0229      5.6464     61.4418
  1622.7500      0.0000    746.0823      5.5070     70.3091
  1623.0000      0.0000    750.5599      5.5157     82.6435
  1623.2500      0.0000    752.2910      5.7957     97.4582
  1623.5000      0.0000    750.8201      6.3409    113.0007
  1623.7500      0.0000    746.7684      7.0330    127.3861
  1624.0000      0.0000    741.5131      7.7196    139.0320
  1624.2500      0.0000    736.5903      8.2807    146.6971
  1624.5000      0.0000    733.0446      8.6516    149.5262
  1624.7500      0.0000    731.0536      8.8174    147.5278
  1625.0000      0.0000    730.1732      8.8039    142.2902
  1625.2500      0.0000    729.8766      8.6657    136.9327
  1625.5000      0.0000    729.8698      8.4693    134.6445
  1625.7500      0.0000    730.0384      8.2734    136.7786
  1626.0000      0.0000    730.2891      8.1166    142.0937
  1626.2500      0.0000    730.4831      8.0164    147.6947
  1626.5000      0.0000    730.4233      7.9777    150.9109
  1626.7500      0.0000    729.7599      7.9978    150.8449
  1627.0000      0.0000    727.7151      8.0635    148.6945
  1627.2500      0.0000    722.9415      8.1473    146.8582
  1627.5000      0.0000    714.2029      8.2151    147.3581
  1627.7500      0.0000    701.9531      8.2465    150.3092
  1628.0000      0.0000    689.4461      8.2486    153.6258
  1628.2500      0.0000    681.6872      8.2469    154.8316
  1628.5000      0.0000    682.4911      8.2573    153.4937
  1628.7500      0.0000    691.9995      8.2639    151.3697
  1629.0000      0.0000    706.6384      8.2247    150.0027
  1629.2500      0.0000    721.3342      8.1058    148.9504
  1629.5000      0.0000    732.1123      7.9183    146.8346
  1629.7500      0.0000    737.4314      7.7203    143.6717
  1630.0000      0.0000    738.0859      7.5776    141.5370
  1630.2500      0.0000    736.2137      7.5192    142.7130
  1630.5000      0.0000    733.9252      7.5288    147.2352
  1630.7500      0.0000    732.3317      7.5710    152.6115
  1631.0000      0.0000    731.5239      7.6197    156.0547
  1631.2500      0.0000    731.1442      7.6594    156.7623
  1631.5000      0.0000    730.8466      7.6648    156.1261
  1631.7500      0.0000    730.4355      7.5945    156.1617
  1632.0000      0.0000    729.8752      7.4201    157.7268
