~Version Information
VERS.                      2.0: CWLS Log ASCII Standard - VERSION 2.0
WRAP.                       NO: One line per depth step
~Well Information Block
STRT.FT                10.0000: 
STOP.FT              1350.5000: 
STEP.FT                 0.1000: 
NULL.                -999.2500: 
COMP.          Pioneer Natural Resources: COMPANY
WELL.              Dicks 32-5R: WELL
FLD.           Purgatorie River: FIELD
LOC.           1485' FNL & 1684' FEL: LOCATION
PROV.                 Colorado: PROVINCE
CNTY.               Las Animas: COUNTRY
SRVC.                Patterson: SERVICE COMPANY
DATE.          Fri Dec 09 10:06:15 2005: LOG DATE
UWI.                          : UNIQUE WELL ID
~Curve Information Block
DEPT.FT            0 000 00 00: Depth
DCAL.in                       : CDL Caliper
RHOB.g/cc                     : CDL Bulk Density
RHOC.g/cc                     : CDL Density Correction
DPOR.pu                       : CDL Density Porosity
GR.GAPI                       : Gamma Ray
NPOR.pu                       : Neutron Porosity
~Parameter Information Block
~A  Depth       DCAL        RHOB        RHOC        DPOR         GR         NPOR    
# ...
   720.4000      8.0831      2.5236      0.1153      7.6621    174.4144     24.5033
   720.5000      8.1142      2.5324      0.1018      7.1299    171.6206     24.3130
   720.6000      8.1142      2.5412      0.0709      6.5917    169.5009     24.5397
   720.7000      8.1142      2.5519      0.1307      5.9472    167.6873     24.9700
   720.8000      8.0995      2.5617      0.1151      5.3524    165.6577     25.3506
   720.9000      8.0995      2.5694      0.1015      4.8852    162.5340     25.5177
   721.0000      8.0778      2.5692      0.1380      4.8978    159.0894     25.6525
   721.1000      8.0778      2.5513      0.0940      5.9807    158.6391     25.8638
   721.2000      8.0778      2.5317      0.0290      7.1711    161.6893     25.9943
   721.3000      8.0834      2.5373      0.0198      6.8321    166.3015     26.0530
   721.4000      8.0834      2.5598      0.0455      5.4641    171.4983     26.2162
   721.5000      8.0618      2.5649      0.0660      5.1558    175.5951     26.5310
   721.6000      8.0618      2.5454      0.0158      6.3411    176.3210     26.7667
   721.7000      8.0618      2.5282     -0.0014      7.3835    174.6320     26.5931
   721.8000      8.0782      2.5336      0.0258      7.0548    173.0676     26.0757
   721.9000      8.0782      2.5505      0.1013      6.0279    171.8355     25.4519
   722.0000      8.1196      2.5531      0.0898      5.8734    171.3533     24.9351
   722.1000      8.1196      2.5369      0.0106      6.8568    172.6352     24.8114
   722.2000      8.1196      2.5192      0.0535      7.9269    174.1096     24.9907
   722.3000      8.1341      2.5096      0.0594      8.5117    174.5140     25.0472
   722.4000      8.1341      2.5077      0.0427      8.6219    174.5651     24.8130
   722.5000      8.1546      2.5177      0.0373      8.0154    176.1708     24.6378
   722.6000      8.1546      2.5391      0.1237      6.7207    181.0251     24.7386
   722.7000      8.1546      2.5582      0.1451      5.5645    185.7899     24.7518
   722.8000      8.1514      2.5654      0.1295      5.1267    185.6025     24.3764
   722.9000      8.1514      2.5597      0.1522      5.4698    182.8379     24.1081
   723.0000      8.1226      2.5426      0.1033      6.5101    183.1906     24.4156
   723.1000      8.1226      2.5215      0.1018      7.7877    185.0451     24.9567
   723.2000      8.1226      2.5004      0.1139      9.0645    184.1048     25.4116
   723.3000      8.0887      2.4797      0.0568     10.3202    181.2834     25.7356
   723.4000      8.0887      2.4693      0.0679     10.9500    178.7127     25.7807
   723.5000      8.1032      2.4830      0.0039     10.1232    176.4984     25.7012
   723.6000      8.1032      2.5172      0.1073      8.0478    173.9797     25.9370
   723.7000      8.1032      2.5503      0.1389      6.0396    170.6748     26.4676
   723.8000      8.1040      2.5674      0.1681      5.0066    167.3298     26.8853
   723.9000      8.1040      2.5655      0.1294      5.1224    163.4332     27.3345
   724.0000      8.0671      2.5567      0.0360      5.6533    158.4487     28.1265
   724.1000      8.0671      2.5623      0.0222      5.3138    152.4548     28.9198
   724.2000      8.0671      2.5841      0.0449      3.9933    144.2622     29.1154
   724.3000      8.0278      2.6026      0.0830      2.8725    135.3320     28.6683
   724.4000      8.0278      2.6039      0.0745      2.7911    128.8574     27.9800
   724.5000      8.0564      2.5956      0.0424      3.2970    125.0786     27.2941
   724.6000      8.0564      2.5946      0.0539      3.3587    123.2055     26.6626
   724.7000      8.0564      2.5996      0.0905      3.0568    122.2962     26.3816
   724.8000      8.0378      2.5941      0.0699      3.3888    120.3879     26.5563
   724.9000      8.0378      2.5740      0.0319      4.6043    117.9838     26.6923
   725.0000      7.9614      2.5466      0.0446      6.2674    116.6379     26.4160
   725.1000      7.9614      2.5177      0.0029      8.0172    115.7066     25.8871
   725.2000      7.9614      2.4923      0.0492      9.5600    114.5699     25.2723
   725.3000      7.9607      2.4695      0.0338     10.9379    112.9838     24.6434
   725.4000      7.9607      2.4524     -0.0060     11.9767    111.5524     24.2165
   725.5000      7.9683      2.4550      0.0276     11.8164    112.1204     24.0516
   725.6000      7.9683      2.4872      0.0748      9.8663    113.7852     23.9332
   725.7000      7.9683      2.5451      0.1289      6.3590    113.8245     23.6778
   725.8000      7.9339      2.6102      0.1946      2.4124    113.9351     23.3654
   725.9000      7.9339      2.6596      0.2067     -0.5792    115.1263     23.2387
   726.0000      7.9488      2.6900      0.2018     -2.4266    113.9268     23.3777
   726.1000      7.9488      2.7117      0.2554     -3.7386    109.6470     23.7407
   726.2000      7.9488      2.7274      0.2454     -4.6917    106.9353     24.2534
   726.3000      7.8986      2.7318      0.2185     -4.9558    108.7964     24.6639
   726.4000      7.8986      2.7193      0.1846     -4.1995    112.2414     24.8621
   726.5000      7.9033      2.6978      0.1398     -2.8941    114.2292     24.9228
   726.6000      7.9033      2.6772      0.1604     -1.6484    116.4430     24.9442
   726.7000      7.9033      2.6544      0.1076     -0.2696    121.2168     25.0332
   726.8000      7.9086      2.6267      0.0866      1.4094    129.1735     25.0665
   726.9000      7.9086      2.5949      0.0571      3.3378    138.2642     24.9128
   727.0000      7.9940      2.5571      0.0483      5.6330    143.8919     24.6829
   727.1000      7.9940      2.5180     -0.0192      8.0029    146.1237     24.3632
   727.2000      7.9940      2.4913     -0.0255      9.6179    149.0446     23.8406
   727.3000      8.0191      2.4741      0.0560     10.6605    152.5895     23.3900
   727.4000      8.0191      2.4498      0.0366     12.1352    155.4491     23.2669
   727.5000      8.0412      2.4190      0.0495     14.0001    157.3232     23.2392
   727.6000      8.0412      2.3944      0.0358     15.4917    158.5121     23.0898
   727.7000      8.0412      2.3819      0.0505     16.2459    160.9025     22.8164
   727.8000      8.0289      2.3758      0.0738     16.6182    165.0008     22.4899
   727.9000      8.0289      2.3659      0.0867     17.2156    168.8784     22.2249
   728.0000      8.0260      2.3501      0.1064     18.1775    171.0088     22.0470
   728.1000      8.0260      2.3364      0.0832     19.0059    171.5679     21.9276
   728.2000      8.0260      2.3355      0.1148     19.0623    172.0446     21.9723
   728.3000      8.0756      2.3542      0.1012     17.9282    174.2218     22.2697
   728.4000      8.0756      2.3960      0.1295     15.3917    175.8989     22.7321
   728.5000      8.2012      2.4516      0.1518     12.0216    175.4907     23.2787
   728.6000      8.2012      2.4997      0.1476      9.1088    176.2922     23.9471
   728.7000      8.2012      2.5276      0.1694      7.4170    178.2724     24.7867
   728.8000      8.1025      2.5414      0.1387      6.5793    176.8758     25.8783
   728.9000      8.1025      2.5505      0.1660      6.0320    171.4935     27.1207
   729.0000      8.0643      2.5565      0.1422      5.6673    167.0165     28.0181
   729.1000      8.0643      2.5602      0.1138      5.4419    165.0795     28.3621
   729.2000      8.0643      2.5602      0.0645      5.4424    161.1465     28.5321
   729.3000      8.0531      2.5592      0.0488      5.5027    154.2017     28.6060
   729.4000      8.0531      2.5656      0.0436      5.1139    148.0597     28.3430
   729.5000      8.0017      2.5783      0.0667      4.3455    146.1715     28.0178
   729.6000      8.0017      2.5891      0.0707      3.6909    147.4550     27.9704
   729.7000      8.0017      2.6000      0.0915      3.0322    146.5816     28.0591
   729.8000      7.9914      2.6158      0.0700      2.0717    142.0827     28.0096
   729.9000      7.9914      2.6244      0.0941      1.5517    138.0037     27.6831
