~Version Information
VERS.                      2.0: CWLS Log ASCII Standard - VERSION 2.0
WRAP.                       NO: One line per depth step
~Well Information Block
STRT.FT               -15.7500: 
STOP.FT              1862.5000: 
STEP.FT                 0.2500: 
NULL.                -999.2500: 
COMP.          XTO Energy Inc.: COMPANY
WELL.          Golden Eagle 19-11: WELL
FLD.           Purgatorie River: FIELD
LOC.           2351' FSL &1926' WL--: LOCATION
CNTY.               Las Animas: COUNTY
SRVC.          Patterson Wireline: SERVICE COMPANY
DATE.          Fri Mar 24 16:29:29 2006: LOG DATE
UWI.           05 071 08696 00: UNIQUE WELL ID
STAT.                       CO: STATE
~Curve Information Block
DEPT.FT            0 000 00 00: Depth
CCL.                          : Casing Collar Locator
TT3.usec                      : CBL 3' Travel Time
AMP3.mV                       : CBL 3' Amplitude
GR.GAPI                       : Gamma Ray
~Parameter Information Block
~A  Depth       CCL         TT3         AMP3         GR     
# ...
   587.2500      0.0000    487.6907      5.3188    122.3360
   587.5000      0.0000    509.7017      5.2722    119.9203
   587.7500      0.0000    508.7339      5.2746    118.5531
   588.0000      0.0000    484.3729      5.3283    119.9099
   588.2500      0.0000    449.9580      5.4153    123.8800
   588.5000      0.0000    420.4806      5.5099    128.7795
   588.7500      0.0000    402.5793      5.5925    132.9193
   589.0000      0.0000    394.6473      5.6566    136.0677
   589.2500      0.0000    392.4112      5.7060    139.2822
   589.5000      0.0000    392.9915      5.7466    143.3067
   589.7500      0.0000    395.6484      5.7823    147.2894
   590.0000      0.0000    400.7029      5.8143    149.0391
   590.2500      0.0000    408.0784      5.8422    146.6037
   590.5000      0.0000    416.5617      5.8656    140.0992
   590.7500      0.0000    424.3549      5.8844    132.3627
   591.0000      0.0000    430.4593      5.8968    127.3858
   591.2500      0.0000    435.7871      5.8971    127.3698
   591.5000      0.0000    443.4923      5.8790    131.2173
   591.7500      0.0000    458.3457      5.8394    136.0793
   592.0000      0.0000    484.0437      5.7842    140.0716
   592.2500      0.0000    518.4514      5.7303    143.0432
   592.5000      0.0000    551.2281      5.7012    145.1693
   592.7500      0.0000    569.0786      5.7127    145.8327
   593.0000      0.0000    565.8456      5.7610    144.0639
   593.2500      0.0000    547.1214      5.8250    139.5108
   593.5000      0.0000    524.4925      5.8806    133.0491
   593.7500      0.0000    506.3907      5.9115    126.9644
   594.0000      0.0000    495.4444      5.9096    123.9174
   594.2500      0.0000    493.0256      5.8699    124.6239
   594.5000      0.0000    502.1165      5.7909    126.7440
   594.7500      0.0000    522.3514      5.6810    126.8346
   595.0000      0.0000    543.8032      5.5621    123.3961
   595.2500      0.0000    550.6804      5.4655    117.8701
   595.5000      0.0000    534.2331      5.4192    113.1164
   595.7500      0.0000    501.2751      5.4351    111.0944
   596.0000      0.0000    468.7202      5.5025    111.5387
   596.2500      0.0000    450.7638      5.5923    112.4463
   596.5000      0.0000    451.3745      5.6698    111.9485
   596.7500      0.0000    465.4490      5.7096    109.7633
   597.0000      0.0000    483.8091      5.7052    107.0860
   597.2500      0.0000    499.1502      5.6691    105.4665
   597.5000      0.0000    511.5032      5.6237    105.5954
   597.7500      0.0000    527.9280      5.5893    106.5125
   598.0000      0.0000    554.3457      5.5764    106.1673
   598.2500      0.0000    587.3648      5.5845    103.6289
   598.5000      0.0000    615.3961      5.6059    100.8241
   598.7500      0.0000    627.7157      5.6314    101.3872
   599.0000      0.0000    622.5436      5.6552    107.4513
   599.2500      0.0000    607.9677      5.6744    117.7232
   599.5000      0.0000    596.5976      5.6880    128.6738
   599.7500      0.0000    597.9738      5.6959    137.2268
   600.0000      0.0000    612.4820      5.6980    142.3369
   600.2500      0.0000    630.3268      5.6941    144.7669
   600.5000      0.0000    637.0341      5.6831    146.0739
   600.7500      0.0000    622.7112      5.6642    147.4150
   601.0000      0.0000    590.0783      5.6388    148.3766
   601.2500      0.0000    555.8120      5.6105    146.8793
   601.5000      0.0000    541.2442      5.5838    141.1076
   601.7500      0.0000    557.0800      5.5625    131.7826
   602.0000      0.0000    595.7545      5.5470    122.1152
   602.2500      0.0000    639.0859      5.5353    115.4961
   602.5000      0.0000    672.6914      5.5256    113.4342
   602.7500      0.0000    692.7170      5.5178    115.3362
   603.0000      0.0000    701.5771      5.5121    119.4963
   603.2500      0.0000    700.8597      5.5088    124.0189
   603.5000      0.0000    689.2061      5.5084    127.3538
   603.7500      0.0000    665.4326      5.5129    128.9195
   604.0000      0.0000    632.2277      5.5253    129.6445
   604.2500      0.0000    596.0235      5.5505    131.5110
   604.5000      0.0000    563.0998      5.5924    136.0928
   604.7500      0.0000    536.2316      5.6480    143.1480
   605.0000      0.0000    515.1603      5.7064    150.3516
   605.2500      0.0000    499.1111      5.7541    154.5964
   605.5000      0.0000    488.0201      5.7842    154.2643
   605.7500      0.0000    482.1895      5.7974    150.7090
   606.0000      0.0000    482.0324      5.7986    147.3204
   606.2500      0.0000    488.2814      5.7913    146.7114
   606.5000      0.0000    501.3004      5.7779    148.7530
   606.7500      0.0000    518.9670      5.7629    151.3585
   607.0000      0.0000    535.2293      5.7568    152.8268
   607.2500      0.0000    542.4435      5.7722    153.0013
   607.5000      0.0000    537.1072      5.8116    152.5430
   607.7500      0.0000    523.6419      5.8601    152.0462
   608.0000      0.0000    512.4201      5.8925    151.8458
   608.2500      0.0000    514.3494      5.8936    151.7066
   608.5000      0.0000    535.8346      5.8696    150.6457
   608.7500      0.0000    575.2905      5.8416    147.8637
   609.0000      0.0000    622.8418      5.8280    143.8840
   609.2500      0.0000    665.3037      5.8345    140.3100
   609.5000      0.0000    693.3619      5.8614    138.6080
   609.7500      0.0000    704.3107      5.9131    139.2686
   610.0000      0.0000    699.3382      5.9941    141.5919
   610.2500      0.0000    681.5120      6.0920    143.9071
   610.5000      0.0000    657.7912      6.1695    144.3321
   610.7500      0.0000    639.9496      6.1811    141.7936
   611.0000      0.0000    638.5040      6.1072    136.6614
   611.2500      0.0000    654.1623      5.9731    130.5535
   611.5000      0.0000    677.2397      5.8335    125.4258
   611.7500      0.0000    695.9585      5.7344    122.5564
   612.0000      0.0000    703.6573      5.6893    122.0604
   612.2500      0.0000    699.4029      5.6896    123.0515
   612.5000      0.0000    686.4907      5.7248    124.0719
   612.7500      0.0000    672.2939      5.7868    123.6714
   613.0000      0.0000    665.7852      5.8576    121.2198
   613.2500      0.0000    670.7966      5.9069    117.5146
   613.5000      0.0000    681.5881      5.9093    114.5323
   613.7500      0.0000    686.3641      5.8644    114.4107
   614.0000      0.0000    674.8093      5.8031    118.2460
   614.2500      0.0000    643.3829      5.7691    125.4852
   614.5000      0.0000    597.0646      5.7886    134.3681
   614.7500      0.0000    547.4509      5.8508    143.0588
   615.0000      0.0000    506.7112      5.9197    150.4589
   615.2500      0.0000    481.0142      5.9646    155.9233
   615.5000      0.0000    468.9288      5.9800    158.4525
   615.7500      0.0000    465.0660      5.9802    157.0032
   616.0000      0.0000    464.2997      5.9778    151.9773
   616.2500      0.0000    463.5671      5.9668    145.6072
   616.5000      0.0000    461.9080      5.9229    140.2374
   616.7500      0.0000    460.4243      5.8172    136.6734
   617.0000      0.0000    462.7632      5.6329    134.2282
   617.2500      0.0000    474.8044      5.3764    131.5200
   617.5000      0.0000    501.1745      5.0763    127.0189
   617.7500      0.0000    538.7321      4.7712    119.7833
   618.0000      0.0000    573.2850      4.4902    110.4221
   618.2500      0.0000    586.8189      4.2423    101.1234
   618.5000      0.0000    571.8190      4.0243     94.2875
   618.7500      0.0000    538.4328      3.8393     91.1149
   619.0000      0.0000    506.8978      3.7016     91.3064
   619.2500      0.0000    494.5498      3.6211     93.5019
   619.5000      0.0000    509.2810      3.5875     95.9422
   619.7500      0.0000    548.7217      3.5744     97.3852
   620.0000      0.0000    600.6689      3.5556     97.9217
   620.2500      0.0000    647.8960      3.5200     98.8628
   620.5000      0.0000    678.3688      3.4761    101.4817
