~Version Information
VERS.                      2.0: CWLS Log ASCII Standard - VERSION 2.0
WRAP.                       NO: One line per depth step
~Well Information Block
STRT.FT                -8.7500: 
STOP.FT              2331.5000: 
STEP.FT                 0.2500: 
NULL.                -999.2500: 
COMP.          Pioneer Natural Resources: COMPANY
WELL.          Sparrowhawk 22-12: WELL
FLD.           Purgatorie River: FIELD
LOC.           2049' FNL & 2060' FWL--: LOCATION
CNTY.               Las Animas: COUNTY
SRVC.          Patterson Wireline: SERVICE COMPANY
DATE.          Wed Apr 12 08:53:41 2006: LOG DATE
UWI.           05 071 08484 00: UNIQUE WELL ID
STAT.                       CO: STATE
~Curve Information Block
DEPT.FT            0 000 00 00: Depth
CCL.                          : Casing Collar Locator
TT3.usec                      : CBL 3' Travel Time
AMP3.mV                       : CBL 3' Amplitude
GR.GAPI                       : Gamma Ray
~Parameter Information Block
MAXAMPL.mV              0.0000: Maximum Amplitude
~A  Depth       CCL         TT3         AMP3         GR     
# ...
  1364.7500      0.0000    271.7362     54.5168    115.2061
  1365.0000      0.0000    271.4672     55.9823    115.3577
  1365.2500      0.0000    270.6269     58.3637    113.0309
  1365.5000      0.0000    269.1937     61.3283    107.5675
  1365.7500      0.0000    267.5125     64.4742     99.9843
  1366.0000      0.0000    266.0567     67.6850     92.6994
  1366.2500      0.0000    265.0904     70.8711     87.9845
  1366.5000      0.0000    264.5841     73.6398     87.2105
  1366.7500      0.0000    264.3691     75.5490     91.1988
  1367.0000      0.0000    264.2941     76.5261    100.2137
  1367.2500      0.0000    264.2725     76.8595    113.1543
  1367.5000      0.0000    264.2667     76.9046    126.9863
  1367.7500      0.0000    264.2637     76.8906    137.3403
  1368.0000      0.0000    264.2603     76.9116    140.4309
  1368.2500      0.0000    264.2570     76.9745    135.3550
  1368.5000      0.0000    264.2548     77.0526    124.8592
  1368.7500      0.0000    264.2538     77.1176    113.7014
  1369.0000      0.0000    264.2531     77.1561    106.0128
  1369.2500      0.0000    264.2521     77.1677    103.5331
  1369.5000      0.0000    264.2507     77.1557    105.4775
  1369.7500      0.0000    264.2490     77.1222    109.8439
  1370.0000      0.0000    264.2477     77.0724    115.0810
  1370.2500      0.0000    264.2470     77.0211    120.7791
  1370.5000      0.0000    264.2466     76.9937    127.1190
  1370.7500      0.0000    264.2448     77.0164    134.0139
  1371.0000      0.0000    264.2398     77.0994    140.7386
  1371.2500      0.0000    264.2311     77.2253    145.9700
  1371.5000      0.0000    264.2207     77.3534    148.1484
  1371.7500      0.0000    264.2120     77.4407    146.1930
  1372.0000      0.0000    264.2073     77.4649    140.2526
  1372.2500      0.0000    264.2065     77.4351    132.0246
  1372.5000      0.0000    264.2081     77.3812    124.1823
  1372.7500      0.0000    264.2114     77.3332    118.6392
  1373.0000      0.0000    264.2167     77.3063    114.7774
  1373.2500      0.0000    264.2241     77.3009    109.8615
  1373.5000      0.0000    264.2325     77.3091    101.9382
  1373.7500      0.0000    264.2400     77.3198     92.2780
  1374.0000      0.0000    264.2455     77.3228     84.6547
  1374.2500      0.0000    264.2490     77.3104     82.4367
  1374.5000      0.0000    264.2509     77.2772     86.5860
  1374.7500      0.0000    264.2525     77.2211     95.8455
  1375.0000      0.0000    264.2545     77.1448    107.7493
  1375.2500      0.0000    264.2572     77.0598    119.2022
  1375.5000      0.0000    264.2605     76.9842    127.1454
  1375.7500      0.0000    264.2633     76.9348    129.9304
  1376.0000      0.0000    264.2644     76.9158    128.2961
  1376.2500      0.0000    264.2636     76.9165    124.6161
  1376.5000      0.0000    264.2621     76.9198    121.1431
  1376.7500      0.0000    264.2616     76.9139    119.0587
  1377.0000      0.0000    264.2636     76.8952    118.7047
  1377.2500      0.0000    264.2684     76.8651    119.9842
  1377.5000      0.0000    264.2752     76.8251    122.2887
  1377.7500      0.0000    264.2825     76.7793    124.1690
  1378.0000      0.0000    264.2886     76.7412    123.6071
  1378.2500      0.0000    264.2914     76.7306    119.3109
  1378.5000      0.0000    264.2898     76.7590    112.1073
  1378.7500      0.0000    264.2847     76.8183    104.7886
  1379.0000      0.0000    264.2787     76.8879    100.2589
  1379.2500      0.0000    264.2749     76.9516     99.7228
  1379.5000      0.0000    264.2747     77.0056    102.5223
  1379.7500      0.0000    264.2778     77.0523    107.1788
  1380.0000      0.0000    264.2824     77.0944    112.1447
  1380.2500      0.0000    264.2866     77.1353    115.9981
  1380.5000      0.0000    264.2886     77.1831    117.8920
  1380.7500      0.0000    264.2872     77.2488    118.1664
  1381.0000      0.0000    264.2819     77.3400    118.1618
  1381.2500      0.0000    264.2736     77.4517    119.1220
  1381.5000      0.0000    264.2650     77.5626    121.2265
  1381.7500      0.0000    264.2591     77.6454    123.6838
  1382.0000      0.0000    264.2578     77.6820    125.6106
  1382.2500      0.0000    264.2600     77.6708    126.6656
  1382.5000      0.0000    264.2633     77.6243    126.9401
  1382.7500      0.0000    264.2648     77.5628    126.4042
  1383.0000      0.0000    264.2630     77.5078    124.5217
  1383.2500      0.0000    264.2583     77.4741    120.5862
  1383.5000      0.0000    264.2526     77.4648    114.7732
  1383.7500      0.0000    264.2478     77.4742    108.8113
  1384.0000      0.0000    264.2455     77.4932    105.3054
  1384.2500      0.0000    264.2452     77.5132    106.1762
  1384.5000      0.0000    264.2457     77.5275    111.5854
  1384.7500      0.0000    264.2453     77.5342    120.0200
  1385.0000      0.0000    264.2438     77.5380    129.1594
  1385.2500      0.0000    264.2418     77.5479    136.6934
  1385.5000      0.0000    264.2407     77.5712    140.8461
  1385.7500      0.0000    264.2414     77.6081    140.8633
  1386.0000      0.0000    264.2436     77.6511    137.2926
  1386.2500      0.0000    264.2462     77.6881    131.6617
  1386.5000      0.0000    264.2487     77.7057    125.7692
  1386.7500      0.0000    264.2508     77.6925    121.0123
  1387.0000      0.0000    264.2523     77.6424    117.9203
  1387.2500      0.0000    264.2523     77.5565    116.0807
  1387.5000      0.0000    264.2493     77.4420    114.4991
  1387.7500      0.0000    264.2433     77.3092    111.9954
  1388.0000      0.0000    264.2362     77.1708    107.4018
  1388.2500      0.0000    264.2306     77.0404     99.8491
  1388.5000      0.0000    264.2282     76.9314     89.2905
  1388.7500      0.0000    264.2293     76.8527     76.9404
  1389.0000      0.0000    264.2328     76.8041     65.2345
  1389.2500      0.0000    264.2377     76.7764     57.0976
  1389.5000      0.0000    264.2423     76.7560     54.7613
  1389.7500      0.0000    264.2448     76.7319     58.8864
  1390.0000      0.0000    264.2438     76.6993     68.5257
  1390.2500      0.0000    264.2393     76.6596     81.5903
  1390.5000      0.0000    264.2332     76.6181     95.4167
  1390.7500      0.0000    264.2283     76.5806    107.5753
  1391.0000      0.0000    264.2274     76.5534    116.8907
  1391.2500      0.0000    264.2314     76.5441    123.9293
  1391.5000      0.0000    264.2389     76.5611    130.2960
  1391.7500      0.0000    264.2477     76.6083    137.1764
  1392.0000      0.0000    264.2565     76.6789    144.4458
  1392.2500      0.0000    264.2649     76.7560    150.8378
  1392.5000      0.0000    264.2723     76.8234    154.3307
  1392.7500      0.0000    264.2779     76.8740    152.6356
  1393.0000      0.0000    264.2812     76.9082    144.8331
  1393.2500      0.0000    264.2834     76.9279    133.2418
  1393.5000      0.0000    264.2855     76.9346    122.6341
  1393.7500      0.0000    264.2877     76.9295    116.7249
  1394.0000      0.0000    264.2899     76.9137    115.5755
  1394.2500      0.0000    264.2924     76.8892    116.4769
  1394.5000      0.0000    264.2955     76.8604    116.9539
  1394.7500      0.0000    264.2987     76.8341    116.9203
  1395.0000      0.0000    264.3014     76.8185    118.3065
  1395.2500      0.0000    264.3034     76.8219    122.7129
  1395.5000      0.0000    264.3049     76.8496    129.3753
  1395.7500      0.0000    264.3062     76.9012    135.4454
  1396.0000      0.0000    264.3073     76.9715    138.1314
  1396.2500      0.0000    264.3080     77.0486    136.3559
  1396.5000      0.0000    264.3082     77.1068    130.6066
  1396.7500      0.0000    264.3076     77.0970    122.1332
  1397.0000      0.0000    264.3070     76.9443    112.8944
  1397.2500      0.0000    264.3086     76.5666    105.6613
  1397.5000      0.0000    264.3170     75.9204    103.2317
  1397.7500      0.0000    264.3347     75.0521    107.0592
  1398.0000      0.0000    264.3598     74.1096    116.3176
