~Version Information
VERS.                      2.0: CWLS Log ASCII Standard - VERSION 2.0
WRAP.                       NO: One line per depth step
~Well Information Block
STRT.FT               710.0000: 
STOP.FT              1983.0000: 
STEP.FT                 0.1000: 
NULL.                -999.2500: 
COMP.          Petrogulf Corporation: COMPANY
WELL.           State 16-23R-X: WELL
FLD.           Purgatorie River: FIELD
LOC.           2381' FSL & 2072' FWL: LOCATION
PROV.                 Colorado: PROVINCE
CNTY.               Las Animas: COUNTRY
SRVC.                Patterson: SERVICE COMPANY
DATE.          Mon Aug 08 07:36:34 2005: LOG DATE
UWI.                          : UNIQUE WELL ID
~Curve Information Block
DEPT.FT            0 000 00 00: Depth
DCAL.in                       : CDL Caliper
RHOB.g/cc                     : CDL Bulk Density
RHOC.g/cc                     : CDL Density Correction
DPOR.pu                       : CDL Density Porosity
GR.GAPI                       : Gamma Ray
NPOR.pu                       : Neutron Porosity
~Parameter Information Block
~A  Depth       DCAL        RHOB        RHOC        DPOR         GR         NPOR    
# ...
   796.4000      8.3225      2.6073      0.0751      2.5893    144.4342     27.5357
   796.5000      8.3250      2.5941      0.0573      3.3876    143.8214     27.8760
   796.6000      8.3250      2.5804      0.0410      4.2196    141.3874     28.2905
   796.7000      8.3250      2.5710      0.0149      4.7869    140.0747     28.5438
   796.8000      8.3119      2.5672      0.0348      5.0154    140.7367     28.8185
   796.9000      8.3119      2.5702     -0.0011      4.8369    141.8736     29.2962
   797.0000      8.2763      2.5752      0.0453      4.5311    144.2110     29.7061
   797.1000      8.2763      2.5752      0.0499      4.5353    145.4946     29.8177
   797.2000      8.2763      2.5629      0.0682      5.2815    141.6716     29.4200
   797.3000      8.2697      2.5345      0.0426      7.0027    135.0659     28.4431
   797.4000      8.2697      2.4916      0.0289      9.5987    131.0693     27.1453
   797.5000      8.2789      2.4332      0.0039     13.1369    131.3533     25.8862
   797.6000      8.2789      2.3597     -0.0056     17.5947    134.8777     24.6953
   797.7000      8.2789      2.2861     -0.0747     22.0529    139.6163     23.2908
   797.8000      8.3134      2.2243     -0.0588     25.8012    142.7571     21.7518
   797.9000      8.3134      2.1623     -0.0301     29.5573    142.8853     20.4373
   798.0000      8.3384      2.0899     -0.0252     33.9470    139.3461     19.3493
   798.1000      8.3384      2.0135     -0.0134     38.5782    132.7269     18.3161
   798.2000      8.3384      1.9314      0.0582     43.5527    125.9729     17.3432
   798.3000      8.3765      1.8364      0.0354     49.3072    118.9539     16.4148
   798.4000      8.3765      1.7453     -0.0168     54.8305    110.0093     15.5356
   798.5000      8.4427      1.6770     -0.0676     58.9711    101.4710     14.8276
   798.6000      8.4427      1.6169      0.0106     62.6127     95.1363     14.2797
   798.7000      8.4427      1.5491     -0.0390     66.7198     89.3967     13.8853
   798.8000      8.4708      1.4948      0.0324     70.0131     84.3639     13.7217
   798.9000      8.4708      1.4685      0.0995     71.6081     81.9081     13.7294
   799.0000      8.5132      1.4514      0.1300     72.6405     80.0666     13.7132
   799.1000      8.5132      1.4283      0.1350     74.0433     76.7913     13.4958
   799.2000      8.5132      1.4048      0.0897     75.4671     72.1880     13.2065
   799.3000      8.5882      1.3881      0.0906     76.4795     65.9757     13.0870
   799.4000      8.5882      1.3711      0.0964     77.5070     61.4420     13.1888
   799.5000      8.6067      1.3421      0.1168     79.2643     60.1565     13.6397
   799.6000      8.6067      1.3042      0.0292     81.5652     57.9420     14.5073
   799.7000      8.6067      1.2731      0.0250     83.4486     53.7794     15.3330
   799.8000      8.3191      1.2571      0.0015     84.4179     51.0467     15.6367
   799.9000      8.3191      1.2542      0.0157     84.5952     50.5494     15.6252
   800.0000      8.2234      1.2584      0.0486     84.3394     50.6899     15.7573
   800.1000      8.2234      1.2711      0.0133     83.5697     51.2723     15.9686
   800.2000      8.2234      1.3000      0.0621     81.8193     51.7910     15.9787
   800.3000      8.2567      1.3394      0.0978     79.4320     51.8719     15.8146
   800.4000      8.2567      1.3771      0.0989     77.1466     51.9548     15.6427
   800.5000      8.3212      1.4088      0.1126     75.2239     52.9916     15.4209
   800.6000      8.3212      1.4282      0.1609     74.0464     57.0105     14.9909
   800.7000      8.3212      1.4283      0.1729     74.0416     62.5156     14.4996
   800.8000      8.3549      1.4165      0.1411     74.7602     66.6494     14.2457
   800.9000      8.3549      1.4050      0.1376     75.4561     70.7726     14.2724
   801.0000      8.3616      1.3943      0.1120     76.1047     75.1364     14.3748
   801.1000      8.3616      1.3822      0.0627     76.8373     77.1211     14.4138
   801.2000      8.3616      1.3758      0.0389     77.2229     75.6464     14.5843
   801.3000      8.3948      1.3876      0.0549     76.5081     72.7523     15.0935
   801.4000      8.3948      1.4280      0.0894     74.0585     71.7049     15.8665
   801.5000      8.4030      1.4936      0.1851     70.0836     73.9256     16.5722
   801.6000      8.4030      1.5660      0.2260     65.6946     79.5364     17.1037
   801.7000      8.4030      1.6309      0.2359     61.7636     87.6521     17.7927
   801.8000      8.4022      1.6822      0.2366     58.6529     95.9661     18.6760
   801.9000      8.4022      1.7272      0.1865     55.9279    104.2883     19.4040
   802.0000      8.3858      1.7862      0.1872     52.3545    114.1726     19.8447
   802.1000      8.3858      1.8572      0.2096     48.0470    123.5442     20.3466
   802.2000      8.3858      1.9071      0.1604     45.0234    128.3065     21.1230
   802.3000      8.2679      1.9130      0.1144     44.6673    128.1772     21.7368
   802.4000      8.2679      1.8808      0.0876     46.6177    125.6218     21.6879
   802.5000      8.2624      1.8292      0.0492     49.7477    122.0856     20.9735
   802.6000      8.2624      1.7738      0.1028     53.1009    118.6225     20.1138
   802.7000      8.2624      1.7174      0.0903     56.5223    118.0033     19.5987
   802.8000      8.2619      1.6595      0.0292     60.0277    121.3864     19.4881
   802.9000      8.2619      1.6142      0.0023     62.7774    124.4924     19.6600
   803.0000      8.2417      1.5988      0.0229     63.7078    124.6733     20.1992
   803.1000      8.2417      1.6195      0.0709     62.4515    125.0602     21.3819
   803.2000      8.2417      1.6773      0.0788     58.9529    126.9464     23.0497
   803.3000      8.2495      1.7686      0.1059     53.4177    128.0067     24.4736
   803.4000      8.2495      1.8762      0.1520     46.8956    128.7132     25.4776
   803.5000      8.1553      1.9872      0.1428     40.1668    131.0395     26.6481
   803.6000      8.1553      2.1008      0.1608     33.2841    134.7976     28.1220
   803.7000      8.1553      2.2041      0.1827     27.0256    138.0654     29.4838
   803.8000      8.1121      2.2856      0.1709     22.0854    139.3804     30.6163
   803.9000      8.1121      2.3625      0.1074     17.4221    139.2994     31.5528
   804.0000      8.1121      2.4476      0.0870     12.2648    138.9863     32.0520
   804.1000      8.1121      2.5202      0.0544      7.8656    139.2597     32.1212
   804.2000      8.1121      2.5642      0.0442      5.1993    140.5046     32.1161
   804.3000      8.0911      2.5873      0.0869      3.7996    141.9256     32.0038
   804.4000      8.0911      2.5984      0.0680      3.1276    142.3824     31.6795
   804.5000      8.0532      2.5985      0.0932      3.1199    140.7255     31.4422
   804.6000      8.0532      2.5863      0.0908      3.8576    137.5065     31.2473
   804.7000      8.0532      2.5742      0.0441      4.5930    135.0905     30.8006
   804.8000      8.0471      2.5831      0.0195      4.0535    135.0547     30.2725
   804.9000      8.0471      2.6119      0.0826      2.3080    136.8750     29.9321
   805.0000      8.0437      2.6442      0.0998      0.3537    138.0201     29.8134
   805.1000      8.0437      2.6758      0.0961     -1.5663    136.3493     30.0161
   805.2000      8.0437      2.7075      0.1353     -3.4841    131.8975     30.5643
   805.3000      8.0224      2.7343      0.1338     -5.1074    126.7392     31.2602
   805.4000      8.0224      2.7537      0.1458     -6.2864    122.7432     32.0258
   805.5000      8.0336      2.7598      0.1612     -6.6566    120.5355     32.6591
   805.6000      8.0336      2.7472      0.0820     -5.8897    120.1406     33.0393
   805.7000      8.0336      2.7276      0.0301     -4.7059    119.8727     33.1897
   805.8000      8.0141      2.7149      0.0356     -3.9357    119.4225     32.9382
   805.9000      8.0141      2.7064      0.0298     -3.4203    121.0116     32.3040
