~Version Information
VERS.                      2.0: CWLS Log ASCII Standard - VERSION 2.0
WRAP.                       NO: One line per depth step
~Well Information Block
STRT.FT               570.0000: 
STOP.FT              1954.5000: 
STEP.FT                 0.1000: 
NULL.                -999.2500: 
COMP.          Petrogulf Corporation: COMPANY
WELL.            Montoya 7-14R: WELL
FLD.           Purgatorie River: FIELD
LOC.           628' FSL & 454' FWL: LOCATION
PROV.                 Colorado: PROVINCE
CNTY.               Las Animas: COUNTRY
SRVC.                Patterson: SERVICE COMPANY
DATE.          Mon Oct 10 07:31:15 2005: LOG DATE
UWI.                          : UNIQUE WELL ID
~Curve Information Block
DEPT.FT            0 000 00 00: Depth
DCAL.in                       : CDL Caliper
RHOB.g/cc                     : CDL Bulk Density
RHOC.g/cc                     : CDL Density Correction
DPOR.pu                       : CDL Density Porosity
GR.GAPI                       : Gamma Ray
NPOR.pu                       : Neutron Porosity
~Parameter Information Block
~A  Depth       DCAL        RHOB        RHOC        DPOR         GR         NPOR    
# ...
   666.0000      8.1424      2.2905     -0.0661     21.7874    148.7414     21.0734
   666.1000      8.1424      2.2434     -0.0810     24.6426    146.7456     19.8539
   666.2000      8.1424      2.1672     -0.0636     29.2588    143.8931     18.9090
   666.3000      8.1439      2.0775     -0.0116     34.6944    137.4833     17.9981
   666.4000      8.1439      1.9928      0.0295     39.8295    131.2837     16.9428
   666.5000      8.1417      1.9255      0.0397     43.9113    129.8168     15.9874
   666.6000      8.1417      1.8856      0.1164     46.3255    128.6772     15.5868
   666.7000      8.1417      1.8649      0.2523     47.5831    124.3901     15.9445
   666.8000      8.1407      1.8488      0.1645     48.5592    121.6636     16.8099
   666.9000      8.1407      1.8548      0.0971     48.1953    122.6295     17.9169
   667.0000      8.1507      1.9146      0.1200     44.5705    125.0894     19.2694
   667.1000      8.1507      2.0241      0.2565     37.9347    129.7519     20.7362
   667.2000      8.1507      2.1453      0.2919     30.5883    136.6429     21.9398
   667.3000      8.1526      2.2555      0.2746     23.9069    141.3599     22.9574
   667.4000      8.1526      2.3526      0.2601     18.0235    142.5113     24.2561
   667.5000      8.1628      2.4332      0.2258     13.1377    142.0502     25.6535
   667.6000      8.1628      2.4978      0.2102      9.2260    140.8569     26.5160
   667.7000      8.1628      2.5426      0.1006      6.5111    139.8312     26.7507
   667.8000      8.1568      2.5571      0.0606      5.6277    139.9587     26.8555
   667.9000      8.1568      2.5469      0.0262      6.2510    141.9713     27.2383
   668.0000      8.1551      2.5326      0.0120      7.1163    144.9544     27.5955
   668.1000      8.1551      2.5266      0.0321      7.4799    147.0009     27.4717
   668.2000      8.1551      2.5313     -0.0046      7.1962    147.7279     26.8804
   668.3000      8.1637      2.5477      0.0103      6.2005    148.1973     26.1976
   668.4000      8.1637      2.5733      0.0293      4.6472    149.3905     25.8985
   668.5000      8.1620      2.6018      0.0763      2.9212    152.1079     25.9894
   668.6000      8.1620      2.6226      0.0675      1.6633    155.1406     26.1893
   668.7000      8.1620      2.6291      0.0651      1.2669    156.2860     26.4954
   668.8000      8.1617      2.6273      0.0338      1.3730    155.0851     26.9836
   668.9000      8.1617      2.6273      0.0362      1.3751    151.8208     27.4811
   669.0000      8.1567      2.6270      0.0070      1.3945    148.7617     27.7320
   669.1000      8.1567      2.6189     -0.0020      1.8829    147.3712     27.7868
   669.2000      8.1567      2.6023     -0.0119      2.8928    146.5260     27.9099
   669.3000      8.1635      2.5793      0.0119      4.2858    147.1221     27.9276
   669.4000      8.1635      2.5539     -0.0253      5.8244    149.5986     27.6021
   669.5000      8.1684      2.5366     -0.0288      6.8728    151.0537     27.1531
   669.6000      8.1684      2.5320     -0.0199      7.1523    148.6898     26.7469
   669.7000      8.1684      2.5280     -0.0068      7.3910    144.0758     26.3216
   669.8000      8.1798      2.5139     -0.0452      8.2478    141.0822     25.8072
   669.9000      8.1798      2.4988     -0.0073      9.1659    141.1590     25.2831
   670.0000      8.2154      2.4950     -0.0007      9.3913    144.7526     24.9414
   670.1000      8.2154      2.4994      0.0209      9.1257    149.2445     24.7531
   670.2000      8.2154      2.5063     -0.0363      8.7114    150.5330     24.6865
   670.3000      8.2148      2.5175      0.0283      8.0312    149.4823     24.9286
   670.4000      8.2148      2.5339      0.0350      7.0373    149.0026     25.3536
   670.5000      8.1995      2.5524      0.0560      5.9165    149.7969     25.5861
   670.6000      8.1995      2.5680      0.0945      4.9685    153.7387     25.4857
   670.7000      8.1995      2.5798      0.0896      4.2573    160.3250     25.2086
   670.8000      8.2080      2.5824      0.1723      4.0963    163.6453     25.1231
   670.9000      8.2080      2.5627      0.1300      5.2899    161.3110     25.2630
   671.0000      8.1976      2.5343      0.0462      7.0118    156.1046     25.3293
   671.1000      8.1976      2.5264      0.1011      7.4880    150.1237     25.3783
   671.2000      8.1976      2.5396      0.0829      6.6886    145.3834     25.6528
   671.3000      8.1992      2.5573      0.1115      5.6170    145.1206     26.0600
   671.4000      8.1992      2.5727      0.0983      4.6859    149.3450     26.3174
   671.5000      8.2094      2.5910      0.0863      3.5779    152.9813     26.3255
   671.6000      8.2094      2.6098      0.1162      2.4369    151.7565     26.0527
   671.7000      8.2094      2.6173      0.1271      1.9842    149.2048     25.6241
   671.8000      8.2132      2.6097      0.1232      2.4395    150.1076     25.5936
   671.9000      8.2132      2.5907      0.1480      3.5969    152.0414     26.2875
   672.0000      8.2027      2.5679      0.0974      4.9738    151.6450     27.2105
   672.1000      8.2027      2.5501      0.0669      6.0516    149.6347     27.6987
   672.2000      8.2027      2.5386      0.0458      6.7526    148.5782     27.5293
   672.3000      8.2038      2.5353      0.0491      6.9530    148.9526     27.1528
   672.4000      8.2038      2.5438      0.0130      6.4343    148.3962     27.2023
   672.5000      8.2078      2.5594      0.0397      5.4899    146.8717     27.5953
   672.6000      8.2078      2.5777      0.0055      4.3807    146.3220     27.9235
   672.7000      8.2078      2.6054      0.0423      2.7053    147.0284     28.1180
   672.8000      8.2066      2.6334      0.0893      1.0045    149.4671     28.2242
   672.9000      8.2066      2.6340      0.1148      0.9706    152.0598     28.3038
   673.0000      8.2167      2.6082      0.0065      2.5305    151.9431     28.3820
   673.1000      8.2167      2.5884      0.0225      3.7363    149.8729     28.2408
   673.2000      8.2167      2.5812      0.0484      4.1692    147.6342     27.8259
   673.3000      8.2209      2.5679      0.0081      4.9738    146.8027     27.4410
   673.4000      8.2209      2.5504     -0.0084      6.0372    148.1528     27.1515
   673.5000      8.2352      2.5500     -0.0071      6.0607    150.6836     26.7702
   673.6000      8.2352      2.5668      0.0438      5.0401    152.2727     26.3088
   673.7000      8.2352      2.5784      0.0608      4.3411    153.1005     25.8515
   673.8000      8.2417      2.5806      0.0394      4.2053    154.7883     25.5334
   673.9000      8.2417      2.5844      0.1096      3.9731    155.7275     25.4885
   674.0000      8.2398      2.5875      0.1151      3.7875    155.0645     25.7782
   674.1000      8.2398      2.5834      0.0936      4.0371    156.0030     26.2100
   674.2000      8.2398      2.5728      0.0523      4.6798    157.0064     26.6449
   674.3000      8.2491      2.5562      0.0932      5.6839    154.5064     27.0645
   674.4000      8.2491      2.5369      0.0254      6.8562    151.7136     27.2973
   674.5000      8.2406      2.5273     -0.0106      7.4378    150.3348     27.3922
   674.6000      8.2406      2.5295     -0.0095      7.3032    149.1093     27.4803
   674.7000      8.2406      2.5354     -0.0100      6.9425    148.3065     27.4031
   674.8000      8.2479      2.5441      0.0333      6.4191    148.7288     27.1958
   674.9000      8.2479      2.5582      0.0047      5.5641    150.9971     26.9988
   675.0000      8.2366      2.5725      0.0673      4.6999    152.5106     26.7372
   675.1000      8.2366      2.5710      0.0381      4.7880    151.6913     26.6330
   675.2000      8.2366      2.5528      0.0075      5.8936    151.0906     26.8074
   675.3000      8.2243      2.5329     -0.0031      7.0993    151.7505     26.9207
   675.4000      8.2243      2.5175      0.0111      8.0288    153.3750     26.9385
   675.5000      8.2116      2.5000      0.0312      9.0901    154.8855     27.0298
