~Version Information
 VERS.                                  2.0 : CWLS LAS VERSION
 WRAP.                                   NO : WRAPING MODE
 SWARE .                 MController 2.5.0N : SOFTWARE VERSION
~Well Information
 WELL.               Bear Cub Federal 11-23 : WELL
 COMP.    Pioneer Natural Resources USA Inc : COMPANY
 FLD.                      Purgatoire River : FIELD
 LOC.                 NW/NW Sec23 T33S R67W : LOCATION
 DATE.                          06/18-19/06 : DATE(S) LOGGED
 SRVC.       Blanco Geological Services LLC : SERVICE COMPANY
 STAT.                             Colorado : STATE
 CNTY.                           Las Animas : COUNTY
 CTRY.                                  USA : COUNTRY
 API.                       05-071-08509-00 : API NUMBER
 STRT.FT                             475.00 : START DEPTH
 STOP.FT                            2220.00 : STOP DEPTH
 STEP.FT                               1.00 : DEPTH INCREMENT
 NULL.                                -9999 : NULL VALUE
~Curve information
 DEPTH.FT                                   :
 ROP.MIN/FT                                 :
 GAS.UNITS                                  :
~ASCII Log data
# ...
       875.0         0.13         46.3 
       876.0         0.13         46.3 
       877.0         0.13         45.7 
       878.0         0.10         45.7 
       879.0         0.20         45.6 
       880.0         0.23         44.4 
       881.0         0.30         39.2 
       882.0         0.13         39.0 
       883.0         0.17         38.2 
       884.0         0.13         42.9 
       885.0         0.25         40.6 
       886.0         0.23         43.2 
       887.0         0.23         42.0 
       888.0         0.20         42.0 
       889.0         0.30         37.5 
       890.0         0.33         20.1 
       891.0         0.27         16.3 
       892.0         0.10         16.3 
       893.0         0.13         16.3 
       894.0         0.17         14.6 
       895.0         0.23         13.6 
       896.0         2.68         48.4 
       897.0         0.27         41.5 
       898.0         0.12         40.6 
       899.0         0.37         37.9 
       900.0         0.27         36.6 
       901.0         0.23         32.4 
       902.0         0.27         29.0 
       903.0         0.20         25.9 
       904.0         0.23         26.4 
       905.0         0.23         24.1 
       906.0         0.23         24.9 
       907.0         0.23         24.2 
       908.0         0.20         23.0 
       909.0         0.23         23.0 
       910.0         0.23         21.8 
       911.0         0.27         20.6 
       912.0         0.32         22.6 
       913.0         0.30         23.0 
       914.0         0.37         23.6 
       915.0         0.30         25.2 
       916.0         0.27         29.8 
       917.0         0.23         22.4 
       918.0         0.20         17.3 
       919.0         0.13         17.3 
       920.0         0.20         16.2 
       921.0         0.28         13.9 
       922.0         0.23         14.4 
       923.0         0.23         15.0 
       924.0         0.27         15.9 
       925.0         0.33         16.5 
       926.0         1.40         49.8 
       927.0         0.23         49.5 
       928.0         0.07         49.5 
       929.0         0.22         44.8 
       930.0         0.20         42.2 
       931.0         0.13         40.0 
       932.0         0.07         36.9 
       933.0         0.07         36.9 
       934.0         0.07         36.0 
       935.0         0.17         32.2 
       936.0         0.20         28.6 
       937.0         0.17         27.7 
       938.0         0.20         28.4 
       939.0         0.20         29.2 
       940.0         0.27         31.6 
       941.0         0.20         32.4 
       942.0         0.23         33.3 
       943.0         0.23         33.3 
       944.0         0.23         37.3 
       945.0         0.23         37.3 
       946.0         0.23         31.3 
       947.0         0.22         16.4 
       948.0         0.20         16.4 
       949.0         0.13         15.1 
       950.0         0.07         14.9 
       951.0         0.17         13.5 
       952.0         0.20         12.8 
       953.0         0.20         13.0 
       954.0         0.23         14.1 
       955.0         0.40         13.6 
       956.0         2.25         35.3 
       957.0         0.50         36.1 
       958.0         0.33         30.6 
       959.0         0.30         27.4 
       960.0         0.28         25.4 
       961.0         0.20         24.9 
       962.0         0.20         23.9 
       963.0         0.23         22.0 
       964.0         0.20         20.3 
       965.0         0.20         21.6 
       966.0         0.20         22.4 
       967.0         0.27         20.7 
       968.0         0.20         18.6 
       969.0         0.22         18.1 
       970.0         0.17         18.3 
       971.0         0.23         19.1 
       972.0         0.20         19.0 
       973.0         0.27         19.3 
       974.0         0.23         23.1 
       975.0         0.23         23.1 
       976.0         0.27         24.5 
       977.0         0.20         19.1 
       978.0         0.20         16.0 
       979.0         0.23         14.4 
       980.0         0.13         14.6 
       981.0         0.13         14.6 
       982.0         0.13         14.1 
       983.0         0.30         13.6 
       984.0         0.17         13.6 
       985.0         0.28         13.4 
       986.0         1.57         31.1 
       987.0         0.82         32.8 
       988.0         0.23         27.1 
       989.0         0.20         25.9 
       990.0         0.17         25.9 
       991.0         0.13         23.5 
       992.0         0.17         24.5 
       993.0         0.13         23.5 
       994.0         0.13         20.9 
       995.0         0.17         20.9 
       996.0         0.17         21.8 
       997.0         0.13         22.0 
       998.0         0.17         23.2 
       999.0         0.17         22.7 
      1000.0         0.23         24.1 
      1001.0         0.27         23.2 
      1002.0         0.20         25.6 
      1003.0         0.23         25.6 
      1004.0         0.32         22.5 
      1005.0         0.17         18.2 
      1006.0         0.27         16.3 
      1007.0         0.13         15.5 
      1008.0         0.13         14.1 
      1009.0         0.13         14.1 
      1010.0         0.17         14.1 
      1011.0         0.13         13.2 
      1012.0         0.13         12.1 
      1013.0         0.20         13.2 
      1014.0         0.27         14.3 
      1015.0         0.27         15.1 
      1016.0         2.58         55.0 
      1017.0         0.43         53.0 
      1018.0         0.28         45.2 
      1019.0         0.20         40.4 
      1020.0         0.17         35.2 
      1021.0         0.20         33.1 
      1022.0         0.23         32.1 
      1023.0         0.20         31.2 
      1024.0         0.20         29.8 
      1025.0         0.20         29.3 
      1026.0         0.20         30.4 
      1027.0         0.23         30.7 
      1028.0         0.20         30.3 
      1029.0         0.17         30.2 
      1030.0         0.20         30.2 
      1031.0         0.17         30.2 
      1032.0         0.20         32.7 
      1033.0         0.10         32.7 
      1034.0         0.10         34.7 
      1035.0         0.10         34.7 
      1036.0         0.22         28.8 
      1037.0         0.20         20.1 
      1038.0         0.13         20.1 
      1039.0         0.10         15.9 
      1040.0         0.17         15.9 
      1041.0         0.20         15.8 
      1042.0         0.17         15.2 
      1043.0         0.23         15.2 
      1044.0         0.23         17.7 
      1045.0         0.53         19.6 
      1046.0         1.28         57.2 
      1047.0         0.17         47.0 
      1048.0         0.40         44.6 
      1049.0         0.27         42.4 
      1050.0         0.13         40.7 
      1051.0         0.10         39.9 
      1052.0         0.10         38.4 
      1053.0         0.17         37.0 
      1054.0         0.17         38.4 
      1055.0         0.17         38.9 
      1056.0         0.10         36.8 
      1057.0         0.13         37.0 
      1058.0         0.13         37.3 
      1059.0         0.13         37.3 
      1060.0         0.13         41.2 
      1061.0         0.23         39.1 
      1062.0         0.20         46.7 
      1063.0         0.17         39.9 
      1064.0         0.20         28.3 
      1065.0         0.22         28.3 
      1066.0         0.13         23.6 
      1067.0         0.13         23.6 
      1068.0         0.13         22.3 
      1069.0         0.17         23.2 
      1070.0         0.17         23.1 
      1071.0         0.10         22.1 
      1072.0         0.17         23.2 
      1073.0         0.17         23.1 
      1074.0         0.20         26.3 
