~Version Information
VERS.                      2.0: CWLS Log ASCII Standard - VERSION 2.0
WRAP.                       NO: One line per depth step
~Well Information Block
STRT.FT               310.0000: 
STOP.FT              2295.5000: 
STEP.FT                 0.1000: 
NULL.                -999.2500: 
COMP.          Pioneer Natural Resources: COMPANY
WELL.               Relay 12-7: WELL
FLD.           Purgatoire River: FIELD
LOC.           1999' FNL & 848' FWL: LOCATION
PROV.                 Colorado: PROVINCE
CNTY.               Las Animas: COUNTRY
SRVC.                Patterson: SERVICE COMPANY
DATE.          Mon Dec 19 07:37:11 2005: LOG DATE
UWI.           05 071 08453 00: UNIQUE WELL ID
~Curve Information Block
DEPT.FT            0 000 00 00: Depth
DCAL.in                       : CDL Caliper
RHOB.g/cc                     : CDL Bulk Density
RHOC.g/cc                     : CDL Density Correction
DPOR.pu                       : CDL Density Porosity
GR.GAPI                       : Gamma Ray
NPOR.pu                       : Neutron Porosity
~Parameter Information Block
~A  Depth       DCAL        RHOB        RHOC        DPOR         GR         NPOR    
# ...
  1231.6000      8.0293      2.4205      0.0312     13.9112    108.6671     28.4918
  1231.7000      8.0293      2.3572     -0.0046     17.7439    115.3733     27.7657
  1231.8000      8.0374      2.3232      0.0053     19.8080    120.1057     27.8104
  1231.9000      8.0374      2.3222      0.0283     19.8647    123.9345     29.2226
  1232.0000      8.0343      2.3273      0.0513     19.5548    126.4158     30.9700
  1232.1000      8.0343      2.3234      0.0375     19.7940    129.1607     31.8100
  1232.2000      8.0343      2.3314      0.0217     19.3099    132.8474     31.8005
  1232.3000      8.0399      2.3730      0.1371     16.7874    133.3301     31.4175
  1232.4000      8.0399      2.4323      0.2045     13.1963    133.8375     31.1409
  1232.5000      8.0506      2.4742      0.2513     10.6560    135.0469     31.0791
  1232.6000      8.0506      2.4737      0.2707     10.6844    130.9406     31.0308
  1232.7000      8.0506      2.4288      0.1967     13.4079    128.3798     31.1963
  1232.8000      8.0961      2.3528      0.1717     18.0125    133.8339     31.7453
  1232.9000      8.0961      2.2597      0.0639     23.6524    138.1683     32.3365
  1233.0000      8.2320      2.1621      0.0331     29.5674    136.3579     32.3022
  1233.1000      8.2320      2.0592     -0.0069     35.8072    131.5519     31.7088
  1233.2000      8.2320      1.9439     -0.0546     42.7961    124.4848     31.4344
  1233.3000      8.1258      1.8299     -0.1242     49.7015    117.5505     31.5549
  1233.4000      8.1258      1.7521     -0.1334     54.4194    114.5564     31.7179
  1233.5000      8.1566      1.7348     -0.0423     55.4656    114.1102     31.9292
  1233.6000      8.1566      1.7805      0.0274     52.6994    113.9470     32.0952
  1233.7000      8.1566      1.8795      0.1277     46.6992    116.8896     32.2411
  1233.8000      8.1971      2.0019      0.3007     39.2800    122.1675     32.5065
  1233.9000      8.1971      2.1064      0.3419     32.9463    123.8651     32.6620
  1234.0000      8.3987      2.1772      0.3194     28.6525    121.5553     32.3832
  1234.1000      8.3987      2.2178      0.3117     26.1932    117.3855     32.1837
  1234.2000      8.3987      2.2285      0.2862     25.5443    111.3592     32.5213
  1234.3000      8.8932      2.2218      0.2001     25.9534    108.4360     33.0218
  1234.4000      8.8932      2.2285      0.1854     25.5469    113.1919     33.3883
  1234.5000      9.2978      2.2757      0.2062     22.6850    118.6676     33.1698
  1234.6000      9.2978      2.3671      0.2954     17.1451    117.8741     32.1123
  1234.7000      9.2978      2.4708      0.4243     10.8614    115.3074     30.9183
  1234.8000      8.7090      2.5439      0.4234      6.4332    115.7386     30.1604
  1234.9000      8.7090      2.5805      0.4462      4.2150    114.1298     29.8413
  1235.0000      8.3767      2.6044      0.4446      2.7640    108.3861     29.9411
  1235.1000      8.3767      2.6270      0.4550      1.3920    104.0878     29.8858
  1235.2000      8.3767      2.6294      0.4853      1.2511    102.8732     29.6131
  1235.3000      8.1551      2.5935      0.4101      3.4258    104.5641     30.0732
  1235.4000      8.1551      2.5412      0.3064      6.5939    109.2880     31.1234
  1235.5000      8.1306      2.5122      0.1690      8.3500    115.2631     31.5970
  1235.6000      8.1306      2.5193      0.1970      7.9197    123.5010     31.3653
  1235.7000      8.1306      2.5384      0.2032      6.7623    133.0672     30.7632
  1235.8000      8.1255      2.5435      0.2533      6.4561    138.9759     29.7858
  1235.9000      8.1255      2.5363      0.1581      6.8903    138.6188     28.9986
  1236.0000      8.1335      2.5309      0.2230      7.2166    133.5365     28.8633
  1236.1000      8.1335      2.5267      0.2217      7.4721    129.2400     28.7763
  1236.2000      8.1335      2.5257      0.1761      7.5343    129.6107     28.5612
  1236.3000      8.1315      2.5339      0.2195      7.0394    130.8088     28.4289
  1236.4000      8.1315      2.5406      0.2092      6.6318    127.6051     28.0349
  1236.5000      8.1406      2.5478      0.1613      6.1946    121.1645     27.3183
  1236.6000      8.1406      2.5782      0.1530      4.3499    116.1037     26.8872
  1236.7000      8.1406      2.6277      0.2180      1.3496    114.0279     27.2156
  1236.8000      8.1484      2.6628      0.2303     -0.7754    113.1894     28.0680
  1236.9000      8.1484      2.6655      0.1925     -0.9366    114.2871     28.9080
  1237.0000      8.0896      2.6464      0.1185      0.2165    117.1719     29.3245
  1237.1000      8.0896      2.6240      0.1194      1.5768    117.0767     29.3643
  1237.2000      8.0896      2.6069      0.0939      2.6140    111.4704     29.2672
  1237.3000      8.0651      2.5883      0.0728      3.7401    107.7193     28.9499
  1237.4000      8.0651      2.5525      0.0307      5.9070    111.0809     28.7194
  1237.5000      8.0575      2.5007     -0.0502      9.0495    117.1629     28.7746
  1237.6000      8.0575      2.4592     -0.1144     11.5662    123.7078     28.7070
  1237.7000      8.0575      2.4468     -0.0442     12.3179    130.3847     28.2342
  1237.8000      8.0411      2.4504      0.0407     12.0996    133.7734     27.4237
  1237.9000      8.0411      2.4538      0.0805     11.8900    133.3817     26.8067
  1238.0000      8.0580      2.4650      0.0675     11.2140    133.1487     26.6991
  1238.1000      8.0580      2.4905      0.1250      9.6647    133.4743     26.8878
  1238.2000      8.0580      2.5107      0.1278      8.4408    131.2976     27.0821
  1238.3000      8.0378      2.5035      0.1076      8.8762    127.3001     27.4038
  1238.4000      8.0378      2.4777      0.0211     10.4436    122.8264     27.8104
  1238.5000      8.0715      2.4667      0.0338     11.1118    118.0494     27.8836
  1238.6000      8.0715      2.4829      0.1022     10.1268    115.8522     27.8030
  1238.7000      8.0715      2.4977      0.1008      9.2303    115.7221     28.0646
  1238.8000      8.2644      2.4864      0.0722      9.9145    115.5774     28.5094
  1238.9000      8.2644      2.4685     -0.0335     11.0004    116.6108     28.5466
  1239.0000      8.2190      2.4758     -0.0022     10.5563    118.2911     28.3307
  1239.1000      8.2190      2.4954      0.0801      9.3705    118.0567     28.6937
  1239.2000      8.2190      2.4940      0.0280      9.4547    117.8572     29.6163
  1239.3000      8.1374      2.4765      0.0235     10.5158    120.0074     30.3785
  1239.4000      8.1374      2.4702      0.0019     10.8952    123.0306     30.2567
  1239.5000      8.0851      2.4783      0.0400     10.4043    126.6661     29.3810
  1239.6000      8.0851      2.4863      0.0190      9.9238    127.9109     28.6276
  1239.7000      8.0851      2.4936     -0.0143      9.4783    122.4568     28.1623
  1239.8000      8.0838      2.4981      0.0914      9.2038    117.4125     27.8438
  1239.9000      8.0838      2.4863      0.0473      9.9183    119.1900     27.2464
  1240.0000      8.0802      2.4629      0.0089     11.3420    122.5366     26.3894
  1240.1000      8.0802      2.4510     -0.0483     12.0609    121.8283     25.8733
  1240.2000      8.0802      2.4704     -0.0070     10.8824    119.0085     25.2897
  1240.3000      8.0790      2.5126      0.0639      8.3268    117.3117     24.8258
  1240.4000      8.0790      2.5444      0.1147      6.4016    115.1188     25.5185
  1240.5000      8.0783      2.5459      0.0864      6.3069    111.7456     26.8982
  1240.6000      8.0783      2.5317      0.0749      7.1687    105.1587     27.5862
  1240.7000      8.0783      2.5233      0.0546      7.6773     93.7158     27.3213
  1240.8000      8.0812      2.5196      0.0746      7.9059     82.3660     26.8232
  1240.9000      8.0812      2.5093      0.0387      8.5265     80.4813     26.4995
  1241.0000      8.0821      2.4967      0.0642      9.2915     90.1497     26.3236
  1241.1000      8.0821      2.4925      0.0375      9.5437    100.1820     26.4774
