~Version Information
 VERS.                                  2.0 : CWLS LAS VERSION
 WRAP.                                   NO : WRAPING MODE
 SWARE .                 MController 2.5.0J : SOFTWARE VERSION
~Well Information
 WELL.                         State 16-44R : WELL
 COMP.                Petrogulf Corporation : COMPANY
 FLD.                      Purgatoire River : FIELD
 LOC.                SE/SE Sec 16 T33S R67W : LOCATION
 DATE.                          10/20-21/05 : DATE(S) LOGGED
 SRVC.       BLANCO Geological Services LLC : SERVICE COMPANY
 STAT.                                   CO : STATE
 CNTY.                           Las Animas : COUNTY
 CTRY.                                  USA : COUNTRY
 API.                       05-071-08457-00 : API NUMBER
 STRT.FT                               1.00 : START DEPTH
 STOP.FT                            1629.00 : STOP DEPTH
 STEP.FT                               1.00 : DEPTH INCREMENT
 NULL.                                -9999 : NULL VALUE
~Curve information
 DEPTH.FT                                   :
 ROP.MIN/FT                                 :
 GAS.UNITS                                  :
~ASCII Log data
# ...
       601.0         0.27         42.9 
       602.0         0.27         41.1 
       603.0         0.30         40.4 
       604.0         0.27         38.2 
       605.0         0.27         35.8 
       606.0         0.30         38.1 
       607.0         0.17         39.3 
       608.0         0.20         39.9 
       609.0         0.17         40.4 
       610.0         0.20         40.2 
       611.0         0.28         40.2 
       612.0         0.23         40.6 
       613.0         0.27         40.4 
       614.0         0.23         39.8 
       615.0         0.30         38.8 
       616.0         0.23         40.8 
       617.0         0.20         41.5 
       618.0         0.17         41.5 
       619.0         0.20         40.9 
       620.0         0.27         37.7 
       621.0         0.23         27.2 
       622.0         0.23         33.8 
       623.0         0.20         53.2 
       624.0         0.17         72.2 
       625.0         0.30        196.7 
       626.0         0.88        414.9 
       627.0         0.37        190.3 
       628.0         0.33        104.9 
       629.0         0.27         65.0 
       630.0         0.23         48.3 
       631.0         0.23         43.1 
       632.0         0.17         40.1 
       633.0         0.17         36.3 
       634.0         0.17         34.4 
       635.0         0.17         32.0 
       636.0         0.20         31.9 
       637.0         0.28         34.8 
       638.0         0.13         37.3 
       639.0         0.17         38.1 
       640.0         0.17         38.3 
       641.0         0.17         38.1 
       642.0         0.17         37.6 
       643.0         0.27         37.6 
       644.0         0.23         37.1 
       645.0         0.27         36.3 
       646.0         0.23         35.3 
       647.0         0.27         35.6 
       648.0         0.23         36.4 
       649.0         0.20         36.3 
       650.0         0.23         36.1 
       651.0         0.30         38.0 
       652.0         0.25         37.5 
       653.0         0.23         27.4 
       654.0         0.23         23.2 
       655.0         0.43         81.4 
       656.0         1.63       1323.3 
       657.0         0.33        498.4 
       658.0         0.40        440.0 
       659.0         0.28         56.1 
       660.0         0.27         45.1 
       661.0         0.20         39.6 
       662.0         0.23         37.1 
       663.0         0.20         35.9 
       664.0         0.20         34.5 
       665.0         0.23         33.4 
       666.0         0.20         32.4 
       667.0         0.20         29.1 
       668.0         0.20         31.9 
       669.0         0.20         36.5 
       670.0         0.17         38.7 
       671.0         0.17         38.5 
       672.0         0.13         37.1 
       673.0         0.13         34.3 
       674.0         0.17         34.5 
       675.0         0.25         40.0 
       676.0         0.17         41.5 
       677.0         0.20         41.5 
       678.0         0.10         39.6 
       679.0         0.30         39.4 
       680.0         0.27         38.2 
       681.0         0.17         35.6 
       682.0         0.20         32.3 
       683.0         0.20         28.1 
       684.0         0.20         28.4 
       685.0         0.17         38.8 
       686.0         1.45        367.7 
       687.0         0.40        202.8 
       688.0         0.30        121.6 
       689.0         0.17         85.5 
       690.0         0.17         71.8 
       691.0         0.20         61.2 
       692.0         0.20         52.2 
       693.0         0.13         47.1 
       694.0         0.20         43.6 
       695.0         0.20         40.5 
       696.0         0.17         37.5 
       697.0         0.23         36.3 
       698.0         0.20         34.4 
       699.0         0.20         33.3 
       700.0         0.20         32.7 
       701.0         0.22         32.6 
       702.0         0.23         32.7 
       703.0         0.20         32.7 
       704.0         0.20         32.5 
       705.0         0.20         32.5 
       706.0         0.20         32.2 
       707.0         0.20         31.9 
       708.0         0.20         31.8 
       709.0         0.23         32.3 
       710.0         0.30         32.9 
       711.0         0.23         33.8 
       712.0         0.33         34.2 
       713.0         0.23         33.3 
       714.0         0.23         30.6 
       715.0         0.27         26.8 
       716.0         1.75        219.2 
       717.0         0.30        151.1 
       718.0         0.27        113.6 
       719.0         0.23         89.3 
       720.0         0.40         72.5 
       721.0         0.20         53.2 
       722.0         0.20         46.9 
       723.0         0.22         42.8 
       724.0         0.20         38.9 
       725.0         0.27         36.9 
       726.0         0.23         34.5 
       727.0         0.17         33.1 
       728.0         0.20         32.7 
       729.0         0.20         32.5 
       730.0         0.20         32.3 
       731.0         0.20         32.3 
       732.0         0.20         32.1 
       733.0         0.23         31.9 
       734.0         0.17         32.2 
       735.0         0.23         32.2 
       736.0         0.20         32.3 
       737.0         0.23         32.2 
       738.0         0.17         32.1 
       739.0         0.22         32.8 
       740.0         0.20         33.2 
       741.0         0.20         33.6 
       742.0         0.23         33.8 
       743.0         0.30         33.9 
       744.0         0.37         30.8 
       745.0         0.33         26.8 
       746.0         1.85        163.0 
       747.0         0.33        114.6 
       748.0         0.20         90.3 
       749.0         0.27         79.2 
       750.0         0.23         65.8 
       751.0         0.20         56.9 
       752.0         0.23         51.8 
       753.0         0.23         46.8 
       754.0         0.20         42.8 
       755.0         0.20         40.4 
       756.0         0.27         39.0 
       757.0         0.23         38.1 
       758.0         0.23         36.6 
       759.0         0.25         34.3 
       760.0         0.20         36.4 
       761.0         0.17         40.6 
       762.0         0.13         43.0 
       763.0         0.13         45.1 
       764.0         0.13         46.8 
       765.0         0.20         47.2 
       766.0         0.20         46.3 
       767.0         0.20         44.3 
       768.0         0.17         46.1 
       769.0         0.13         48.2 
       770.0         0.20         48.5 
       771.0         0.13         46.9 
       772.0         0.10         45.1 
       773.0         0.13         42.4 
       774.0         0.17         41.2 
       775.0         0.23         46.0 
       776.0         1.25        282.2 
       777.0         0.33        255.2 
       778.0         0.30        193.8 
       779.0         0.23        142.9 
       780.0         0.20        112.8 
       781.0         0.23         96.7 
       782.0         0.23         79.7 
       783.0         0.23         68.2 
       784.0         0.20         60.2 
       785.0         0.20         55.2 
       786.0         0.23         51.6 
       787.0         0.20         48.7 
       788.0         0.17         47.4 
       789.0         0.22         46.4 
       790.0         0.20         45.5 
       791.0         0.20         45.5 
       792.0         0.20         45.6 
       793.0         0.20         45.7 
       794.0         0.20         45.6 
       795.0         0.20         44.7 
       796.0         0.20         42.5 
       797.0         0.20         45.3 
       798.0         0.20         52.3 
       799.0         0.13         56.7 
       800.0         0.13         59.5 
