~Version Information
VERS.                      2.0: CWLS Log ASCII Standard - VERSION 2.0
WRAP.                       NO: One line per depth step
~Well Information Block
STRT.FT               -10.7500: 
STOP.FT              1466.2500: 
STEP.FT                 0.2500: 
NULL.                -999.2500: 
COMP.          Pioneer Natural Resources: COMPANY
WELL.             Andrew 23-15: WELL
FLD.           Purgatorie River: FIELD
LOC.           2137' FSL & 2292' FWL--: LOCATION
PROV.                       CO: PROVINCE
CNTY.               Las Animas: COUNTRY
SRVC.          Patterson Wireline: SERVICE COMPANY
DATE.          Thu Aug 18 11:51:45 2005: LOG DATE
UWI.           05 071 08460 00: UNIQUE WELL ID
~Curve Information Block
DEPT.FT            0 000 00 00: Depth
CCL.                          : Casing Collar Locator
TT3.usec                      : CBL 3' Travel Time
AMP3.mV                       : CBL 3' Amplitude
GR.GAPI                       : Gamma Ray
~Parameter Information Block
~A  Depth       CCL         TT3         AMP3         GR     
# ...
   458.2500      0.0000   1148.9968     17.4402     72.6617
   458.5000      0.0000   1149.0000     17.5046     71.0449
   458.7500      0.0000   1149.0000     17.5380     69.5153
   459.0000      0.0000   1149.0000     17.5552     68.0175
   459.2500      0.0000   1149.0000     17.5607     66.6545
   459.5000      0.0000   1149.0000     17.5462     65.5608
   459.7500      0.0000   1149.0000     17.5010     64.6396
   460.0000      0.0000   1149.0000     17.4267     63.5758
   460.2500      0.0000   1149.0000     17.3356     62.1443
   460.5000      0.0000   1149.0000     17.2348     60.3614
   460.7500      0.0000   1149.0000     17.1133     58.4232
   461.0000      0.0000   1149.0000     16.9450     56.5895
   461.2500      0.0000   1149.0000     16.7061     55.0683
   461.5000      0.0000   1149.0000     16.3937     53.9715
   461.7500      0.0000   1149.0000     16.0324     53.4092
   462.0000      0.0000   1149.0000     15.6649     53.4442
   462.2500      0.0000   1149.0000     15.3366     53.7853
   462.5000      0.0000   1149.0000     15.0780     53.6804
   462.7500      0.0000   1149.0000     14.8941     52.3382
   463.0000      0.0000   1149.0000     14.7649     49.5619
   463.2500      0.0000   1149.0000     14.6612     46.1299
   463.5000      0.0000   1149.0000     14.5583     43.6696
   463.7500      0.0000   1149.0000     14.4361     43.8060
   464.0000      0.0000   1149.0000     14.2770     46.9819
   464.2500      0.0000   1149.0000     14.0765     52.0904
   464.5000      0.0000   1149.0000     13.8541     57.2491
   464.7500      0.0000   1149.0000     13.6452     60.9354
   465.0000      0.0000   1149.0000     13.4782     62.9700
   465.2500      0.0000   1149.0000     13.3595     64.9334
   465.5000      0.0000   1149.0000     13.2773     69.0959
   465.7500      0.0000   1149.0000     13.2157     76.2166
   466.0000      0.0000   1148.9805     13.1661     84.7401
   466.2500      0.0000   1148.8728     13.1286     92.6527
   466.5000      0.0000   1148.3540     13.1023     99.5996
   466.7500      0.0000   1146.4255     13.0741    106.5320
   467.0000      0.0000   1140.9832     13.0206    113.7869
   467.2500      0.0000   1129.3469     12.9283    120.3760
   467.5000      0.0000   1110.5243     12.8137    125.0065
   467.7500      0.0000   1087.2413     12.7202    127.0073
   468.0000      0.0000   1064.0338     12.6900    126.2817
   468.2500      0.0000   1043.2939     12.7379    123.1236
   468.5000      0.0000   1026.2729     12.8494    118.4078
   468.7500      0.0000   1017.7003     12.9981    113.6445
   469.0000      0.0000   1022.9806     13.1611    110.5119
   469.2500      0.0000   1038.8719     13.3203    110.1186
   469.5000      0.0000   1053.2568     13.4578    112.4363
   469.7500      0.0000   1057.6355     13.5597    116.2062
   470.0000      0.0000   1055.6299     13.6266    119.5546
   470.2500      0.0000   1056.4608     13.6736    121.1402
   470.5000      0.0000   1062.5786     13.7132    121.0279
   470.7500      0.0000   1065.3656     13.7398    120.4831
   471.0000      0.0000   1051.9175     13.7347    120.7730
   471.2500      0.0000   1016.4435     13.6872    121.9437
   471.5000      0.0000    966.1729     13.6062    122.8307
   471.7500      0.0000    916.0182     13.5078    122.6685
   472.0000      0.0000    877.8033     13.3936    122.6310
   472.2500      0.0000    855.0255     13.2488    124.9520
   472.5000      0.0000    845.2483     13.0605    130.1629
   472.7500      0.0000    843.9269     12.8363    136.0548
   473.0000      0.0000    846.0420     12.6078    139.9306
   473.2500      0.0000    847.3123     12.4162    141.1707
   473.5000      0.0000    845.8535     12.2930    141.1353
   473.7500      0.0000    842.8049     12.2468    141.1688
   474.0000      0.0000    840.6395     12.2670    141.0389
   474.2500      0.0000    840.2056     12.3415    139.0834
   474.5000      0.0000    839.2842     12.4686    133.9589
   474.7500      0.0000    834.4296     12.6478    126.3453
   475.0000      0.0000    824.3151     12.8627    118.6398
   475.2500      0.0000    811.2187     13.0791    112.9021
   475.5000      0.0000    799.3638     13.2642    109.4405
   475.7500      0.0000    792.1437     13.4036    107.5259
   476.0000      0.0000    790.7919     13.5001    106.9506
   476.2500      0.0000    794.8204     13.5586    108.2746
   476.5000      0.0000    802.8534     13.5762    111.6495
   476.7500      0.0000    813.2123     13.5449    116.2725
   477.0000      0.0000    824.2745     13.4608    121.3900
   477.2500      0.0000    834.3644     13.3266    126.9053
   477.5000      0.0000    841.3492     13.1470    132.3680
   477.7500      0.0000    842.8907     12.9237    136.3887
   478.0000      0.0000    837.6841     12.6594    137.8531
   478.2500      0.0000    826.8302     12.3641    136.9779
   478.5000      0.0000    814.1066     12.0586    134.6554
   478.7500      0.0000    804.2736     11.7707    131.4821
   479.0000      0.0000    800.2217     11.5252    128.0277
   479.2500      0.0000    801.5338     11.3360    125.3622
   479.5000      0.0000    806.0261     11.2036    124.3465
   479.7500      0.0000    812.4498     11.1214    124.5498
   480.0000      0.0000    820.9485     11.0866    124.6459
   480.2500      0.0000    831.0862     11.1043    123.9678
   480.5000      0.0000    840.7980     11.1793    123.0898
   480.7500      0.0000    847.8949     11.3057    122.7217
   481.0000      0.0000    851.7902     11.4663    122.4801
   481.2500      0.0000    853.3583     11.6425    121.1901
   481.5000      0.0000    853.6887     11.8182    118.2916
   481.7500      0.0000    853.2643     11.9650    114.6460
   482.0000      0.0000    852.0822     12.0208    111.9762
   482.2500      0.0000    850.6898     11.8907    111.6105
   482.5000      0.0000    852.1767     11.5083    113.5329
   482.7500      0.0000    863.3908     10.9348    116.3343
   483.0000      0.0000    891.6594     10.3744    118.0460
   483.2500      0.0000    936.4490     10.0205    117.1590
   483.5000      0.0000    983.9847      9.8829    113.2742
   483.7500      0.0000   1014.1268      9.8306    107.3205
   484.0000      0.0000   1016.0737      9.7798    101.0845
   484.2500      0.0000    997.3419      9.7603     96.0158
   484.5000      0.0000    976.7009      9.8206     92.5272
   484.7500      2.0000    969.0626      9.9582     90.6714
   485.0000     -2.0000    976.9914     10.1521     91.0560
   485.2500      0.0000    992.6274     10.4289     94.4479
   485.5000      0.0000   1003.1599     10.8853    100.3694
   485.7500      0.0000    996.6848     11.6136    106.6493
   486.0000      0.0000    969.3146     12.5563    110.9707
   486.2500      0.0000    928.5118     13.4520    112.9260
   486.5000      0.0000    887.4070     14.0028    114.2595
   486.7500      0.0000    855.6285     14.1061    117.0982
   487.0000      0.0000    835.6428     13.8861    122.1174
   487.2500      0.0000    825.1650     13.5335    128.0818
   487.5000      0.0000    820.6937     13.1692    132.6804
   487.7500      0.0000    819.4290     12.8327    134.0253
   488.0000      0.0000    819.8600     12.5296    131.8618
   488.2500      0.0000    821.4542     12.2646    127.4397
   488.5000      0.0000    823.9127     12.0499    122.4934
   488.7500      0.0000    826.7421     11.8976    118.5303
   489.0000      0.0000    829.6489     11.8088    116.4898
   489.2500      0.0000    832.8148     11.7710    116.3561
   489.5000      0.0000    835.8496     11.7605    117.2127
   489.7500      0.0000    836.6333     11.7494    118.1635
   490.0000      0.0000    832.3464     11.7159    119.0016
   490.2500      0.0000    822.1992     11.6514    119.6820
   490.5000      0.0000    808.7251     11.5556    119.7366
   490.7500      0.0000    796.0856     11.4297    118.9308
   491.0000      0.0000    787.1649     11.2798    118.1710
   491.2500      0.0000    782.3055     11.1244    118.9401
   491.5000      0.0000    780.2342     10.9916    121.7017
