~Version Information
VERS.                      2.0: CWLS Log ASCII Standard - VERSION 2.0
WRAP.                       NO: One line per depth step
~Well Information Block
STRT.FT                -6.5000: 
STOP.FT              1564.2500: 
STEP.FT                 0.2500: 
NULL.                -999.2500: 
COMP.          Pioneer Natural Resources: COMPANY
WELL.            Bluesky 44-17: WELL
FLD.           Purgatorie River: FIELD
LOC.           --39' FSL & 288' FEL------: LOCATION
STAT.                       CO: State
CNTY.               Las Animas: COUNTY
CTRY. USA : Country
SECT. 17 : Section
TOWN. 33S : Township
RANG. 66W : Range
SRVC.          Patterson Wireline: SERVICE COMPANY
DATE.          Tue Sep 13 13:24:14 2005: LOG DATE
API.           05 071 08511 00: UNIQUE WELL ID
~Curve Information Block
DEPT.FT            0 000 00 00: Depth
CCL.                          : Casing Collar Locator
TT3.usec                      : CBL 3' Travel Time
AMP3.mV                       : CBL 3' Amplitude
GR.GAPI                       : Gamma Ray
~Parameter Information Block
~A  Depth       CCL         TT3         AMP3         GR     
    -6.5000   -999.2500   -999.2500   -999.2500    101.3817
    -6.2500   -999.2500   -999.2500   -999.2500     99.3633
    -6.0000   -999.2500   -999.2500   -999.2500     97.5088
    -5.7500   -999.2500   -999.2500   -999.2500     97.1512
    -5.5000   -999.2500   -999.2500   -999.2500     98.1086
    -5.2500   -999.2500   -999.2500   -999.2500     99.5832
    -5.0000   -999.2500   -999.2500   -999.2500    101.3674
    -4.7500   -999.2500   -999.2500   -999.2500    103.7248
    -4.5000   -999.2500   -999.2500   -999.2500    106.4544
    -4.2500   -999.2500   -999.2500   -999.2500    108.5968
    -4.0000   -999.2500   -999.2500   -999.2500    109.1281
    -3.7500   -999.2500   -999.2500   -999.2500    107.8619
    -3.5000   -999.2500   -999.2500   -999.2500    105.5504
    -3.2500   -999.2500   -999.2500   -999.2500    102.9746
    -3.0000   -999.2500   -999.2500   -999.2500    100.3730
    -2.7500   -999.2500   -999.2500   -999.2500     98.1361
    -2.5000   -999.2500   -999.2500   -999.2500     97.2725
    -2.2500   -999.2500   -999.2500   -999.2500     98.1622
    -2.0000   -999.2500   -999.2500   -999.2500     99.3689
    -1.7500   -999.2500   -999.2500   -999.2500     98.8924
    -1.5000   -999.2500   1149.0000      1.9925     96.6331
    -1.2500   -999.2500   1149.0000      1.9948     94.7471
    -1.0000   -999.2500   1149.0000      1.9962     95.3148
    -0.7500   -999.2500   1149.0000      1.9925     98.1634
    -0.5000   -999.2500   1149.0000      1.9806    101.1211
    -0.2500   -999.2500   1149.0000      1.9622    101.7245
     0.0000   -999.2500   1149.0000      1.9429     98.4296
     0.2500   -999.2500   1149.0000      1.9292     91.1435
     0.5000   -999.2500   1149.0000      1.9291     72.2329
     0.7500   -999.2500   1149.0000      1.9394     65.2125
     1.0000   -999.2500   1149.0000      1.9522     60.2479
     1.2500   -999.2500   1149.0000      1.9639     55.7398
     1.5000   -999.2500   1149.0000      1.9703     50.4436
     1.7500   -999.2500   1149.0000      1.9692     44.4203
     2.0000   -999.2500   1149.0000      1.9626     38.6872
     2.2500   -999.2500   1149.0000      1.9553     34.4502
     2.5000   -999.2500   1149.0000      1.9501     32.6565
     2.7500   -999.2500   1149.0000      1.9478     33.8008
     3.0000   -999.2500   1149.0000      1.9495     37.7151
     3.2500   -999.2500   1149.0000      1.9578     43.3958
     3.5000   -999.2500   1149.0000      1.9727     49.1099
     3.7500      0.0000   1149.0000      1.9892     53.1116
     4.0000      0.0000   1149.0000      1.9998     54.9206
     4.2500      0.0000   1149.0000      1.9991     56.0226
     4.5000      0.0000   1149.0000      1.9870     58.5765
     4.7500      0.0000   1149.0000      1.9670     62.9244
     5.0000      0.0000   1149.0000      1.9441     66.9907
     5.2500      0.0000   1149.0000      1.9237     68.6821
     5.5000      0.0000   1149.0000      1.9103     68.1766
     5.7500      0.0000   1149.0000      1.9054     67.2026
     6.0000      0.0000   1149.0000      1.9063     66.8080
     6.2500      0.0000   1149.0000      1.9085     66.6610
     6.5000      0.0000   1149.0000      1.9093     66.1328
     6.7500      0.0000   1148.9429      1.9104     65.3127
     7.0000      0.0000   1148.5677      1.9255     64.9583
     7.2500     -2.0000   1146.6598      2.0215     65.7134
     7.5000      2.0000   1139.0969      2.4334     67.3081
     7.7500      0.0000   1115.7361      3.7533     68.5538
     8.0000      0.0000   1059.4934      7.0263     68.3560
     8.2500      0.0000    953.9318     13.3870     66.8074
     8.5000      0.0000    799.4313     23.1249     65.1302
     8.7500      0.0000    623.0356     34.8980     64.5733
     9.0000      0.0000    465.8658     46.1613     65.4169
     9.2500      2.0000    356.5184     54.7058     66.8620
     9.5000      0.0000    297.0771     59.8585     67.6729
     9.7500      0.0000    271.8118     62.3372     67.0277
    10.0000      0.0000    263.4092     63.2985     64.9791
    10.2500      0.0000    261.2212     63.6181     62.2608
    10.5000      0.0000    260.7722     63.7386     59.7719
    10.7500      0.0000    260.6940     63.8155     58.1558
    11.0000      0.0000    260.6826     63.8813     57.6079
    11.2500      0.0000    260.6739     63.9408     57.9440
    11.5000      0.0000    260.6670     63.9974     58.7788
    11.7500      0.0000    260.6622     64.0448     59.5548
    12.0000      0.0000    260.6599     64.0642     59.5784
    12.2500      0.0000    260.6599     64.0407     58.4580
    12.5000      0.0000    260.6611     63.9804     56.5734
    12.7500      0.0000    260.6625     63.9053     54.9490
    13.0000      0.0000    260.6650     63.8357     54.5837
    13.2500      0.0000    260.6700     63.7819     55.7647
    13.5000      0.0000    260.6817     63.7354     57.7941
    13.7500      0.0000    260.7182     63.6500     59.3483
    14.0000      0.0000    260.8611     63.4149     59.3024
    14.2500      0.0000    261.3594     62.8653     57.4600
    14.5000      0.0000    262.7593     61.8330     54.7030
    14.7500      0.0000    265.8824     60.1710     52.3775
    15.0000      0.0000    271.4030     57.7444     51.2722
    15.2500      0.0000    279.1230     54.5250     51.1325
    15.5000      0.0000    287.6484     50.8084     51.1754
    15.7500      0.0000    295.0774     47.2338     50.8777
    16.0000      0.0000    300.1860     44.4348     50.1881
    16.2500     -2.0000    302.9501     42.6666     49.2816
    16.5000      0.0000    304.0606     41.7990     48.4192
    16.7500      0.0000    304.1494     41.5735     47.9557
    17.0000      0.0000    303.3620     41.8648     48.2048
    17.2500      0.0000    301.3803     42.8161     49.2031
    17.5000      0.0000    297.7737     44.7523     50.5793
    17.7500      0.0000    292.4582     47.8328     51.7372
    18.0000      0.0000    285.8927     51.7360     52.5323
    18.2500      0.0000    278.8860     55.7791     53.8140
    18.5000      0.0000    272.3393     59.3251     56.7662
    18.7500      0.0000    267.0661     62.0197     61.4203
    19.0000      0.0000    263.5252     63.7846     66.1800
    19.2500      0.0000    261.6060     64.7397     69.0242
    19.5000      0.0000    260.7892     65.0788     68.8972
    19.7500      0.0000    260.5444     64.9157     65.9199
    20.0000      0.0000    260.5993     64.2214     60.8682
    20.2500      0.0000    261.0100     62.8810     54.9325
    20.5000      0.0000    262.1785     60.7895     49.6828
    20.7500      0.0000    264.8039     57.9016     46.5041
    21.0000      0.0000    269.5251     54.2575     45.7203
    21.2500      0.0000    276.2758     49.9929     46.5179
    21.5000      0.0000    283.9670     45.3306     47.9069
    21.7500      0.0000    291.1336     40.5418     49.4948
    22.0000      0.0000    297.1937     35.9002     51.2012
    22.2500      0.0000    303.1552     31.6328     52.6125
    22.5000      0.0000    311.4914     27.8659     53.0969
    22.7500      0.0000    326.0496     24.6042     52.6750
    23.0000      0.0000    352.8821     21.7837     52.4767
    23.2500      0.0000    400.5852     19.3542     53.9442
    23.5000      0.0000    476.3852     17.3137     57.3878
    23.7500      0.0000    577.5389     15.6848     61.4166
    24.0000      0.0000    686.3865     14.4755     64.0659
    24.2500      0.0000    778.1888     13.6548     64.5904
    24.5000      0.0000    836.8066     13.1501     63.9139
    24.7500      0.0000    862.8605     12.8657     63.2909
    25.0000      0.0000    868.4453     12.7118     63.0036
    25.2500      0.0000    866.7335     12.6263     62.6431
    25.5000      0.0000    865.6313     12.5764     62.1286
    25.7500      0.0000    867.0923     12.5462     61.8727
    26.0000      0.0000    869.4738     12.5247     62.1255
    26.2500      0.0000    870.3931     12.5010     62.6905
    26.5000      0.0000    868.6760     12.4694     63.4406
    26.7500      0.0000    864.8451     12.4341     64.7596
