~Version Information
VERS.                      2.0: CWLS Log ASCII Standard - VERSION 2.0
WRAP.                       NO: One line per depth step
~Well Information Block
STRT.FT                -6.7500: 
STOP.FT              1466.2500: 
STEP.FT                 0.2500: 
NULL.                -999.2500: 
COMP.          Pioneer Natural Resources: COMPANY
WELL.          Pallet Ranch 34-15 Tr: WELL
FLD.           Purgatorie River: FIELD
LOC.           465' FSL & 2138' FEL--: LOCATION
PROV.                       CO: PROVINCE
CNTY.               Las Animas: COUNTRY
SRVC.          Patterson Wireline: SERVICE COMPANY
DATE.          Wed Jan 25 09:38:09 2006: LOG DATE
UWI.           05 071 08657 00: UNIQUE WELL ID
~Curve Information Block
DEPT.FT            0 000 00 00: Depth
CCL.                          : Casing Collar Locator
TT3.usec                      : CBL 3' Travel Time
AMP3.mV                       : CBL 3' Amplitude
GR.GAPI                       : Gamma Ray
~Parameter Information Block
~A  Depth       CCL         TT3         AMP3         GR     
# ...
  1433.7500      0.0000    669.5406      4.4903    144.7656
  1434.0000      0.0000    673.3988      4.4771    143.2103
  1434.2500      0.0000    678.0928      4.4534    139.9918
  1434.5000      0.0000    681.5005      4.4243    135.8875
  1434.7500      0.0000    681.1785      4.3990    131.2440
  1435.0000      0.0000    676.2755      4.3841    124.9591
  1435.2500      0.0000    668.6860      4.3824    115.8244
  1435.5000      0.0000    661.8856      4.3929    104.2635
  1435.7500      0.0000    657.9018      4.4091     92.0138
  1436.0000      0.0000    655.6639      4.4294     80.5937
  1436.2500      0.0000    653.5769      4.4690     70.7846
  1436.5000      0.0000    653.7552      4.5439     63.2976
  1436.7500      0.0000    661.5233      4.6403     59.2488
  1437.0000     -2.0000    679.0920      4.7133     59.8788
  1437.2500      0.0000    701.1013      4.7240     65.8948
  1437.5000      0.0000    718.2795      4.6768     76.6487
  1437.7500      0.0000    724.7687      4.6228     89.4738
  1438.0000      0.0000    720.9520      4.6177    100.3349
  1438.2500      0.0000    710.9847      4.6638    106.2714
  1438.5000      0.0000    699.4952      4.7017    107.6346
  1438.7500      0.0000    689.8079      4.6745    107.6043
  1439.0000      0.0000    683.1824      4.5911    109.3905
  1439.2500      0.0000    678.9262      4.5115    113.8895
  1439.5000      0.0000    675.6199      4.4821    119.6307
  1439.7500      0.0000    672.3516      4.5015    124.5027
  1440.0000      0.0000    668.6107      4.5369    127.6361
  1440.2500      0.0000    663.2236      4.5580    130.0455
  1440.5000      0.0000    654.0963      4.5548    133.4100
  1440.7500      0.0000    640.0457      4.5324    137.8266
  1441.0000      0.0000    623.6904      4.4974    141.0699
  1441.2500      0.0000    611.6812      4.4518    140.7553
  1441.5000      0.0000    610.0011      4.3959    137.1218
  1441.7500      0.0000    618.5719      4.3334    133.1636
  1442.0000      0.0000    631.7667      4.2707    132.0536
  1442.2500      0.0000    643.9479      4.2143    134.7126
  1442.5000      0.0000    652.9891      4.1672    139.6443
  1442.7500      0.0000    659.1249      4.1295    144.6549
  1443.0000      0.0000    662.6938      4.0990    148.6295
  1443.2500      0.0000    663.4570      4.0701    151.9103
  1443.5000      0.0000    661.1236      4.0383    155.1338
  1443.7500      0.0000    656.4644      4.0082    157.9417
  1444.0000      0.0000    652.2762      3.9927    159.1601
  1444.2500      0.0000    652.4018      4.0001    158.2448
  1444.5000      0.0000    658.6835      4.0267    156.2279
  1444.7500      0.0000    669.2613      4.0605    155.1048
  1445.0000      0.0000    680.5325      4.0920    156.4594
  1445.2500      0.0000    690.1879      4.1177    160.3805
  1445.5000      0.0000    697.8904      4.1385    165.0285
  1445.7500      0.0000    703.8798      4.1532    167.3288
  1446.0000      0.0000    707.7393      4.1548    165.0638
  1446.2500      0.0000    708.5667      4.1360    158.9127
  1446.5000      0.0000    706.2542      4.0982    152.0589
  1446.7500      0.0000    702.3676      4.0521    147.5312
  1447.0000      0.0000    699.3442      4.0080    146.1662
  1447.2500      0.0000    698.7247      3.9711    146.8629
  1447.5000      0.0000    700.4165      3.9432    147.9579
  1447.7500      0.0000    703.3920      3.9247    148.2132
  1448.0000      0.0000    706.3051      3.9138    147.0143
  1448.2500      0.0000    707.1971      3.9073    144.1449
  1448.5000      0.0000    703.4260      3.9041    139.6575
  1448.7500      0.0000    692.6105      3.9049    133.8767
  1449.0000      0.0000    673.5690      3.9103    127.2249
  1449.2500      0.0000    646.4987      3.9208    120.1149
  1449.5000      0.0000    613.3160      3.9381    113.2936
  1449.7500      0.0000    578.0465      3.9647    107.9962
  1450.0000      0.0000    545.6640      4.0016    105.2936
  1450.2500      0.0000    520.0790      4.0449    105.4291
  1450.5000      0.0000    503.8062      4.0877    108.0450
  1450.7500      0.0000    498.6812      4.1244    112.7597
  1451.0000      0.0000    505.3530      4.1549    119.0066
  1451.2500      0.0000    522.6017      4.1824    125.2910
  1451.5000      0.0000    548.1216      4.2073    128.7146
  1451.7500      0.0000    578.9254      4.2249    125.3715
  1452.0000      0.0000    610.4335      4.2308    112.0040
  1452.2500      0.0000    637.0413      4.2257     88.6802
  1452.5000      0.0000    655.0510      4.2157     60.2873
  1452.7500      0.0000    664.4333      4.2070     34.2793
  1453.0000      0.0000    667.2131      4.2012     15.9776
  1453.2500      0.0000    664.4484      4.1943      6.0158
  1453.5000      0.0000    654.8023      4.1804      1.8104
  1453.7500      0.0000    635.9825      4.1579      0.4317
  1454.0000      0.0000    608.2437      4.1306      0.0804
  1454.2500      0.0000    576.6823      4.1040      0.0109
  1454.5000      0.0000    549.0793      4.0808      0.0000
  1454.7500      0.0000    530.6977      4.0605   -999.2500
  1455.0000      0.0000    521.4638      4.0410   -999.2500
  1455.2500      0.0000    517.9596      4.0218   -999.2500
  1455.5000      0.0000    517.0875      4.0065   -999.2500
  1455.7500      0.0000    517.9052      4.0028   -999.2500
  1456.0000      0.0000    521.4691      4.0168   -999.2500
  1456.2500      0.0000    530.1066      4.0462   -999.2500
  1456.5000      0.0000    545.9912      4.0753   -999.2500
  1456.7500      0.0000    567.7924      4.0705   -999.2500
  1457.0000      0.0000    585.5490      3.9740   -999.2500
  1457.2500      0.0000    578.7802      3.7053   -999.2500
  1457.5000      0.0000    525.4985      3.1967   -999.2500
  1457.7500      0.0000    420.7439      2.4629   -999.2500
  1458.0000      0.0000    287.3395      1.6387   -999.2500
  1458.2500      0.0000    163.2613      0.9159   -999.2500
  1458.5000      0.0000     75.8004      0.4211   -999.2500
  1458.7500      0.0000     28.3899      0.1568   -999.2500
  1459.0000      0.0000      8.4968      0.0468   -999.2500
  1459.2500      0.0000      2.0164      0.0111   -999.2500
  1459.5000      0.0000      0.3737      0.0020   -999.2500
  1459.7500      0.0000      0.0497      0.0003   -999.2500
  1460.0000      0.0000   -999.2500   -999.2500   -999.2500
  1460.2500      0.0000   -999.2500   -999.2500   -999.2500
  1460.5000      0.0000   -999.2500   -999.2500   -999.2500
  1460.7500      0.0000   -999.2500   -999.2500   -999.2500
  1461.0000      0.0000   -999.2500   -999.2500   -999.2500
  1461.2500      0.0000   -999.2500   -999.2500   -999.2500
  1461.5000      0.0000   -999.2500   -999.2500   -999.2500
  1461.7500      0.0000   -999.2500   -999.2500   -999.2500
  1462.0000      0.0000   -999.2500   -999.2500   -999.2500
  1462.2500      0.0000   -999.2500   -999.2500   -999.2500
  1462.5000      0.0000   -999.2500   -999.2500   -999.2500
  1462.7500      0.0000   -999.2500   -999.2500   -999.2500
  1463.0000      0.0000   -999.2500   -999.2500   -999.2500
  1463.2500      0.0000   -999.2500   -999.2500   -999.2500
  1463.5000      0.0000   -999.2500   -999.2500   -999.2500
  1463.7500      0.0000   -999.2500   -999.2500   -999.2500
  1464.0000      0.0000   -999.2500   -999.2500   -999.2500
  1464.2500      0.0000   -999.2500   -999.2500   -999.2500
  1464.5000      0.0000   -999.2500   -999.2500   -999.2500
  1464.7500      0.0000   -999.2500   -999.2500   -999.2500
  1465.0000      0.0000   -999.2500   -999.2500   -999.2500
  1465.2500      0.0000   -999.2500   -999.2500   -999.2500
  1465.5000      0.0000   -999.2500   -999.2500   -999.2500
  1465.7500   -999.2500   -999.2500   -999.2500   -999.2500
  1466.0000   -999.2500   -999.2500   -999.2500   -999.2500
  1466.2500   -999.2500   -999.2500   -999.2500   -999.2500
