~Version Information
VERS.                      2.0: CWLS Log ASCII Standard - VERSION 2.0
WRAP.                       NO: One line per depth step
~Well Information Block
STRT.FT               460.0000: 
STOP.FT              1349.5000: 
STEP.FT                 0.2500: 
NULL.                -999.2500: 
COMP.          Pioneer Natural Resources: COMPANY
WELL.              Dicks 32-5R: WELL
FLD.           Purgatorie River: FIELD
LOC.           1485' FNL & 1684' FEL: LOCATION
PROV.                 Colorado: PROVINCE
CNTY.               Las Animas: COUNTRY
SRVC.                Patterson: SERVICE COMPANY
DATE.          Thu Dec 08 23:11:15 2005: LOG DATE
UWI.                          : UNIQUE WELL ID
~Curve Information Block
DEPT.FT            0 000 00 00: Depth
SN.Ohm-m                      : IEL Short Normal
SP.mV                         : IEL Spontaneous Potential
DIR.Ohm-m                     : IEL Induction Resistivity
GR.GAPI                       : Gamma Ray
~Parameter Information Block
~A  Depth        SN          SP         DIR          GR     
# ...
  1264.0000     24.1934    226.0952     25.5280     73.5670
  1264.2500     23.8110    225.9372     25.4245     73.5431
  1264.5000     23.5052    225.8504     25.4739     74.1758
  1264.7500     23.3864    225.8122     25.6268     75.1414
  1265.0000     23.4608    225.7805     25.7935     77.0400
  1265.2500     23.6655    225.7158     25.8824     78.2762
  1265.5000     23.9726    225.5980     25.8509     79.7831
  1265.7500     24.3686    225.4326     25.7357     80.5960
  1266.0000     24.8158    225.2411     25.6434     81.7335
  1266.2500     25.2932    225.0423     25.7077     82.4676
  1266.5000     25.8143    224.8372     26.0374     83.2291
  1266.7500     26.3792    224.6073     26.6779     83.1898
  1267.0000     26.9590    224.3280     27.5973     82.0857
  1267.2500     27.5234    223.9851     28.6976     80.9498
  1267.5000     28.0501    223.5801     29.8396     79.4796
  1267.7500     28.5416    223.1221     30.8696     78.8744
  1268.0000     29.0457    222.6200     31.6419     78.3125
  1268.2500     29.6315    222.0809     32.0517     78.0710
  1268.5000     30.3462    221.5114     32.0741     78.1731
  1268.7500     31.2018    220.9188     31.7871     78.7013
  1269.0000     32.1866    220.3161     31.3440     79.8569
  1269.2500     33.2533    219.7280     30.9038     80.3811
  1269.5000     34.2896    219.1788     30.5665     80.0126
  1269.7500     35.1575    218.6694     30.3586     78.8158
  1270.0000     35.7598    218.1709     30.2669     75.8285
  1270.2500     36.0124    217.6489     30.2828     73.3989
  1270.5000     35.7930    217.0918     30.4034     69.8708
  1270.7500     35.0320    216.5186     30.5909     68.0128
  1271.0000     33.8533    215.9715     30.7488     66.3030
  1271.2500     32.5139    215.5084     30.7662     65.7968
  1271.5000     31.2061    215.1896     30.6065     65.7594
  1271.7500     30.0068    215.0584     30.3467     66.3338
  1272.0000     28.9630    215.1274     30.1173     68.6447
  1272.2500     28.1184    215.3817     30.0067     71.2027
  1272.5000     27.4729    215.7918     30.0143     75.5596
  1272.7500     26.9809    216.3164     30.0781     77.9274
  1273.0000     26.6186    216.8985     30.1326     79.9801
  1273.2500     26.4230    217.4709     30.1417     80.6447
  1273.5000     26.4312    217.9757     30.0908     81.3519
  1273.7500     26.6193    218.3817     29.9810     81.7212
  1274.0000     26.9139    218.6846     29.8472     81.8300
  1274.2500     27.2400    218.8886     29.7732     81.5765
  1274.5000     27.5646    218.9890     29.8604     81.1390
  1274.7500     27.9163    218.9700     30.1651     81.0776
  1275.0000     28.3545    218.8186     30.6601     81.2510
  1275.2500     28.8930    218.5384     31.2503     81.1447
  1275.5000     29.4234    218.1494     31.8287     79.9165
  1275.7500     29.7503    217.6759     32.3295     78.3386
  1276.0000     29.7602    217.1374     32.7384     75.5975
  1276.2500     29.5211    216.5526     33.0610     74.0836
  1276.5000     29.1695    215.9468     33.2867     72.6181
  1276.7500     28.7849    215.3495     33.3785     72.0062
  1277.0000     28.4278    214.7792     33.2911     71.3807
  1277.2500     28.1921    214.2296     32.9955     71.2304
  1277.5000     28.1478    213.6669     32.4913     71.5682
  1277.7500     28.2911    213.0468     31.8117     72.0722
  1278.0000     28.5560    212.3457     31.0265     72.8916
  1278.2500     28.8372    211.5821     30.2381     73.3951
  1278.5000     29.0458    210.8106     29.5545     74.2114
  1278.7500     29.1665    210.0943     29.0479     74.8444
  1279.0000     29.2200    209.4839     28.7238     75.7241
  1279.2500     29.1876    209.0148     28.5199     76.0034
  1279.5000     29.0122    208.7065     28.3445     75.3898
  1279.7500     28.6789    208.5550     28.1311     74.0384
  1280.0000     28.2552    208.5299     27.8731     70.8741
  1280.2500     27.8097    208.5939     27.6086     68.7685
  1280.5000     27.3140    208.7292     27.3735     67.3552
  1280.7500     26.6741    208.9451     27.1575     68.2003
  1281.0000     25.8817    209.2612     26.8952     71.8285
  1281.2500     25.0667    209.6845     26.5021     74.9685
  1281.5000     24.3604    210.1978     25.9377     79.0914
  1281.7500     23.7867    210.7626     25.2432     80.8802
  1282.0000     23.3067    211.3311     24.5221     82.2509
  1282.2500     22.8884    211.8580     23.8810     82.7712
  1282.5000     22.5139    212.3035     23.3834     83.6290
  1282.7500     22.1784    212.6333     23.0362     84.3153
  1283.0000     21.8948    212.8267     22.8045     85.3623
  1283.2500     21.6588    212.8857     22.6403     86.0233
  1283.5000     21.4298    212.8281     22.5111     86.8215
  1283.7500     21.1981    212.6669     22.4161     87.0559
  1284.0000     21.0232    212.3975     22.3824     86.9253
  1284.2500     20.9583    212.0045     22.4444     86.8013
  1284.5000     20.9954    211.4791     22.6253     87.0688
  1284.7500     21.0916    210.8341     22.9264     87.4788
  1285.0000     21.1983    210.1089     23.3266     87.7941
  1285.2500     21.2885    209.3586     23.7858     87.5136
  1285.5000     21.3974    208.6318     24.2545     86.3708
  1285.7500     21.5991    207.9543     24.6869     85.3084
  1286.0000     21.9237    207.3252     25.0543     83.6537
  1286.2500     22.3321    206.7261     25.3494     82.8096
  1286.5000     22.7664    206.1389     25.5824     82.4446
  1286.7500     23.1679    205.5615     25.7710     82.8879
  1287.0000     23.4719    205.0093     25.9304     84.1544
  1287.2500     23.6673    204.5040     26.0692     84.9500
  1287.5000     23.8171    204.0622     26.1920     85.4324
  1287.7500     23.9688    203.6882     26.3055     85.1571
  1288.0000     24.1040    203.3737     26.4123     84.0752
  1288.2500     24.1678    203.1049     26.4947     83.1920
  1288.5000     24.1057    202.8753     26.5045     82.1361
  1288.7500     23.9034    202.6914     26.3773     81.8089
  1289.0000     23.6020    202.5640     26.0714     81.8404
  1289.2500     23.2597    202.4931     25.6025     81.9336
  1289.5000     22.9251    202.4631     25.0465     81.5802
  1289.7500     22.6264    202.4542     24.5019     80.8738
  1290.0000     22.3474    202.4550     24.0394     79.4529
  1290.2500     22.0421    202.4603     23.6705     78.6647
  1290.5000     21.7088    202.4643     23.3574     78.3012
  1290.7500     21.4024    202.4617     23.0520     78.7085
  1291.0000     21.1443    202.4493     22.7362     79.9987
  1291.2500     20.9046    202.4191     22.4293     80.9931
  1291.5000     20.6735    202.3536     22.1639     82.2332
  1291.7500     20.4708    202.2344     21.9599     82.7634
  1292.0000     20.3127    202.0571     21.8175     82.9915
  1292.2500     20.2044    201.8324     21.7268     82.6878
  1292.5000     20.1480    201.5738     21.6786     81.5813
  1292.7500     20.1416    201.2880     21.6670     80.6497
  1293.0000     20.1684    200.9765     21.6855     79.5344
  1293.2500     20.1991    200.6384     21.7245     79.1339
  1293.5000     20.2211    200.2652     21.7729     78.8915
  1293.7500     20.2541    199.8417     21.8222     78.8150
  1294.0000     20.3202    199.3599     21.8706     78.7024
  1294.2500     20.4096    198.8318     21.9227     78.6440
  1294.5000     20.4998    198.2863     21.9879     78.7207
  1294.7500     20.5911    197.7525     22.0788     78.9616
  1295.0000     20.7004    197.2453     22.2095     79.5042
  1295.2500     20.8419    196.7597     22.3939     79.7274
  1295.5000     21.0290    196.2721     22.6386     79.2696
  1295.7500     21.2664    195.7490     22.9349     78.2306
  1296.0000     21.5194    195.1586     23.2521     75.8296
  1296.2500     21.7092    194.4811     23.5378     74.1784
  1296.5000     21.7857    193.7094     23.7280     72.6514
  1296.7500     21.7860    192.8447     23.7673     72.6151
  1297.0000     21.7767    191.8944     23.6329     73.9344
  1297.2500     21.7735    190.8784     23.3500     75.3580
