~Version Information
VERS.                      2.0: CWLS Log ASCII Standard - VERSION 2.0
WRAP.                       NO: One line per depth step
~Well Information Block
STRT.FT               619.7000: 
STOP.FT               951.7000: 
STEP.FT                 0.1000: 
NULL.                -999.2500: 
COMP.          Pioneer Natural Resources: COMPANY
WELL.          Screamin 12-29 Tr: WELL
FLD.           Purgatoire River: FIELD
LOC.           1979' FNL & 532' FWL--: LOCATION
CNTY.               Las Animas: COUNTY
SRVC.                Patterson: SERVICE COMPANY
DATE.          Fri Mar 31 15:43:57 2006: LOG DATE
UWI.           05 071 08660 00: UNIQUE WELL ID
STAT.                 Colorado: STATE
~Curve Information Block
DEPT.FT            0 000 00 00: Depth
DCAL.in                       : CDL Caliper
RHOB.g/cc                     : CDL Bulk Density
RHOC.g/cc                     : CDL Density Correction
DPOR.pu                       : CDL Density Porosity
GR.GAPI                       : Gamma Ray
~Parameter Information Block
~A  Depth       DCAL        RHOB        RHOC        DPOR         GR     
# ...
   653.3000      8.2549      2.3381     -0.1592     18.9037     76.8477
   653.4000      8.2549      2.3179     -0.2402     20.1286     73.5932
   653.5000      8.2572      2.3176     -0.1861     20.1445     72.0792
   653.6000      8.2572      2.3345     -0.2429     19.1190     70.8454
   653.7000      8.2572      2.3545     -0.1666     17.9090     70.5311
   653.8000      8.2574      2.3668     -0.1813     17.1643     72.7588
   653.9000      8.2574      2.3742     -0.2148     16.7171     77.1533
   654.0000      8.2560      2.3832     -0.1523     16.1667     80.1101
   654.1000      8.2560      2.3944     -0.1714     15.4934     78.0978
   654.2000      8.2560      2.4069     -0.1647     14.7307     72.9243
   654.3000      8.2566      2.4185     -0.1560     14.0289     68.8574
   654.4000      8.2566      2.4272     -0.1369     13.5008     67.1704
   654.5000      8.2585      2.4314     -0.1735     13.2461     67.0107
   654.6000      8.2585      2.4310     -0.1594     13.2705     67.5092
   654.7000      8.2585      2.4293     -0.2053     13.3730     66.3961
   654.8000      8.2604      2.4319     -0.1981     13.2170     62.1911
   654.9000      8.2604      2.4398     -0.1843     12.7419     57.1628
   655.0000      8.2611      2.4516     -0.1936     12.0266     54.6414
   655.1000      8.2611      2.4676     -0.1769     11.0568     55.0838
   655.2000      8.2611      2.4835     -0.1873     10.0919     55.7965
   655.3000      8.2626      2.4880     -0.1539      9.8208     56.2110
   655.4000      8.2626      2.4701     -0.1603     10.9029     59.2332
   655.5000      8.2638      2.4383     -0.2174     12.8298     65.2869
   655.6000      8.2638      2.4097     -0.1563     14.5637     70.8851
   655.7000      8.2638      2.3840     -0.1739     16.1185     73.9376
   655.8000      8.2615      2.3613     -0.1929     17.4964     75.8907
   655.9000      8.2615      2.3477     -0.1866     18.3214     76.3133
   656.0000      8.2584      2.3418     -0.1945     18.6768     73.6057
   656.1000      8.2584      2.3385     -0.1896     18.8762     70.1481
   656.2000      8.2584      2.3314     -0.1819     19.3086     69.2489
   656.3000      8.2590      2.3154     -0.2188     20.2782     71.2765
   656.4000      8.2590      2.2854     -0.1906     22.0942     74.2143
   656.5000      8.2638      2.2383     -0.2357     24.9522     75.9145
   656.6000      8.2638      2.1848     -0.3215     28.1941     75.7942
   656.7000      8.2638      2.1307     -0.2886     31.4754     74.0955
   656.8000      8.2695      2.0734     -0.3829     34.9455     72.7728
   656.9000      8.2695      2.0209     -0.4261     38.1299     72.6202
   657.0000      8.2750      1.9598     -0.3331     41.8299     71.5168
   657.1000      8.2750      1.8718     -0.4344     47.1618     67.6977
   657.2000      8.2750      1.7776     -0.4889     52.8751     61.8731
   657.3000      8.2818      1.7042     -0.5037     57.3207     56.1199
   657.4000      8.2818      1.6611     -0.5328     59.9318     50.5565
   657.5000      8.2901      1.6508     -0.5353     60.5597     45.2725
   657.6000      8.2901      1.6676     -0.5206     59.5405     43.5089
   657.7000      8.2901      1.7015     -0.4875     57.4835     46.6614
   657.8000      8.2950      1.7514     -0.5032     54.4594     51.2157
   657.9000      8.2950      1.8167     -0.4581     50.5014     52.3736
   658.0000      8.2949      1.8843     -0.4338     46.4045     49.8815
   658.1000      8.2949      1.9484     -0.4572     42.5218     48.9719
   658.2000      8.2949      2.0182     -0.4644     38.2908     52.8115
   658.3000      8.2901      2.0980     -0.4151     33.4550     58.3554
   658.4000      8.2901      2.1860     -0.3733     28.1215     61.6808
   658.5000      8.2832      2.2771     -0.3543     22.5996     63.6447
   658.6000      8.2832      2.3574     -0.2634     17.7343     67.3287
   658.7000      8.2832      2.4146     -0.2279     14.2651     73.4972
   658.8000      8.2775      2.4475     -0.1856     12.2751     79.2856
   658.9000      8.2775      2.4588     -0.1862     11.5869     78.6237
   659.0000      8.2740      2.4506     -0.2318     12.0869     71.0889
   659.1000      8.2740      2.4338     -0.2449     13.1015     66.2489
   659.2000      8.2740      2.4310     -0.2691     13.2699     68.5140
   659.3000      8.2726      2.4465     -0.2068     12.3306     71.0070
   659.4000      8.2726      2.4485     -0.1551     12.2094     71.2765
   659.5000      8.2714      2.4221     -0.2825     13.8106     72.6648
   659.6000      8.2714      2.3989     -0.2317     15.2181     75.2685
   659.7000      8.2714      2.3956     -0.2189     15.4167     77.6770
   659.8000      8.2648      2.3992     -0.2215     15.2010     79.9028
   659.9000      8.2648      2.3974     -0.1825     15.3120     81.6201
   660.0000      8.2530      2.3928     -0.2668     15.5879     81.6749
   660.1000      8.2530      2.4013     -0.2348     15.0706     79.8418
   660.2000      8.2530      2.4230     -0.2170     13.7575     77.8262
   660.3000      8.2453      2.4390     -0.1822     12.7892     77.5630
   660.4000      8.2453      2.4385     -0.2014     12.8195     79.5979
   660.5000      8.2433      2.4246     -0.1819     13.6586     82.8556
   660.6000      8.2433      2.4061     -0.2347     14.7792     84.5583
   660.7000      8.2433      2.3963     -0.2116     15.3770     85.0562
   660.8000      8.2421      2.4041     -0.2112     14.9018     88.3498
   660.9000      8.2421      2.4219     -0.2061     13.8251     91.5761
   661.0000      8.2380      2.4317     -0.1808     13.2289     90.2057
   661.1000      8.2380      2.4283     -0.1992     13.4380     87.3469
   661.2000      8.2380      2.4258     -0.2220     13.5856     86.5015
   661.3000      8.2286      2.4343     -0.1872     13.0723     87.5526
   661.4000      8.2286      2.4483     -0.1699     12.2215     90.9621
   661.5000      8.2215      2.4647     -0.1802     11.2279     94.3144
   661.6000      8.2215      2.4812     -0.1770     10.2303     93.7865
   661.7000      8.2215      2.4833     -0.0963     10.1057     91.3279
   661.8000      8.2204      2.4623     -0.2031     11.3749     89.5226
   661.9000      8.2204      2.4416     -0.2152     12.6301     88.2395
   662.0000      8.2204      2.4400     -0.1873     12.7262     87.0265
   662.1000      8.2204      2.4463     -0.1828     12.3437     85.0676
   662.2000      8.2204      2.4550     -0.2185     11.8175     83.8899
   662.3000      8.2202      2.4737     -0.2226     10.6820     84.5480
   662.4000      8.2202      2.4927     -0.1222      9.5311     84.5861
   662.5000      8.2204      2.4960     -0.1686      9.3310     83.9656
   662.6000      8.2204      2.4942     -0.1955      9.4435     84.9707
   662.7000      8.2204      2.4994     -0.1722      9.1254     86.1654
   662.8000      8.2192      2.5040     -0.1696      8.8478     85.1157
   662.9000      8.2192      2.4995     -0.1376      9.1198     81.6727
   663.0000      8.2181      2.4908     -0.2124      9.6455     77.3082
   663.1000      8.2181      2.4940     -0.2540      9.4516     74.7685
   663.2000      8.2181      2.5150     -0.1708      8.1807     73.3869
   663.3000      8.2175      2.5603     -0.2631      5.4360     70.1156
   663.4000      8.2175      2.6687     -0.2542     -1.1350     68.1291
   663.5000      8.2147      2.8432     -0.1334    -11.7118     71.4812
   663.6000      8.2147      2.9959     -0.0078    -20.9662     75.7147
   663.7000      8.2147      3.0489      0.0107    -24.1776     73.7576
   663.8000      8.2057      3.0174     -0.0625    -22.2664     66.5594
   663.9000      8.2057      2.9429     -0.0164    -17.7520     61.3066
   664.0000      8.1836      2.8349     -0.1466    -11.2045     60.7422
   664.1000      8.1836      2.7040     -0.2605     -3.2724     61.3314
   664.2000      8.1836      2.5792     -0.4420      4.2888     61.7395
   664.3000      8.1520      2.4801     -0.4676     10.2998     61.9875
   664.4000      8.1520      2.3837     -0.4701     16.1364     61.4397
