~Version Information
VERS.                      2.0: CWLS Log ASCII Standard - VERSION 2.0
WRAP.                       NO: One line per depth step
~Well Information Block
STRT.FT                -8.7500: 
STOP.FT              1860.5000: 
STEP.FT                 0.2500: 
NULL.                -999.2500: 
COMP.          Pioneer Natural Resources: COMPANY
WELL.          Cortina 23-25 Tr: WELL
FLD.           Purgatorie River: FIELD
LOC.           --2521' FSL & 2345' FWL------: LOCATION
STAT.                       CO: PROVINCE
CNTY.               Las Animas: COUNTY
CTRY. USA : country
SECT. 25 : Section
TOWN. 32S : Township
RANG. 67W : Range
SRVC.          Patterson Wireline: SERVICE COMPANY
DATE.          Thu Sep 29 11:30:45 2005: LOG DATE
API.           05 071 08534 00: UNIQUE WELL ID
~Curve Information Block
DEPT.FT            0 000 00 00: Depth
CCL.                          : Casing Collar Locator
TT3.usec                      : CBL 3' Travel Time
AMP3.mV                       : CBL 3' Amplitude
GR.GAPI                       : Gamma Ray
~Parameter Information Block
~A  Depth       CCL         TT3         AMP3         GR     
    -8.7500   -999.2500   -999.2500   -999.2500     65.3749
    -8.5000   -999.2500   -999.2500   -999.2500     65.7962
    -8.2500   -999.2500   -999.2500   -999.2500     67.4245
    -8.0000   -999.2500   -999.2500   -999.2500     69.6211
    -7.7500   -999.2500   -999.2500   -999.2500     71.1980
    -7.5000   -999.2500   -999.2500   -999.2500     71.5834
    -7.2500   -999.2500   -999.2500   -999.2500     71.4659
    -7.0000   -999.2500   -999.2500   -999.2500     71.7796
    -6.7500   -999.2500   -999.2500   -999.2500     72.4647
    -6.5000   -999.2500   -999.2500   -999.2500     72.7807
    -6.2500   -999.2500   -999.2500   -999.2500     72.4985
    -6.0000   -999.2500   -999.2500   -999.2500     72.2742
    -5.7500   -999.2500   -999.2500   -999.2500     73.0163
    -5.5000   -999.2500   -999.2500   -999.2500     75.1358
    -5.2500   -999.2500   -999.2500   -999.2500     78.1730
    -5.0000   -999.2500   -999.2500   -999.2500     80.8908
    -4.7500   -999.2500   -999.2500   -999.2500     81.9395
    -4.5000   -999.2500   -999.2500   -999.2500     80.7846
    -4.2500   -999.2500   -999.2500   -999.2500     78.0728
    -4.0000   -999.2500   -999.2500   -999.2500     75.0958
    -3.7500   -999.2500   1158.0000      0.2421     72.9282
    -3.5000   -999.2500   1158.0000      0.2263     71.8247
    -3.2500   -999.2500   1158.0000      0.2177     71.1134
    -3.0000   -999.2500   1158.0000      0.2218     69.9254
    -2.7500   -999.2500   1158.0000      0.2391     68.3940
    -2.5000   -999.2500   1158.0000      0.2638     67.7583
    -2.2500   -999.2500   1158.0000      0.2868     68.6627
    -2.0000   -999.2500   1158.0000      0.3017     69.5778
    -1.7500   -999.2500   1158.0000      0.3070     67.6721
    -1.5000   -999.2500   1158.0000      0.3053     61.5070
    -1.2500   -999.2500   1158.0000      0.2999     52.6221
    -1.0000   -999.2500   1158.0000      0.2933     44.3469
    -0.7500   -999.2500   1158.0000      0.2871     39.0763
    -0.5000   -999.2500   1158.0000      0.2817     36.5312
    -0.2500   -999.2500   1158.0000      0.2770     34.4824
     0.0000   -999.2500   1158.0000      0.2739     31.1838
     0.2500   -999.2500   1158.0000      0.2743     25.2992
     0.5000   -999.2500   1158.0000      0.2741     27.4665
     0.7500   -999.2500   1158.0000      0.2707     33.5189
     1.0000   -999.2500   1158.0000      0.2642     40.9594
     1.2500   -999.2500   1158.0000      0.2572     47.0628
     1.5000   -999.2500   1158.0000      0.2530     50.6137
     1.7500      0.0000   1158.0000      0.2535     52.0018
     2.0000      0.0000   1158.0000      0.2571     52.2602
     2.2500      0.0000   1158.0000      0.2593     52.1055
     2.5000      0.0000   1158.0000      0.2564     51.5275
     2.7500      0.0000   1158.0000      0.2506     50.2822
     3.0000      0.0000   1158.0000      0.2478     48.7943
     3.2500      0.0000   1158.0000      0.2514     48.0870
     3.5000      0.0000   1158.0000      0.2589     48.6381
     3.7500      0.0000   1158.0000      0.2653     49.8492
     4.0000      0.0000   1158.0000      0.2686     50.9455
     4.2500      0.0000   1158.0000      0.2698     51.9538
     4.5000      0.0000   1158.0000      0.2692     53.4329
     4.7500      0.0000   1157.9960      0.2654     55.5963
     5.0000      0.0000   1157.9724      0.2586     58.1384
     5.2500      0.0000   1157.8540      0.2522     60.7016
     5.5000      0.0000   1157.3759      0.2512     62.9378
     5.7500      0.0000   1155.8379      0.2622     64.2715
     6.0000      0.0000   1151.7363      0.3032     64.2919
     6.2500      0.0000   1142.0403      0.4534     63.5160
     6.5000      0.0000   1120.6471      0.9944     63.2748
     6.7500      0.0000   1076.5520      2.6522     64.7540
     7.0000      0.0000    995.6504      6.7461     68.3983
     7.2500      0.0000    870.4362     14.7911     74.0374
     7.5000      0.0000    712.5066     27.3417     81.1311
     7.7500      0.0000    552.9821     42.8802     88.8523
     8.0000      0.0000    424.9810     58.1442     96.3115
     8.2500      0.0000    343.7301     70.0363    103.0009
     8.5000      0.0000    303.0361     77.3828    108.9292
     8.7500      0.0000    286.9890     80.9867    114.3075
     9.0000      0.0000    282.0174     82.4045    119.4660
     9.2500      0.0000    280.8098     82.8731    124.9461
     9.5000      0.0000    280.5814     83.0288    130.7007
     9.7500      0.0000    280.5515     83.1031    135.0600
    10.0000      0.0000    280.5545     83.1544    135.5701
    10.2500      2.0000    280.5593     83.1901    131.4026
    10.5000      0.0000    280.5634     83.2083    124.3388
    10.7500      0.0000    280.5613     83.2079    117.1212
    11.0000      0.0000    280.5490     83.1864    111.2572
    11.2500      0.0000    280.5275     83.1354    106.5297
    11.5000      0.0000    280.5033     83.0291    102.1266
    11.7500      0.0000    280.4879     82.7883     97.7117
    12.0000      0.0000    280.5064     82.2236     93.4431
    12.2500      0.0000    280.6188     81.0389     89.5417
    12.5000      0.0000    280.9358     79.0353     86.3849
    12.7500      0.0000    281.5844     76.4178     84.8418
    13.0000      0.0000    282.6134     73.7864     85.6712
    13.2500      0.0000    283.9104     71.6425     88.2440
    13.5000      0.0000    285.2307     69.9870     90.5133
    13.7500      0.0000    286.3301     68.5543     90.7374
    14.0000      0.0000    287.0842     67.2666     88.8615
    14.2500      0.0000    287.5040     66.2649     86.1963
    14.5000      0.0000    287.6706     65.6345     84.3316
    14.7500      2.0000    287.6385     65.2975     84.2925
    15.0000      0.0000    287.3503     65.1104     86.0321
    15.2500      0.0000    286.5916     65.0195     88.6083
    15.5000      0.0000    285.0862     65.2464     91.2176
    15.7500      0.0000    282.8140     66.3601     93.9646
    16.0000      0.0000    280.3269     68.9022     97.1602
    16.2500      0.0000    278.5594     72.7089    100.0223
    16.5000      0.0000    278.0895     76.7728    100.9187
    16.7500      0.0000    278.6548     79.9813     99.1780
    17.0000      0.0000    279.5167     81.8990     96.0369
    17.2500      0.0000    280.1444     82.7879     93.4183
    17.5000      0.0000    280.4445     83.1221     92.1962
    17.7500      0.0000    280.5454     83.2352     91.9961
    18.0000      0.0000    280.5710     83.2786     92.1753
    18.2500      0.0000    280.5815     83.3062     92.2868
    18.5000      0.0000    280.5963     83.3367     91.6844
    18.7500      0.0000    280.6176     83.3759     89.4529
    19.0000      0.0000    280.6430     83.4188     85.1010
    19.2500      0.0000    280.6684     83.4565     79.0992
    19.5000      0.0000    280.6906     83.4824     72.5777
    19.7500      0.0000    280.7079     83.4946     66.6655
    20.0000      0.0000    280.7195     83.4959     61.9922
    20.2500      0.0000    280.7247     83.4920     58.4683
    20.5000      0.0000    280.7242     83.4894     55.5963
    20.7500      0.0000    280.7202     83.4932     53.1480
    21.0000      0.0000    280.7160     83.5050     51.2868
    21.2500      0.0000    280.7145     83.5226     49.9946
    21.5000      0.0000    280.7164     83.5416     48.8808
    21.7500      0.0000    280.7209     83.5568     47.7719
    22.0000      0.0000    280.7266     83.5623     47.1474
    22.2500      0.0000    280.7333     83.5535     47.7395
    22.5000      0.0000    280.7411     83.5315     49.7675
    22.7500      0.0000    280.7501     83.5041     52.6643
    23.0000      0.0000    280.7587     83.4813     55.4366
    23.2500      0.0000    280.7656     83.4702     57.1519
    23.5000      0.0000    280.7703     83.4731     57.3078
    23.7500      0.0000    280.7735     83.4887     56.1897
    24.0000      0.0000    280.7757     83.5115     54.8519
    24.2500      0.0000    280.7762     83.5324     54.3969
    24.5000      0.0000    280.7738     83.5423     55.1805
