~Version Information
VERS.                      2.0: CWLS Log ASCII Standard - VERSION 2.0
WRAP.                       NO: One line per depth step
~Well Information Block
STRT.FT               -11.5000: 
STOP.FT              1961.7500: 
STEP.FT                 0.2500: 
NULL.                -999.2500: 
COMP.          Petrogulf Corporation: COMPANY
WELL.           State 16-23R-X: WELL
FLD.           Purgatorie River: FIELD
LOC.           2381' FSL & 2072' FWL--: LOCATION
PROV.                       CO: PROVINCE
CNTY.               Las Animas: COUNTRY
SRVC.          Patterson Wireline: SERVICE COMPANY
DATE.          Fri Sep 09 14:32:42 2005: LOG DATE
UWI.           05 071 08324 00: UNIQUE WELL ID
~Curve Information Block
DEPT.FT            0 000 00 00: Depth
CCL.                          : Casing Collar Locator
TT3.usec                      : CBL 3' Travel Time
AMP3.mV                       : CBL 3' Amplitude
GR.GAPI                       : Gamma Ray
~Parameter Information Block
~A  Depth       CCL         TT3         AMP3         GR     
# ...
  1797.5000      0.0000    668.8979      3.2242     84.1329
  1797.7500      0.0000    672.1008      3.1734     83.5629
  1798.0000      0.0000    676.5436      3.1015     84.2538
  1798.2500      0.0000    682.6451      2.9992     86.5859
  1798.5000      0.0000    690.2661      2.8774     91.0844
  1798.7500      0.0000    697.6655      2.7595     98.2320
  1799.0000      0.0000    703.1495      2.6728    107.9113
  1799.2500      0.0000    708.2153      2.6465    118.8677
  1799.5000      0.0000    718.6105      2.7052    128.8375
  1799.7500      0.0000    741.0162      2.8522    135.4364
  1800.0000      0.0000    776.7073      3.0616    137.2171
  1800.2500      0.0000    817.3303      3.2995    134.3249
  1800.5000      0.0000    849.0602      3.5592    128.4294
  1800.7500      0.0000    863.5168      3.8722    121.9082
  1801.0000      0.0000    863.4987      4.2924    116.9408
  1801.2500      2.0000    856.1160      4.8840    115.1716
  1801.5000      0.0000    843.1058      5.7191    117.6979
  1801.7500      0.0000    820.6796      6.8737    124.4548
  1802.0000      0.0000    786.4686      8.3894    133.4005
  1802.2500      0.0000    744.5079     10.1783    141.1429
  1802.5000      0.0000    705.7174     11.9388    145.0049
  1802.7500      0.0000    683.3827     13.2489    144.4417
  1803.0000      0.0000    683.9824     13.8547    140.7594
  1803.2500      0.0000    701.5918     13.8535    136.0385
  1803.5000      0.0000    723.3118     13.5456    131.9958
  1803.7500      0.0000    739.2462     13.1629    129.1060
  1804.0000      0.0000    746.5107     12.7790    126.7749
  1804.2500      0.0000    746.9873     12.3790    124.6147
  1804.5000      0.0000    744.1719     11.9148    123.1143
  1804.7500      0.0000    741.0114     11.3158    122.6899
  1805.0000      0.0000    738.5621     10.5294    122.7304
  1805.2500      0.0000    736.2402      9.5845    122.3688
  1805.5000      0.0000    733.7949      8.6040    121.9097
  1805.7500      0.0000    732.4379      7.7434    122.5201
  1806.0000      0.0000    733.2845      7.1101    124.5222
  1806.2500      0.0000    735.2199      6.7264    126.9559
  1806.5000      0.0000    735.4091      6.5435    129.0142
  1806.7500      0.0000    731.6588      6.4795    130.8379
  1807.0000      0.0000    723.7480      6.4567    132.5473
  1807.2500      0.0000    713.1223      6.4251    133.4852
  1807.5000      0.0000    701.9075      6.3672    133.1306
  1807.7500      0.0000    691.7250      6.2887    132.2863
  1808.0000      0.0000    683.0431      6.2051    132.5754
  1808.2500      0.0000    675.7524      6.1353    134.5628
  1808.5000      0.0000    669.9921      6.0975    136.8516
  1808.7500      0.0000    666.0475      6.1007    137.5432
  1809.0000      0.0000    663.8280      6.1329    136.2816
  1809.2500      0.0000    662.9656      6.1612    134.1724
  1809.5000      0.0000    663.4112      6.1466    131.8587
  1809.7500      0.0000    665.7827      6.0624    128.6352
  1810.0000      0.0000    670.9021      5.9089    123.8878
  1810.2500      0.0000    678.5966      5.7168    118.6326
  1810.5000      0.0000    686.8006      5.5355    114.9296
  1810.7500      0.0000    692.4206      5.4057    114.1894
  1811.0000      0.0000    693.7148      5.3396    116.5287
  1811.2500      0.0000    691.7436      5.3224    121.2491
  1811.5000      0.0000    689.1454      5.3323    127.3018
  1811.7500      0.0000    687.7349      5.3609    133.4120
  1812.0000      0.0000    687.8159      5.4199    138.3949
  1812.2500      0.0000    689.5620      5.5247    141.9169
  1812.5000      0.0000    693.9518      5.6690    144.8688
  1812.7500      0.0000    701.6884      5.8194    148.3636
  1813.0000      0.0000    711.8277      5.9407    152.0509
  1813.2500      0.0000    722.2435      6.0265    153.6912
  1813.5000      0.0000    731.2773      6.1018    150.7047
  1813.7500      0.0000    738.7786      6.1989    142.4549
  1814.0000      0.0000    746.1052      6.3325    131.4562
  1814.2500      0.0000    755.0750      6.4893    122.2254
  1814.5000      0.0000    765.5443      6.6359    118.2774
  1814.7500      0.0000    773.7256      6.7343    119.8021
  1815.0000      0.0000    774.4806      6.7465    124.1538
  1815.2500      0.0000    766.0571      6.6356    128.3159
  1815.5000      0.0000    751.6895      6.3888    130.8067
  1815.7500      0.0000    736.7079      6.0475    131.7987
  1816.0000      0.0000    725.4563      5.6995    132.1373
  1816.2500      0.0000    720.3549      5.4238    132.5537
  1816.5000      0.0000    721.3182      5.2418    133.5498
  1816.7500      0.0000    725.0511      5.1206    135.4524
  1817.0000      0.0000    726.4381      5.0200    138.0507
  1817.2500      0.0000    722.0737      4.9357    140.1948
  1817.5000      0.0000    712.7766      4.9096    140.4145
  1817.7500      0.0000    702.8868      5.0025    138.5704
  1818.0000      0.0000    697.5303      5.2554    136.5271
  1818.2500      0.0000    700.0596      5.6735    136.4986
  1818.5000      0.0000    710.4173      6.2406    138.9988
  1818.7500      0.0000    724.4760      6.9362    143.0501
  1819.0000      0.0000    735.1892      7.7333    147.8658
  1819.2500      0.0000    736.1643      8.5945    153.1880
  1819.5000      0.0000    725.9060      9.4838    158.2017
  1819.7500      0.0000    709.0945     10.3781    161.4782
  1820.0000      0.0000    693.1652     11.2552    162.4857
  1820.2500      0.0000    683.2020     12.0711    162.4419
  1820.5000      0.0000    680.2226     12.7457    163.1335
  1820.7500      0.0000    683.6086     13.1705    165.1103
  1821.0000      0.0000    693.3436     13.2413    167.2564
  1821.2500      0.0000    708.9715     12.9055    167.9479
  1821.5000      0.0000    727.4197     12.1937    166.4169
  1821.7500      0.0000    743.2083     11.2124    162.9706
  1822.0000      0.0000    751.2734     10.1083    158.0999
  1822.2500      0.0000    750.2310      9.0226    151.8138
  1822.5000      0.0000    743.7390      8.0508    144.1983
  1822.7500      0.0000    738.0793      7.2250    136.4707
  1823.0000      0.0000    737.0284      6.5323    130.8648
  1823.2500      0.0000    738.9432      5.9482    128.7851
  1823.5000      0.0000    739.2779      5.4563    129.0432
  1823.7500      0.0000    735.3331      5.0472    128.6054
  1824.0000      0.0000    728.0789      4.7120    125.5620
  1824.2500      0.0000    720.5317      4.4373    121.0677
  1824.5000      0.0000    715.5943      4.2074    118.1182
  1824.7500      0.0000    714.6897      4.0102    118.7125
  1825.0000      0.0000    717.1776      3.8409    122.3810
  1825.2500      0.0000    721.0905      3.7021    126.9202
  1825.5000      0.0000    724.6841      3.5994    130.0087
  1825.7500      0.0000    726.9259      3.5381    130.5142
  1826.0000      0.0000    727.2986      3.5199    129.1063
  1826.2500      0.0000    726.8322      3.5410    127.9307
  1826.5000      0.0000    728.5302      3.5924    129.4707
  1826.7500      0.0000    734.2216      3.6643    135.0978
  1827.0000      0.0000    740.9915      3.7502    144.0148
  1827.2500      0.0000    742.9281      3.8494    153.4731
  1827.5000      0.0000    737.2379      3.9681    160.5696
  1827.7500      0.0000    727.7014      4.1182    164.0942
  1828.0000      0.0000    721.2733      4.3136    164.4908
  1828.2500      0.0000    721.4615      4.5626    162.1473
  1828.5000      0.0000    725.5666      4.8628    156.4662
  1828.7500      0.0000    728.0421      5.1995    147.2085
  1829.0000      0.0000    725.3390      5.5483    136.3770
  1829.2500      0.0000    717.4629      5.8787    127.6737
  1829.5000      0.0000    706.7277      6.1592    123.7724
  1829.7500      0.0000    696.3643      6.3655    124.5947
  1830.0000      0.0000    689.5334      6.4912    128.1114
  1830.2500      0.0000    688.0704      6.5530    131.9947
  1830.5000      0.0000    691.4700      6.5808    134.6385
  1830.7500      0.0000    697.2383      6.6003    135.5914
