~Version Information
VERS.                      2.0: CWLS Log ASCII Standard - VERSION 2.0
WRAP.                       NO: One line per depth step
~Well Information Block
STRT.FT                10.0000: 
STOP.FT               959.2500: 
STEP.FT                 0.2500: 
NULL.                -999.2500: 
COMP.          XTO Energy Inc.: COMPANY
WELL.          Golden Eagle 20-04: WELL
FLD.           Purgatrorie River: FIELD
LOC.           702' FNL & 487' FWL--: LOCATION
STAT.                       CO: State
CNTY.               Las Animas: COUNTY
CTRY. USA : Country
SECT. 20 : Section
TOWN. 33S : Township
RANG. 67W : Range
SRVC.          Patterson Wireline: SERVICE COMPANY
DATE.          Mon Dec 05 08:42:44 2005: LOG DATE
API.           05 071 08599 00: UNIQUE WELL ID
~Curve Information Block
DEPT.FT            0 000 00 00: Depth
TEMP.degF                     : Downhole Temperature
DTMP.degF                     : Delta Temperature
~Parameter Information Block
~A  Depth       TEMP        DTMP    
# ...
   121.5000     49.1767      0.1922
   121.7500     49.2298      0.1862
   122.0000     49.2702      0.1933
   122.2500     49.3234      0.1938
   122.5000     49.3633      0.1876
   122.7500     49.4038      0.1881
   123.0000     49.4571      0.1950
   123.2500     49.5111      0.1889
   123.5000     49.5518      0.1963
   123.7500     49.6060      0.1966
   124.0000     49.6602      0.1971
   124.2500     49.7011      0.1976
   124.5000     49.7560      0.1977
   124.7500     49.7969      0.1981
   125.0000     49.8514      0.1913
   125.2500     49.9063      0.1982
   125.5000     49.9473      0.1913
   125.7500     50.0021      0.1979
   126.0000     50.0429      0.1977
   126.2500     50.0975      0.1972
   126.5000     50.1385      0.1970
   126.7500     50.1928      0.1964
   127.0000     50.2469      0.1961
   127.2500     50.3007      0.1956
   127.5000     50.3413      0.2015
   127.7500     50.3948      0.1942
   128.0000     50.4351      0.1870
   128.2500     50.4887      0.1863
   128.5000     50.5415      0.1922
   128.7500     50.5813      0.1849
   129.0000     50.6208      0.1907
   129.2500     50.6734      0.1896
   129.5000     50.7257      0.1888
   129.7500     50.7647      0.1880
   130.0000     50.8165      0.1938
   130.2500     50.8680      0.1863
   130.5000     50.9192      0.1852
   130.7500     50.9573      0.1908
   131.0000     51.0084      0.1834
   131.2500     51.0461      0.1824
   131.5000     51.0961      0.1750
   131.7500     51.1463      0.1803
   132.0000     51.1832      0.1729
   132.2500     51.2327      0.1778
   132.5000     51.2691      0.1765
   132.7500     51.3179      0.1747
   133.0000     51.3542      0.1736
   133.2500     51.4017      0.1719
   133.5000     51.4491      0.1705
   133.7500     51.4956      0.1686
   134.0000     51.5305      0.1672
   134.2500     51.5765      0.1654
   134.5000     51.6102      0.1631
   134.7500     51.6552      0.1560
   135.0000     51.6886      0.1597
   135.2500     51.7325      0.1524
   135.5000     51.7754      0.1559
   135.7500     51.8076      0.1487
   136.0000     51.8498      0.1521
   136.2500     51.8812      0.1500
   136.5000     51.9220      0.1432
   136.7500     51.9526      0.1465
   137.0000     51.9928      0.1444
   137.2500     52.0324      0.1428
   137.5000     52.0618      0.1408
   137.7500     52.1005      0.1438
   138.0000     52.1385      0.1372
   138.2500     52.1668      0.1352
   138.5000     52.2035      0.1381
   138.7500     52.2401      0.1318
   139.0000     52.2672      0.1300
   139.2500     52.3029      0.1286
   139.5000     52.3381      0.1270
   139.7500     52.3642      0.1255
   140.0000     52.3985      0.1242
   140.2500     52.4240      0.1226
   140.5000     52.4576      0.1171
   140.7500     52.4911      0.1200
   141.0000     52.5157      0.1146
   141.2500     52.5482      0.1174
   141.5000     52.5723      0.1161
   141.7500     52.6041      0.1108
   142.0000     52.6277      0.1136
   142.2500     52.6589      0.1088
   142.5000     52.6897      0.1116
   142.7500     52.7126      0.1106
   143.0000     52.7429      0.1098
   143.2500     52.7657      0.1087
   143.5000     52.7955      0.1079
   143.7500     52.8253      0.1108
   144.0000     52.8473      0.1064
   144.2500     52.8763      0.1092
   144.5000     52.9054      0.1049
   144.7500     52.9343      0.1041
   145.0000     52.9557      0.1070
   145.2500     52.9842      0.1028
   145.5000     53.0053      0.1021
   145.7500     53.0334      0.0979
   146.0000     53.0614      0.1008
   146.2500     53.0820      0.0966
   146.5000     53.1096      0.0994
   146.7500     53.1301      0.0986
   147.0000     53.1573      0.0946
   147.2500     53.1774      0.0974
   147.5000     53.2042      0.0934
   147.7500     53.2307      0.0960
   148.0000     53.2506      0.0952
   148.2500     53.2768      0.0979
   148.5000     53.2963      0.0940
   148.7500     53.3221      0.0932
   149.0000     53.3477      0.0958
   149.2500     53.3731      0.0950
   149.5000     53.3921      0.0945
   149.7500     53.4172      0.0938
   150.0000     53.4421      0.0901
   150.2500     53.4668      0.0896
   150.5000     53.4853      0.0921
   150.7500     53.5097      0.0885
   151.0000     53.5280      0.0880
   151.2500     53.5523      0.0874
   151.5000     53.5763      0.0870
   151.7500     53.5942      0.0835
   152.0000     53.6181      0.0861
   152.2500     53.6416      0.0856
   152.5000     53.6592      0.0823
   152.7500     53.6768      0.0848
   153.0000     53.7002      0.0815
   153.2500     53.7235      0.0812
   153.5000     53.7408      0.0838
   153.7500     53.7637      0.0836
   154.0000     53.7811      0.0831
   154.2500     53.8039      0.0828
   154.5000     53.8268      0.0853
   154.7500     53.8440      0.0823
   155.0000     53.8664      0.0845
   155.2500     53.8890      0.0815
   155.5000     53.9114      0.0810
   155.7500     53.9283      0.0834
   156.0000     53.9501      0.0803
   156.2500     53.9668      0.0799
   156.5000     53.9889      0.0794
   156.7500     54.0108      0.0790
   157.0000     54.0270      0.0787
   157.2500     54.0488      0.0783
   157.5000     54.0703      0.0777
   157.7500     54.0862      0.0772
   158.0000     54.1075      0.0769
   158.2500     54.1234      0.0763
   158.5000     54.1443      0.0758
   158.7500     54.1652      0.0755
   159.0000     54.1808      0.0750
   159.2500     54.2014      0.0746
   159.5000     54.2219      0.0742
   159.7500     54.2372      0.0737
   160.0000     54.2574      0.0734
   160.2500     54.2726      0.0729
   160.5000     54.2928      0.0700
   160.7500     54.3126      0.0720
   161.0000     54.3275      0.0691
   161.2500     54.3471      0.0712
   161.5000     54.3619      0.0705
   161.7500     54.3812      0.0701
   162.0000     54.3957      0.0697
   162.2500     54.4150      0.0691
   162.5000     54.4339      0.0687
   162.7500     54.4528      0.0683
   163.0000     54.4669      0.0701
   163.2500     54.4854      0.0673
   163.5000     54.4993      0.0667
   163.7500     54.5178      0.0661
   164.0000     54.5360      0.0656
   164.2500     54.5496      0.0649
   164.5000     54.5673      0.0643
   164.7500     54.5850      0.0635
   165.0000     54.5981      0.0626
   165.2500     54.6152      0.0619
   165.5000     54.6280      0.0609
   165.7500     54.6448      0.0579
   166.0000     54.6613      0.0589
   166.2500     54.6733      0.0559
   166.5000     54.6892      0.0567
   166.7500     54.7009      0.0553
   167.0000     54.7159      0.0521
   167.2500     54.7270      0.0526
   167.5000     54.7414      0.0511
   167.7500     54.7553      0.0513
   168.0000     54.7655      0.0483
   168.2500     54.7786      0.0484
   168.5000     54.7913      0.0454
   168.7500     54.8035      0.0438
   169.0000     54.8124      0.0438
   169.2500     54.8238      0.0410
   169.5000     54.8322      0.0394
   169.7500     54.8429      0.0378
   170.0000     54.8531      0.0367
   170.2500     54.8606      0.0352
   170.5000     54.8701      0.0340
   170.7500     54.8792      0.0325
   171.0000     54.8858      0.0302
   171.2500     54.8942      0.0299
   171.5000     54.9002      0.0276
   171.7500     54.9078      0.0262
   172.0000     54.9134      0.0259
   172.2500     54.9203      0.0239
   172.5000     54.9253      0.0236
   172.7500     54.9316      0.0224
   173.0000     54.9376      0.0215
   173.2500     54.9420      0.0204
   173.5000     54.9475      0.0202
   173.7500     54.9526      0.0187
   174.0000     54.9564      0.0178
   174.2500     54.9611      0.0176
   174.5000     54.9657      0.0163
   174.7500     54.9690      0.0156
   175.0000     54.9732      0.0156
   175.2500     54.9772      0.0145
   175.5000     54.9801      0.0139
   175.7500     54.9839      0.0140
   176.0000     54.9875      0.0131
   176.2500     54.9902      0.0127
   176.5000     54.9936      0.0124
   176.7500     54.9969      0.0118
   177.0000     54.9994      0.0115
