~Version Information
VERS.                      2.0: CWLS Log ASCII Standard - VERSION 2.0
WRAP.                       NO: One line per depth step
~Well Information Block
STRT.FT               695.5000: 
STOP.FT              1499.5000: 
STEP.FT                 0.2500: 
NULL.                -999.2500: 
COMP.          Pioneer Natural Resources: COMPANY
WELL.          Pallet Ranch 34-25 Tr: WELL
FLD.           Purgatoire River: FIELD
LOC.           465' FSL & 2138' FEL: LOCATION
PROV.                 Colorado: PROVINCE
CNTY.               Las Animas: COUNTRY
SRVC.                Patterson: SERVICE COMPANY
DATE.          Wed Jan 18 18:58:46 2006: LOG DATE
UWI.           05 071 08657 00: UNIQUE WELL ID
~Curve Information Block
DEPT.FT            0 000 00 00: Depth
SN.Ohm-m                      : IEL Short Normal
SP.mV                         : IEL Spontaneous Potential
DIR.Ohm-m                     : IEL Induction Resistivity
GR.GAPI                       : Gamma Ray
~Parameter Information Block
~A  Depth        SN          SP         DIR          GR     
   695.5000   -999.2500   -999.2500   -999.2500   -999.2500
   695.7500   -999.2500   -999.2500   -999.2500     63.2533
   696.0000   -999.2500   -999.2500   -999.2500     60.1185
   696.2500   -999.2500   -999.2500   -999.2500     59.5522
   696.5000   -999.2500   -999.2500   -999.2500     61.0357
   696.7500   -999.2500   -999.2500   -999.2500     63.1281
   697.0000   -999.2500   -999.2500   -999.2500     66.8144
   697.2500   -999.2500   -999.2500   -999.2500     69.2095
   697.5000   -999.2500   -999.2500   -999.2500     72.7402
   697.7500   -999.2500   -999.2500   -999.2500     75.2797
   698.0000   -999.2500   -999.2500   -999.2500     79.3484
   698.2500   -999.2500   -999.2500   -999.2500     81.9239
   698.5000   -999.2500   -999.2500   -999.2500     85.0615
   698.7500   -999.2500   -999.2500   -999.2500     86.5001
   699.0000   -999.2500   -999.2500   -999.2500     87.3516
   699.2500   -999.2500   -999.2500   -999.2500     86.8781
   699.5000   -999.2500   -999.2500   -999.2500     84.9441
   699.7500   -999.2500   -999.2500   -999.2500     83.4734
   700.0000   -999.2500   -999.2500   -999.2500     82.0552
   700.2500   -999.2500   -999.2500   -999.2500     81.8060
   700.5000   -999.2500   -999.2500   -999.2500     82.0709
   700.7500   -999.2500   -999.2500   -999.2500     82.3505
   701.0000   -999.2500   -999.2500   -999.2500     82.5904
   701.2500   -999.2500   -999.2500   -999.2500     82.5159
   701.5000   -999.2500   -999.2500   -999.2500     81.7339
   701.7500   -999.2500   -999.2500   -999.2500     80.5259
   702.0000   -999.2500   -999.2500   -999.2500     77.5788
   702.2500   -999.2500   -999.2500   -999.2500     75.1930
   702.5000   -999.2500   -999.2500   -999.2500     72.2231
   702.7500   -999.2500   -999.2500   -999.2500     71.4267
   703.0000   -999.2500   -999.2500   -999.2500     72.5161
   703.2500   -999.2500   -999.2500   -999.2500     74.3580
   703.5000   -999.2500   -999.2500   -999.2500     77.5454
   703.7500   -999.2500   -999.2500   -999.2500     79.4968
   704.0000   -999.2500   -999.2500   -999.2500     82.1242
   704.2500   -999.2500   -999.2500   -999.2500     83.7302
   704.5000   -999.2500   -999.2500   -999.2500     85.6662
   704.7500   -999.2500   -999.2500   -999.2500     86.4573
   705.0000   -999.2500   -999.2500   -999.2500     86.8038
   705.2500   -999.2500   -999.2500   -999.2500     86.4326
   705.5000   -999.2500   -999.2500   -999.2500     84.7815
   705.7500   -999.2500   -999.2500   -999.2500     82.9530
   706.0000   -999.2500   -999.2500   -999.2500     79.5735
   706.2500   -999.2500   -999.2500   -999.2500     77.3971
   706.5000   -999.2500   -999.2500   -999.2500     75.3628
   706.7500   -999.2500   -999.2500   -999.2500     75.4157
   707.0000   -999.2500   -999.2500   -999.2500     77.7882
   707.2500   -999.2500   -999.2500   -999.2500     80.3855
   707.5000   -999.2500   -999.2500   -999.2500     84.6057
   707.7500   -999.2500   -999.2500   -999.2500     87.2263
   708.0000   -999.2500   -999.2500   -999.2500     90.6937
   708.2500   -999.2500   -999.2500   -999.2500     92.5891
   708.5000   -999.2500   -999.2500   -999.2500     94.3685
   708.7500   -999.2500   -999.2500   -999.2500     94.6919
   709.0000   -999.2500   -999.2500   -999.2500     94.3114
   709.2500   -999.2500   -999.2500   -999.2500     93.9799
   709.5000   -999.2500   -999.2500   -999.2500     93.8048
   709.7500   -999.2500   -999.2500   -999.2500     93.7529
   710.0000   -999.2500   -999.2500   -999.2500     93.3200
   710.2500   -999.2500   -999.2500   -999.2500     92.6673
   710.5000   -999.2500   -999.2500   -999.2500     91.0501
   710.7500   -999.2500   -999.2500   -999.2500     89.4225
   711.0000   -999.2500   -999.2500   -999.2500     85.9052
   711.2500   -999.2500   -999.2500   -999.2500     82.8922
   711.5000   2000.0000   2000.0000   -999.2500     78.1276
   711.7500   2000.0000   2000.0000   -999.2500     75.4728
   712.0000   2000.0000   2000.0000   -999.2500     73.1494
   712.2500   2000.0000   2000.0000   -999.2500     72.7855
   712.5000   2000.0000   2000.0000   -999.2500     73.4894
   712.7500   2000.0000   2000.0000   -999.2500     74.2380
   713.0000   2000.0000   2000.0000     69.4324     74.7023
   713.2500   2000.0000   2000.0000     68.3570     74.0938
   713.5000   2000.0000   2000.0000     68.7469     71.6327
   713.7500   2000.0000   2000.0000     70.3936     69.3449
   714.0000   2000.0000   2000.0000     72.6301     66.1989
   714.2500   2000.0000   2000.0000     74.6327     64.9748
   714.5000   2000.0000   2000.0000     75.8610     64.8629
   714.7500   2000.0000   2000.0000     76.2917     65.7688
   715.0000   2000.0000   2000.0000     76.2423     68.1395
   715.2500   2000.0000   2000.0000     76.0323     70.2224
   715.5000   2000.0000   2000.0000     75.8286     73.9649
   715.7500   2000.0000   2000.0000     75.7164     76.7527
   716.0000   2000.0000   2000.0000     75.8127     80.9143
   716.2500   2000.0000   2000.0000     76.2567     83.3515
   716.5000   2000.0000   2000.0000     77.1133     86.1000
   716.7500   2000.0000   2000.0000     78.3003     87.1913
   717.0000   2000.0000   2000.0000     79.6326     87.6585
   717.2500   2000.0000   2000.0000     80.9130     87.3325
   717.5000   2000.0000   2000.0000     81.9814     86.3644
   717.7500   2000.0000   2000.0000     82.7029     85.5720
   718.0000   2000.0000   2000.0000     82.9427     84.0063
   718.2500   2000.0000   2000.0000     82.5672     82.5355
   718.5000   2000.0000   2000.0000     81.4285     79.8966
   718.7500   2000.0000   2000.0000     79.3613     78.2943
   719.0000   2000.0000   2000.0000     76.2821     76.6925
   719.2500   2000.0000   2000.0000     72.3872     76.1066
   719.5000   2000.0000   2000.0000     68.2100     75.7182
   719.7500   2000.0000   2000.0000     64.3659     75.9296
   720.0000   2000.0000   2000.0000     61.1941     77.4186
   720.2500   2000.0000   2000.0000     58.5888     79.1704
   720.5000   2000.0000   2000.0000     56.1272     82.2818
   720.7500   2000.0000   2000.0000     53.3851     84.2896
   721.0000   2000.0000   2000.0000     50.2513     86.9745
   721.2500   2000.0000   2000.0000     47.0299     88.5367
   721.5000   2000.0000   2000.0000     44.3478     90.3773
   721.7500   2000.0000   2000.0000     43.0645     91.1619
   722.0000   2000.0000   2000.0000     44.3947     91.7366
   722.2500   2000.0000   2000.0000     50.6065     91.8838
   722.5000   2000.0000   2000.0000     67.8491     92.1162
   722.7500   2000.0000   2000.0000    122.8307     92.4891
   723.0000   2000.0000   2000.0000    714.7167     93.4560
   723.2500   2000.0000   2000.0000 100000.0000     94.0121
   723.5000   2000.0000   2000.0000 100000.0000     93.4644
   723.7500   2000.0000   2000.0000 100000.0000     91.5264
   724.0000   2000.0000   2000.0000 100000.0000     86.0920
   724.2500   2000.0000   2000.0000 100000.0000     81.3105
   724.5000   2000.0000   2000.0000 100000.0000     74.0237
   724.7500   2000.0000   2000.0000 100000.0000     70.1968
   725.0000   2000.0000   2000.0000 100000.0000     67.4884
   725.2500   2000.0000   2000.0000 100000.0000     67.9471
   725.5000   2000.0000   2000.0000 100000.0000     71.2952
   725.7500   2000.0000   2000.0000 100000.0000     74.4904
   726.0000   2000.0000   2000.0000 100000.0000     79.2820
   726.2500   2000.0000   2000.0000 100000.0000     81.8113
   726.5000   2000.0000   2000.0000 100000.0000     84.0790
   726.7500   2000.0000   2000.0000 100000.0000     84.6703
   727.0000   2000.0000   2000.0000 100000.0000     84.8078
   727.2500   2000.0000   2000.0000 100000.0000     84.8292
   727.5000   2000.0000   2000.0000 100000.0000     85.3970
   727.7500   2000.0000   2000.0000 100000.0000     86.4355
   728.0000   2000.0000   2000.0000 100000.0000     89.1722
   728.2500   2000.0000   2000.0000 100000.0000     91.5652
   728.5000   2000.0000   2000.0000 100000.0000     95.2974
   728.7500   2000.0000   2000.0000 100000.0000     97.5915
