~Version Information
VERS.                      2.0: CWLS Log ASCII Standard - VERSION 2.0
WRAP.                       NO: One line per depth step
~Well Information Block
STRT.FT                -8.7500: 
STOP.FT              1727.2500: 
STEP.FT                 0.2500: 
NULL.                -999.2500: 
COMP.          XTO Energy Inc.: COMPANY
WELL.          Apache Canyon 34-08: WELL
FLD.              Vermejo Coal: FIELD
LOC.           1668' FNL & 275' FEL: LOCATION
STAT.                       CO: State
CNTY.               Las Animas: COUNTY
CTRY. USA : Country
SECT. 34 : Section
TOWN. 33S : Township
RANG. 67W : Range
SRVC.          Patterson Wireline: SERVICE COMPANY
DATE.          Mon Jan 09 09:34:21 2006: LOG DATE
API.           05 071 08541 00: UNIQUE WELL ID
~Curve Information Block
DEPT.FT            0 000 00 00: Depth
CCL.                          : Casing Collar Locator
TT3.usec                      : CBL 3' Travel Time
AMP3.mV                       : CBL 3' Amplitude
GR.GAPI                       : Gamma Ray
~Parameter Information Block
~A  Depth       CCL         TT3         AMP3         GR     
# ...
  1230.7500      0.0000    681.1753      5.5525    128.8322
  1231.0000      0.0000    680.2309      5.6800    128.3362
  1231.2500      0.0000    673.9490      5.7871    122.2273
  1231.5000      0.0000    668.4361      5.8796    113.3832
  1231.7500      0.0000    671.1351      5.9753    106.1432
  1232.0000      0.0000    683.3256      6.0804    103.8908
  1232.2500     -2.0000    699.6945      6.1776    107.1195
  1232.5000      2.0000    715.7271      6.2349    113.5235
  1232.7500      0.0000    731.4255      6.2300    119.8769
  1233.0000      0.0000    746.8780      6.1761    123.8771
  1233.2500      0.0000    757.9509      6.1143    124.7555
  1233.5000      0.0000    758.6264      6.0633    123.0131
  1233.7500      0.0000    745.7373      5.9935    119.9233
  1234.0000      0.0000    719.9035      5.8752    116.9842
  1234.2500      0.0000    684.3957      5.7316    115.3420
  1234.5000      0.0000    646.8066      5.6181    115.3045
  1234.7500      0.0000    620.1310      5.5668    116.1645
  1235.0000      0.0000    616.0580      5.5728    116.7767
  1235.2500      0.0000    634.7256      5.6160    116.8036
  1235.5000      0.0000    664.2385      5.6760    117.2369
  1235.7500      0.0000    691.4579      5.7343    119.2904
  1236.0000      0.0000    710.9355      5.7767    123.0627
  1236.2500      0.0000    723.9954      5.7986    127.6467
  1236.5000      0.0000    733.4555      5.8043    131.9171
  1236.7500      0.0000    741.1644      5.8032    134.7703
  1237.0000      0.0000    748.2250      5.8030    135.4297
  1237.2500      0.0000    754.7073      5.8054    134.1580
  1237.5000      0.0000    759.0211      5.8104    132.0998
  1237.7500      0.0000    759.0280      5.8227    130.0309
  1238.0000      0.0000    754.4265      5.8420    127.7151
  1238.2500      0.0000    747.5635      5.8503    124.5463
  1238.5000      0.0000    741.3677      5.8207    120.2651
  1238.7500      0.0000    736.7305      5.7457    114.8873
  1239.0000      0.0000    732.4666      5.6487    108.6366
  1239.2500      0.0000    727.5450      5.5632    102.4701
  1239.5000      0.0000    722.4328      5.5098     98.2723
  1239.7500      0.0000    718.2537      5.4911     97.8369
  1240.0000      0.0000    715.5181      5.5012    101.4223
  1240.2500      0.0000    713.9492      5.5347    107.2636
  1240.5000      0.0000    713.0253      5.5878    112.3830
  1240.7500      0.0000    712.3359      5.6497    114.2556
  1241.0000      0.0000    711.5831      5.7019    112.3967
  1241.2500      0.0000    710.5061      5.7326    108.4898
  1241.5000      0.0000    709.0526      5.7492    104.6350
  1241.7500      0.0000    707.9396      5.7668    101.5930
  1242.0000      0.0000    708.9482      5.7850     98.9417
  1242.2500      0.0000    713.9406      5.7864     96.4396
  1242.5000      0.0000    722.9183      5.7548     94.6473
  1242.7500      0.0000    733.4307      5.6866     94.3101
  1243.0000      0.0000    742.4755      5.5837     95.6146
  1243.2500      0.0000    748.6470      5.4500     98.3510
  1243.5000      0.0000    752.0052      5.2979    102.6387
  1243.7500      0.0000    752.4022      5.1526    108.9758
  1244.0000      0.0000    749.0007      5.0425    117.2086
  1244.2500      0.0000    742.0028      4.9835    125.5855
  1244.5000      0.0000    734.1364      4.9704    131.3650
  1244.7500      0.0000    728.5640      4.9789    132.7042
  1245.0000      0.0000    723.6585      4.9824    129.8392
  1245.2500      0.0000    710.3898      4.9699    124.3860
  1245.5000      0.0000    677.8588      4.9515    117.8281
  1245.7500      0.0000    624.9512      4.9425    110.8958
  1246.0000      0.0000    567.4867      4.9421    103.9027
  1246.2500      0.0000    531.3370      4.9281     97.0554
  1246.5000      0.0000    535.0714      4.8733     90.4401
  1246.7500      0.0000    577.1626      4.7741     84.0045
  1247.0000      0.0000    637.9254      4.6680     77.6695
  1247.2500      0.0000    692.5624      4.6197     71.7349
  1247.5000      0.0000    723.8723      4.6789     67.3572
  1247.7500      0.0000    727.2595      4.8445     66.3215
  1248.0000      0.0000    709.3464      5.0681     69.9272
  1248.2500      0.0000    684.2668      5.2877     77.9204
  1248.5000      0.0000    667.5591      5.4575     88.3243
  1248.7500      0.0000    667.6496      5.5554     98.2837
  1249.0000      0.0000    681.3943      5.5803    105.5015
  1249.2500      0.0000    699.0561      5.5498    109.4610
  1249.5000      0.0000    713.0345      5.4993    111.6311
  1249.7500      0.0000    721.7349      5.4747    114.4000
  1250.0000      0.0000    727.9810      5.5134    119.2698
  1250.2500      0.0000    735.7510      5.6247    125.5969
  1250.5000      0.0000    747.1544      5.7839    131.1072
  1250.7500      0.0000    760.9023      5.9469    133.8507
  1251.0000      0.0000    773.5332      6.0759    133.5358
  1251.2500      0.0000    782.3370      6.1561    131.1099
  1251.5000      0.0000    786.9543      6.1914    127.7331
  1251.7500      0.0000    788.6349      6.1901    124.3664
  1252.0000      0.0000    788.5936      6.1591    121.6805
  1252.2500      0.0000    787.0462      6.1071    119.7404
  1252.5000      0.0000    783.1565      6.0449    117.7842
  1252.7500      0.0000    775.4191      5.9798    114.6725
  1253.0000      0.0000    761.8535      5.9136    109.9120
  1253.2500      0.0000    740.2247      5.8462    104.3538
  1253.5000      0.0000    709.7499      5.7743     99.7028
  1253.7500      0.0000    674.7768      5.6856     97.0397
  1254.0000      0.0000    646.2179      5.5635     95.8633
  1254.2500      0.0000    635.7599      5.4015     94.8050
  1254.5000      0.0000    646.3120      5.2118     93.1691
  1254.7500      0.0000    669.0869      5.0148     91.3924
  1255.0000      0.0000    691.1296      4.8245     89.9015
  1255.2500      0.0000    705.0102      4.6426     87.9380
  1255.5000      0.0000    711.4852      4.4661     84.1022
  1255.7500      0.0000    715.5551      4.2991     78.1840
  1256.0000      0.0000    721.9635      4.1532     71.9603
  1256.2500      0.0000    732.7105      4.0345     67.7553
  1256.5000      0.0000    745.8583      3.9328     66.3566
  1256.7500      0.0000    756.3353      3.8311     66.5245
  1257.0000      0.0000    760.1334      3.7233     66.3598
  1257.2500      0.0000    758.8472      3.6186     64.8769
  1257.5000      0.0000    758.4611      3.5300     62.3323
  1257.7500      0.0000    762.7350      3.4676     59.4495
  1258.0000      0.0000    769.3598      3.4433     56.7531
  1258.2500      0.0000    773.4371      3.4697     54.6412
  1258.5000      0.0000    773.0256      3.5510     53.7094
  1258.7500      0.0000    770.4789      3.6790     54.7829
  1259.0000      0.0000    769.7094      3.8410     58.7168
  1259.2500      0.0000    772.7016      4.0286     65.9772
  1259.5000      0.0000    777.9773      4.2358     75.8908
  1259.7500      0.0000    782.1356      4.4521     86.2588
  1260.0000      0.0000    782.5566      4.6581     94.3613
  1260.2500      0.0000    778.2419      4.8305     98.7950
  1260.5000      0.0000    769.1137      4.9526    100.1756
  1260.7500      0.0000    756.0590      5.0252    100.0561
  1261.0000      0.0000    741.6909      5.0670     99.5247
  1261.2500      0.0000    729.8538      5.0998     98.8167
  1261.5000      0.0000    723.8699      5.1345     97.7310
  1261.7500      0.0000    725.2101      5.1720     95.9948
  1262.0000      0.0000    732.9227      5.2135     93.3287
  1262.2500      0.0000    743.3986      5.2645     89.5938
  1262.5000      0.0000    751.6403      5.3278     85.1862
  1262.7500      0.0000    754.5901      5.3981     81.1216
  1263.0000      0.0000    753.3206      5.4621     78.3668
  1263.2500      0.0000    751.2968      5.5027     76.9879
  1263.5000      0.0000    751.2667      5.5043     76.0631
  1263.7500      0.0000    754.4714      5.4611     74.5640
  1264.0000      0.0000    761.1588      5.3847     72.3471
