~Version Information
VERS.                      2.0: CWLS Log ASCII Standard - VERSION 2.0
WRAP.                       NO: One line per depth step
~Well Information Block
STRT.FT                -8.0000: 
STOP.FT              1661.0000: 
STEP.FT                 0.2500: 
NULL.                -999.2500: 
COMP.          Pioneer Natural Resources: COMPANY
WELL.          Rollerball 34-30: WELL
FLD.           Purgatorie River: FIELD
LOC.           893' FSL & 2408' FEL----: LOCATION
CNTY.               Las Animas: COUNTY
SRVC.          Patterson Wireline: SERVICE COMPANY
DATE.          Mon Feb 20 08:34:38 2006: LOG DATE
UWI.           05 071 08581 00: UNIQUE WELL ID
STAT.                       CO: STATE
~Curve Information Block
DEPT.FT            0 000 00 00: Depth
CCL.                          : Casing Collar Locator
TT3.usec                      : CBL 3' Travel Time
AMP3.mV                       : CBL 3' Amplitude
GR.GAPI                       : Gamma Ray
~Parameter Information Block
~A  Depth       CCL         TT3         AMP3         GR     
# ...
  1399.0000      0.0000    718.5084      5.9732     81.1758
  1399.2500      0.0000    728.8280      5.9680     80.1580
  1399.5000      0.0000    738.0632      5.9743     78.1334
  1399.7500      0.0000    745.6536      5.9866     75.0216
  1400.0000      0.0000    750.8058      6.0022     70.8835
  1400.2500      0.0000    753.6318      6.0241     66.0530
  1400.5000      0.0000    754.9190      6.0560     61.3070
  1400.7500      0.0000    755.4259      6.0952     57.8058
  1401.0000      0.0000    755.5670      6.1300     56.5548
  1401.2500      0.0000    755.4705      6.1473     57.5675
  1401.5000      0.0000    755.0705      6.1423     59.7921
  1401.7500      0.0000    754.1068      6.1227     62.2117
  1402.0000      0.0000    752.2158      6.1033     64.5333
  1402.2500      0.0000    749.2786      6.0948     66.3866
  1402.5000      0.0000    745.7060      6.0961     66.6416
  1402.7500      0.0000    742.0576      6.0979     64.3386
  1403.0000      0.0000    738.2422      6.0927     59.8922
  1403.2500      0.0000    733.5101      6.0807     54.9243
  1403.5000      0.0000    727.4427      6.0671     51.2443
  1403.7500      0.0000    720.4844      6.0567     50.0428
  1404.0000      0.0000    713.3885      6.0507     51.3825
  1404.2500      0.0000    706.5302      6.0458     54.0596
  1404.5000      0.0000    699.6307      6.0357     56.2490
  1404.7500      0.0000    691.3799      6.0161     56.5913
  1405.0000      0.0000    679.8970      5.9899     54.8348
  1405.2500      0.0000    665.5061      5.9653     51.7743
  1405.5000      0.0000    653.5663      5.9471     48.7713
  1405.7500      0.0000    651.8209      5.9334     47.1253
  1406.0000      0.0000    662.4371      5.9218     47.6076
  1406.2500      0.0000    677.6000      5.9148     50.2025
  1406.5000      0.0000    685.3057      5.9152     53.9444
  1406.7500      0.0000    680.1074      5.9162     57.1520
  1407.0000      0.0000    668.0555      5.9021     58.3339
  1407.2500      0.0000    661.1086      5.8616     57.2027
  1407.5000      0.0000    666.4285      5.8031     54.9254
  1407.7500      0.0000    681.2761      5.7525     53.3467
  1408.0000      0.0000    697.7910      5.7357     53.7669
  1408.2500      0.0000    710.3702      5.7628     56.2611
  1408.5000      0.0000    717.7571      5.8282     60.1573
  1408.7500      0.0000    720.8903      5.9183     65.1217
  1409.0000      0.0000    721.4514      6.0168     71.5686
  1409.2500      0.0000    721.6952      6.1066     79.8388
  1409.5000      0.0000    723.5342      6.1726     89.1045
  1409.7500      0.0000    726.7794      6.2071     97.3624
  1410.0000      0.0000    728.7818      6.2153    102.6740
  1410.2500      0.0000    726.7335      6.2113    104.4016
  1410.5000      0.0000    720.7766      6.2042    103.3430
  1410.7500      0.0000    713.9938      6.1900    100.9208
  1411.0000      0.0000    708.7104      6.1632     98.3489
  1411.2500      0.0000    703.8712      6.1354     96.3214
  1411.5000      0.0000    696.7541      6.1345     95.1481
  1411.7500      0.0000    685.6137      6.1829     95.0009
  1412.0000      0.0000    669.6689      6.2808     96.0143
  1412.2500      0.0000    648.7948      6.4099     98.1535
  1412.5000      0.0000    625.0302      6.5499    101.0169
  1412.7500      0.0000    602.7495      6.6881    103.7304
  1413.0000      0.0000    585.7205      6.8153    105.2500
  1413.2500      0.0000    574.8484      6.9184    105.2849
  1413.5000      0.0000    569.8759      6.9811    104.9988
  1413.7500      0.0000    572.6796      6.9948    106.0764
  1414.0000      0.0000    587.3346      6.9659    108.7106
  1414.2500      0.0000    615.6497      6.9137    110.9818
  1414.5000      0.0000    652.9997      6.8592    110.5643
  1414.7500      0.0000    690.2368      6.8166    106.7246
  1415.0000      0.0000    720.0840      6.7927    100.6160
  1415.2500      0.0000    740.6265      6.7912     94.2375
  1415.5000      0.0000    753.2511      6.8122     89.3980
  1415.7500      0.0000    759.5981      6.8475     87.1605
  1416.0000      0.0000    761.0714      6.8818     87.5702
  1416.2500      0.0000    759.4841      6.9020     89.7796
  1416.5000      0.0000    756.6918      6.9068     92.6839
  1416.7500      0.0000    753.7601      6.9072     95.5567
  1417.0000      0.0000    750.8853      6.9165     98.0882
  1417.2500      0.0000    747.7549      6.9370     99.9143
  1417.5000      0.0000    743.6378      6.9560    100.3942
  1417.7500      0.0000    737.6171      6.9489     99.2101
  1418.0000      0.0000    729.5594      6.8816     97.1445
  1418.2500      0.0000    720.6337      6.7109     95.7516
  1418.5000      0.0000    712.3307      6.3955     96.0293
  1418.7500      0.0000    705.1497      5.9387     97.6266
  1419.0000      0.0000    698.9170      5.4316     99.3729
  1419.2500      0.0000    694.4851      5.0208    100.3088
  1419.5000      0.0000    694.6821      4.7889    100.1719
  1419.7500      0.0000    702.9984      4.6824     99.1245
  1420.0000      0.0000    721.2286      4.5992     97.0950
  1420.2500      0.0000    748.9142      4.5157     93.5235
  1420.5000      0.0000    784.4247      4.4781     88.0299
  1420.7500      0.0000    824.9200      4.5079     81.1985
  1421.0000      1.7926    864.8625      4.5736     74.2409
  1421.2500      1.7493    895.5506      4.6493     68.1138
  1421.5000      0.0000    907.5798      4.7555     63.3564
  1421.7500      0.0000    896.1377      4.9219     60.3292
  1422.0000      0.0000    865.6764      5.1151     59.0963
  1422.2500      0.0000    828.4369      5.2356     59.3795
  1422.5000      0.0000    796.7845      5.2184     61.0272
  1422.7500      0.0000    776.5210      5.1138     64.3156
  1423.0000      0.0000    766.4944      5.0352     69.4002
  1423.2500      0.0000    762.0004      5.0477     75.4530
  1423.5000      0.0000    757.9911      5.1356     80.7720
  1423.7500      0.0000    751.2999      5.2491     84.1226
  1424.0000      0.0000    741.9199      5.3520     85.9202
  1424.2500      0.0000    732.6353      5.4325     87.7541
  1424.5000      0.0000    727.1371      5.4931     90.6449
  1424.7500      0.0000    727.8472      5.5377     93.9438
  1425.0000      0.0000    734.4666      5.5647     95.9531
  1425.2500      0.0000    744.0221      5.5672     95.4853
  1425.5000      0.0000    753.1675      5.5403     92.9678
  1425.7500      0.0000    761.5850      5.4866     90.2243
  1426.0000      0.0000    773.0351      5.4180     88.9902
  1426.2500      0.0000    791.9100      5.3495     89.3721
  1426.5000      0.0000    818.1472      5.2896     89.8206
  1426.7500      0.0000    845.5806      5.2375     88.7156
  1427.0000      0.0000    865.0269      5.1883     85.8604
  1427.2500      0.0000    869.0259      5.1394     82.3913
  1427.5000      0.0000    855.2879      5.0903     79.5905
  1427.7500      0.0000    828.0050      5.0412     78.0324
  1428.0000      0.0000    796.4028      4.9951     77.5322
  1428.2500      0.0000    770.7593      4.9613     77.4344
  1428.5000      0.0000    758.3508      4.9520     76.9769
  1428.7500      0.0000    760.9060      4.9717     75.8378
  1429.0000      0.0000    773.4110      5.0107     74.5678
  1429.2500      0.0000    785.8907      5.0536     74.1676
  1429.5000      0.0000    789.7990      5.0930     75.0022
  1429.7500      0.0000    784.0480      5.1322     76.3810
  1430.0000      0.0000    774.0517      5.1732     77.4020
  1430.2500      0.0000    765.5762      5.2068     77.9440
  1430.5000      0.0000    760.7204      5.2210     78.6354
  1430.7500      0.0000    758.4766      5.2164     80.0794
  1431.0000      0.0000    757.0134      5.2075     82.3303
  1431.2500      0.0000    755.3905      5.2094     84.8201
  1431.5000      0.0000    754.2468      5.2270     86.5276
  1431.7500      0.0000    755.3165      5.2563     86.6555
  1432.0000      0.0000    759.9935      5.2897     85.6258
  1432.2500      0.0000    768.0590      5.3185     84.9458
