~Version Information
VERS.                      2.0: CWLS Log ASCII Standard - VERSION 2.0
WRAP.                       NO: One line per depth step
~Well Information Block
STRT.FT               490.0000: 
STOP.FT              2303.5000: 
STEP.FT                 0.1000: 
NULL.                -999.2500: 
COMP.          Pioneer Natural Resources: COMPANY
WELL.             Baa Baa 34-1: WELL
FLD.           Purgatoire River: FIELD
LOC.           617' FSL & 2289' FEL: LOCATION
STAT.                 Colorado: State
CNTY.               Las Animas: COUNTY
CTRY. USA : Country
SECT. 1 : Section
TOWN. 33S : Township
RANG. 67W : Range
SRVC.                Patterson: SERVICE COMPANY
DATE.          Thu Sep 08 09:44:32 2005: LOG DATE
API.           05 071 08502 00: UNIQUE WELL ID
~Curve Information Block
DEPT.FT            0 000 00 00: Depth
DCAL.in                       : CDL Caliper
RHOB.g/cc                     : CDL Bulk Density
RHOC.g/cc                     : CDL Density Correction
DPOR.pu                       : CDL Density Porosity
GR.GAPI                       : Gamma Ray
NPOR.pu                       : Neutron Porosity
~Parameter Information Block
~A  Depth       DCAL        RHOB        RHOC        DPOR         GR         NPOR    
# ...
   605.2000      8.0600      2.5777      0.0236      4.3832     89.9658     24.3090
   605.3000      8.0340      2.5680      0.0673      4.9700     88.2891     23.9027
   605.4000      8.0340      2.5601     -0.0125      5.4481     83.2295     23.4745
   605.5000      8.0029      2.5651      0.0491      5.1447     77.2666     23.0947
   605.6000      8.0029      2.5721      0.0237      4.7236     72.8641     22.8576
   605.7000      8.0029      2.5674      0.0771      5.0085     72.0961     22.7006
   605.8000      7.9962      2.5561      0.0400      5.6915     73.9215     22.7718
   605.9000      7.9962      2.5543      0.0262      5.8012     73.3053     23.0889
   606.0000      8.0039      2.5698      0.0017      4.8616     71.9026     23.3421
   606.1000      8.0039      2.6036     -0.0064      2.8113     73.1311     23.2142
   606.2000      8.0039      2.6548      0.0342     -0.2895     72.8136     22.9098
   606.3000      7.9959      2.7069      0.0637     -3.4486     67.6256     23.1024
   606.4000      7.9959      2.7322      0.0985     -4.9793     63.3313     23.7448
   606.5000      7.9842      2.7173      0.0532     -4.0769     63.0121     23.8708
   606.6000      7.9842      2.6730      0.0682     -1.3919     61.1222     23.2519
   606.7000      7.9842      2.6192     -0.0068      1.8656     55.4959     22.4879
   606.8000      7.9844      2.5753     -0.0879      4.5284     47.7369     21.9115
   606.9000      7.9844      2.5541     -0.1009      5.8126     41.4708     21.2734
   607.0000      8.0352      2.5502     -0.0581      6.0479     39.2369     20.3436
   607.1000      8.0352      2.5452     -0.0383      6.3531     39.9674     19.2879
   607.2000      8.0352      2.5288     -0.0463      7.3470     41.2578     18.3450
   607.3000      8.0356      2.5090     -0.0605      8.5447     40.3244     17.6109
   607.4000      8.0356      2.4954      0.0079      9.3715     37.7525     17.1021
   607.5000      8.0360      2.4857      0.0016      9.9581     36.8585     16.7325
   607.6000      8.0360      2.4815     -0.0273     10.2095     38.4782     16.3353
   607.7000      8.0360      2.4797      0.0368     10.3196     39.7253     15.9077
   607.8000      8.0275      2.4740      0.0031     10.6651     36.0111     15.5333
   607.9000      8.0275      2.4774      0.0115     10.4613     29.8715     15.1756
   608.0000      8.0125      2.4881      0.0636      9.8126     28.6964     14.9084
   608.1000      8.0125      2.4832      0.0826     10.1099     33.1333     14.8137
   608.2000      8.0125      2.4670     -0.0304     11.0907     36.6494     14.7982
   608.3000      8.0076      2.4606     -0.0199     11.4768     34.1857     14.7188
   608.4000      8.0076      2.4595      0.0092     11.5440     28.3440     14.5838
   608.5000      8.0079      2.4518      0.0066     12.0129     24.0920     14.5338
   608.6000      8.0079      2.4403     -0.0109     12.7065     22.6428     14.7310
   608.7000      8.0079      2.4305      0.0100     13.3011     23.6323     15.2476
   608.8000      8.0001      2.4246      0.0217     13.6604     26.5992     15.6798
   608.9000      8.0001      2.4299     -0.0385     13.3379     27.5934     15.6399
   609.0000      8.0027      2.4456      0.0014     12.3868     24.6446     15.5009
   609.1000      8.0027      2.4507     -0.0026     12.0795     21.7157     15.6447
   609.2000      8.0027      2.4360     -0.0265     12.9700     20.8669     15.7437
   609.3000      8.0071      2.4165     -0.0327     14.1538     20.8615     15.4017
   609.4000      8.0071      2.4038     -0.0465     14.9196     21.8696     14.8006
   609.5000      8.0179      2.3938      0.0158     15.5286     24.0837     14.5135
   609.6000      8.0179      2.3841     -0.0356     16.1169     26.7737     14.8259
   609.7000      8.0179      2.3915     -0.0447     15.6648     28.9189     15.1297
   609.8000      8.0305      2.4242      0.0432     13.6843     29.1060     14.8494
   609.9000      8.0305      2.4644      0.0246     11.2459     28.3634     14.5112
   610.0000      8.0040      2.4894      0.0747      9.7334     27.5304     14.4006
   610.1000      8.0040      2.4775      0.1217     10.4521     26.1063     14.0692
   610.2000      8.0040      2.4314      0.0178     13.2462     25.8736     13.6160
   610.3000      7.9847      2.3886     -0.0442     15.8394     28.2938     13.6424
   610.4000      7.9847      2.3764     -0.0191     16.5795     30.8585     14.1416
   610.5000      7.9908      2.3836      0.0460     16.1460     31.4439     14.4496
   610.6000      7.9908      2.3933     -0.0228     15.5548     30.7586     14.2532
   610.7000      7.9908      2.4142      0.0106     14.2914     29.8640     14.0810
   610.8000      7.9920      2.4501      0.0495     12.1147     31.3310     14.3581
   610.9000      7.9920      2.4803      0.1304     10.2858     37.5127     14.9177
   611.0000      7.9943      2.4892      0.1177      9.7482     45.6124     15.4891
   611.1000      7.9943      2.4889      0.0882      9.7631     52.0933     15.7779
   611.2000      7.9943      2.4943      0.0955      9.4368     56.7628     15.8140
   611.3000      8.0115      2.4974      0.1050      9.2472     60.9732     16.0461
   611.4000      8.0115      2.4827      0.0820     10.1372     64.6395     16.5419
   611.5000      8.0152      2.4517      0.0423     12.0206     70.1818     17.0556
   611.6000      8.0152      2.4202     -0.0015     13.9252     82.3358     17.6554
   611.7000      8.0152      2.4050     -0.0316     14.8465     99.0013     18.5670
   611.8000      8.0069      2.4151     -0.0126     14.2365    112.4243     19.4446
   611.9000      8.0069      2.4373      0.0289     12.8938    118.4016     19.8995
   612.0000      7.9936      2.4426      0.0382     12.5720    121.7981     20.2356
   612.1000      7.9936      2.4290     -0.0006     13.3915    127.8613     20.8813
   612.2000      7.9936      2.4219      0.0284     13.8240    133.7277     21.8246
   612.3000      7.9953      2.4295      0.0358     13.3641    135.9409     22.7717
   612.4000      7.9953      2.4396      0.0670     12.7492    137.4856     23.6825
   612.5000      8.0596      2.4435      0.0903     12.5139    141.0519     24.7270
   612.6000      8.0596      2.4396      0.0828     12.7543    144.1253     25.6753
   612.7000      8.0596      2.4272      0.0521     13.5022    144.1785     26.3120
   612.8000      8.1406      2.4099      0.0742     14.5499    139.7338     26.8549
   612.9000      8.1406      2.3982      0.0578     15.2604    131.1884     27.4444
   613.0000      8.1403      2.4081      0.0054     14.6627    125.9748     27.9707
   613.1000      8.1403      2.4499      0.0713     12.1286    129.5018     28.3457
   613.2000      8.1403      2.5166      0.0484      8.0859    133.5119     28.6757
   613.3000      8.0909      2.5985      0.1040      3.1237    127.2695     29.0971
   613.4000      8.0909      2.6828      0.1942     -1.9852    112.3157     29.4985
   613.5000      8.0565      2.7435      0.2010     -5.6640     96.7826     29.5863
   613.6000      8.0565      2.7588      0.2226     -6.5963     86.3458     29.2554
   613.7000      8.0565      2.7356      0.1166     -5.1880     85.2964     28.7828
   613.8000      8.0509      2.7076      0.1201     -3.4888     91.4151     28.2585
   613.9000      8.0509      2.6861      0.1196     -2.1862     97.8756     27.4176
   614.0000      8.0479      2.6571     -0.0283     -0.4283    101.8153     26.4910
   614.1000      8.0479      2.6202     -0.0667      1.8083    103.9520     26.1153
   614.2000      8.0479      2.5842     -0.0907      3.9897    106.0169     26.2607
   614.3000      8.0439      2.5561     -0.0982      5.6926    106.1788     26.4200
   614.4000      8.0439      2.5446     -0.0972      6.3850    103.3825     26.4564
   614.5000      8.0470      2.5568     -0.0877      5.6462    101.6913     26.2874
   614.6000      8.0470      2.5792      0.0159      4.2909    101.7961     25.7211
   614.7000      8.0470      2.5863      0.0670      3.8628    100.2012     24.9744
