~Version Information
VERS.                      2.0: CWLS Log ASCII Standard - VERSION 2.0
WRAP.                       NO: One line per depth step
~Well Information Block
STRT.FT               245.0000: 
STOP.FT              1273.7500: 
STEP.FT                 0.2500: 
NULL.                -999.2500: 
COMP.          Pioneer Natural Resources: COMPANY
WELL.                 Ray 34-6: WELL
FLD.           Purgatoire River: FIELD
LOC.           684' FSL & 2254' FEL--: LOCATION
CNTY.               Las Animas: COUNTY
SRVC.                Patterson: SERVICE COMPANY
DATE.          Fri May 26 03:08:09 2006: LOG DATE
UWI.           05 071 08695 00: UNIQUE WELL ID
STAT.                 Colorado: STATE
~Curve Information Block
DEPT.FT            0 000 00 00: Depth
SN.Ohm-m                      : IEL Short Normal
SP.mV                         : IEL Spontaneous Potential
DIR.Ohm-m                     : IEL Induction Resistivity
GR.GAPI                       : Gamma Ray
~Parameter Information Block
~A  Depth        SN          SP         DIR          GR     
# ...
   513.0000    685.7410   -564.7454     12.0044    140.9652
   513.2500    685.7410   -564.7434     11.2242    144.4865
   513.5000    685.7410   -564.7416     10.5916    150.2669
   513.7500    685.7410   -564.7402     10.0823    153.9958
   514.0000    685.7410   -564.7390      9.6692    158.2668
   514.2500    685.7410   -564.7382      9.3298    159.5785
   514.5000    685.7410   -564.7379      9.0506    159.0159
   514.7500    685.7410   -564.7380      8.8268    157.5650
   515.0000    685.7410   -564.7385      8.6589    155.3879
   515.2500    685.7410   -564.7393      8.5479    154.4865
   515.5000    685.7410   -564.7405      8.4933    153.6831
   515.7500    685.7410   -564.7418      8.4923    153.0475
   516.0000    685.7410   -564.7431      8.5416    151.5680
   516.2500    685.7410   -564.7444      8.6387    150.2902
   516.5000    685.7410   -564.7455      8.7821    148.1014
   516.7500    685.7410   -564.7465      8.9713    146.6009
   517.0000    685.7410   -564.7471      9.2063    144.8307
   517.2500    685.7410   -564.7474      9.4870    144.3261
   517.5000    685.7410   -564.7474      9.8134    144.4742
   517.7500    685.7410   -564.7474     10.1843    144.4280
   518.0000    685.7410   -564.7471     10.5949    142.3225
   518.2500    685.7410   -564.7468     11.0332    138.9251
   518.5000    685.7410   -564.7465     11.4770    131.2989
   518.7500    685.7410   -564.7462     11.8964    125.5630
   519.0000    685.7410   -564.7460     12.2628    118.1400
   519.2500    685.7410   -564.7457     12.5628    114.9798
   519.5000    685.7410   -564.7454     12.8053    113.7859
   519.7500    685.7410   -564.7449     13.0157    115.3399
   520.0000    685.7410   -564.7441     13.2192    120.2806
   520.2500    685.7410   -564.7430     13.4275    124.2368
   520.5000    685.7410   -564.7413     13.6333    128.8017
   520.7500    685.7410   -564.7391     13.8157    129.8093
   521.0000    685.7410   -564.7363     13.9516    127.9019
   521.2500    685.7410   -564.7332     14.0299    125.2117
   521.5000    685.7410   -564.7296     14.0591    121.3975
   521.7500    685.7410   -564.7260     14.0634    120.0661
   522.0000    685.7410   -564.7225     14.0680    120.3443
   522.2500    685.7410   -564.7192     14.0832    121.6924
   522.5000    685.7410   -564.7164     14.0973    124.6662
   522.7500    685.7410   -564.7141     14.0828    127.0621
   523.0000    685.7410   -564.7124     14.0102    131.4270
   523.2500    685.7410   -564.7113     13.8613    135.0301
   523.5000    685.7410   -564.7108     13.6376    141.1785
   523.7500    685.7410   -564.7107     13.3611    145.0368
   524.0000    685.7410   -564.7109     13.0699    148.9124
   524.2500    685.7410   -564.7112     12.8090    149.7858
   524.5000    685.7410   -564.7115     12.6194    148.7995
   524.7500    685.7410   -564.7117     12.5281    146.8784
   525.0000    685.7410   -564.7115     12.5428    142.2121
   525.2500    685.7410   -564.7109     12.6496    138.0064
   525.5000    685.7410   -564.7099     12.8155    130.8120
   525.7500    685.7410   -564.7085     12.9939    126.1081
   526.0000    685.7410   -564.7067     13.1331    120.2105
   526.2500    685.7410   -564.7048     13.1879    117.4334
   526.5000    685.7410   -564.7028     13.1294    115.5024
   526.7500    685.7410   -564.7009     12.9498    115.9710
   527.0000    685.7410   -564.6992     12.6605    119.4441
   527.2500    685.7410   -564.6975     12.2851    123.4262
   527.5000    685.7410   -564.6960     11.8514    131.3682
   527.7500    685.7410   -564.6947     11.3868    137.4914
   528.0000    685.7410   -564.6933     10.9174    146.3646
   528.2500    685.7410   -564.6919     10.4689    150.9669
   528.5000    685.7410   -564.6904     10.0665    154.9192
   528.7500    685.7410   -564.6888      9.7325    155.7857
   529.0000    685.7410   -564.6872      9.4822    154.9937
   529.2500    685.7410   -564.6855      9.3213    153.0160
   529.5000    685.7410   -564.6838      9.2465    147.7689
   529.7500    685.7410   -564.6823      9.2484    143.3856
   530.0000    685.7410   -564.6807      9.3140    137.5729
   530.2500    685.7410   -564.6793      9.4290    135.0821
   530.5000    685.7410   -564.6778      9.5786    133.3988
   530.7500    685.7410   -564.6762      9.7477    133.3101
   531.0000    685.7410   -564.6743      9.9223    134.8282
   531.2500    685.7410   -564.6722     10.0919    137.1840
   531.5000    685.7410   -564.6695     10.2526    142.3737
   531.7500    685.7410   -564.6664     10.4089    146.1808
   532.0000    685.7410   -564.6628     10.5710    150.8277
   532.2500    685.7410   -564.6588     10.7511    152.4069
   532.5000    685.7410   -564.6544     10.9596    151.6396
   532.7500    685.7410   -564.6500     11.2057    149.0539
   533.0000    685.7410   -564.6457     11.4989    143.0584
   533.2500    685.7410   -564.6416     11.8492    138.4365
   533.5000    685.7410   -564.6378     12.2654    131.4076
   533.7500    685.7410   -564.6345     12.7498    126.7936
   534.0000    685.7410   -564.6315     13.2959    120.3032
   534.2500    685.7410   -564.6290     13.8886    116.8076
   534.5000    685.7410   -564.6268     14.5099    113.8905
   534.7500    685.7410   -564.6249     15.1453    113.6279
   535.0000    685.7410   -564.6234     15.7856    114.7621
   535.2500    685.7410   -564.6219     16.4237    115.6941
   535.5000    685.7410   -564.6207     17.0513    116.4079
   535.7500    685.7410   -564.6196     17.6569    116.1842
   536.0000    685.7410   -564.6185     18.2289    114.4033
   536.2500    685.7410   -564.6173     18.7601    112.0456
   536.5000    685.7410   -564.6160     19.2547    107.0637
   536.7500    685.7410   -564.6144     19.7328    103.4788
   537.0000    685.7410   -564.6125     20.2286     99.1129
   537.2500    685.7410   -564.6102     20.7804     97.3488
   537.5000    685.7410   -564.6075     21.4181     96.4418
   537.7500    685.7410   -564.6046     22.1548     96.6662
   538.0000    685.7410   -564.6014     22.9830     97.3596
   538.2500    685.7410   -564.5982     23.8710     97.6164
   538.5000    685.7410   -564.5950     24.7609     97.5149
   538.7500    685.7410   -564.5922     25.5724     97.2825
   539.0000    685.7410   -564.5897     26.2189     96.9659
   539.2500    685.7410   -564.5875     26.6355     96.8632
   539.5000    685.7410   -564.5859     26.8026     96.9841
   539.7500    685.7410   -564.5845     26.7527     97.3327
   540.0000    685.7410   -564.5835     26.5546     98.6081
   540.2500    685.7410   -564.5826     26.2862    100.3121
   540.5000    685.7410   -564.5819     26.0102    104.4011
   540.7500    685.7410   -564.5812     25.7604    107.6186
   541.0000    685.7410   -564.5806     25.5379    111.2151
   541.2500    685.7410   -564.5799     25.3161    111.7515
   541.5000    685.7410   -564.5792     25.0566    109.3752
   541.7500    685.7410   -564.5785     24.7339    106.2465
   542.0000    685.7410   -564.5778     24.3559    100.7238
   542.2500    685.7410   -564.5772     23.9621     97.1945
   542.5000    685.7410   -564.5767     23.6015     92.7996
   542.7500    685.7410   -564.5760     23.3071     90.7270
   543.0000    685.7410   -564.5753     23.0798     89.6159
   543.2500    685.7410   -564.5745     22.8850     90.7103
   543.5000    685.7410   -564.5734     22.6573     95.0927
   543.7500    685.7410   -564.5721     22.3172     98.9446
   544.0000    685.7410   -564.5706     21.8034    104.0051
   544.2500    685.7410   -564.5687     21.1042    106.3966
   544.5000    685.7410   -564.5668     20.2662    109.4850
   544.7500    685.7410   -564.5646     19.3698    111.9811
   545.0000    685.7410   -564.5623     18.4920    116.2931
   545.2500    685.7410   -564.5599     17.6813    118.8680
   545.5000    685.7410   -564.5573     16.9531    121.8670
   545.7500    685.7410   -564.5544     16.3010    123.9687
   546.0000    685.7410   -564.5513     15.7132    128.8741
   546.2500    685.7410   -564.5479     15.1865    133.4731
