~Version Information
VERS.                      2.0: CWLS Log ASCII Standard - VERSION 2.0
WRAP.                       NO: One line per depth step
~Well Information Block
STRT.FT                -7.2500: 
STOP.FT              1334.7500: 
STEP.FT                 0.2500: 
NULL.                -999.2500: 
COMP.          Pioneer Natural Resources: COMPANY
WELL.          Buffet 41-36 Tr: WELL
FLD.           Purgatorie River: FIELD
LOC.           119' FNL & 271' FEL--: LOCATION
PROV.                       CO: PROVINCE
CNTY.               Las Animas: COUNTRY
SRVC.          Patterson Wireline: SERVICE COMPANY
DATE.          Tue Jan 03 09:43:31 2006: LOG DATE
UWI.           05 071 08627 00: UNIQUE WELL ID
~Curve Information Block
DEPT.FT            0 000 00 00: Depth
CCL.                          : Casing Collar Locator
TT3.usec                      : CBL 3' Travel Time
AMP3.mV                       : CBL 3' Amplitude
GR.GAPI                       : Gamma Ray
~Parameter Information Block
~A  Depth       CCL         TT3         AMP3         GR     
# ...
   863.7500      0.0000    694.8167      6.3380     97.0386
   864.0000      0.0000    698.6454      6.2812     95.7947
   864.2500      0.0000    701.6324      6.2348     94.2917
   864.5000      0.0000    704.5131      6.1951     91.8549
   864.7500      0.0000    707.3821      6.1592     88.6875
   865.0000      0.0000    709.7555      6.1350     85.7788
   865.2500      0.0000    711.2567      6.1332     84.2125
   865.5000      0.0000    711.9420      6.1515     84.3090
   865.7500      0.0000    712.1174      6.1747     85.4475
   866.0000      0.0000    712.2382      6.1894     86.9547
   866.2500      0.0000    713.0473      6.1962     88.9983
   866.5000      0.0000    715.3195      6.2074     92.1591
   866.7500      0.0000    718.7758      6.2353     96.0822
   867.0000      0.0000    721.2664      6.2823     99.2198
   867.2500      0.0000    720.0900      6.3398    100.2934
   867.5000      0.0000    714.8410      6.3989     99.5792
   867.7500      0.0000    708.4160      6.4593     98.4083
   868.0000      0.0000    704.5950      6.5232     97.7849
   868.2500      0.0000    704.7501      6.5852     97.8659
   868.5000      0.0000    706.9168      6.6299     98.3548
   868.7500      0.0000    707.7239      6.6410     98.8766
   869.0000      0.0000    705.3508      6.6106     99.1282
   869.2500      0.0000    700.9916      6.5445     98.9695
   869.5000      0.0000    697.4189      6.4633     98.4254
   869.7500      0.0000    696.1302      6.3959     97.6099
   870.0000      0.0000    696.2241      6.3618     96.6767
   870.2500      0.0000    696.0648      6.3585     95.6335
   870.5000      0.0000    695.5221      6.3678     94.1805
   870.7500      0.0000    696.1223      6.3747     92.1618
   871.0000      0.0000    699.2397      6.3783     90.3438
   871.2500      0.0000    704.7418      6.3848     90.2629
   871.5000      0.0000    711.5830      6.3961     92.9743
   871.7500      0.0000    718.9389      6.4065     98.0709
   872.0000      0.0000    725.6966      6.4077    103.8153
   872.2500      0.0000    729.0038      6.3944    107.9446
   872.5000      0.0000    725.1885      6.3668    108.5928
   872.7500      0.0000    713.5607      6.3334    105.3158
   873.0000      0.0000    698.4492      6.3084     99.7976
   873.2500      0.0000    686.0807      6.3047     95.1243
   873.5000      0.0000    679.7225      6.3243     93.6195
   873.7500      0.0000    678.4158      6.3578     95.1304
   874.0000      0.0000    679.5019      6.3915     97.3189
   874.2500      0.0000    681.4083      6.4175     97.4820
   874.5000      0.0000    684.5519      6.4353     94.5627
   874.7500      0.0000    690.7020      6.4439     90.1068
   875.0000      0.0000    701.2397      6.4373     87.0990
   875.2500      0.0000    714.6628      6.4122     87.2640
   875.5000      0.0000    725.6141      6.3769     89.6014
   875.7500      0.0000    728.1065      6.3466     91.7879
   876.0000      0.0000    721.0422      6.3319     92.5551
   876.2500      0.0000    709.8276      6.3326     92.3663
   876.5000      0.0000    701.9075      6.3402     92.2571
   876.7500      0.0000    701.0588      6.3426     92.7095
   877.0000      0.0000    705.4012      6.3290     93.7131
   877.2500      0.0000    709.5306      6.2955     95.3477
   877.5000      0.0000    708.7208      6.2478     97.7700
   877.7500      0.0000    702.2518      6.2008    100.8728
   878.0000      0.0000    693.1205      6.1705    104.4162
   878.2500      0.0000    684.6431      6.1652    108.2007
   878.5000      0.0000    677.5161      6.1802    111.5829
   878.7500      0.0000    669.7767      6.2024    113.1143
   879.0000      0.0000    659.1110      6.2181    111.3238
   879.2500      0.0000    645.7441      6.2188    105.8504
   879.5000      0.0000    633.6790      6.2004     97.5958
   879.7500      0.0000    628.5284      6.1613     87.9883
   880.0000      0.0000    633.1655      6.1041     78.3370
   880.2500      0.0000    645.4360      6.0357     69.6046
   880.5000      0.0000    660.3376      5.9622     62.3853
   880.7500      0.0000    673.9800      5.8835     56.9704
   881.0000      0.0000    685.1423      5.7953     53.5204
   881.2500      0.0000    694.0112      5.6963     52.1632
   881.5000      0.0000    700.8149      5.5921     52.7354
   881.7500      0.0000    705.8015      5.4909     54.4196
   882.0000      0.0000    709.4338      5.3986     56.0232
   882.2500      0.0000    711.7019      5.3206     56.9425
   882.5000      0.0000    711.2339      5.2660     57.6349
   882.7500      0.0000    705.8276      5.2440     58.7975
   883.0000      0.0000    694.5569      5.2459     60.2023
   883.2500      0.0000    679.1858      5.2310     60.6901
   883.5000      0.0000    662.8911      5.1518     59.3804
   883.7500      0.0000    648.5085      5.0085     56.6162
   884.0000      0.0000    639.6476      4.8604     53.6590
   884.2500      0.0000    642.2389      4.7684     51.7168
   884.5000      0.0000    660.8693      4.7431     51.3540
   884.7500      2.0000    691.8792      4.7571     52.4988
   885.0000      0.0000    722.3376      4.7850     54.7821
   885.2500      0.0000    738.2654      4.8222     57.9030
   885.5000      0.0000    735.0375      4.8851     61.6378
   885.7500      0.0000    720.4293      5.0006     65.4951
   886.0000      0.0000    707.2057      5.1822     68.5717
   886.2500      0.0000    702.5209      5.4133     69.8757
   886.5000      0.0000    704.7352      5.6637     68.8109
   886.7500      0.0000    708.7057      5.9119     65.5425
   887.0000      0.0000    711.3483      6.1394     61.1855
   887.2500      0.0000    712.4001      6.3236     57.4264
   887.5000      0.0000    712.5843      6.4512     55.4973
   887.7500      0.0000    712.4471      6.5299     55.4644
   888.0000      0.0000    712.2366      6.5778     56.5040
   888.2500      0.0000    712.0532      6.6086     57.5727
   888.5000      0.0000    711.9227      6.6277     58.0469
   888.7500      0.0000    711.8264      6.6381     58.3193
   889.0000      0.0000    711.7479      6.6453     59.6761
   889.2500      0.0000    711.7000      6.6562     63.1721
   889.5000      0.0000    711.6934      6.6732     68.7757
   889.7500      0.0000    711.7125      6.6918     75.5588
   890.0000      0.0000    711.7371      6.7064     82.1423
   890.2500      0.0000    711.7701      6.7168     86.9370
   890.5000      0.0000    711.8278      6.7320     88.7359
   890.7500      0.0000    711.9228      6.7653     87.5875
   891.0000      0.0000    712.0746      6.8264     84.7584
   891.2500      0.0000    712.4111      6.9139     81.3347
   891.5000      0.0000    713.3364      7.0124     77.1087
   891.7500      0.0000    715.6395      7.0968     71.5464
   892.0000      0.0000    720.0141      7.1410     65.7065
   892.2500      0.0000    725.5258      7.1295     62.1605
   892.5000      0.0000    728.2958      7.0649     62.5641
   892.7500      0.0000    723.2993      6.9673     65.9967
   893.0000      0.0000    709.4286      6.8671     70.1244
   893.2500      0.0000    692.4327      6.7936     73.2866
   893.5000      0.0000    681.1271      6.7656     74.9501
   893.7500      0.0000    680.4139      6.7838     74.9203
   894.0000      0.0000    688.5732      6.8281     73.0942
   894.2500      0.0000    700.7617      6.8614     70.0056
   894.5000      0.0000    713.8369      6.8447     66.9970
   894.7500      0.0000    727.3641      6.7616     65.3967
   895.0000      0.0000    740.7481      6.6296     65.6600
   895.2500      0.0000    750.9449      6.4852     67.6736
   895.5000      0.0000    754.2401      6.3521     71.7220
   895.7500      0.0000    750.3476      6.2293     78.4957
   896.0000      0.0000    743.7212      6.1137     87.8695
   896.2500      0.0000    740.2850      6.0289     98.0435
   896.5000      0.0000    743.1441      6.0165    106.1819
   896.7500      0.0000    751.3677      6.0948    109.9259
   897.0000      0.0000    761.7286      6.2323    108.6632
