~Version Information
VERS.                      2.0: CWLS Log ASCII Standard - VERSION 2.0
WRAP.                       NO: One line per depth step
~Well Information Block
STRT.FT               460.0000: 
STOP.FT              1509.0000: 
STEP.FT                 0.2500: 
NULL.                -999.2500: 
COMP.          Pioneer Natural Resources: COMPANY
WELL.           Amore 32-09 Tr: WELL
FLD.           Purgatoire River: FIELD
LOC.           1941' FNL & 2297' FEL: LOCATION
PROV.                 Colorado: PROVINCE
CNTY.               Las Animas: COUNTRY
SRVC.                Patterson: SERVICE COMPANY
DATE.          Mon Nov 14 11:07:52 2005: LOG DATE
UWI.           05 071 08584 00: UNIQUE WELL ID
~Curve Information Block
DEPT.FT            0 000 00 00: Depth
SN.Ohm-m                      : IEL Short Normal
SP.mV                         : IEL Spontaneous Potential
DIR.Ohm-m                     : IEL Induction Resistivity
GR.GAPI                       : Gamma Ray
~Parameter Information Block
~A  Depth        SN          SP         DIR          GR     
   460.0000   2000.0000   2000.0000     81.2209     58.6287
   460.2500   2000.0000   2000.0000     82.9873     59.3814
   460.5000   2000.0000   2000.0000     84.5279     60.3484
   460.7500   2000.0000   2000.0000     85.1748     60.7973
   461.0000   2000.0000   2000.0000     84.6007     61.2888
   461.2500   2000.0000   2000.0000     83.1145     61.7674
   461.5000   2000.0000   2000.0000     81.4402     63.4920
   461.7500   2000.0000   2000.0000     80.2248     65.5919
   462.0000   2000.0000   2000.0000     79.7373     69.6458
   462.2500   2000.0000   2000.0000     79.8729     72.1305
   462.5000   2000.0000   2000.0000     80.3264     74.1087
   462.7500   2000.0000   2000.0000     80.7882     73.9380
   463.0000   2000.0000   2000.0000     81.0781     72.1838
   463.2500   2000.0000   2000.0000     81.1809     70.8662
   463.5000   2000.0000   2000.0000     81.1986     69.5464
   463.7500   2000.0000   2000.0000     81.2599     68.9174
   464.0000   2000.0000   2000.0000     81.4217     67.5187
   464.2500   2000.0000   2000.0000     81.6349     66.1059
   464.5000   2000.0000   2000.0000     81.7920     63.7754
   464.7500   2000.0000   2000.0000     81.8079     62.5344
   465.0000   2000.0000   2000.0000     81.6691     61.5869
   465.2500   2000.0000   2000.0000     81.4040     61.5546
   465.5000   2000.0000   2000.0000     81.0170     62.0124
   465.7500   2000.0000   2000.0000     80.4412     62.2653
   466.0000   2000.0000   2000.0000     79.5499     61.9520
   466.2500   2000.0000   2000.0000     78.2312     61.2570
   466.5000   2000.0000   2000.0000     76.5029     60.1388
   466.7500   2000.0000   2000.0000     74.5766     59.8126
   467.0000   2000.0000   2000.0000     72.7669     60.3977
   467.2500   2000.0000   2000.0000     71.2586     61.5627
   467.5000   2000.0000   2000.0000     69.8862     64.1702
   467.7500   2000.0000   2000.0000     68.1156     65.9189
   468.0000   2000.0000   2000.0000     65.3607     67.2370
   468.2500   2000.0000   2000.0000     61.4297     66.7955
   468.5000   2000.0000   2000.0000     56.6881     64.4849
   468.7500   2000.0000   2000.0000     51.8292     60.3479
   469.0000   2000.0000   2000.0000     47.6346     57.3359
   469.2500   2000.0000   2000.0000     44.9265     55.4039
   469.5000   2000.0000   2000.0000     44.6613     52.7625
   469.7500   2000.0000   2000.0000     48.2569     46.2015
   470.0000   2000.0000   2000.0000     58.5692     45.8811
   470.2500   2000.0000   2000.0000     82.7615     46.5446
   470.5000   2000.0000   2000.0000    141.9557     48.1595
   470.7500   2000.0000   2000.0000    306.3560     43.6350
   471.0000   2000.0000   2000.0000    719.1425     45.6412
   471.2500   2000.0000   2000.0000    822.7745     47.9525
   471.5000   2000.0000   2000.0000    492.6399     54.1500
   471.7500   2000.0000   2000.0000    316.4661     52.5571
   472.0000   2000.0000   2000.0000    235.4435     62.9839
   472.2500   2000.0000   2000.0000    194.9658     70.4859
   472.5000   2000.0000   2000.0000    179.7408     80.6322
   472.7500   2000.0000   2000.0000    192.7346     85.7803
   473.0000   2000.0000   2000.0000    259.2195     90.5075
   473.2500   2000.0000   2000.0000    492.2936     91.8000
   473.5000   2000.0000   2000.0000   1560.2029     91.3762
   473.7500   2000.0000   2000.0000   4711.2578     89.7539
   474.0000   2000.0000   2000.0000 100000.0000     86.3836
   474.2500   2000.0000   2000.0000 100000.0000     84.7941
   474.5000   2000.0000   2000.0000 100000.0000     85.5148
   474.7500   2000.0000   2000.0000 100000.0000     88.1279
   475.0000   2000.0000   2000.0000 100000.0000     92.9440
   475.2500   2000.0000   2000.0000 100000.0000     95.1027
   475.5000   2000.0000   2000.0000 100000.0000     95.6448
   475.7500   2000.0000   2000.0000 100000.0000     94.7703
   476.0000   2000.0000   2000.0000 100000.0000     93.5098
   476.2500   2000.0000   2000.0000 100000.0000     93.6461
   476.5000   2000.0000   2000.0000 100000.0000     95.8124
   476.7500   2000.0000   2000.0000     14.6716     98.2119
   477.0000   2000.0000   2000.0000      5.4112    102.3457
   477.2500   2000.0000   2000.0000      3.6137    105.1252
   477.5000   2000.0000   2000.0000      3.1116    108.8543
   477.7500   2000.0000   2000.0000      3.1309    110.5987
   478.0000   2000.0000   2000.0000      3.4889    111.4975
   478.2500   2000.0000   2000.0000      4.1765    111.1833
   478.5000   2000.0000   2000.0000      5.3503    110.8186
   478.7500   2000.0000   2000.0000      7.5333    111.5101
   479.0000   2000.0000   2000.0000     12.3571    114.1353
   479.2500   2000.0000   2000.0000     26.2062    116.2876
   479.5000   2000.0000   2000.0000     88.9917    119.0140
   479.7500   2000.0000   2000.0000    372.1972    120.3832
   480.0000   2000.0000   2000.0000    105.3532    121.9819
   480.2500   2000.0000   2000.0000     39.8350    122.6439
   480.5000   2000.0000   2000.0000     23.7427    122.6210
   480.7500   2000.0000   2000.0000     18.0100    121.9316
   481.0000   2000.0000   2000.0000     15.6496    120.5360
   481.2500   2000.0000   2000.0000     14.6742    119.9116
   481.5000   2000.0000   2000.0000     14.3473    120.0433
   481.7500   2000.0000   2000.0000     14.3674    120.7719
   482.0000   2000.0000   2000.0000     14.6141    122.0658
   482.2500   2000.0000   2000.0000     15.0580    122.5600
   482.5000   2000.0000   2000.0000     15.7515    122.4312
   482.7500   2000.0000   2000.0000     16.8231    122.0891
   483.0000   2000.0000   2000.0000     18.4371    122.2225
   483.2500   2000.0000   2000.0000     20.6751    123.0378
   483.5000   2000.0000   2000.0000     23.3538    124.5964
   483.7500   2000.0000   2000.0000     25.9024    125.0264
   484.0000   2000.0000   2000.0000     27.6110    124.1370
   484.2500   2000.0000   2000.0000     28.1993    122.9651
   484.5000   2000.0000   2000.0000     27.9612    121.4536
   484.7500   2000.0000   2000.0000     27.3179    120.7829
   485.0000   2000.0000   2000.0000     26.4754    119.9603
   485.2500   2000.0000   2000.0000     25.4749    119.5584
   485.5000   2000.0000   2000.0000     24.3840    119.7508
   485.7500   2000.0000   2000.0000     23.3695    120.6709
   486.0000   2000.0000   2000.0000     22.6181    123.2263
   486.2500   2000.0000   2000.0000     22.2259    125.5339
   486.5000   2000.0000   2000.0000     22.1601    129.3073
   486.7500   2000.0000   2000.0000     22.2885    131.4861
   487.0000   2000.0000   2000.0000     22.4439    133.4342
   487.2500   2000.0000   2000.0000     22.4883    133.7962
   487.5000   2000.0000   2000.0000     22.3487    133.7023
   487.7500   2000.0000   2000.0000     22.0189    133.9196
   488.0000   2000.0000   2000.0000     21.5423    135.6632
   488.2500   2000.0000   2000.0000     20.9861    137.9230
   488.5000   2000.0000   2000.0000     20.4121    142.2384
   488.7500   2000.0000   2000.0000     19.8609    144.8980
   489.0000   2000.0000   2000.0000     19.3567    147.2790
   489.2500   2000.0000   2000.0000     18.9239    147.5502
   489.5000   2000.0000   2000.0000     18.5936    146.3909
   489.7500   2000.0000   2000.0000     18.3937    144.9685
   490.0000   2000.0000   2000.0000     18.3352    142.4777
   490.2500   2000.0000   2000.0000     18.4049    140.8971
   490.5000   2000.0000   2000.0000     18.5692    138.9608
   490.7500   2000.0000   2000.0000     18.7815    137.9845
   491.0000   2000.0000   2000.0000     18.9928    137.0044
   491.2500   2000.0000   2000.0000     19.1660    136.7148
   491.5000   2000.0000   2000.0000     19.2871    136.6162
   491.7500   2000.0000   2000.0000     19.3633    136.3707
   492.0000   2000.0000   2000.0000     19.4088    134.9325
   492.2500   2000.0000   2000.0000     19.4338    133.1611
   492.5000   2000.0000   2000.0000     19.4454    130.0939
   492.7500   2000.0000   2000.0000     19.4561    128.4143
   493.0000   2000.0000   2000.0000     19.4890    126.6383
   493.2500   2000.0000   2000.0000     19.5745    125.4044
