~Version Information
 VERS.                                  2.0 : CWLS LAS VERSION
 WRAP.                                   NO : WRAPING MODE
 SWARE .                 MController 2.5.0N : SOFTWARE VERSION
~Well Information
 WELL.                       BaaBaa 34-1 TR : WELL
 COMP.       Pioneer Natural Resources, USA : COMPANY
 FLD.                       Purgatory River : FIELD
 LOC.                 SW/SE Sec1 T33S R67W  : LOCATION
 DATE.                             03/02/06 : DATE(S) LOGGED
 SRVC.      Blanco Geological Services, LLC : SERVICE COMPANY
 STAT.                             Colorado : STATE
 CNTY.                           Las Animas : COUNTY
 CTRY.                                  USA : COUNTRY
 API.                       05-071-08710-00 : API NUMBER
 STRT.FT                             380.00 : START DEPTH
 STOP.FT                            1410.00 : STOP DEPTH
 STEP.FT                               1.00 : DEPTH INCREMENT
 NULL.                                -9999 : NULL VALUE
~Curve information
 DEPTH.FT                                   :
 ROP.MIN/FT                                 :
 GAS.UNITS                                  :
~ASCII Log data
# ...
       580.0         0.20          6.1 
       581.0         0.20          5.2 
       582.0         0.22          4.3 
       583.0         0.23          4.0 
       584.0         0.17          3.2 
       585.0         0.30          3.2 
       586.0         0.27          3.0 
       587.0         0.17          2.8 
       588.0         0.17          2.9 
       589.0         0.17          2.3 
       590.0         0.20          2.3 
       591.0         3.18         10.0 
       592.0         0.37         10.6 
       593.0         0.30          8.8 
       594.0         0.20          7.2 
       595.0         0.17          6.3 
       596.0         0.17          6.1 
       597.0         0.17          5.9 
       598.0         0.17          5.3 
       599.0         0.18          5.2 
       600.0         0.13          4.8 
       601.0         0.17          4.6 
       602.0         0.17          4.4 
       603.0         0.17          4.2 
       604.0         0.13          3.8 
       605.0         0.13          3.9 
       606.0         0.17          4.2 
       607.0         0.23          4.1 
       608.0         0.20          4.0 
       609.0         0.17          3.7 
       610.0         0.13          3.8 
       611.0         0.13          4.2 
       612.0         0.13          3.7 
       613.0         0.13          3.6 
       614.0         0.20          3.9 
       615.0         0.53          3.9 
       616.0         0.55          3.8 
       617.0         0.17          3.4 
       618.0         0.20          3.3 
       619.0         0.37          3.6 
       620.0         0.17          3.5 
       621.0         3.65          6.6 
       622.0         0.27          7.6 
       623.0         0.37          7.2 
       624.0         0.27          5.8 
       625.0         0.23          5.0 
       626.0         0.20          4.5 
       627.0         0.20          4.4 
       628.0         0.23          4.0 
       629.0         0.18          3.8 
       630.0         0.17          3.3 
       631.0         0.20          3.4 
       632.0         0.20          3.3 
       633.0         0.23          3.6 
       634.0         0.23          3.4 
       635.0         0.17          3.4 
       636.0         0.17          3.2 
       637.0         0.13          2.8 
       638.0         0.17          3.1 
       639.0         0.17          3.2 
       640.0         0.17          3.2 
       641.0         0.17          3.1 
       642.0         0.17          3.0 
       643.0         0.23          3.7 
       644.0         0.17          3.5 
       645.0         0.13          3.4 
       646.0         0.13          3.4 
       647.0         0.13          3.3 
       648.0         0.17          3.2 
       649.0         0.15          3.4 
       650.0         0.13          3.9 
       651.0         3.38          6.0 
       652.0         0.23          7.2 
       653.0         0.17          6.9 
       654.0         0.20          6.1 
       655.0         0.20          5.7 
       656.0         0.20          5.6 
       657.0         0.17          5.5 
       658.0         0.27          5.4 
       659.0         0.23          5.0 
       660.0         0.27          4.6 
       661.0         0.23          4.3 
       662.0         0.23          4.3 
       663.0         0.20          4.2 
       664.0         0.20          3.9 
       665.0         0.20          3.5 
       666.0         0.22          3.2 
       667.0         0.17          3.1 
       668.0         0.20          3.7 
       669.0         0.17          3.4 
       670.0         0.23          3.0 
       671.0         0.17          3.1 
       672.0         0.17          3.0 
       673.0         0.20          2.9 
       674.0         0.17          2.8 
       675.0         0.20          3.1 
       676.0         0.20          3.6 
       677.0         0.20          3.1 
       678.0         0.17          3.0 
       679.0         0.20          2.8 
       680.0         0.17          3.1 
       681.0         3.08          5.5 
       682.0         0.10          5.9 
       683.0         0.23          5.7 
       684.0         0.23          4.5 
       685.0         0.13          4.4 
       686.0         0.10          4.5 
       687.0         0.18          5.3 
       688.0         0.20          5.6 
       689.0         0.17          6.4 
       690.0         0.20          8.1 
       691.0         0.20          9.1 
       692.0         0.20          9.2 
       693.0         0.13          8.3 
       694.0         0.17          7.7 
       695.0         0.20          7.2 
       696.0         0.20          6.0 
       697.0         0.23          5.4 
       698.0         5.07          4.6 
       699.0         0.43          4.0 
       700.0         0.33          4.3 
       701.0         0.33          4.0 
       702.0         0.33          3.5 
       703.0         0.33          3.1 
       704.0         0.33          2.8 
       705.0         0.30          2.6 
       706.0         0.20          2.7 
       707.0         0.17          2.8 
       708.0         0.17          2.4 
       709.0         0.12          2.6 
       710.0         0.17          2.5 
       711.0         3.75          5.2 
       712.0         0.20          4.1 
       713.0         0.20          3.7 
       714.0         0.20          3.3 
       715.0         0.20          3.0 
       716.0         0.17          3.1 
       717.0         0.17          3.3 
       718.0         0.23          3.2 
       719.0         0.20          3.1 
       720.0         0.30          3.2 
       721.0         0.27          2.8 
       722.0         0.17          2.8 
       723.0         3.32          3.2 
       724.0         0.62          3.0 
       725.0         0.17          2.5 
       726.0         0.37          2.5 
       727.0         0.27          3.0 
       728.0         0.23          3.6 
       729.0         0.23          3.9 
       730.0         0.30          3.9 
       731.0         0.20          3.8 
       732.0         0.20          3.3 
       733.0         0.23          3.2 
       734.0         0.17          2.9 
       735.0         0.20          3.0 
       736.0         0.20          2.4 
       737.0         0.23          2.9 
       738.0         0.28          3.0 
       739.0         0.27          2.9 
       740.0         0.20          2.7 
       741.0         4.08          9.2 
       742.0         0.13          4.7 
       743.0         0.20          4.2 
       744.0         0.27          4.1 
       745.0         0.27          8.6 
       746.0         0.20         14.4 
       747.0         0.27         17.7 
       748.0         0.20         17.8 
       749.0         0.23         17.7 
       750.0         0.25         15.7 
       751.0         1.53         15.1 
       752.0         0.23          7.4 
       753.0         0.20          7.1 
       754.0         0.20          7.1 
       755.0         0.20          7.1 
       756.0         0.33          7.5 
       757.0         0.30          7.5 
       758.0         0.27          7.7 
       759.0         0.28          7.7 
       760.0         0.30          8.2 
       761.0         0.23          9.0 
       762.0         0.20          9.7 
       763.0         0.20         10.0 
       764.0         0.17          9.5 
       765.0         0.20          9.4 
       766.0         0.23          8.5 
       767.0         0.33          7.7 
       768.0         0.33          7.4 
       769.0         0.17          7.7 
       770.0         0.13          7.8 
       771.0         3.78        138.9 
       772.0         0.48        138.8 
       773.0         0.37         91.8 
       774.0         0.33         71.2 
       775.0         0.33         57.5 
       776.0         0.30         50.2 
       777.0         0.33         45.5 
       778.0         0.43         42.4 
       779.0         0.40         42.4 
