~Version Information
VERS.                      2.0: CWLS Log ASCII Standard - VERSION 2.0
WRAP.                       NO: One line per depth step
~Well Information Block
STRT.FT               620.0000: 
STOP.FT              3067.2000: 
STEP.FT                 0.1000: 
NULL.                -999.2500: 
COMP.          Pioneer Natural Resources: COMPANY
WELL.          Interceptor 43-13 Kv: WELL
FLD.           Purgatoire River: FIELD
LOC.           2073' FSL & 519' FEL--: LOCATION
PROV.                 Colorado: PROVINCE
CNTY.               Las Animas: COUNTRY
SRVC.                Patterson: SERVICE COMPANY
DATE.          Sat Jan 14 20:27:27 2006: LOG DATE
UWI.           05 071 08655 00: UNIQUE WELL ID
~Curve Information Block
DEPT.FT            0 000 00 00: Depth
DCAL.in                       : CDL Caliper
RHOB.g/cc                     : CDL Bulk Density
RHOC.g/cc                     : CDL Density Correction
DPOR.pu                       : CDL Density Porosity
NPOR.pu                       : Neutron Porosity
GR.GAPI                       : Gamma Ray
~Parameter Information Block
~A  Depth       DCAL        RHOB        RHOC        DPOR        NPOR         GR     
# ...
  1263.2000      8.3635      2.4894      0.6245      9.7349     21.5255    140.6208
  1263.3000      8.3426      2.5268      0.5531      7.4681     22.0371    142.2897
  1263.4000      8.3426      2.5448      0.4390      6.3774     22.2316    140.1025
  1263.5000      8.2174      2.5644      0.3769      5.1877     22.0801    135.9229
  1263.6000      8.2174      2.5738      0.3618      4.6196     21.9310    132.7014
  1263.7000      8.2174      2.5579      0.2866      5.5798     21.8219    132.3669
  1263.8000      8.1022      2.5167      0.2017      8.0781     21.4727    135.6286
  1263.9000      8.1022      2.4576      0.1143     11.6590     21.1269    141.0158
  1264.0000      8.0554      2.3995      0.0956     15.1843     21.1597    146.6018
  1264.1000      8.0554      2.3709      0.0678     16.9126     21.4537    150.5773
  1264.2000      8.0554      2.3835      0.1488     16.1485     21.7266    150.6323
  1264.3000      8.0462      2.4106      0.2020     14.5120     21.6689    144.9251
  1264.4000      8.0462      2.4170      0.1552     14.1192     21.0735    137.5799
  1264.5000      8.0449      2.3950      0.1100     15.4550     20.3971    135.2843
  1264.6000      8.0449      2.3500      0.0462     18.1826     20.0718    138.8775
  1264.7000      8.0449      2.2806      0.0448     22.3883     19.7845    144.0812
  1264.8000      8.0437      2.1817     -0.0079     28.3813     19.4809    143.7809
  1264.9000      8.0437      2.0677     -0.0909     35.2886     19.3849    137.3907
  1265.0000      8.0407      1.9657     -0.0966     41.4740     19.0226    133.4117
  1265.1000      8.0407      1.8798     -0.0525     46.6778     18.0232    131.9225
  1265.2000      8.0407      1.8024     -0.0551     51.3724     16.8972    127.3500
  1265.3000      8.0350      1.7412     -0.1175     55.0779     16.0542    121.3192
  1265.4000      8.0350      1.7043     -0.0812     57.3165     15.2032    118.7725
  1265.5000      8.0294      1.6840     -0.0582     58.5470     14.1030    119.7710
  1265.6000      8.0294      1.6833     -0.0431     58.5870     13.0109    119.8181
  1265.7000      8.0294      1.7163      0.0478     56.5876     12.1797    116.5759
  1265.8000      8.0262      1.7760      0.1703     52.9721     11.6966    112.5258
  1265.9000      8.0262      1.8417      0.1980     48.9851     11.5039    112.3790
  1266.0000      8.0273      1.9112      0.1853     44.7769     11.4671    118.2918
  1266.1000      8.0273      1.9958      0.1895     39.6465     11.6058    127.5158
  1266.2000      8.0273      2.0892      0.2065     33.9864     11.9979    134.9687
  1266.3000      8.0304      2.1658      0.1906     29.3456     12.5730    136.2110
  1266.4000      8.0304      2.2157      0.1244     26.3219     13.1822    131.7674
  1266.5000      8.0304      2.2561      0.1215     23.8744     13.7425    125.7096
  1266.6000      8.0304      2.3122      0.1182     20.4713     14.3758    119.5752
  1266.7000      8.0304      2.3967      0.1919     15.3491     15.2593    111.7185
  1266.8000      8.0313      2.4953      0.1975      9.3745     16.3585    103.9107
  1266.9000      8.0313      2.5816      0.2162      4.1476     17.4808     98.6793
  1267.0000      8.0345      2.6404      0.1860      0.5825     18.6528     95.3524
  1267.1000      8.0345      2.6776      0.1295     -1.6703     19.9428     94.2424
  1267.2000      8.0345      2.7054      0.0979     -3.3557     21.1819     96.5525
  1267.3000      8.0364      2.7191      0.0595     -4.1880     22.3161     99.2311
  1267.4000      8.0364      2.7070      0.0489     -3.4539     23.3375     97.3476
  1267.5000      8.0375      2.6758      0.0035     -1.5636     24.1285     90.5633
  1267.6000      8.0375      2.6490     -0.0454      0.0611     24.5458     83.0983
  1267.7000      8.0375      2.6392      0.0009      0.6576     24.4415     80.3410
  1267.8000      8.0364      2.6374     -0.0159      0.7635     24.0531     84.3772
  1267.9000      8.0364      2.6348     -0.0019      0.9210     23.7907     90.4019
  1268.0000      8.0344      2.6328     -0.0151      1.0423     23.7838     92.8454
  1268.1000      8.0344      2.6396     -0.0333      0.6324     23.8849     91.8354
  1268.2000      8.0344      2.6511      0.0497     -0.0668     23.8293     90.4502
  1268.3000      8.0376      2.6450      0.0473      0.3003     23.4825     92.5508
  1268.4000      8.0376      2.6180      0.0474      1.9413     23.0921     97.2245
  1268.5000      8.0460      2.5882      0.0880      3.7440     22.9607     98.3927
  1268.6000      8.0460      2.5722     -0.0182      4.7122     22.9394     96.1889
  1268.7000      8.0460      2.5766      0.0295      4.4467     22.8040     93.2523
  1268.8000      8.0543      2.5925      0.0149      3.4849     22.7490     87.7139
  1268.9000      8.0543      2.6026      0.0414      2.8757     22.8958     82.4917
  1269.0000      8.0576      2.5943      0.0275      3.3762     22.9102     80.1189
  1269.1000      8.0576      2.5810     -0.0186      4.1823     22.8166     79.8445
  1269.2000      8.0576      2.5859      0.0138      3.8877     22.9518     81.6812
  1269.3000      8.0591      2.6064      0.0291      2.6402     23.1134     82.1147
  1269.4000      8.0591      2.6264      0.0642      1.4300     22.8942     79.7474
  1269.5000      8.0620      2.6370      0.0491      0.7901     22.4371     79.2477
  1269.6000      8.0620      2.6395      0.0735      0.6376     22.0450     82.0167
  1269.7000      8.0620      2.6375      0.0637      0.7575     21.7815     84.4532
  1269.8000      8.0617      2.6313      0.0519      1.1364     21.7971     84.3672
  1269.9000      8.0617      2.6238      0.0147      1.5888     22.0708     83.2023
  1270.0000      8.0609      2.6159      0.0143      2.0682     22.1412     81.0022
  1270.1000      8.0609      2.6069      0.0119      2.6120     21.9361     75.7535
  1270.2000      8.0609      2.6067     -0.0176      2.6233     21.6148     71.0533
  1270.3000      8.0603      2.6164      0.0046      2.0348     21.1047     69.6061
  1270.4000      8.0603      2.6181      0.0356      1.9351     20.5785     68.8590
  1270.5000      8.0581      2.6038     -0.0123      2.7975     20.4508     68.7296
  1270.6000      8.0581      2.5897      0.0089      3.6526     20.8527     70.7377
  1270.7000      8.0581      2.5952     -0.0072      3.3216     21.5209     74.4678
  1270.8000      8.0569      2.6217      0.0251      1.7172     22.2669     79.3135
  1270.9000      8.0569      2.6488      0.0498      0.0739     22.9047     84.3923
  1271.0000      8.0578      2.6551      0.0444     -0.3117     23.1990     87.0090
  1271.1000      8.0578      2.6362      0.0488      0.8357     23.3394     84.1383
  1271.2000      8.0578      2.6060      0.0073      2.6648     23.5635     78.6577
  1271.3000      8.0591      2.5888      0.0048      3.7103     23.7258     76.4581
  1271.4000      8.0591      2.5960     -0.0115      3.2731     23.7058     77.1547
  1271.5000      8.0584      2.6233     -0.0308      1.6199     23.5382     78.3702
  1271.6000      8.0584      2.6479      0.1103      0.1300     23.2022     80.6611
  1271.7000      8.0584      2.6344      0.0716      0.9427     22.7820     83.8498
  1271.8000      8.0593      2.5869      0.0098      3.8234     22.4264     85.5637
  1271.9000      8.0593      2.5484     -0.0375      6.1579     22.2064     86.0640
  1272.0000      8.0605      2.5433     -0.0346      6.4681     21.9761     87.6100
  1272.1000      8.0605      2.5608      0.0090      5.4082     21.6030     87.5485
  1272.2000      8.0605      2.5813      0.0208      4.1641     21.3530     84.1726
  1272.3000      8.0599      2.5960      0.0049      3.2744     21.5740     82.4579
  1272.4000      8.0599      2.6091      0.0149      2.4816     22.3168     85.1162
  1272.5000      8.0589      2.6249      0.0572      1.5238     23.0939     88.3392
  1272.6000      8.0589      2.6336      0.0893      0.9953     23.2950     89.0219
  1272.7000      8.0589      2.6221      0.0632      1.6910     23.0898     87.1483
