~Version Information
VERS.                      2.0: CWLS Log ASCII Standard - VERSION 2.0
WRAP.                       NO: One line per depth step
~Well Information Block
STRT.FT               294.3000: 
STOP.FT              1461.0000: 
STEP.FT                 0.1000: 
NULL.                -999.2500: 
COMP.          Pioneer Natural Resources: COMPANY
WELL.              Lucky 21-36: WELL
FLD.           Purgatoire River: FIELD
CDN. :
PROV. :
UWI. :
STAT. :
CNTY. :
CTRY. :
API. :
COMP. :
WELL. :
FLD. :
LOC. :
DATE. :
SRVC. :
LOC.           799' FNL & 1578' FWL--: LOCATION
CNTY.               Las Animas: COUNTY
SRVC.          Superior Well Services: SERVICE COMPANY
DATE.          Tue Jul 08 08-29-33 2008: LOG DATE
UWI.           05 071 08456 00: UNIQUE WELL ID
STAT.                 Colorado: STATE
~Curve Information Block
DEPT.FT            0 000 00 00: Depth
DCAL.in                       : CDL Caliper
RHOB.g/cc                     : CDL Bulk Density
RHOC.g/cc                     : CDL Density Correction
DPOR.pu                       : CDL Density Porosity
NPOR.pu                       : Neutron Porosity
GR.GAPI                       : Gamma Ray
~Parameter Information Block
~A  Depth       DCAL        RHOB        RHOC        DPOR        NPOR         GR     
# ...
   975.9000      7.9774      2.5329      0.0092      7.0959     27.9377    158.7517
   976.0000      7.9765      2.5367      0.0617      6.8669     28.0135    161.8164
   976.1000      7.9756      2.5496      0.0692      6.0847     27.2717    164.5350
   976.2000      7.9744      2.5534      0.0838      5.8569     26.7592    160.3064
   976.3000      7.9727      2.5424      0.0506      6.5214     26.8790    151.7531
   976.4000      7.9703      2.5350      0.0389      6.9705     27.1387    146.3898
   976.5000      7.9675      2.5480      0.0456      6.1845     26.9396    147.6020
   976.6000      7.9647      2.5791      0.0359      4.2976     26.3849    154.3084
   976.7000      7.9620      2.6112      0.1072      2.3492     26.0295    158.8276
   976.8000      7.9596      2.6240      0.0724      1.5734     25.9583    154.6655
   976.9000      7.9574      2.6095      0.1077      2.4571     26.0921    146.4689
   977.0000      7.9553      2.5765      0.0320      4.4541     26.4554    138.2880
   977.1000      7.9532      2.5422      0.0440      6.5306     26.8495    130.4473
   977.2000      7.9511      2.5115      0.0172      8.3925     27.0801    127.9335
   977.3000      7.9492      2.4847     -0.0050     10.0172     27.0656    133.8640
   977.4000      7.9475      2.4742     -0.0038     10.6555     26.9179    143.1823
   977.5000      7.9461      2.4847      0.0184     10.0206     27.0921    149.4070
   977.6000      7.9453      2.4961      0.0731      9.3285     27.6448    151.8811
   977.7000      7.9452      2.4969      0.0104      9.2777     27.9028    155.1275
   977.8000      7.9456      2.4997      0.0497      9.1084     27.5112    155.2714
   977.9000      7.9463      2.5066      0.0501      8.6910     26.8257    146.1837
   978.0000      7.9468      2.5147      0.0304      8.2017     26.1634    138.1296
   978.1000      7.9469      2.5296      0.0816      7.2994     25.7060    142.7273
   978.2000      7.9462      2.5502      0.0954      6.0490     25.4563    152.1775
   978.3000      7.9446      2.5691      0.1031      4.9053     25.0458    151.8503
   978.4000      7.9424      2.5836      0.0900      4.0271     24.2360    139.1039
   978.5000      7.9400      2.5955      0.0862      3.3032     23.2606    119.4645
   978.6000      7.9380      2.5988      0.0888      3.1053     22.4211    102.0266
   978.7000      7.9365      2.5847      0.0795      3.9550     21.6323     92.3792
   978.8000      7.9358      2.5572      0.0667      5.6212     20.9842     88.2168
   978.9000      7.9355      2.5320      0.0109      7.1495     20.9401     86.9952
   979.0000      7.9354      2.5241      0.0299      7.6274     21.3931     87.0731
   979.1000      7.9351      2.5313      0.0474      7.1944     21.6242     84.3927
   979.2000      7.9346      2.5413      0.0438      6.5884     21.4422     78.6823
   979.3000      7.9338      2.5522      0.0200      5.9294     21.1472     75.5606
   979.4000      7.9328      2.5693      0.0491      4.8913     20.6591     76.6630
   979.5000      7.9316      2.5862      0.0622      3.8643     19.9813     78.3932
   979.6000      7.9304      2.5942      0.0527      3.3797     19.5805     79.3386
   979.7000      7.9292      2.5975      0.0462      3.1809     19.7577     80.2730
   979.8000      7.9280      2.5957      0.0881      3.2913     20.4210     78.0758
   979.9000      7.9270      2.5809      0.0640      4.1890     21.2058     70.2542
   980.0000      7.9261      2.5630      0.0386      5.2711     21.6530     62.8877
   980.1000      7.9257      2.5594      0.0363      5.4937     21.6117     62.9362
   980.2000      7.9258      2.5649      0.0666      5.1559     21.3907     68.8782
   980.3000      7.9266      2.5622      0.0603      5.3225     21.3636     74.1294
   980.4000      7.9280      2.5490      0.0328      6.1206     21.6658     74.6089
   980.5000      7.9298      2.5380      0.0464      6.7864     21.9317     70.9034
   980.6000      7.9316      2.5328      0.0432      7.1010     21.5893     67.8318
   980.7000      7.9331      2.5253      0.0443      7.5599     20.9103     69.7394
   980.8000      7.9343      2.5192      0.0135      7.9266     20.6895     74.5619
   980.9000      7.9352      2.5272      0.0509      7.4395     21.0959     77.2852
   981.0000      7.9357      2.5447      0.0243      6.3848     21.6200     75.3536
   981.1000      7.9359      2.5575      0.0951      5.6073     21.7080     71.6519
   981.2000      7.9360      2.5621      0.0442      5.3279     21.6953     71.4614
   981.3000      7.9359      2.5624      0.0798      5.3080     22.2112     73.5647
   981.4000      7.9358      2.5605      0.0363      5.4249     22.9363     75.4741
   981.5000      7.9357      2.5634      0.0481      5.2474     23.2459     78.0149
   981.6000      7.9357      2.5771      0.0401      4.4152     23.1380     79.2647
   981.7000      7.9356      2.5946      0.0810      3.3577     23.0028     79.7103
   981.8000      7.9352      2.5971      0.0668      3.2062     22.9994     82.4827
   981.9000      7.9345      2.5714      0.0420      4.7614     23.0500     87.8684
   982.0000      7.9337      2.5301     -0.0167      7.2672     23.1362     95.0516
   982.1000      7.9330      2.5086     -0.0586      8.5668     22.8943    100.2413
   982.2000      7.9325      2.5216      0.0310      7.7820     22.1557     99.0040
   982.3000      7.9322      2.5368      0.0582      6.8585     21.3688     95.3184
   982.4000      7.9320      2.5263      0.0228      7.4964     20.9379     94.1472
   982.5000      7.9319      2.5007      0.0086      9.0493     20.9688     91.6615
   982.6000      7.9316      2.4768      0.0239     10.4964     21.0920     84.0097
   982.7000      7.9312      2.4639     -0.0508     11.2775     21.0197     77.3575
   982.8000      7.9308      2.4707     -0.0408     10.8664     20.9937     78.0490
   982.9000      7.9305      2.4853      0.0428      9.9803     21.0534     79.9264
   983.0000      7.9303      2.4861      0.0283      9.9322     20.9915     78.2159
   983.1000      7.9304      2.4797     -0.0145     10.3190     20.7780     77.6530
   983.2000      7.9309      2.4858      0.0071      9.9520     20.5999     80.7233
   983.3000      7.9316      2.5034      0.0174      8.8846     20.8783     85.1548
   983.4000      7.9324      2.5163      0.0724      8.1036     21.4550     88.1582
   983.5000      7.9333      2.5204      0.0280      7.8562     21.7570     87.5194
   983.6000      7.9342      2.5280      0.0477      7.3949     21.8621     84.5198
   983.7000      7.9354      2.5432      0.0658      6.4720     22.0280     81.2668
   983.8000      7.9368      2.5592      0.1052      5.5035     22.1381     79.5368
   983.9000      7.9385      2.5678      0.1093      4.9820     22.0365     82.5928
   984.0000      7.9405      2.5615      0.1039      5.3645     21.8524     90.0980
   984.1000      7.9425      2.5376      0.0983      6.8124     21.8316     97.7237
   984.2000      7.9440      2.5079      0.0181      8.6144     21.9415    101.8933
   984.3000      7.9447      2.4888      0.0389      9.7711     22.0127     99.7860
   984.4000      7.9447      2.4829      0.0168     10.1274     21.8786     95.4158
   984.5000      7.9442      2.4852      0.0547      9.9889     21.4228     97.1340
   984.6000      7.9437      2.4925      0.0305      9.5464     20.8148    103.3945
   984.7000      7.9436      2.5032      0.0353      8.8976     20.4513    107.2270
   984.8000      7.9439      2.5120      0.0680      8.3615     20.5783    110.0179
   984.9000      7.9443      2.5162      0.0647      8.1097     21.1703    115.7966
   985.0000      7.9443      2.5176      0.0597      8.0271     21.8916    120.1638
   985.1000      7.9435      2.5137      0.0761      8.2624     22.2624    121.2559
   985.2000      7.9422      2.5060      0.0462      8.7248     22.4377    125.5288
   985.3000      7.9406      2.5060      0.0356      8.7276     22.9824    130.1664
   985.4000      7.9393      2.5165      0.0815      8.0918     23.7014    128.5732
