~Version Information
VERS.                      2.0: CWLS Log ASCII Standard - VERSION 2.0
WRAP.                       NO: One line per depth step
~Well Information Block
STRT.FT               480.0000: 
STOP.FT              1817.0000: 
STEP.FT                 0.1000: 
NULL.                -999.2500: 
COMP.          Pioneer Natural Resources: COMPANY
WELL.           Bobsy 34-11 Tr: WELL
FLD.           Purgatoire River: FIELD
LOC.           514' FSL & 1784' FEL: LOCATION
PROV.                 Colorado: PROVINCE
CNTY.               Las Animas: COUNTRY
SRVC.                Patterson: SERVICE COMPANY
DATE.          Tue Jul 19 10:30:09 2005: LOG DATE
UWI.           05 071 08438 00: UNIQUE WELL ID
~Curve Information Block
DEPT.FT            0 000 00 00: Depth
DCAL.in                       : CDL Caliper
DPOR.pu                       : CDL Density Porosity
GR.GAPI                       : Gamma Ray
NPOR.pu                       : Neutron Porosity
RHOB.g/cc                     : CDL Bulk Density
RHOC.g/cc                     : CDL Density Correction
~Parameter Information Block
~A  Depth       DCAL        DPOR         GR         NPOR        RHOB        RHOC    
# ...
  1536.0000      8.0302      7.4181    141.6672     25.2648      2.5276      0.0653
  1536.1000      8.0302      8.1620    140.4159     24.8674      2.5153      0.0799
  1536.2000      8.0302      9.0891    137.2809     25.1176      2.5000      0.0406
  1536.3000      8.0331     10.1487    134.6794     25.6740      2.4825     -0.0202
  1536.4000      8.0331     10.5381    130.8169     26.1067      2.4761      0.0104
  1536.5000      8.0321      9.8614    127.4336     26.4086      2.4873      0.0093
  1536.6000      8.0321      8.8854    126.7971     26.7243      2.5034      0.0574
  1536.7000      8.0321      9.0410    129.6890     27.2921      2.5008     -0.0016
  1536.8000      8.0426     10.3479    135.9063     28.0201      2.4793      0.0208
  1536.9000      8.0426     11.1234    141.6166     28.6236      2.4665     -0.0052
  1537.0000      8.0416     10.4624    142.3215     28.7084      2.4774      0.0371
  1537.1000      8.0416      9.5335    138.8153     27.7414      2.4927      0.0857
  1537.2000      8.0416      9.6263    137.7082     26.4965      2.4912      0.0690
  1537.3000      8.0434     10.6105    143.4568     26.3103      2.4749      0.0707
  1537.4000      8.0434     11.6463    150.3201     27.1207      2.4578      0.0114
  1537.5000      8.0417     12.3244    151.9509     27.9876      2.4466      0.0131
  1537.6000      8.0417     12.7659    150.7757     28.0131      2.4394      0.0324
  1537.7000      8.0417     13.1419    152.5876     27.1212      2.4332      0.0745
  1537.8000      8.0304     13.4553    155.9127     26.0907      2.4280      0.0838
  1537.9000      8.0304     13.2094    155.9448     25.2962      2.4320      0.0728
  1538.0000      8.0066     12.0179    154.3606     25.0742      2.4517      0.1333
  1538.1000      8.0066     10.7319    154.6826     26.0924      2.4729      0.1681
  1538.2000      8.0066      9.9964    155.5911     27.5839      2.4851      0.1739
  1538.3000      7.9913      9.2551    155.3023     28.2724      2.4973      0.1809
  1538.4000      7.9913      8.4567    153.7223     28.2877      2.5105      0.1803
  1538.5000      8.0399      8.1635    148.8804     28.0024      2.5153      0.1369
  1538.6000      8.0399      8.4849    144.3797     28.0600      2.5100      0.1219
  1538.7000      8.0399      9.5375    148.2142     28.8168      2.4926      0.1146
  1538.8000      8.1078     11.2661    156.4265     29.0521      2.4641      0.0423
  1538.9000      8.1078     12.7766    159.5925     28.4957      2.4392      0.0455
  1539.0000      8.0927     13.1588    157.4072     28.0608      2.4329     -0.0025
  1539.1000      8.0927     12.9193    156.4855     27.4510      2.4368      0.0663
  1539.2000      8.0927     13.7938    161.4410     26.4487      2.4224      0.0661
  1539.3000      8.1072     16.5998    167.3262     25.9340      2.3761      0.0585
  1539.4000      8.1072     20.4209    170.0981     26.1153      2.3131     -0.0310
  1539.5000      8.1184     23.9314    172.7879     26.1647      2.2551     -0.0219
  1539.6000      8.1184     26.9902    175.4343     26.1650      2.2047     -0.0015
  1539.7000      8.1184     29.8880    176.7112     26.9859      2.1568     -0.0699
  1539.8000      8.1224     31.9939    181.1562     28.3057      2.1221     -0.0690
  1539.9000      8.1224     32.8082    191.3894     29.2345      2.1087     -0.0173
  1540.0000      8.1422     33.2750    201.5597     30.0058      2.1010      0.0415
  1540.1000      8.1422     34.9478    204.3344     30.3645      2.0734      0.0812
  1540.2000      8.1422     38.2118    196.6233     29.4186      2.0195      0.1213
  1540.3000      8.1409     42.4800    183.8240     28.2652      1.9491      0.1190
  1540.4000      8.1409     47.9265    172.5508     28.5359      1.8592      0.0804
  1540.5000      8.1292     54.9587    161.7749     29.6092      1.7432      0.0068
  1540.6000      8.1292     62.4542    148.9396     30.4652      1.6195     -0.0458
  1540.7000      8.1292     68.8179    133.7431     31.6205      1.5145     -0.0319
  1540.8000      8.1105     73.6264    118.1355     33.2607      1.4352     -0.0536
  1540.9000      8.1105     77.0120    102.5314     34.5896      1.3793     -0.0385
  1541.0000      8.0985     78.9967     85.9078     34.7929      1.3466     -0.0374
  1541.1000      8.0985     79.9113     70.6392     33.8134      1.3315     -0.0064
  1541.2000      8.0985     80.4024     60.4885     32.7591      1.3234      0.0020
  1541.3000      8.0854     80.3982     54.2923     32.7404      1.3234     -0.0460
  1541.4000      8.0854     79.6156     48.7668     33.1213      1.3363      0.0317
  1541.5000      8.4871     78.6465     43.1720     32.4209      1.3523      0.0394
  1541.6000      8.4871     78.0544     39.3507     31.1971      1.3621      0.0175
  1541.7000      8.4871     77.9352     39.0361     31.0560      1.3641      0.0422
  1541.8000      8.7042     77.8987     40.0217     31.9168      1.3647      0.0050
  1541.9000      8.7042     76.8377     39.8104     32.8584      1.3822     -0.0214
  1542.0000      8.5820     73.7884     39.3027     33.4214      1.4325      0.0299
  1542.1000      8.5820     67.9822     40.6194     33.1942      1.5283      0.0397
  1542.2000      8.5820     58.9283     45.1858     32.5415      1.6777      0.0900
  1542.3000      8.4998     48.1177     49.7292     32.4319      1.8561      0.1360
  1542.4000      8.4998     38.1908     51.9678     32.4092      2.0199      0.1770
  1542.5000      8.5716     29.6986     56.4377     31.4398      2.1600      0.1713
  1542.6000      8.5716     21.0374     63.5527     29.9642      2.3029      0.1869
  1542.7000      8.5716     12.2872     68.2005     28.8200      2.4473      0.2774
  1542.8000      8.3948      6.3095     73.2282     28.1250      2.5459      0.2642
  1542.9000      8.3948      4.4212     84.0632     27.5874      2.5770      0.0895
  1543.0000      8.2814      4.4863     95.7772     26.2216      2.5760      0.0706
  1543.1000      8.2814      4.0713    102.6731     23.6140      2.5828      0.0573
  1543.2000      8.2814      3.0289    105.4360     21.5095      2.6000      0.0995
  1543.3000      8.0147      2.7339    105.1140     21.2854      2.6049      0.1104
  1543.4000      8.0147      3.0853    104.0037     21.9791      2.5991      0.0122
  1543.5000      7.9549      3.0501    105.8037     22.2607      2.5997      0.0748
  1543.6000      7.9549      3.5159    109.2204     21.8413      2.5920      0.0803
  1543.7000      7.9549      4.8813    113.7915     21.5345      2.5695      0.0061
  1543.8000      7.9631      4.9875    123.2671     21.7774      2.5677      0.0190
  1543.9000      7.9631      3.0136    130.9430     21.4115      2.6003      0.0715
  1544.0000      7.9675      1.2568    126.0075     20.0948      2.6293      0.1130
  1544.1000      7.9675      1.4960    115.4281     19.0164      2.6253      0.0507
  1544.2000      7.9675      3.1134    113.6528     18.9537      2.5986      0.0604
  1544.3000      7.9844      5.1716    121.7244     19.7764      2.5647      0.0587
  1544.4000      7.9844      7.1157    132.3816     20.6926      2.5326      0.0329
  1544.5000      8.0079      8.4148    141.4711     21.0370      2.5112      0.0331
  1544.6000      8.0079      8.8166    145.2092     20.9426      2.5045      0.0177
  1544.7000      8.0079      8.3642    141.3393     20.7915      2.5120      0.0208
  1544.8000      7.9912      7.6406    134.1698     20.8719      2.5239      0.0456
  1544.9000      7.9912      7.2047    128.8837     21.5281      2.5311      0.0377
  1545.0000      7.9650      6.7219    129.9909     22.3355      2.5391      0.0510
  1545.1000      7.9650      5.8839    139.1699     22.2900      2.5529      0.0253
  1545.2000      7.9650      5.0410    147.2679     21.5432      2.5668      0.0436
  1545.3000      7.9537      4.9354    145.9355     21.0519      2.5686      0.0832
  1545.4000      7.9537      5.5524    139.4021     21.2864      2.5584      0.0406
  1545.5000      7.9411      5.9161    134.9523     21.8297      2.5524      0.0609
