~Version Information
VERS.                      2.0: CWLS Log ASCII Standard - VERSION 2.0
WRAP.                       NO: One line per depth step
~Well Information Block
STRT.FT                 0.0000: 
STOP.FT              1193.0000: 
STEP.FT                 0.1000: 
NULL.                -999.2500: 
COMP.          Pioneer Natural Resources: COMPANY
WELL.          Big Pine 32-15 Tr: WELL
FLD.           Purgatorie River: FIELD
LOC.           2546' FNL & 1451' FEL: LOCATION
STAT.                 Colorado: State
CNTY.               Las Animas: COUNTY
CTRY. USA : Country
SECT. 15 : Section
TOWN. 33S : Township
RANG. 67W : Range
SRVC.                Patterson: SERVICE COMPANY
DATE.          Tue Nov 08 07:11:35 2005: LOG DATE
API. 05-071-08604                         : UNIQUE WELL ID
~Curve Information Block
DEPT.FT            0 000 00 00: Depth
DCAL.in                       : CDL Caliper
RHOB.g/cc                     : CDL Bulk Density
RHOC.g/cc                     : CDL Density Correction
DPOR.pu                       : CDL Density Porosity
GR.GAPI                       : Gamma Ray
NPOR.pu                       : Neutron Porosity
~Parameter Information Block
~A  Depth       DCAL        RHOB        RHOC        DPOR         GR         NPOR    
# ...
   777.6000      8.7458      1.6821      0.3847     58.6607     55.1113      9.6615
   777.7000      8.7458      1.6856      0.3911     58.4503     58.6888      9.2931
   777.8000      8.7525      1.7200      0.4224     56.3619     64.0137      9.3333
   777.9000      8.7525      1.7947      0.4513     51.8348     69.7846      9.9327
   778.0000      8.8707      1.8901      0.4535     46.0549     77.4043     11.2773
   778.1000      8.8707      1.9868      0.4458     40.1965     86.2397     13.2467
   778.2000      8.8707      2.0746      0.4241     34.8731     94.2643     15.4874
   778.3000      9.0632      2.1601      0.3463     29.6898    101.8230     18.0379
   778.4000      9.0632      2.2505      0.2871     24.2151    110.1445     20.8570
   778.5000      8.7743      2.3308      0.2402     19.3462    117.7374     23.3853
   778.6000      8.7743      2.3887      0.1250     15.8345    124.0518     25.5366
   778.7000      8.7743      2.4298      0.0740     13.3480    132.0773     27.5638
   778.8000      8.1585      2.4562      0.0721     11.7460    142.3344     29.3056
   778.9000      8.1585      2.4729      0.0017     10.7303    149.8814     30.6965
   779.0000      7.9288      2.4899      0.0396      9.7032    152.2185     31.9373
   779.1000      7.9288      2.4995      0.1065      9.1213    151.2303     32.8812
   779.2000      7.9288      2.4965     -0.0137      9.3030    148.7481     33.2642
   779.3000      7.8845      2.4965     -0.0104      9.3046    147.2135     33.0932
   779.4000      7.8845      2.5027     -0.0065      8.9270    147.7256     32.5997
   779.5000      7.8961      2.5016      0.0411      8.9965    146.6207     32.0645
   779.6000      7.8961      2.4904     -0.0203      9.6748    141.2637     31.6569
   779.7000      7.8961      2.4823      0.0099     10.1654    134.8132     31.3138
   779.8000      7.9273      2.4942     -0.0243      9.4428    131.0473     30.8587
   779.9000      7.9273      2.5405      0.0151      6.6359    129.3033     30.4379
   780.0000      7.9028      2.6222      0.0463      1.6821    128.0404     30.4349
   780.1000      7.9028      2.7241      0.1459     -4.4884    128.6408     30.9038
   780.2000      7.9028      2.8198      0.2116    -10.2911    129.8423     31.5561
   780.3000      7.8692      2.8890      0.2142    -14.4848    127.8110     32.3168
   780.4000      7.8692      2.9285      0.1988    -16.8792    124.1932     33.2363
   780.5000      7.8467      2.9414      0.1812    -17.6577    122.3281     34.1735
   780.6000      7.8467      2.9262      0.1635    -16.7420    121.2253     34.9490
   780.7000      7.8467      2.8819      0.0594    -14.0560    119.3019     35.2676
   780.8000      7.8345      2.8268     -0.0454    -10.7136    115.7818     34.8778
   780.9000      7.8345      2.7887     -0.1128     -8.4074    111.6498     34.1508
   781.0000      7.8391      2.7627     -0.0662     -6.8304    110.4192     33.6374
   781.1000      7.8391      2.7228     -0.0486     -4.4126    113.5897     33.2126
   781.2000      7.8391      2.6754     -0.0602     -1.5399    118.8517     32.3775
   781.3000      7.8557      2.6490     -0.0514      0.0599    124.4990     31.0972
   781.4000      7.8557      2.6411      0.0686      0.5407    130.0654     29.8839
   781.5000      7.9337      2.6220      0.0761      1.6964    134.0593     29.0863
   781.6000      7.9337      2.5826      0.0644      4.0874    136.7322     28.6829
   781.7000      7.9337      2.5337      0.0622      7.0486    139.6938     28.4644
   781.8000      7.9365      2.4792      0.0501     10.3508    142.7531     28.1401
   781.9000      7.9365      2.4239     -0.0122     13.7022    144.1052     27.6277
   782.0000      7.9366      2.3826     -0.0190     16.2077    144.6367     27.1302
   782.1000      7.9366      2.3657     -0.0293     17.2312    147.4169     26.7382
   782.2000      7.9366      2.3723      0.0260     16.8285    153.5877     26.2145
   782.3000      7.9412      2.3926      0.0260     15.5992    160.0684     25.3925
   782.4000      7.9412      2.4123      0.1083     14.4073    163.1475     24.5489
   782.5000      7.9855      2.4178      0.0870     14.0727    162.8673     23.9629
   782.6000      7.9855      2.4114      0.0917     14.4624    160.9898     23.6182
   782.7000      7.9855      2.4073      0.1074     14.7106    158.1631     23.4633
   782.8000      8.0066      2.4181      0.0872     14.0525    154.7182     23.4105
   782.9000      8.0066      2.4437      0.1213     12.5031    150.9828     23.3127
   783.0000      8.0140      2.4673      0.1312     11.0707    147.5878     23.2239
   783.1000      8.0140      2.4795      0.1169     10.3349    146.1582     23.3000
   783.2000      8.0140      2.4861      0.1129      9.9349    145.5557     23.5879
   783.3000      8.0154      2.4893      0.1249      9.7387    143.3189     23.9401
   783.4000      8.0154      2.4906      0.0502      9.6599    140.0290     24.0571
   783.5000      8.0111      2.4924      0.1331      9.5518    137.8861     23.8072
   783.6000      8.0111      2.4816      0.1156     10.2045    137.3935     23.4437
   783.7000      8.0111      2.4548      0.0905     11.8294    137.2280     23.1621
   783.8000      8.0169      2.4335      0.0673     13.1199    137.6804     22.9409
   783.9000      8.0169      2.4370      0.0713     12.9090    140.0188     22.8314
   784.0000      8.0157      2.4554      0.1383     11.7935    142.1004     22.8454
   784.1000      8.0157      2.4663      0.0755     11.1351    142.2155     22.9797
   784.2000      8.0157      2.4715      0.0532     10.8167    142.2951     23.4141
   784.3000      8.0090      2.4834      0.0817     10.0940    143.1084     24.0011
   784.4000      8.0090      2.4987      0.1272      9.1669    144.0929     24.2695
   784.5000      7.9864      2.5107      0.0791      8.4437    144.5712     24.3683
   784.6000      7.9864      2.5166      0.1307      8.0864    144.1483     24.6341
   784.7000      7.9864      2.5111      0.0856      8.4187    142.7210     24.9094
   784.8000      7.8869      2.4967      0.0476      9.2886    141.3985     25.0329
   784.9000      7.8869      2.4819      0.0452     10.1895    142.6977     25.0107
   785.0000      7.8348      2.4702      0.0226     10.8956    145.6616     25.0067
   785.1000      7.8348      2.4691     -0.0567     10.9662    147.3569     25.1818
   785.2000      7.8348      2.4800      0.0197     10.3044    146.7939     25.4654
   785.3000      7.8214      2.4844      0.0132     10.0370    145.4753     25.8599
   785.4000      7.8214      2.4758     -0.0025     10.5563    145.4274     26.3134
   785.5000      7.8244      2.4730      0.0122     10.7277    146.0977     26.4225
   785.6000      7.8244      2.4811      0.0646     10.2386    146.1774     26.2296
   785.7000      7.8244      2.4842      0.0253     10.0468    146.2685     26.0966
   785.8000      7.8637      2.4655      0.0518     11.1799    147.7666     25.9550
   785.9000      7.8637      2.4050      0.0484     14.8478    150.3848     25.5780
   786.0000      7.8664      2.3068     -0.0302     20.7998    150.7092     24.8437
   786.1000      7.8664      2.2083     -0.0948     26.7683    145.3465     23.8280
   786.2000      7.8664      2.1246     -0.0221     31.8434    138.6656     22.8364
   786.3000      7.8673      2.0492     -0.0751     36.4102    136.8417     22.0527
   786.4000      7.8673      1.9927     -0.0530     39.8339    137.2716     21.3104
   786.5000      7.8876      1.9533      0.0209     42.2227    136.0447     20.4187
   786.6000      7.8876      1.9162      0.0121     44.4733    134.9288     19.4296
   786.7000      7.8876      1.8878      0.0258     46.1956    134.1171     18.5398
   786.8000      7.9765      1.8534      0.2397     48.2801    130.0580     17.9269
   786.9000      7.9765      1.7686      0.2112     53.4206    123.0606     17.4146
   787.0000      8.0361      1.6440      0.1017     60.9671    117.0773     16.6982
   787.1000      8.0361      1.5451      0.0341     66.9611    114.2145     15.9548
