~Version Information
VERS.                      2.0: CWLS Log ASCII Standard - VERSION 2.0
WRAP.                       NO: One line per depth step
~Well Information Block
STRT.FT                -7.5000: 
STOP.FT              1336.0000: 
STEP.FT                 0.2500: 
NULL.                -999.2500: 
COMP.          Pioneer Natural Resources: COMPANY
WELL.               LPGC 32-32: WELL
FLD.           Purgatorie River: FIELD
LOC.           1937' FNL & 1661' FEL--: LOCATION
CNTY.               Las Animas: COUNTY
SRVC.          Patterson Wireline: SERVICE COMPANY
DATE.          Fri Feb 03 09:39:42 2006: LOG DATE
UWI.           05 071 08641 00: UNIQUE WELL ID
STAT.                       CO: STATE
~Curve Information Block
DEPT.FT            0 000 00 00: Depth
CCL.                          : Casing Collar Locator
TT3.usec                      : CBL 3' Travel Time
AMP3.mV                       : CBL 3' Amplitude
GR.GAPI                       : Gamma Ray
~Parameter Information Block
~A  Depth       CCL         TT3         AMP3         GR     
# ...
   763.0000      0.0000    819.6218      8.4832    117.7075
   763.2500     -2.0000    816.6847      8.3257    111.3163
   763.5000      1.6876    799.0872      8.2614    103.6207
   763.7500      0.0000    765.2954      8.3298     96.5306
   764.0000      0.0000    714.6770      8.6200     90.6224
   764.2500      0.0000    650.8421      9.1752     85.2686
   764.5000      0.0000    587.1649      9.8801     79.7711
   764.7500      0.0000    543.5268     10.4903     74.1911
   765.0000      0.0000    532.8876     10.8369     69.2986
   765.2500      0.0000    552.8324     10.9659     66.0804
   765.5000      0.0000    590.8206     11.0383     65.2864
   765.7500      0.0000    633.4869     11.1565     67.2315
   766.0000      0.0000    670.5961     11.3305     71.8465
   766.2500      0.0000    695.9980     11.5467     78.7705
   766.5000      0.0000    708.4459     11.8101     87.4205
   766.7500      0.0000    710.6437     12.1311     97.2171
   767.0000      0.0000    706.7252     12.4998    107.6970
   767.2500      0.0000    700.4813     12.8757    118.0677
   767.5000      0.0000    694.6833     13.2006    126.8539
   767.7500      0.0000    690.7218     13.4322    132.6677
   768.0000      0.0000    688.6473     13.5657    135.3475
   768.2500      0.0000    687.9410     13.6238    135.7394
   768.5000      0.0000    688.3704     13.6266    134.5422
   768.7500      0.0000    690.3267     13.5758    131.9717
   769.0000      0.0000    694.3955     13.4660    128.2580
   769.2500      0.0000    700.5204     13.3033    123.7305
   769.5000      0.0000    707.5465     13.1068    118.4343
   769.7500      0.0000    713.7657     12.8951    112.2402
   770.0000      0.0000    718.0323     12.6771    105.5700
   770.2500      0.0000    720.3132     12.4584     99.7396
   770.5000      0.0000    721.2939     12.2515     96.0810
   770.7500      0.0000    721.6910     12.0765     94.6590
   771.0000      0.0000    721.9056     11.9488     94.2340
   771.2500      0.0000    722.0489     11.8649     93.5185
   771.5000      0.0000    722.0986     11.8019     91.9379
   771.7500      0.0000    722.0292     11.7320     89.2087
   772.0000      0.0000    721.8695     11.6425     85.0916
   772.2500      0.0000    721.6934     11.5403     80.0121
   772.5000      0.0000    721.5775     11.4389     75.2726
   772.7500      0.0000    721.5624     11.3418     72.0840
   773.0000      0.0000    721.6418     11.2401     70.5469
   773.2500      0.0000    721.7825     11.1275     69.6812
   773.5000      0.0000    721.9557     11.0166     68.4496
   773.7500      0.0000    722.1528     10.9384     66.9418
   774.0000      0.0000    722.3764     10.9198     66.5286
   774.2500      0.0000    722.6159     10.9592     68.8056
   774.5000      0.0000    722.8306     11.0237     74.6164
   774.7500      0.0000    722.9565     11.0723     84.0233
   775.0000      0.0000    722.9383     11.0817     96.3645
   775.2500      0.0000    722.7634     11.0559    109.9204
   775.5000      0.0000    722.4796     11.0164    122.1668
   775.7500      0.0000    722.1797     10.9874    130.9398
   776.0000      0.0000    721.9583     10.9832    135.2873
   776.2500      0.0000    721.8654     11.0054    135.4428
   776.5000      0.0000    721.8923     11.0484    132.6087
   776.7500      0.0000    721.9922     11.1042    128.6860
   777.0000      0.0000    722.1059     11.1637    125.4567
   777.2500      0.0000    722.1886     11.2192    123.6184
   777.5000      0.0000    722.2332     11.2672    122.6243
   777.7500      0.0000    722.2589     11.3035    121.3207
   778.0000      0.0000    722.2254     11.3178    118.7920
   778.2500      0.0000    721.9143     11.3001    115.1221
   778.5000      0.0000    720.6531     11.2552    111.5022
   778.7500      0.0000    716.9479     11.2079    109.1904
   779.0000      0.0000    708.4257     11.1889    108.1923
   779.2500      0.0000    693.0925     11.2119    107.1375
   779.5000      0.0000    672.1939     11.2611    104.3612
   779.7500      0.0000    652.1854     11.3022     99.1096
   780.0000      0.0000    641.7725     11.3109     92.0447
   780.2500      0.0000    644.8598     11.2913     84.8559
   780.5000      0.0000    656.8439     11.2697     79.4361
   780.7500      0.0000    668.7015     11.2763     77.2912
   781.0000      0.0000    673.4342     11.3359     79.1128
   781.2500      0.0000    668.6755     11.4635     84.3543
   781.5000      0.0000    656.7192     11.6552     91.3938
   781.7500      0.0000    644.4699     11.8795     98.4331
   782.0000      0.0000    640.6636     12.0901    104.1463
   782.2500      0.0000    649.2664     12.2547    107.7572
   782.5000      0.0000    665.6394     12.3743    109.2066
   782.7500      0.0000    680.9532     12.4754    109.2207
   783.0000      0.0000    689.7513     12.5822    108.6696
   783.2500      0.0000    692.5082     12.6989    107.9435
   783.5000      0.0000    692.6376     12.8140    107.1785
   783.7500      0.0000    692.9442     12.9159    106.6488
   784.0000      0.0000    694.3157     12.9977    106.4677
   784.2500      0.0000    696.0496     13.0505    106.1058
   784.5000      0.0000    696.8300     13.0625    104.6281
   784.7500      0.0000    695.9803     13.0279    101.7220
   785.0000      0.0000    694.1179     12.9554     98.5369
   785.2500      0.0000    692.6932     12.8638     96.9523
   785.5000      0.0000    692.9580     12.7712     97.5979
   785.7500      0.0000    695.3562     12.6867     99.0510
   786.0000      0.0000    699.5555     12.6113     99.3098
   786.2500      0.0000    704.8384     12.5438     97.6345
   786.5000      0.0000    710.4563     12.4856     94.9389
   786.7500      0.0000    715.4102     12.4391     93.0668
   787.0000      0.0000    717.6255     12.4088     93.7936
   787.2500      0.0000    713.0628     12.4042     97.8268
   787.5000      0.0000    695.8719     12.4419    104.4193
   787.7500      0.0000    661.1517     12.5378    112.1646
   788.0000      0.0000    610.1143     12.6943    120.1761
   788.2500      0.0000    553.0886     12.8928    128.1988
   788.5000      0.0000    505.6074     13.0982    135.5740
   788.7500      0.0000    480.5209     13.2736    140.7590
   789.0000      0.0000    483.5922     13.3966    142.4778
   789.2500      0.0000    513.7380     13.4683    141.2293
   789.5000      0.0000    563.4800     13.5073    139.2818
   789.7500      0.0000    619.6304     13.5351    139.1307
   790.0000      0.0000    668.0328     13.5617    141.9419
   790.2500      0.0000    700.5381     13.5812    147.0428
   790.5000      0.0000    717.5441     13.5794    152.3804
   790.7500      0.0000    724.3650     13.5464    155.4637
   791.0000      0.0000    726.2702     13.4841    154.6157
   791.2500      0.0000    726.0361     13.4046    150.0649
   791.5000      0.0000    723.6485     13.3237    143.8592
   791.7500      0.0000    716.2894     13.2543    138.2802
   792.0000      0.0000    698.5316     13.2004    134.1265
   792.2500      0.0000    664.5742     13.1560    130.4764
   792.5000      0.0000    613.1457     13.1124    125.9898
   792.7500      0.0000    551.6066     13.0724    120.3620
   793.0000      0.0000    494.3583     13.0537    114.6477
   793.2500      0.0000    456.4567     13.0747    110.4014
   793.5000      0.0000    447.9190     13.1365    108.5904
   793.7500      0.0000    470.4577     13.2210    109.0603
   794.0000      0.0000    514.2216     13.3070    110.5756
   794.2500      0.0000    557.2088     13.3854    111.2995
   794.5000      0.0000    574.2654     13.4605    109.6853
   794.7500      0.0000    553.1363     13.5428    105.4349
   795.0000      0.0000    502.8943     13.6418     99.9057
   795.2500      0.0000    445.6093     13.7590     95.6191
   795.5000      0.0000    400.4057     13.8873     95.0558
   795.7500      0.0000    375.2077     14.0186     99.3418
   796.0000      0.0000    369.7642     14.1458    107.6063
   796.2500      0.0000    381.2575     14.2507    117.4425
