~Version Information
VERS.                      2.0: CWLS Log ASCII Standard - VERSION 2.0
WRAP.                       NO: One line per depth step
~Well Information Block
STRT.FT                -6.5000: 
STOP.FT              1564.2500: 
STEP.FT                 0.2500: 
NULL.                -999.2500: 
COMP.          Pioneer Natural Resources: COMPANY
WELL.            Bluesky 44-17: WELL
FLD.           Purgatorie River: FIELD
LOC.           --39' FSL & 288' FEL------: LOCATION
STAT.                       CO: State
CNTY.               Las Animas: COUNTY
CTRY. USA : Country
SECT. 17 : Section
TOWN. 33S : Township
RANG. 66W : Range
SRVC.          Patterson Wireline: SERVICE COMPANY
DATE.          Tue Sep 13 13:24:14 2005: LOG DATE
API.           05 071 08511 00: UNIQUE WELL ID
~Curve Information Block
DEPT.FT            0 000 00 00: Depth
CCL.                          : Casing Collar Locator
TT3.usec                      : CBL 3' Travel Time
AMP3.mV                       : CBL 3' Amplitude
GR.GAPI                       : Gamma Ray
~Parameter Information Block
~A  Depth       CCL         TT3         AMP3         GR     
# ...
    94.0000      0.0000    902.0370     13.8351     54.9849
    94.2500      0.0000    901.2159     14.0457     54.4899
    94.5000      0.0000    898.1144     14.2837     54.2091
    94.7500      0.0000    888.9269     14.5018     54.3593
    95.0000      0.0000    868.2067     14.6158     54.4591
    95.2500      0.0000    833.6915     14.5172     53.8237
    95.5000      0.0000    792.9405     14.1256     51.9382
    95.7500      0.0000    762.4615     13.4624     48.6555
    96.0000      0.0000    755.5106     12.6812     44.5138
    96.2500      0.0000    770.7258     12.0057     40.7968
    96.5000      0.0000    794.5522     11.6121     38.7243
    96.7500      0.0000    813.0140     11.5427     38.4079
    97.0000      0.0000    820.1000     11.7100     38.9205
    97.2500      2.0000    817.3077     11.9799     39.3956
    97.5000     -2.0000    807.2147     12.2542     39.7232
    97.7500      0.0000    788.8871     12.5003     40.2993
    98.0000      0.0000    761.7874     12.7463     41.4315
    98.2500      0.0000    732.1333     13.0639     42.9104
    98.5000      0.0000    708.4971     13.5277     44.0429
    98.7500      0.0000    690.1621     14.1761     44.2881
    99.0000      0.0000    667.7355     15.0043     43.8158
    99.2500      0.0000    638.2381     15.9528     43.2808
    99.5000      0.0000    612.5795     16.8765     43.2157
    99.7500      0.0000    604.2038     17.5880     43.7893
   100.0000      0.0000    615.5746     17.9840     44.9649
   100.2500      0.0000    639.0461     18.1096     46.6387
   100.5000      0.0000    666.1221     18.0895     48.6011
   100.7500      0.0000    692.4669     18.0325     50.5322
   101.0000      0.0000    716.9633     17.9979     52.2222
   101.2500      0.0000    739.2680     18.0114     53.6976
   101.5000      0.0000    758.8171     18.0799     54.9697
   101.7500      0.0000    775.6053     18.1904     55.8329
   102.0000      0.0000    790.7724     18.3044     56.0914
   102.2500      0.0000    805.0950     18.3716     55.8456
   102.5000      0.0000    817.1831     18.3633     55.3342
   102.7500      0.0000    824.7603     18.2913     54.4246
   103.0000      0.0000    828.3651     18.1898     52.3902
   103.2500      0.0000    832.7690     18.0839     48.5881
   103.5000      0.0000    844.0323     17.9807     43.5963
   103.7500      0.0000    865.8575     17.8840     39.3184
   104.0000      0.0000    898.3911     17.8044     37.5866
   104.2500      0.0000    936.8327     17.7517     38.7885
   104.5000      0.0000    968.8157     17.7234     41.8586
   104.7500      0.0000    977.5972     17.7002     45.1445
   105.0000      0.0000    954.4348     17.6500     47.2808
   105.2500      0.0000    908.6970     17.5437     47.8559
   105.5000      0.0000    863.3012     17.3785     47.5859
   105.7500      0.0000    840.0898     17.1866     47.6553
   106.0000      0.0000    849.4636     17.0188     48.6864
   106.2500      0.0000    889.3684     16.9144     50.2400
   106.5000      0.0000    948.9168     16.8822     51.2084
   106.7500      0.0000   1013.2076     16.9026     50.7311
   107.0000      0.0000   1068.8730     16.9442     48.9249
   107.2500      0.0000   1108.5162     16.9850     46.8476
   107.5000      0.0000   1131.7817     17.0193     45.7157
   107.7500      0.0000   1142.9216     17.0482     45.9842
   108.0000      0.0000   1147.1298     17.0695     47.0581
   108.2500      0.0000   1147.8732     17.0828     47.8604
   108.5000      0.0000   1145.7847     17.1000     47.7331
   108.7500      0.0000   1138.1586     17.1432     46.7803
   109.0000      0.0000   1118.9519     17.2268     45.3964
   109.2500      0.0000   1081.1329     17.3438     43.7184
   109.5000      0.0000   1022.1456     17.4698     41.6813
   109.7500      0.0000    948.0590     17.5807     39.3953
   110.0000      0.0000    870.1350     17.6670     37.2243
   110.2500      0.0000    795.9494     17.7322     35.5083
   110.5000      0.0000    726.4985     17.7812     34.3598
   110.7500      0.0000    663.7947     17.8143     33.8268
   111.0000      0.0000    616.0585     17.8339     34.1548
   111.2500      0.0000    588.4164     17.8540     35.5621
   111.5000      0.0000    570.9066     17.8990     37.6695
   111.7500      0.0000    544.8927     17.9900     39.5558
   112.0000      0.0000    502.7996     18.1290     40.6465
   112.2500      0.0000    455.0019     18.2939     41.2002
   112.5000      0.0000    416.7729     18.4483     41.7596
   112.7500      0.0000    394.4409     18.5604     42.5299
   113.0000      0.0000    384.7285     18.6200     43.5511
   113.2500      0.0000    381.6938     18.6401     45.0480
   113.5000      0.0000    381.6901     18.6413     47.1526
   113.7500      0.0000    384.6785     18.6318     49.4358
   114.0000      0.0000    394.4824     18.6026     51.1259
   114.2500      0.0000    418.4113     18.5425     51.8313
   114.5000      0.0000    463.8122     18.4510     51.8404
   114.7500      0.0000    531.0739     18.3330     51.6700
   115.0000      0.0000    609.0121     18.1856     51.4832
   115.2500      0.0000    679.7440     17.9985     51.1119
   115.5000      0.0000    730.0985     17.7704     50.7341
   115.7500      0.0000    758.2985     17.5163     51.2783
   116.0000      0.0000    770.8414     17.2589     53.5852
   116.2500      0.0000    775.4795     17.0164     57.0943
   116.5000      0.0000    777.3207     16.7985     60.0805
   116.7500      0.0000    778.9422     16.6129     61.6255
   117.0000      0.0000    781.9872     16.4681     62.8603
   117.2500      0.0000    788.1263     16.3719     65.8409
   117.5000      0.0000    798.7089     16.3292     71.6297
   117.7500      0.0000    813.7475     16.3435     79.6990
   118.0000      0.0000    831.7380     16.4134     88.5196
   118.2500      0.0000    850.4899     16.5211     96.2082
   118.5000      0.0000    867.7730     16.6271    101.1668
   118.7500      0.0000    881.9116     16.6861    102.9845
   119.0000      0.0000    893.6203     16.6755    102.7495
   119.2500      0.0000    907.3918     16.6108    102.0212
   119.5000      0.0000    928.1478     16.5320    101.4465
   119.7500      0.0000    953.7344     16.4719    100.4966
   120.0000      0.0000    972.2764     16.4349     98.3363
   120.2500      0.0000    971.2885     16.4051     94.6344
   120.5000      0.0000    950.2246     16.3705     89.7164
   120.7500      0.0000    921.0867     16.3320     84.3621
   121.0000      0.0000    896.9114     16.2931     79.4523
   121.2500      0.0000    882.1891     16.2494     75.6002
   121.5000      0.0000    873.3179     16.1918     73.0125
   121.7500      0.0000    865.1613     16.1171     71.4330
   122.0000      0.0000    857.2411     16.0364     70.2503
   122.2500      0.0000    854.6752     15.9706     69.1706
   122.5000      0.0000    862.8104     15.9337     68.7940
   122.7500      0.0000    882.2850     15.9221     69.9362
   123.0000      0.0000    910.8820     15.9232     72.2330
   123.2500      0.0000    947.4028     15.9300     73.8525
   123.5000      0.0000    989.8329     15.9372     72.8353
   123.7500      0.0000   1030.7469     15.9309     68.7022
   124.0000      0.0000   1057.8748     15.8923     62.7441
   124.2500      0.0000   1060.0884     15.8115     56.9073
   124.5000      0.0000   1033.4171     15.6925     52.6058
   124.7500      0.0000    984.3557     15.5484     50.4158
   125.0000      0.0000    928.7278     15.3940     50.1774
   125.2500      0.0000    883.7117     15.2398     51.0228
   125.5000      0.0000    857.5157     15.0883     51.8092
   125.7500      0.0000    846.4511     14.9375     51.9261
   126.0000      0.0000    841.5339     14.7899     51.5269
   126.2500      0.0000    836.5782     14.6595     51.0930
   126.5000      0.0000    830.7153     14.5695     51.1613
   126.7500      0.0000    825.7787     14.5439     52.3480
   127.0000      0.0000    823.3566     14.5958     54.9991
   127.2500      0.0000    824.6780     14.7209     58.4396
