~Version Information
VERS.                      2.0: CWLS Log ASCII Standard - VERSION 2.0
WRAP.                       NO: One line per depth step
~Well Information Block
STRT.FT               742.7000: 
STOP.FT              1614.5000: 
STEP.FT                 0.1000: 
NULL.                -999.2500: 
COMP.          Pioneer Natural Resources: COMPANY
WELL.           Kermit 32-7 Tr: WELL
FLD.           Purgatoire River: FIELD
LOC.           2009' FNL & 2196' FEL: LOCATION
PROV.                 Colorado: PROVINCE
CNTY.               Las Animas: COUNTRY
SRVC.                Patterson: SERVICE COMPANY
DATE.          Mon Jan 16 13:19:56 2006: LOG DATE
UWI.           05 071 08664 00: UNIQUE WELL ID
~Curve Information Block
DEPT.FT            0 000 00 00: Depth
DCAL.in                       : CDL Caliper
RHOB.g/cc                     : CDL Bulk Density
RHOC.g/cc                     : CDL Density Correction
DPOR.pu                       : CDL Density Porosity
GR.GAPI                       : Gamma Ray
~Parameter Information Block
~A  Depth       DCAL        RHOB        RHOC        DPOR         GR     
# ...
  1269.1000      7.9231      2.5174      0.0130      8.0370     56.9026
  1269.2000      7.9231      2.5018      0.0205      8.9816     61.5605
  1269.3000      7.8989      2.5100      0.0226      8.4827     67.8525
  1269.4000      7.8989      2.5405      0.0439      6.6348     69.4717
  1269.5000      7.8922      2.5824      0.0548      4.0968     67.2418
  1269.6000      7.8922      2.6233      0.0913      1.6212     64.3800
  1269.7000      7.8922      2.6521      0.1301     -0.1286     61.0243
  1269.8000      7.8631      2.6590      0.1427     -0.5450     58.0006
  1269.9000      7.8631      2.6482      0.0440      0.1096     56.2112
  1270.0000      7.8750      2.6383      0.1028      0.7094     53.5663
  1270.1000      7.8750      2.6375      0.0537      0.7554     50.8066
  1270.2000      7.8750      2.6346      0.1331      0.9307     52.1449
  1270.3000      7.8818      2.6172      0.0363      1.9901     57.0190
  1270.4000      7.8818      2.5938      0.0157      3.4031     60.9734
  1270.5000      7.9052      2.5780      0.0390      4.3653     61.9853
  1270.6000      7.9052      2.5707      0.0430      4.8079     59.8528
  1270.7000      7.9052      2.5660      0.0064      5.0895     57.2418
  1270.8000      7.9191      2.5622      0.0050      5.3201     58.5201
  1270.9000      7.9191      2.5616     -0.0091      5.3549     62.5804
  1271.0000      7.9261      2.5574      0.0665      5.6135     64.6213
  1271.1000      7.9261      2.5412     -0.0184      6.5954     64.3168
  1271.2000      7.9261      2.5245     -0.0055      7.6057     64.0696
  1271.3000      7.9512      2.5286     -0.0070      7.3576     63.1891
  1271.4000      7.9512      2.5629      0.0189      5.2758     60.3582
  1271.5000      7.9584      2.6117      0.0764      2.3203     57.9505
  1271.6000      7.9584      2.6438      0.0972      0.3743     59.7597
  1271.7000      7.9584      2.6474      0.0637      0.1550     64.8472
  1271.8000      7.9791      2.6333      0.0859      1.0092     67.7059
  1271.9000      7.9791      2.6124      0.0663      2.2810     67.0043
  1272.0000      7.9458      2.6020      0.0311      2.9093     67.5490
  1272.1000      7.9458      2.6137      0.0501      2.2021     70.2470
  1272.2000      7.9458      2.6243      0.0971      1.5580     74.7458
  1272.3000      7.9170      2.6109      0.0608      2.3690     83.9143
  1272.4000      7.9170      2.5799      0.0944      4.2462     95.5419
  1272.5000      7.8864      2.5420      0.0400      6.5471    102.9554
  1272.6000      7.8864      2.5071      0.0490      8.6588    102.7258
  1272.7000      7.8864      2.4821      0.0487     10.1739     99.0957
  1272.8000      7.9065      2.4611      0.0634     11.4491     97.9486
  1272.9000      7.9065      2.4421     -0.0174     12.5994    100.4738
  1273.0000      7.9008      2.4336      0.0455     13.1139    108.7680
  1273.1000      7.9008      2.4308      0.0214     13.2842    120.0459
  1273.2000      7.9008      2.4223      0.0273     13.8022    126.9844
  1273.3000      7.9296      2.4041      0.0606     14.9003    128.3679
  1273.4000      7.9296      2.3869      0.0097     15.9426    124.5819
  1273.5000      7.9711      2.3937      0.0847     15.5323    116.4811
  1273.6000      7.9711      2.4257      0.1214     13.5933    111.6774
  1273.7000      7.9711      2.4643      0.1014     11.2520    116.6703
  1273.8000      8.0392      2.4956      0.1992      9.3603    128.1416
  1273.9000      8.0392      2.5133      0.1198      8.2851    139.4497
  1274.0000      8.0476      2.5234      0.1305      7.6720    145.0994
  1274.1000      8.0476      2.5281      0.1244      7.3874    143.5309
  1274.2000      8.0476      2.5233      0.1258      7.6788    139.9466
  1274.3000      8.0690      2.5109      0.1475      8.4292    138.5797
  1274.4000      8.0690      2.4936      0.1484      9.4799    138.8754
  1274.5000      8.0397      2.4729      0.0979     10.7349    139.7879
  1274.6000      8.0397      2.4547      0.0748     11.8368    145.1245
  1274.7000      8.0397      2.4458      0.0734     12.3773    155.2209
  1274.8000      8.0458      2.4508      0.0402     12.0752    158.8426
  1274.9000      8.0458      2.4696      0.1127     10.9331    151.3661
  1275.0000      8.0860      2.4925      0.1025      9.5441    146.0631
  1275.1000      8.0860      2.5064      0.1158      8.7027    150.9286
  1275.2000      8.0860      2.5064      0.1382      8.7000    156.3071
  1275.3000      8.0675      2.5055      0.1354      8.7596    153.6272
  1275.4000      8.0675      2.5182      0.1229      7.9893    147.6406
  1275.5000      8.0760      2.5429      0.1613      6.4892    147.5081
  1275.6000      8.0760      2.5683      0.1548      4.9512    155.1408
  1275.7000      8.0760      2.5846      0.1571      3.9659    162.6858
  1275.8000      8.1131      2.5887      0.1508      3.7172    160.7360
  1275.9000      8.1131      2.5828      0.1048      4.0752    148.9144
  1276.0000      8.1219      2.5754      0.1114      4.5182    136.8265
  1276.1000      8.1219      2.5764      0.1396      4.4625    133.8230
  1276.2000      8.1219      2.5879      0.0852      3.7608    140.1809
  1276.3000      8.1115      2.6053      0.1178      2.7067    149.5217
  1276.4000      8.1115      2.6168      0.1443      2.0131    154.0044
  1276.5000      8.1104      2.6186      0.0718      1.9017    152.9247
  1276.6000      8.1104      2.6149      0.1057      2.1244    153.0278
  1276.7000      8.1104      2.6070      0.0738      2.6039    156.5121
  1276.8000      8.0273      2.6031      0.0771      2.8421    157.6588
  1276.9000      8.0273      2.6075      0.0586      2.5739    153.7759
  1277.0000      8.0399      2.6119      0.0342      2.3091    148.7942
  1277.1000      8.0399      2.6074      0.0453      2.5803    147.3430
  1277.2000      8.0399      2.5990     -0.0223      3.0888    145.6563
  1277.3000      8.0773      2.6012      0.0320      2.9597    136.3311
  1277.4000      8.0773      2.6063      0.0759      2.6472    122.3370
  1277.5000      7.9763      2.5954      0.0426      3.3070    114.8976
  1277.6000      7.9763      2.5753     -0.0360      4.5257    119.5637
  1277.7000      7.9763      2.5659     -0.0088      5.0973    131.5411
  1277.8000      7.9565      2.5688      0.0229      4.9224    141.3327
  1277.9000      7.9565      2.5671      0.0293      5.0246    144.8583
  1278.0000      7.9585      2.5584     -0.0295      5.5544    146.6878
  1278.1000      7.9585      2.5610     -0.0093      5.3920    148.3031
  1278.2000      7.9585      2.5788     -0.0033      4.3139    144.3808
  1278.3000      7.9996      2.5985      0.0122      3.1190    134.9803
  1278.4000      7.9996      2.6118      0.0627      2.3139    125.1324
  1278.5000      7.9691      2.6156      0.0438      2.0870    117.7922
  1278.6000      7.9691      2.6053      0.0701      2.7085    118.7403
  1278.7000      7.9691      2.5863     -0.0062      3.8613    130.7350
  1278.8000      7.9575      2.5769      0.0382      4.4326    142.4829
  1278.9000      7.9575      2.5794      0.0449      4.2795    145.8671
  1279.0000      7.9603      2.5888     -0.0448      3.7084    146.5322
  1279.1000      7.9603      2.6118      0.0269      2.3124    145.8373
  1279.2000      7.9603      2.6423      0.0530      0.4680    141.5433
  1279.3000      7.9709      2.6511      0.0742     -0.0643    135.1008
  1279.4000      7.9709      2.6225      0.0139      1.6694    127.3707
  1279.5000      7.9534      2.5824      0.0555      4.0962    122.3561
  1279.6000      7.9534      2.5608      0.0136      5.4070    123.5125
  1279.7000      7.9534      2.5590      0.0698      5.5152    128.2722
  1279.8000      7.8738      2.5706      0.0113      4.8103    131.7072
  1279.9000      7.8738      2.5956      0.0718      3.2942    130.4105
  1280.0000      7.8435      2.6278      0.0554      1.3462    129.0986
  1280.1000      7.8435      2.6492      0.0923      0.0482    133.3240
  1280.2000      7.8435      2.6431      0.0820      0.4152    137.1783
