~Version Information
VERS.                      2.0: CWLS Log ASCII Standard - VERSION 2.0
WRAP.                       NO: One line per depth step
~Well Information Block
STRT.FT               452.0000: 
STOP.FT              1726.5000: 
STEP.FT                 0.1000: 
NULL.                -999.2500: 
COMP.          Pioneer Natural Resources: COMPANY
WELL.          Parrothead 31-31 Tr: WELL
FLD.           Purgatoire River: FIELD
LOC.           496' FNL & 1546' FEL: LOCATION
PROV.                 Colorado: PROVINCE
CNTY.               Las Animas: COUNTRY
SRVC.                Patterson: SERVICE COMPANY
DATE.          Thu Nov 10 07:29:36 2005: LOG DATE
UWI.           05 071 08610 00: UNIQUE WELL ID
~Curve Information Block
DEPT.FT            0 000 00 00: Depth
DCAL.in                       : CDL Caliper
RHOB.g/cc                     : CDL Bulk Density
RHOC.g/cc                     : CDL Density Correction
DPOR.pu                       : CDL Density Porosity
GR.GAPI                       : Gamma Ray
NPOR.pu                       : Neutron Porosity
~Parameter Information Block
~A  Depth       DCAL        RHOB        RHOC        DPOR         GR         NPOR    
# ...
  1546.4000      7.9552      2.5498      0.0403      6.0712    133.7086     22.2186
  1546.5000      7.9451      2.5370      0.0507      6.8502    138.6263     22.3188
  1546.6000      7.9451      2.5323      0.0230      7.1360    141.4416     23.0213
  1546.7000      7.9451      2.5397      0.0277      6.6871    140.8428     24.3899
  1546.8000      7.9472      2.5589      0.0884      5.5211    138.1971     25.2198
  1546.9000      7.9472      2.5878      0.0925      3.7715    133.0928     24.9312
  1547.0000      7.9553      2.6179      0.1427      1.9483    125.0664     24.2942
  1547.1000      7.9553      2.6315      0.0968      1.1230    116.2748     24.1286
  1547.2000      7.9553      2.6255      0.1255      1.4821    109.8917     24.3467
  1547.3000      7.9692      2.6175      0.0885      1.9721    107.7655     24.4972
  1547.4000      7.9692      2.6174      0.1176      1.9735    107.0932     24.5044
  1547.5000      7.8807      2.6234      0.0661      1.6128    102.2875     24.4596
  1547.6000      7.8807      2.6444      0.0933      0.3408     92.4828     24.4140
  1547.7000      7.8807      2.6837      0.1421     -2.0412     83.1013     24.5446
  1547.8000      7.8662      2.7212      0.1080     -4.3157     77.6040     24.9877
  1547.9000      7.8662      2.7274      0.1852     -4.6926     73.6030     25.3239
  1548.0000      7.8519      2.6943      0.0752     -2.6821     70.5544     25.0282
  1548.1000      7.8519      2.6565      0.0531     -0.3933     69.9075     24.3541
  1548.2000      7.8519      2.6424      0.0464      0.4606     70.2396     23.7622
  1548.3000      7.8587      2.6400      0.0406      0.6040     71.8053     23.2973
  1548.4000      7.8587      2.6332      0.0508      1.0201     75.2272     22.9297
  1548.5000      7.8656      2.6205      0.0861      1.7869     77.8497     22.6200
  1548.6000      7.8656      2.6008      0.1111      2.9824     79.8967     22.2723
  1548.7000      7.8656      2.5866     -0.0001      3.8454     83.6228     21.8665
  1548.8000      7.8419      2.5970      0.0782      3.2139     87.6321     21.4653
  1548.9000      7.8419      2.6203      0.1419      1.7980     90.3063     20.8597
  1549.0000      7.8249      2.6371      0.1261      0.7799     92.1985     19.9838
  1549.1000      7.8249      2.6459      0.1821      0.2472     92.0471     19.2406
  1549.2000      7.8249      2.6488      0.1720      0.0698     87.5552     18.9504
  1549.3000      7.8070      2.6488      0.1717      0.0712     82.0231     19.0690
  1549.4000      7.8070      2.6493      0.1615      0.0414     82.7828     19.1227
  1549.5000      7.8172      2.6458      0.1553      0.2520     90.9055     18.6835
  1549.6000      7.8172      2.6296      0.1482      1.2350     99.6270     18.1187
  1549.7000      7.8172      2.6009      0.0921      2.9757    104.7967     18.0333
  1549.8000      7.8220      2.5739      0.0871      4.6151    109.7373     18.3587
  1549.9000      7.8220      2.5620      0.0910      5.3359    116.2862     18.6939
  1550.0000      7.8544      2.5606      0.0981      5.4204    121.3118     19.1541
  1550.1000      7.8544      2.5566      0.1114      5.6630    121.0885     19.8904
  1550.2000      7.8544      2.5501      0.0877      6.0521    115.9001     20.5774
  1550.3000      7.8588      2.5487      0.0697      6.1367    110.8162     20.9637
  1550.4000      7.8588      2.5489      0.0969      6.1260    109.6096     21.0588
  1550.5000      7.8730      2.5467      0.0274      6.2602    112.1276     21.1815
  1550.6000      7.8730      2.5517      0.0090      5.9574    120.0856     21.7592
  1550.7000      7.8730      2.5614      0.0535      5.3714    132.7260     22.3473
  1550.8000      7.8859      2.5589      0.0918      5.5201    139.2409     22.1457
  1550.9000      7.8859      2.5485      0.0384      6.1503    134.1017     21.4603
  1551.0000      7.9044      2.5482      0.0403      6.1720    125.2026     21.1575
  1551.1000      7.9044      2.5587      0.0426      5.5304    119.8674     21.2827
  1551.2000      7.9044      2.5636      0.0867      5.2346    120.5889     21.4573
  1551.3000      7.8732      2.5547      0.0220      5.7761    128.6767     21.4747
  1551.4000      7.8732      2.5471      0.0217      6.2353    139.8925     21.5613
  1551.5000      7.9189      2.5512      0.0231      5.9850    146.8241     22.1876
  1551.6000      7.9189      2.5648      0.0497      5.1656    146.5315     23.2974
  1551.7000      7.9189      2.5813      0.0574      4.1657    143.0778     24.2751
  1551.8000      7.9405      2.5884      0.0875      3.7351    142.1709     24.7101
  1551.9000      7.9405      2.5884      0.0463      3.7319    143.2997     24.7949
  1552.0000      7.9579      2.6025      0.0613      2.8786    139.9685     24.7803
  1552.1000      7.9579      2.6299      0.1021      1.2169    131.3004     24.9537
  1552.2000      7.9579      2.6474      0.0606      0.1557    123.3654     25.2906
  1552.3000      7.9414      2.6427      0.1027      0.4446    119.0927     25.1202
  1552.4000      7.9414      2.6193      0.0656      1.8604    116.5222     24.5946
  1552.5000      7.9544      2.5925      0.0468      3.4838    114.4260     24.6399
  1552.6000      7.9544      2.5776      0.0578      4.3888    112.0170     25.0720
  1552.7000      7.9544      2.5775      0.0572      4.3943    107.0211     24.8295
  1552.8000      7.9335      2.5835      0.0999      4.0318    100.1936     23.4821
  1552.9000      7.9335      2.5837      0.0903      4.0185     93.9641     21.7573
  1553.0000      7.8810      2.5755      0.0479      4.5176     89.8362     20.5713
  1553.1000      7.8810      2.5667      0.0624      5.0479     89.2677     20.0048
  1553.2000      7.8810      2.5692      0.0232      4.8992     90.8641     19.7813
  1553.3000      7.8664      2.5881      0.0703      3.7544     91.9697     19.6681
  1553.4000      7.8664      2.6093      0.0959      2.4670     93.5713     19.4372
  1553.5000      7.8635      2.6152      0.1151      2.1069     97.5765     19.0502
  1553.6000      7.8635      2.6062      0.1229      2.6536    102.1764     18.8472
  1553.7000      7.8635      2.5912      0.1269      3.5633    104.5646     19.0951
  1553.8000      7.8446      2.5766      0.1022      4.4498    104.6782     19.4851
  1553.9000      7.8446      2.5672      0.1040      5.0171    102.9206     19.4371
  1554.0000      7.8254      2.5643      0.1017      5.1948     99.9874     19.2845
  1554.1000      7.8254      2.5727      0.0570      4.6867     98.2400     19.6774
  1554.2000      7.8254      2.5975      0.1088      3.1837     98.1976     20.1861
  1554.3000      7.8221      2.6216      0.1576      1.7219     99.6625     20.1305
  1554.4000      7.8221      2.6228      0.1247      1.6493    103.4885     19.6688
  1554.5000      7.8605      2.6032      0.0978      2.8362    107.0157     19.4397
  1554.6000      7.8605      2.5832      0.1254      4.0477    107.0527     19.7349
  1554.7000      7.8605      2.5807      0.0895      4.1981    106.1952     20.4988
  1554.8000      7.8775      2.5884      0.1315      3.7326    104.8227     21.3734
  1554.9000      7.8775      2.5882      0.0203      3.7484     99.4118     21.9948
  1555.0000      7.8802      2.5843      0.0443      3.9833     92.7682     22.2789
  1555.1000      7.8802      2.5885      0.0514      3.7289     91.2596     22.2286
  1555.2000      7.8802      2.6052      0.0662      2.7171     95.6551     21.8120
  1555.3000      7.8855      2.6354      0.0831      0.8845    101.3810     21.3202
  1555.4000      7.8855      2.6748      0.1143     -1.5034    105.2823     20.9657
  1555.5000      7.8583      2.7071      0.2065     -3.4613    106.9495     20.3262
  1555.6000      7.8583      2.7146      0.1875     -3.9130    107.6819     19.4950
  1555.7000      7.8583      2.6962      0.1881     -2.8025    112.8375     19.2864
  1555.8000      7.8039      2.6592      0.1370     -0.5557    122.6133     19.9143
  1555.9000      7.8039      2.6106      0.1069      2.3861    129.0180     20.8024
