~Version Information
VERS.                      2.0: CWLS Log ASCII Standard - VERSION 2.0
WRAP.                       NO: One line per depth step
~Well Information Block
STRT.FT                -7.7500: 
STOP.FT              1519.0000: 
STEP.FT                 0.2500: 
NULL.                -999.2500: 
COMP.          Pioneer Natural Resources: COMPANY
WELL.          Mow 8-14-33-67 Tr: WELL
FLD.           Purgatorie River: FIELD
LOC.           2258' FNL & 929' FEL--: LOCATION
CNTY.               Las Animas: COUNTY
SRVC.          Patterson Wireline: SERVICE COMPANY
DATE.          Thu Feb 02 10:06:28 2006: LOG DATE
UWI.           05 071 08684 00: UNIQUE WELL ID
STAT.                       CO: STATE
~Curve Information Block
DEPT.FT            0 000 00 00: Depth
MINMK.                        : Magnetic Mark Ticks
CCL.                          : Casing Collar Locator
TT3.usec                      : CBL 3' Travel Time
AMP3.mV                       : CBL 3' Amplitude
GR.GAPI                       : Gamma Ray
~Parameter Information Block
~A  Depth      MINMK        CCL         TT3         AMP3         GR     
# ...
  1196.2500      0.0000      0.0000    263.3317     81.8286    133.9572
  1196.5000      0.0000      0.0000    263.3304     81.8213    130.2021
  1196.7500      0.0000      0.0000    263.3357     81.7818    128.3058
  1197.0000      0.0000      0.0000    263.3450     81.7375    130.0971
  1197.2500      0.0000      0.0000    263.3560     81.7100    134.2386
  1197.5000      0.0000      0.0000    263.3671     81.7082    137.4519
  1197.7500      0.0000      0.0000    263.3756     81.7324    137.2774
  1198.0000      0.0000      0.0000    263.3783     81.7807    133.5145
  1198.2500      0.0000      0.0000    263.3724     81.8509    127.5030
  1198.5000      0.0000      0.0000    263.3585     81.9362    120.8870
  1198.7500      0.0000      0.0000    263.3406     82.0209    115.1443
  1199.0000      0.0000      0.0000    263.3235     82.0840    111.5812
  1199.2500      0.0000      0.0000    263.3104     82.1137    111.0739
  1199.5000      0.0000      0.0000    263.3021     82.1176    113.5293
  1199.7500      0.0000      0.0000    263.2978     82.1166    117.5726
  1200.0000      0.0000      0.0000    263.2972     82.1262    120.9428
  1200.2500      0.0000      0.0000    263.3003     82.1417    121.4611
  1200.5000      0.0000      0.0000    263.3065     82.1429    118.0829
  1200.7500      0.0000      0.0000    263.3143     82.1123    111.7374
  1201.0000      0.0000      0.0000    263.3214     82.0505    105.2673
  1201.2500      0.0000      0.0000    263.3260     81.9757    101.8562
  1201.5000      0.0000      0.0000    263.3268     81.9095    102.9611
  1201.7500      0.0000      0.0000    263.3234     81.8594    107.6667
  1202.0000      0.0000      0.0000    263.3167     81.8148    113.7478
  1202.2500      0.0000      0.0000    263.3087     81.7613    119.1742
  1202.5000      0.0000      0.0000    263.3015     81.6972    122.9585
  1202.7500      0.0000      0.0000    263.2960     81.6297    125.1404
  1203.0000      0.0000      0.0000    263.2933     81.5533    126.3550
  1203.2500      0.0000      0.0000    263.2978     81.4354    127.3414
  1203.5000      0.0000      0.0000    263.3257     81.2146    128.4241
  1203.7500      0.0000      0.0000    263.4194     80.7950    129.3118
  1204.0000      0.0000      0.0000    263.6602     80.0379    129.7808
  1204.2500      0.0000      0.0000    264.1575     78.7990    130.5022
  1204.5000      0.0000      0.0000    265.0010     76.9748    132.4263
  1204.7500      0.0000      0.0000    266.1932     74.4548    135.2601
  1205.0000      0.0000      0.0000    267.6042     71.0888    137.4940
  1205.2500      0.0000      0.0000    268.9874     66.9404    138.2601
  1205.5000      0.0000      0.0000    270.0762     62.6168    138.3400
  1205.7500      0.0000      0.0000    270.7314     59.0407    138.9493
  1206.0000      0.0000      0.0000    271.0160     56.7429    140.2884
  1206.2500      0.0000      0.0000    271.1469     55.5237    141.9544
  1206.5000      0.0000      2.0000    271.4130     54.8084    144.1231
  1206.7500      0.0000      0.0000    272.1582     54.1724    147.2508
  1207.0000      0.0000      0.0000    273.6727     53.6682    150.6974
  1207.2500      0.0000      0.0000    275.7947     53.9296    152.8472
  1207.5000      0.0000      0.0000    277.5337     55.8812    153.1117
  1207.7500      0.0000      0.0000    277.4973     59.9494    152.8161
  1208.0000      0.0000      0.0000    275.1160     65.4482    153.2366
  1208.2500      0.0000      0.0000    271.3116     70.9624    153.4444
  1208.5000      0.0000      0.0000    267.6931     75.3414    151.0806
  1208.7500      0.0000      0.0000    265.2684     78.2168    145.0469
  1209.0000      0.0000      0.0000    264.0612     79.7991    136.7858
  1209.2500      0.0000      0.0000    263.6066     80.5043    129.1961
  1209.5000      0.0000      0.0000    263.4794     80.7289    124.7917
  1209.7500      0.0000      0.0000    263.4560     80.7490    124.5361
  1210.0000      0.0000      0.0000    263.4548     80.7075    127.7287
  1210.2500      0.0000      0.0000    263.4559     80.6630    133.0012
  1210.5000      0.0000      0.0000    263.4553     80.6464    139.4131
  1210.7500      0.0000      0.0000    263.4548     80.6747    146.1722
  1211.0000      0.0000      0.0000    263.4572     80.7471    151.5271
  1211.2500      0.0000      0.0000    263.4635     80.8388    153.2126
  1211.5000      0.0000      0.0000    263.4722     80.9165    150.6310
  1211.7500      0.0000      0.0000    263.4803     80.9607    145.8788
  1212.0000      0.0000      0.0000    263.4851     80.9723    141.9330
  1212.2500      0.0000      0.0000    263.4862     80.9601    140.1097
  1212.5000      0.0000      0.0000    263.4848     80.9255    139.7497
  1212.7500      0.0000      0.0000    263.4829     80.8657    139.9603
  1213.0000      0.0000      0.0000    263.4819     80.7907    140.8902
  1213.2500      0.0000      0.0000    263.4819     80.7292    143.3523
  1213.5000      0.0000      0.0000    263.4818     80.7142    147.7275
  1213.7500      0.0000      0.0000    263.4810     80.7623    153.2872
  1214.0000      0.0000      0.0000    263.4804     80.8665    158.2401
  1214.2500      0.0000      0.0000    263.4818     81.0017    160.6666
  1214.5000      0.0000      0.0000    263.4854     81.1329    159.8329
  1214.7500      0.0000      0.0000    263.4899     81.2231    156.4760
  1215.0000      0.0000      0.0000    263.4937     81.2432    151.6055
  1215.2500      0.0000      0.0000    263.4962     81.1879    145.5624
  1215.5000      0.0000      0.0000    263.4970     81.0867    138.8074
  1215.7500      0.0000      0.0000    263.4953     80.9971    133.2331
  1216.0000      0.0000      0.0000    263.4908     80.9705    131.7312
  1216.2500      0.0000      0.0000    263.4851     81.0180    135.8669
  1216.5000      0.0000      0.0000    263.4813     81.1106    144.1521
  1216.7500      0.0000      0.0000    263.4806     81.2098    152.9442
  1217.0000      0.0000      0.0000    263.4824     81.2907    159.0445
  1217.2500      0.0000      0.0000    263.4854     81.3402    161.2717
  1217.5000      1.0000      0.0000    263.4891     81.3508    159.9297
  1217.7500      0.0000      0.0000    263.4933     81.3211    155.7205
  1218.0000      0.0000      0.0000    263.4964     81.2561    149.5625
  1218.2500      0.0000      0.0000    263.4959     81.1655    142.8594
  1218.5000      0.0000      0.0000    263.4910     81.0662    137.1658
  1218.7500      0.0000      0.0000    263.4831     80.9793    133.2938
  1219.0000      0.0000      0.0000    263.4753     80.9183    130.7148
  1219.2500      0.0000      0.0000    263.4701     80.8801    127.9858
  1219.5000      0.0000      0.0000    263.4688     80.8504    124.0054
  1219.7500      0.0000      0.0000    263.4705     80.8171    118.8343
  1220.0000      0.0000      0.0000    263.4733     80.7752    113.2748
  1220.2500      0.0000      0.0000    263.4753     80.7252    108.0973
  1220.5000      0.0000      0.0000    263.4752     80.6679    104.0009
  1220.7500      0.0000      0.0000    263.4724     80.6044    101.5661
  1221.0000      0.0000      0.0000    263.4677     80.5391    100.4825
  1221.2500      0.0000      0.0000    263.4622     80.4797     99.2080
  1221.5000      0.0000      0.0000    263.4577     80.4319     96.2398
  1221.7500      0.0000      0.0000    263.4550     80.3965     91.9832
  1222.0000      0.0000      0.0000    263.4553     80.3700     88.9778
  1222.2500      0.0000      0.0000    263.4597     80.3462     89.7214
  1222.5000      0.0000      0.0000    263.4685     80.3165     94.1221
  1222.7500      0.0000      0.0000    263.4805     80.2760     99.3900
  1223.0000      0.0000      0.0000    263.4925     80.2313    102.4888
  1223.2500      0.0000      0.0000    263.5017     80.1999    102.4460
  1223.5000      0.0000      0.0000    263.5067     80.1980    100.4373
  1223.7500      0.0000      0.0000    263.5078     80.2294     98.3281
  1224.0000      0.0000      0.0000    263.5064     80.2861     97.3427
