~Version Information
VERS.                      2.0: CWLS Log ASCII Standard - VERSION 2.0
WRAP.                       NO: One line per depth step
~Well Information Block
STRT.FT               230.2000: 
STOP.FT              1518.7000: 
STEP.FT                 0.1000: 
NULL.                -999.2500: 
COMP.          Pioneer Natural Resources: COMPANY
WELL.          Mow 8-14-33-67 Tr: WELL
FLD.           Purgatoire River: FIELD
LOC.           2258' FNL & 929' FEL: LOCATION
PROV.                 Colorado: PROVINCE
CNTY.               Las Animas: COUNTRY
SRVC.                Patterson: SERVICE COMPANY
DATE.          Mon Jan 30 11:22:55 2006: LOG DATE
UWI.           05 071 08684 00: UNIQUE WELL ID
~Curve Information Block
DEPT.FT            0 000 00 00: Depth
DCAL.in                       : CDL Caliper
DPOR.pu                       : CDL Density Porosity
RHOB.g/cc                     : CDL Bulk Density
RHOC.g/cc                     : CDL Density Correction
GR.GAPI                       : Gamma Ray
~Parameter Information Block
~A  Depth       DCAL        DPOR        RHOB        RHOC         GR     
# ...
   263.8000      8.0621     22.7701      2.2743     -0.3872     89.1136
   263.9000      8.0621     22.4920      2.2789     -0.3487     85.1572
   264.0000      8.0619     22.6102      2.2769     -0.3509     79.1283
   264.1000      8.0619     23.3157      2.2653     -0.3942     75.0763
   264.2000      8.0619     24.4610      2.2464     -0.3645     74.3948
   264.3000      8.0616     26.0182      2.2207     -0.4291     76.3931
   264.4000      8.0616     27.2046      2.2011     -0.4281     79.8821
   264.5000      8.0619     27.7291      2.1925     -0.4132     83.7630
   264.6000      8.0619     28.1532      2.1855     -0.4031     87.1668
   264.7000      8.0619     28.3620      2.1820     -0.4309     88.4194
   264.8000      8.0626     27.9439      2.1889     -0.4467     87.3823
   264.9000      8.0626     27.2639      2.2001     -0.4545     86.8550
   265.0000      8.0620     27.1141      2.2026     -0.4308     86.5491
   265.1000      8.0620     27.6129      2.1944     -0.4079     83.7685
   265.2000      8.0620     27.9566      2.1887     -0.4027     80.5703
   265.3000      8.0598     27.7712      2.1918     -0.4198     78.9959
   265.4000      8.0598     27.7367      2.1923     -0.4128     76.3254
   265.5000      8.0584     28.4828      2.1800     -0.4003     73.0319
   265.6000      8.0584     29.6038      2.1615     -0.4001     73.0520
   265.7000      8.0584     30.2266      2.1513     -0.4735     76.2890
   265.8000      8.0593     30.1675      2.1522     -0.4393     80.0628
   265.9000      8.0593     29.7510      2.1591     -0.4603     82.4151
   266.0000      8.0602     28.8564      2.1739     -0.4288     82.7168
   266.1000      8.0602     27.5233      2.1959     -0.4044     82.8491
   266.2000      8.0602     26.7858      2.2080     -0.3775     81.3880
   266.3000      8.0605     27.6328      2.1941     -0.3755     75.7427
   266.4000      8.0605     29.6354      2.1610     -0.4533     71.5561
   266.5000      8.0613     30.9145      2.1399     -0.5064     73.4129
   266.6000      8.0613     30.0748      2.1538     -0.4541     77.5934
   266.7000      8.0613     28.0722      2.1868     -0.3948     80.1349
   266.8000      8.0639     26.8672      2.2067     -0.3966     82.6660
   266.9000      8.0639     26.9552      2.2052     -0.3892     85.7719
   267.0000      8.0666     27.2855      2.1998     -0.4262     86.3014
   267.1000      8.0666     26.5988      2.2111     -0.4205     82.8234
   267.2000      8.0666     25.1375      2.2352     -0.3419     76.9785
   267.3000      8.0653     24.4856      2.2460     -0.3473     71.7225
   267.4000      8.0653     24.7924      2.2409     -0.3787     68.0458
   267.5000      8.0631     24.9437      2.2384     -0.3829     66.0788
   267.6000      8.0631     24.6423      2.2434     -0.3679     67.7104
   267.7000      8.0631     24.2326      2.2502     -0.3903     73.5766
   267.8000      8.0626     24.0873      2.2526     -0.3510     80.0806
   267.9000      8.0626     24.3095      2.2489     -0.3932     83.3764
   268.0000      8.0623     24.5310      2.2452     -0.3871     81.4165
   268.1000      8.0623     24.6406      2.2434     -0.3814     73.2607
   268.2000      8.0623     24.7269      2.2420     -0.3838     63.9861
   268.3000      8.0618     24.3812      2.2477     -0.3975     60.9247
   268.4000      8.0618     23.3932      2.2640     -0.3849     64.0967
   268.5000      8.0620     22.4493      2.2796     -0.3881     69.7358
   268.6000      8.0620     22.1467      2.2846     -0.3792     75.4130
   268.7000      8.0620     22.2894      2.2822     -0.3978     77.1105
   268.8000      8.0627     22.4935      2.2789     -0.4267     73.4684
   268.9000      8.0627     22.6797      2.2758     -0.4264     69.7501
   269.0000      8.0631     22.8997      2.2722     -0.4413     70.9680
   269.1000      8.0631     22.8374      2.2732     -0.4248     74.6413
   269.2000      8.0631     22.3141      2.2818     -0.3803     75.4703
   269.3000      8.0630     21.8582      2.2893     -0.3758     74.9606
   269.4000      8.0630     21.7826      2.2906     -0.3777     74.8339
   269.5000      8.0622     21.9057      2.2886     -0.3691     72.4570
   269.6000      8.0622     22.1200      2.2850     -0.4019     70.3603
   269.7000      8.0622     22.5389      2.2781     -0.3749     74.3894
   269.8000      8.0613     22.8285      2.2733     -0.4142     81.2125
   269.9000      8.0613     22.1535      2.2845     -0.3948     82.8017
   270.0000      8.0609     20.5036      2.3117     -0.3838     81.5881
   270.1000      8.0609     19.1312      2.3343     -0.3348     83.1399
   270.2000      8.0609     19.4028      2.3299     -0.3382     86.2927
   270.3000      8.0613     21.3325      2.2980     -0.3608     90.3171
   270.4000      8.0613     23.2832      2.2658     -0.3933     94.8472
   270.5000      8.0613     23.3326      2.2650     -0.4251     95.1752
   270.6000      8.0613     21.4426      2.2962     -0.3795     92.4846
   270.7000      8.0613     20.0345      2.3194     -0.3037     93.3261
   270.8000      8.0606     20.4537      2.3125     -0.3907     95.2048
   270.9000      8.0606     20.9454      2.3044     -0.3799     94.2284
   271.0000      8.0606     20.6676      2.3090     -0.3572     94.2622
   271.1000      8.0606     21.0951      2.3019     -0.3770     95.1350
   271.2000      8.0606     22.5257      2.2783     -0.4582     94.8063
   271.3000      8.0612     23.4337      2.2633     -0.4560     94.2527
   271.4000      8.0612     23.1112      2.2687     -0.4538     93.4351
   271.5000      8.0609     22.2556      2.2828     -0.4179     93.5602
   271.6000      8.0609     21.4942      2.2953     -0.4114     94.2763
   271.7000      8.0609     21.0735      2.3023     -0.3974     93.0886
   271.8000      8.0609     21.5785      2.2940     -0.3649     91.1249
   271.9000      8.0609     23.2688      2.2661     -0.4582     90.3297
   272.0000      8.0618     24.7355      2.2419     -0.4744     90.6067
   272.1000      8.0618     24.6587      2.2431     -0.4564     92.6379
   272.2000      8.0618     23.5955      2.2607     -0.4174     96.7238
   272.3000      8.0625     22.4921      2.2789     -0.4102    101.5157
   272.4000      8.0625     21.1189      2.3015     -0.4240    105.7123
   272.5000      8.0625     18.9891      2.3367     -0.4013    108.8376
   272.6000      8.0625     17.1423      2.3672     -0.3209    110.8249
   272.7000      8.0625     16.8739      2.3716     -0.3705    110.2624
   272.8000      8.0641     17.3342      2.3640     -0.4141    105.3540
   272.9000      8.0641     17.1594      2.3669     -0.3595     96.7346
   273.0000      8.0661     16.5066      2.3776     -0.3862     88.3408
   273.1000      8.0661     16.0630      2.3850     -0.3788     83.0405
   273.2000      8.0661     16.1551      2.3834     -0.3614     82.1909
   273.3000      8.0649     16.4955      2.3778     -0.4206     87.0718
   273.4000      8.0649     16.4187      2.3791     -0.4008     91.9507
   273.5000      8.0634     15.8130      2.3891     -0.4127     91.0446
   273.6000      8.0634     15.0907      2.4010     -0.3458     88.7812
   273.7000      8.0634     14.3647      2.4130     -0.3933     89.1273
   273.8000      8.0627     13.7392      2.4233     -0.3355     89.0617
   273.9000      8.0627     14.1845      2.4160     -0.3747     86.5622
   274.0000      8.0615     16.1080      2.3842     -0.4058     85.1168
   274.1000      8.0615     18.0533      2.3521     -0.4492     88.1092
   274.2000      8.0615     17.9276      2.3542     -0.4527     92.8767
   274.3000      8.0610     15.7879      2.3895     -0.3559     94.4697
   274.4000      8.0610     14.4097      2.4122     -0.3465     92.8916
   274.5000      8.0611     15.6970      2.3910     -0.3734     92.2371
   274.6000      8.0611     18.3399      2.3474     -0.4646     92.7295
   274.7000      8.0611     20.3141      2.3148     -0.4090     90.6918
   274.8000      8.0609     21.0991      2.3019     -0.5197     84.8664
   274.9000      8.0609     20.4577      2.3124     -0.4585     78.3413
