~Version Information
VERS.                      2.0: CWLS Log ASCII Standard - VERSION 2.0
WRAP.                       NO: One line per depth step
~Well Information Block
STRT.FT                 0.0000: 
STOP.FT              1877.2500: 
STEP.FT                 0.2500: 
NULL.                -999.2500: 
COMP.          Pioneer Natural Resources: COMPANY
WELL.            Corazon 13-10: WELL
FLD.           Purgatoire River: FIELD
LOC.           2510' FSL & 439' FWL--------: LOCATION
PROV.                 Colorado: PROVINCE
CNTY.               Las Animas: COUNTRY
SRVC.                         : SERVICE COMPANY
DATE.          Mon Dec 19 14:34:49 2005: LOG DATE
UWI.                          : UNIQUE WELL ID
~Curve Information Block
DEPT.FT            0 000 00 00: Depth
CCL.                          : Casing Collar Locator
TT3.usec                      : CBL 3' Travel Time
AMP3.mV                       : CBL 3' Amplitude
AMP5.mV                       : CBL 5' Amplitude
GR.GAPI                       : Gamma Ray
~Parameter Information Block
~A  Depth       CCL         TT3         AMP3        AMP5         GR     
# ...
  1344.0000      0.0000    734.4581      3.8100      0.5040    114.1519
  1344.2500      0.0000    745.0316      3.4409      0.4625    113.7324
  1344.5000      0.0000    754.2773      3.1053      0.3856    114.1312
  1344.7500      0.0000    758.0294      2.8961      0.3047    114.4249
  1345.0000      0.0000    754.6213      2.8115      0.2630    113.4061
  1345.2500      0.0000    748.2131      2.7504      0.2766    110.5776
  1345.5000      0.0000    744.6783      2.6217      0.3236    106.5053
  1345.7500      0.0000    745.2504      2.4197      0.3692    102.5421
  1346.0000      0.0000    746.1491      2.2092      0.3945    100.0055
  1346.2500      0.0000    742.9379      2.0615      0.4005     99.1603
  1346.5000      0.0000    733.6464      1.9966      0.3887     99.0191
  1346.7500      0.0000    719.3039      1.9718      0.3510     98.4478
  1347.0000      0.0000    703.3636      1.9321      0.2869     97.4032
  1347.2500      0.0000    690.0718      1.8740      0.2239     96.8354
  1347.5000      0.0000    681.9490      1.8549      0.2044     97.6067
  1347.7500      0.0000    678.5747      1.9438      0.2478     99.9130
  1348.0000      0.0000    677.9686      2.1661      0.3342    103.6442
  1348.2500      0.0000    678.8263      2.4867      0.4263    108.7976
  1348.5000      0.0000    681.1043      2.8345      0.4978    115.2021
  1348.7500      0.0000    684.8051      3.1428      0.5353    122.0779
  1349.0000      0.0000    688.8269      3.3819      0.5279    128.3484
  1349.2500      0.0000    691.2844      3.5699      0.4723    133.3742
  1349.5000      0.0000    691.0239      3.7597      0.3884    136.9826
  1349.7500      0.0000    688.7188      4.0049      0.3186    138.8596
  1350.0000      0.0000    686.3982      4.3247      0.3016    138.5391
  1350.2500      0.0000    685.8911      4.6898      0.3457    136.1497
  1350.5000      0.0000    687.5760      5.0390      0.4319    132.7606
  1350.7500      0.0000    690.4033      5.3121      0.5367    129.8191
  1351.0000      0.0000    692.9791      5.4765      0.6436    128.4558
  1351.2500      0.0000    694.5687      5.5332      0.7352    129.2234
  1351.5000      0.0000    695.2100      5.5048      0.7903    132.0216
  1351.7500      0.0000    695.2256      5.4214      0.7971    135.9339
  1352.0000      0.0000    694.7966      5.3103      0.7640    139.3520
  1352.2500      0.0000    693.8253      5.1901      0.7089    140.7677
  1352.5000      0.0000    692.0779      5.0685      0.6423    139.7210
  1352.7500      0.0000    689.6368      4.9467      0.5684    136.9675
  1353.0000      0.0000    687.3299      4.8292      0.4973    133.7548
  1353.2500      0.0000    686.4285      4.7269      0.4447    131.0981
  1353.5000      0.0000    687.6097      4.6476      0.4183    129.5817
  1353.7500      0.0000    690.4160      4.5853      0.4136    129.2610
  1354.0000      0.0000    693.9606      4.5234      0.4240    129.3852
  1354.2500      0.0000    697.8906      4.4489      0.4454    128.5941
  1354.5000      0.0000    702.5110      4.3587      0.4717    125.9793
  1354.7500      0.0000    708.5843      4.2556      0.4928    121.8756
  1355.0000      0.0000    716.9691      4.1473      0.5026    117.1757
  1355.2500      0.0000    726.9197      4.0505      0.5050    112.1413
  1355.5000      0.0000    733.5712      3.9886      0.5109    106.5725
  1355.7500      0.0000    728.7423      3.9789      0.5279    100.8344
  1356.0000      0.0000    706.8841      4.0175      0.5525     95.7631
  1356.2500      0.0000    670.6395      4.0793      0.5720     91.6180
  1356.5000      0.0000    629.7694      4.1347      0.5744     88.0403
  1356.7500      0.0000    595.4645      4.1692      0.5570     85.1257
  1357.0000      0.0000    576.2604      4.1896      0.5274     83.7370
  1357.2500      0.0000    576.4589      4.2148      0.4973     84.4500
  1357.5000      0.0000    594.6929      4.2628      0.4739     86.5154
  1357.7500      0.0000    624.2156      4.3434      0.4580     88.0661
  1358.0000      0.0000    656.7814      4.4588      0.4479     87.5694
  1358.2500      0.0000    686.4772      4.5991      0.4438     85.5707
  1358.5000      0.0000    709.6620      4.7312      0.4485     85.0046
  1358.7500      0.0000    723.3459      4.8062      0.4661     89.2062
  1359.0000      0.0000    726.0241      4.7917      0.4975     99.2637
  1359.2500      0.0000    719.9124      4.7013      0.5315    113.1491
  1359.5000      0.0000    710.3725      4.5862      0.5484    127.1063
  1359.7500      0.0000    702.3486      4.4972      0.5359    137.8519
  1360.0000      0.0000    697.7327      4.4503      0.5022    143.9720
  1360.2500      0.0000    695.8187      4.4255      0.4695    145.9798
  1360.5000      0.0000    695.1898      4.3933      0.4584    145.5161
  1360.7500      0.0000    694.9281      4.3423      0.4745    144.2952
  1361.0000      0.0000    694.8427      4.2837      0.5054    143.2481
  1361.2500      0.0000    695.2035      4.2360      0.5262    142.3571
  1361.5000      0.0000    696.1534      4.2074      0.5160    141.1115
  1361.7500      0.0000    697.0903      4.1861      0.4742    138.8367
  1362.0000      0.0000    696.7953      4.1428      0.4200    134.6388
  1362.2500      0.0000    694.5085      4.0448      0.3743    127.6483
  1362.5000      0.0000    690.7380      3.8768      0.3464    117.9326
  1362.7500      0.0000    686.7212      3.6508      0.3365    107.2001
  1363.0000      0.0000    683.2881      3.3962      0.3426     98.1767
  1363.2500      0.0000    680.4568      3.1408      0.3606     92.9388
  1363.5000      0.0000    677.8412      2.8975      0.3834     91.6990
  1363.7500      0.0000    675.1104      2.6643      0.4043     92.9655
  1364.0000      0.0000    672.0860      2.4331      0.4218     94.6035
  1364.2500      0.0000    668.6139      2.1989      0.4362     94.8909
  1364.5000      0.0000    664.5220      1.9621      0.4435     93.0696
  1364.7500      0.0000    659.7929      1.7300      0.4400     89.4557
  1365.0000      0.0000    654.7651      1.5188      0.4308     85.2802
  1365.2500      0.0000    650.0588      1.3474      0.4271     82.1217
  1365.5000      0.0000    646.2516      1.2237      0.4330     81.0282
  1365.7500      0.0000    643.6188      1.1406      0.4393     81.9720
  1366.0000      0.0000    642.1671      1.0882      0.4324     83.9410
  1366.2500      0.0000    641.8975      1.0647      0.4074     85.4602
  1366.5000      0.0000    643.0731      1.0726      0.3704     85.2926
  1366.7500      0.0000    646.2645      1.1094      0.3298     82.9863
  1367.0000      0.0000    651.9834      1.1660      0.2905     78.9775
  1367.2500      0.0000    660.1556      1.2369      0.2582     74.2864
  1367.5000      0.0000    669.9101      1.3295      0.2423     69.9454
  1367.7500      0.0000    679.5704      1.4628      0.2496     66.5053
  1368.0000      0.0000    686.6494      1.6569      0.2764     64.0069
  1368.2500      0.0000    688.9178      1.9259      0.3118     62.2076
  1368.5000      0.0000    686.9538      2.2735      0.3444     60.5806
  1368.7500      0.0000    685.0990      2.6883      0.3644     58.2796
  1369.0000      0.0000    688.2277      3.1448      0.3658     54.6936
  1369.2500      0.0000    697.4683      3.6130      0.3545     50.3340
  1369.5000      0.0000    709.7036      4.0696      0.3495     46.7651
  1369.7500      0.0000    720.6611      4.4985      0.3704     45.1091
  1370.0000      0.0000    727.5787      4.8875      0.4184     44.7610
  1370.2500      0.0000    729.0533      5.2252      0.4743     44.0501
  1370.5000      0.0000    722.8998      5.5027      0.5162     42.0784
  1370.7500      0.0000    704.9484      5.7161      0.5414     39.5110
  1371.0000      0.0000    671.6497      5.8676      0.5640     37.6650
  1371.2500      0.0000    626.1608      5.9646      0.5952     37.2817
  1371.5000      0.0000    581.4058      6.0183      0.6307     38.2428
  1371.7500      0.0000    553.7077      6.0397      0.6563     40.0265
