~Version Information
VERS.                      2.0: CWLS Log ASCII Standard - VERSION 2.0
WRAP.                       NO: One line per depth step
~Well Information Block
STRT.FT               370.0000: 
STOP.FT              2831.7500: 
STEP.FT                 0.2500: 
NULL.                -999.2500: 
COMP.          Pioneer Natural Resources: COMPANY
WELL.          Black Cat 13-32: WELL
FLD.           Purgatoire River: FIELD
LOC.           1865' FSL & 1120' FWL--: LOCATION
PROV.                 Colorado: PROVINCE
CNTY.               Las Animas: COUNTRY
SRVC.                Patterson: SERVICE COMPANY
DATE.          Sun Jul 31 08:49:16 2005: LOG DATE
UWI.           05 071 08450 00: UNIQUE WELL ID
~Curve Information Block
DEPT.FT            0 000 00 00: Depth
DIR.Ohm-m                     : IEL Induction Resistivity
SN.Ohm-m                      : IEL Short Normal
SP.mV                         : IEL Spontaneous Potential
GR.GAPI                       : Gamma Ray
~Parameter Information Block
~A  Depth       DIR          SN          SP          GR     
# ...
  2179.0000      9.5490     10.1623    143.1498    144.1893
  2179.2500      9.6339     10.0716    143.0461    146.3563
  2179.5000      9.6976      9.8863    142.9687    153.2040
  2179.7500      9.7354      9.6062    142.9026    158.0011
  2180.0000      9.7500      9.2516    142.8306    160.9774
  2180.2500      9.7476      8.8604    142.7330    158.5077
  2180.5000      9.7362      8.4885    142.5892    149.6939
  2180.7500      9.7238      8.2113    142.3784    143.4334
  2181.0000      9.7188      8.1098    142.0811    137.7321
  2181.2500      9.7291      8.2373    141.6796    136.5934
  2181.5000      9.7626      8.5851    141.1592    136.8607
  2181.7500      9.8272      9.0786    140.5090    137.7363
  2182.0000      9.9312      9.6118    139.7220    141.0431
  2182.2500     10.0839     10.0968    138.7953    145.2289
  2182.5000     10.2940     10.4922    137.7302    153.5337
  2182.7500     10.5681     10.7987    136.5309    158.6386
  2183.0000     10.9077     11.0358    135.2049    162.6089
  2183.2500     11.3080     11.2233    133.7620    162.3329
  2183.5000     11.7592     11.3777    132.2151    159.0887
  2183.7500     12.2498     11.5127    130.5804    156.0769
  2184.0000     12.7706     11.6372    128.8791    150.4201
  2184.2500     13.3177     11.7559    127.1377    145.3151
  2184.5000     13.8950     11.8776    125.3889    135.3244
  2184.7500     14.5127     12.0227    123.6705    127.6807
  2185.0000     15.1794     12.2163    122.0231    116.4616
  2185.2500     15.8904     12.4746    120.4864    110.0853
  2185.5000     16.6146     12.7949    119.0943    102.7921
  2185.7500     17.2868     13.1561    117.8709     98.9510
  2186.0000     17.8125     13.5248    116.8258     92.9708
  2186.2500     18.0911     13.8666    115.9530     88.1551
  2186.5000     18.0570     14.1578    115.2308     80.1901
  2186.7500     17.7186     14.3931    114.6256     75.4220
  2187.0000     17.1642     14.5818    114.0964     70.9211
  2187.2500     16.5257     14.7354    113.6018     70.4339
  2187.5000     15.9247     14.8575    113.1071     74.2870
  2187.7500     15.4378     14.9447    112.5904     80.1111
  2188.0000     15.0898     14.9949    112.0479     93.1481
  2188.2500     14.8671     15.0130    111.4973    103.5818
  2188.5000     14.7389     15.0112    110.9785    118.9345
  2188.7500     14.6785     15.0086    110.5533    127.5288
  2189.0000     14.6773     15.0298    110.3016    137.3377
  2189.2500     14.7472     15.1011    110.3163    142.2707
  2189.5000     14.9122     15.2434    110.6960    147.4989
  2189.7500     15.1968     15.4682    111.5354    149.0224
  2190.0000     15.6159     15.7770    112.9146    147.8026
  2190.2500     16.1695     16.1605    114.8876    145.2251
  2190.5000     16.8366     16.5963    117.4716    140.9642
  2190.7500     17.5668     17.0430    120.6393    139.1630
  2191.0000     18.2723     17.4387    124.3158    138.6200
  2191.2500     18.8340     17.7071    128.3825    138.7626
  2191.5000     19.1322     17.7757    132.6869    137.5227
  2191.7500     19.0943     17.6011    137.0595    135.4126
  2192.0000     18.7265     17.1920    141.3324    131.6483
  2192.2500     18.1088     16.6131    145.3588    129.5254
  2192.5000     17.3574     15.9624    149.0275    127.2431
  2192.7500     16.5806     15.3279    152.2707    126.2810
  2193.0000     15.8496     14.7493    155.0642    125.7292
  2193.2500     15.1882     14.2086    157.4206    125.9683
  2193.5000     14.5831     13.6564    159.3787    127.5781
  2193.7500     14.0044     13.0487    160.9908    130.0988
  2194.0000     13.4294     12.3731    162.3119    137.0502
  2194.2500     12.8557     11.6565    163.3916    143.5392
  2194.5000     12.3001     10.9595    164.2699    153.7355
  2194.7500     11.7860     10.3605    164.9761    159.0466
  2195.0000     11.3314      9.9290    165.5302    162.8608
  2195.2500     10.9429      9.6970    165.9455    162.7121
  2195.5000     10.6158      9.6438    166.2314    159.9646
  2195.7500     10.3371      9.7045    166.3957    157.4456
  2196.0000     10.0908      9.7974    166.4470    153.9591
  2196.2500      9.8622      9.8564    166.3948    152.3397
  2196.5000      9.6426      9.8499    166.2505    151.3621
  2196.7500      9.4308      9.7801    166.0267    151.6148
  2197.0000      9.2332      9.6679    165.7368    152.7939
  2197.2500      9.0615      9.5401    165.3942    153.6817
  2197.5000      8.9297      9.4218    165.0118    154.7673
  2197.7500      8.8511      9.3343    164.6014    155.2832
  2198.0000      8.8341      9.2905    164.1734    155.3870
  2198.2500      8.8796      9.2907    163.7365    154.5851
  2198.5000      8.9803      9.3213    163.2977    151.7217
  2198.7500      9.1218      9.3593    162.8622    149.0727
  2199.0000      9.2857      9.3809    162.4334    145.3689
  2199.2500      9.4522      9.3723    162.0123    143.7100
  2199.5000      9.6033      9.3382    161.5975    141.9286
  2199.7500      9.7256      9.3008    161.1847    140.2231
  2200.0000      9.8119      9.2882    160.7661    136.4088
  2200.2500      9.8599      9.3198    160.3311    134.2066
  2200.5000      9.8695      9.3963    159.8658    133.8101
  2200.7500      9.8390      9.4974    159.3549    135.3985
  2201.0000      9.7665      9.5892    158.7823    138.1910
  2201.2500      9.6533      9.6400    158.1336    139.5213
  2201.5000      9.5096      9.6375    157.3973    141.7558
  2201.7500      9.3553      9.5976    156.5675    144.1481
  2202.0000      9.2170      9.5580    155.6449    148.3542
  2202.2500      9.1225      9.5600    154.6374    150.4778
  2202.5000      9.0956      9.6316    153.5611    151.8791
  2202.7500      9.1547      9.7847    152.4391    152.2553
  2203.0000      9.3123     10.0230    151.3013    154.0256
  2203.2500      9.5774     10.3496    150.1823    156.8773
  2203.5000      9.9563     10.7704    149.1195    163.1592
  2203.7500     10.4529     11.2954    148.1504    166.9590
  2204.0000     11.0680     11.9372    147.3088    167.8189
  2204.2500     11.7987     12.7089    146.6219    163.3114
  2204.5000     12.6398     13.6227    146.1073    148.9371
  2204.7500     13.5858     14.6924    145.7715    135.9036
  2205.0000     14.6310     15.9326    145.6101    114.2704
  2205.2500     15.7646     17.3464    145.6102     99.5750
  2205.5000     16.9604     18.8987    145.7532     78.6233
  2205.7500     18.1676     20.4947    146.0184     66.5729
  2206.0000     19.3095     21.9847    146.3854     53.2173
  2206.2500     20.2958     23.2041    146.8353     47.7657
  2206.5000     21.0441     24.0273    147.3503     44.0561
  2206.7500     21.5028     24.4041    147.9124     43.7964
  2207.0000     21.6667     24.3657    148.5018     45.2579
  2207.2500     21.5762     24.0031    149.0962     46.7653
  2207.5000     21.3029     23.4339    149.6705     49.2553
  2207.7500     20.9286     22.7696    150.1979     50.9979
  2208.0000     20.5269     22.0940    150.6520     53.5750
  2208.2500     20.1508     21.4566    151.0081     54.9370
  2208.5000     19.8294     20.8791    151.2455     55.3867
  2208.7500     19.5710     20.3691    151.3486     54.0719
  2209.0000     19.3724     19.9309    151.3076     49.9873
  2209.2500     19.2275     19.5708    151.1187     46.9199
  2209.5000     19.1324     19.2954    150.7841     43.8924
  2209.7500     19.0846     19.1083    150.3113     43.3854
  2210.0000     19.0817     19.0081    149.7131     44.0359
  2210.2500     19.1199     18.9889    149.0074     44.6340
  2210.5000     19.1950     19.0435    148.2163     45.2777
  2210.7500     19.3037     19.1657    147.3660     45.7504
  2211.0000     19.4439     19.3520    146.4850     47.0307
  2211.2500     19.6139     19.6005    145.6032     48.3676
  2211.5000     19.8115     19.9075    144.7493     50.7246
  2211.7500     20.0360     20.2669    143.9490     51.9325
  2212.0000     20.2883     20.6700    143.2237     52.0175
  2212.2500     20.5701     21.1077    142.5894     50.7494
