~Version Information
VERS.                      2.0: CWLS Log ASCII Standard - VERSION 2.0
WRAP.                       NO: One line per depth step
~Well Information Block
STRT.FT               845.0000: 
STOP.FT              2103.2000: 
STEP.FT                 0.1000: 
NULL.                -999.2500: 
COMP.          Petrogulf Corporation: COMPANY
WELL.               YWAM 7-32R: WELL
FLD.           Purgatorie River: FIELD
LOC.           2355' FNL & 2376' FEL: LOCATION
PROV.                 Colorado: PROVINCE
CNTY.               Las Animas: COUNTRY
SRVC.                Patterson: SERVICE COMPANY
DATE.          Thu Sep 29 23:12:08 2005: LOG DATE
UWI.                          : UNIQUE WELL ID
~Curve Information Block
DEPT.FT            0 000 00 00: Depth
SP.mV                         : DIL Spontaneous Potential
RILD.Ohm-m                    : DIL Deep Resistivity
RILM.Ohm-m                    : DIL Medium Resistivity
RLL3.Ohm-m                    : DIL Shallow Resistivity
GR.GAPI                       : Gamma Ray
~Parameter Information Block
~A  Depth        SP         RILD        RILM        RLL3         GR     
# ...
  1091.4000    159.3960     11.0818     10.7658     13.5802    125.3833
  1091.5000    159.0938     11.3433     11.0000     13.3004    125.0658
  1091.6000    159.0938     11.3433     11.0000     13.3004    125.0590
  1091.7000    159.0938     11.3433     11.0000     13.3004    125.3331
  1091.8000    158.6219     11.6340     11.2936     13.2064    125.8368
  1091.9000    158.6219     11.6340     11.2936     13.2064    126.4978
  1092.0000    158.0776     11.9193     11.6411     13.4625    127.2248
  1092.1000    158.0776     11.9193     11.6411     13.4625    127.9093
  1092.2000    158.0776     11.9193     11.6411     13.4625    128.4428
  1092.3000    157.5001     12.1649     12.0287     14.1607    128.7199
  1092.4000    157.5001     12.1649     12.0287     14.1607    128.6575
  1092.5000    156.8618     12.3441     12.4321     15.2552    128.2101
  1092.6000    156.8618     12.3441     12.4321     15.2552    127.3717
  1092.7000    156.8618     12.3441     12.4321     15.2552    126.1901
  1092.8000    156.1030     12.4442     12.8169     16.5198    124.7626
  1092.9000    156.1030     12.4442     12.8169     16.5198    123.2205
  1093.0000    155.1703     12.4673     13.1433     17.5977    121.7248
  1093.1000    155.1703     12.4673     13.1433     17.5977    120.4320
  1093.2000    155.1703     12.4673     13.1433     17.5977    119.4853
  1093.3000    154.0405     12.4264     13.3726     18.1613    118.9834
  1093.4000    154.0405     12.4264     13.3726     18.1613    118.9809
  1093.5000    152.7351     12.3385     13.4767     18.0830    119.4672
  1093.6000    152.7351     12.3385     13.4767     18.0830    120.3843
  1093.7000    152.7351     12.3385     13.4767     18.0830    121.6290
  1093.8000    151.3234     12.2199     13.4440     17.4896    123.0826
  1093.9000    151.3234     12.2199     13.4440     17.4896    124.6215
  1094.0000    149.9033     12.0831     13.2812     16.6631    126.1417
  1094.1000    149.9033     12.0831     13.2812     16.6631    127.5710
  1094.2000    149.9033     12.0831     13.2812     16.6631    128.8688
  1094.3000    148.5644     11.9365     13.0097     15.8727    130.0204
  1094.4000    148.5644     11.9365     13.0097     15.8727    131.0237
  1094.5000    147.3554     11.7837     12.6599     15.2552    131.8783
  1094.6000    147.3554     11.7837     12.6599     15.2552    132.5714
  1094.7000    147.3554     11.7837     12.6599     15.2552    133.0775
  1094.8000    146.2756     11.6244     12.2647     14.7931    133.3612
  1094.9000    146.2756     11.6244     12.2647     14.7931    133.3935
  1095.0000    145.2905     11.4569     11.8556     14.3621    133.1620
  1095.1000    145.2905     11.4569     11.8556     14.3621    132.6891
  1095.2000    145.2905     11.4569     11.8556     14.3621    132.0311
  1095.3000    144.3562     11.2809     11.4597     13.8143    131.2806
  1095.4000    144.3562     11.2809     11.4597     13.8143    130.5502
  1095.5000    143.4389     11.0994     11.0986     13.0886    129.9525
  1095.6000    143.4389     11.0994     11.0986     13.0886    129.5793
  1095.7000    143.4389     11.0994     11.0986     13.0886    129.4830
  1095.8000    142.5244     10.9183     10.7872     12.2944    129.6607
  1095.9000    142.5244     10.9183     10.7872     12.2944    130.0542
  1096.0000    141.6175     10.7450     10.5336     11.6718    130.5568
  1096.1000    141.6175     10.7450     10.5336     11.6718    131.0340
  1096.2000    141.6175     10.7450     10.5336     11.6718    131.3451
  1096.3000    140.7380     10.5872     10.3408     11.4260    131.3688
  1096.4000    140.7380     10.5872     10.3408     11.4260    131.0322
  1096.5000    139.9184     10.4523     10.2070     11.5832    130.3207
  1096.6000    139.9184     10.4523     10.2070     11.5832    129.2852
  1096.7000    139.9184     10.4523     10.2070     11.5832    128.0395
  1096.8000    139.2037     10.3488     10.1278     11.9968    126.7327
  1096.9000    139.2037     10.3488     10.1278     11.9968    125.5298
  1097.0000    138.6438     10.2851     10.0982     12.4655    124.5824
  1097.1000    138.6438     10.2851     10.0982     12.4655    124.0001
  1097.2000    138.6438     10.2851     10.0982     12.4655    123.8406
  1097.3000    138.2808     10.2681     10.1133     12.8330    124.0971
  1097.4000    138.2808     10.2681     10.1133     12.8330    124.7137
  1097.5000    138.1347     10.3006     10.1700     13.0268    125.5921
  1097.6000    138.1347     10.3006     10.1700     13.0268    126.6196
  1097.7000    138.1347     10.3006     10.1700     13.0268    127.6876
  1097.8000    138.1981     10.3810     10.2664     13.0744    128.7082
  1097.9000    138.1981     10.3810     10.2664     13.0744    129.6232
  1098.0000    138.4377     10.5038     10.4011     13.0941    130.4100
  1098.1000    138.4377     10.5038     10.4011     13.0941    131.0708
  1098.2000    138.4377     10.5038     10.4011     13.0941    131.6200
  1098.3000    138.8004     10.6618     10.5727     13.2262    132.0762
  1098.4000    138.8004     10.6618     10.5727     13.2262    132.4502
  1098.5000    139.2229     10.8484     10.7784     13.5387    132.7367
  1098.6000    139.2229     10.8484     10.7784     13.5387    132.9185
  1098.7000    139.2229     10.8484     10.7784     13.5387    132.9685
  1098.8000    139.6476     11.0572     11.0132     13.9941    132.8601
  1098.9000    139.6476     11.0572     11.0132     13.9941    132.5757
  1099.0000    140.0345     11.2814     11.2701     14.4887    132.1146
  1099.1000    140.0345     11.2814     11.2701     14.4887    131.4958
  1099.2000    140.0345     11.2814     11.2701     14.4887    130.7530
  1099.3000    140.3596     11.5134     11.5402     14.9000    129.9337
  1099.4000    140.3596     11.5134     11.5402     14.9000    129.0873
  1099.5000    140.6031     11.7461     11.8138     15.1255    128.2584
  1099.6000    140.6031     11.7461     11.8138     15.1255    127.4826
  1099.7000    140.6031     11.7461     11.8138     15.1255    126.7882
  1099.8000    140.7399     11.9739     12.0814     15.1433    126.1970
  1099.9000    140.7399     11.9739     12.0814     15.1433    125.7318
  1100.0000    140.7433     12.1927     12.3349     15.0600    125.4144
  1100.1000    140.7433     12.1927     12.3349     15.0600    125.2664
  1100.2000    140.7433     12.1927     12.3349     15.0600    125.2971
  1100.3000    140.6008     12.3992     12.5673     15.0546    125.4977
  1100.4000    140.6008     12.3992     12.5673     15.0546    125.8304
  1100.5000    140.3215     12.5879     12.7738     15.2322    126.2291
  1100.6000    140.3215     12.5879     12.7738     15.2322    126.6070
  1100.7000    140.3215     12.5879     12.7738     15.2322    126.8702
  1100.8000    139.9314     12.7505     12.9510     15.5244    126.9396
  1100.9000    139.9314     12.7505     12.9510     15.5244    126.7727
  1101.0000    139.4599     12.8770     13.0975     15.7441    126.3771
  1101.1000    139.4599     12.8770     13.0975     15.7441    125.8080
  1101.2000    139.4599     12.8770     13.0975     15.7441    125.1602
  1101.3000    138.9348     12.9587     13.2133     15.7431    124.5442
  1101.4000    138.9348     12.9587     13.2133     15.7431    124.0599
  1101.5000    138.3839     12.9919     13.2995     15.5216    123.7728
  1101.6000    138.3839     12.9919     13.2995     15.5216    123.7009
  1101.7000    138.3839     12.9919     13.2995     15.5216    123.8087
  1101.8000    137.8383     12.9785     13.3570     15.2028    124.0223
  1101.9000    137.8383     12.9785     13.3570     15.2028    124.2476
  1102.0000    137.3290     12.9219     13.3851     14.9224    124.3962
  1102.1000    137.3290     12.9219     13.3851     14.9224    124.4084
  1102.2000    137.3290     12.9219     13.3851     14.9224    124.2644
  1102.3000    136.8811     12.8239     13.3806     14.7453    123.9952
  1102.4000    136.8811     12.8239     13.3806     14.7453    123.6704
  1102.5000    136.5113     12.6828     13.3376     14.6618    123.3845
