~Version Information
VERS.                      2.0: CWLS Log ASCII Standard - VERSION 2.0
WRAP.                       NO: One line per depth step
~Well Information Block
STRT.FT               245.0000: 
STOP.FT              1217.7000: 
STEP.FT                 0.1000: 
NULL.                -999.2500: 
COMP.          Pioneer Natural Resources: COMPANY
WELL.          Lucky Lady 42-29: WELL
FLD.           Purgatoire River: FIELD
LOC.           2482' FNL & 662' FEL--: LOCATION
CNTY.               Las Animas: COUNTY
SRVC.                Patterson: SERVICE COMPANY
DATE.          Thu Mar 09 18:39:54 2006: LOG DATE
UWI.           05 071 08659 00: UNIQUE WELL ID
STAT.                 Colorado: STATE
~Curve Information Block
DEPT.FT            0 000 00 00: Depth
DCAL.in                       : CDL Caliper
RHOB.g/cc                     : CDL Bulk Density
RHOC.g/cc                     : CDL Density Correction
DPOR.pu                       : CDL Density Porosity
NPOR.pu                       : Neutron Porosity
GR.GAPI                       : Gamma Ray
~Parameter Information Block
~A  Depth       DCAL        RHOB        RHOC        DPOR        NPOR         GR     
# ...
   619.4000      7.9130      2.5300      0.0512      7.2733     23.5351    143.5841
   619.5000      7.9184      2.5366      0.0526      6.8743     23.5306    147.8051
   619.6000      7.9184      2.5482      0.0884      6.1726     23.3255    151.1492
   619.7000      7.9184      2.5555      0.0339      5.7302     23.1965    152.6863
   619.8000      7.9148      2.5562      0.1039      5.6854     23.3250    153.1592
   619.9000      7.9148      2.5471      0.0574      6.2390     23.4317    152.6154
   620.0000      7.9080      2.5315      0.0352      7.1794     23.1212    153.1438
   620.1000      7.9080      2.5106      0.0572      8.4495     22.5383    154.1581
   620.2000      7.9080      2.4840      0.0302     10.0635     22.2874    151.2266
   620.3000      7.9076      2.4679      0.0237     11.0341     22.4912    145.8140
   620.4000      7.9076      2.4749      0.0304     10.6118     22.6202    144.4387
   620.5000      7.9160      2.4901      0.0468      9.6889     22.4317    148.3767
   620.6000      7.9160      2.4955      0.0306      9.3666     22.3621    152.5170
   620.7000      7.9160      2.4973      0.0217      9.2524     22.6810    154.3203
   620.8000      7.9286      2.5057      0.0214      8.7425     23.0061    157.3808
   620.9000      7.9286      2.5135      0.0160      8.2725     23.0525    162.4288
   621.0000      7.9419      2.5121      0.0682      8.3562     23.0293    166.0186
   621.1000      7.9419      2.5038      0.0526      8.8602     23.1047    166.5773
   621.2000      7.9419      2.5033      0.0169      8.8882     23.0571    166.6747
   621.3000      7.9509      2.5236      0.0122      7.6577     22.7720    170.4136
   621.4000      7.9509      2.5497      0.1047      6.0801     22.2707    175.8730
   621.5000      7.9486      2.5533      0.0710      5.8599     21.5056    176.6705
   621.6000      7.9486      2.5306      0.0404      7.2345     20.7348    171.2999
   621.7000      7.9486      2.4966      0.0051      9.2988     20.5192    163.7914
   621.8000      7.9342      2.4708      0.0170     10.8602     21.0034    156.8124
   621.9000      7.9342      2.4675      0.0138     11.0594     21.5748    151.5003
   622.0000      7.9100      2.4835      0.0483     10.0909     21.7551    149.4124
   622.1000      7.9100      2.5064      0.0447      8.7001     21.6570    148.7303
   622.2000      7.9100      2.5338      0.0389      7.0453     21.4280    146.4616
   622.3000      7.8803      2.5624      0.0950      5.3065     21.3774    140.7241
   622.4000      7.8803      2.5778      0.1283      4.3731     21.8980    129.5639
   622.5000      7.8600      2.5825      0.0826      4.0921     22.5135    117.4339
   622.6000      7.8600      2.5961      0.0649      3.2655     22.4713    110.0267
   622.7000      7.8600      2.6232      0.0877      1.6242     22.2688    107.5447
   622.8000      7.8580      2.6615      0.0763     -0.6953     22.7121    107.4150
   622.9000      7.8580      2.7046      0.1361     -3.3117     23.5753    106.0721
   623.0000      7.8719      2.7285      0.1043     -4.7603     24.3627    102.9016
   623.1000      7.8719      2.7188      0.0675     -4.1716     25.2871     96.8072
   623.2000      7.8719      2.6900      0.0149     -2.4218     26.5799     87.1693
   623.3000      7.8911      2.6626      0.0371     -0.7643     27.7758     79.0686
   623.4000      7.8911      2.6441     -0.0029      0.3555     28.5091     79.2830
   623.5000      7.9051      2.6315      0.0645      1.1224     28.7404     88.3860
   623.6000      7.9051      2.6168      0.0305      2.0151     28.3287     98.0641
   623.7000      7.9051      2.5981      0.0158      3.1442     27.6092    104.3032
   623.8000      7.9161      2.5845     -0.0415      3.9678     27.1068    112.5514
   623.9000      7.9161      2.5834      0.0260      4.0351     26.8312    124.6073
   624.0000      7.9255      2.5835      0.0691      4.0311     26.6021    136.0852
   624.1000      7.9255      2.5642      0.1068      5.2003     26.1562    144.9654
   624.2000      7.9255      2.5261      0.0466      7.5118     25.4199    151.8675
   624.3000      7.9319      2.4864      0.0644      9.9147     24.6333    154.9380
   624.4000      7.9319      2.4520      0.0531     11.9971     23.8212    153.8607
   624.5000      7.9358      2.4267      0.0329     13.5315     22.9371    152.7408
   624.6000      7.9358      2.4219      0.0295     13.8247     22.2233    153.6236
   624.7000      7.9358      2.4373      0.0473     12.8887     21.9144    154.1628
   624.8000      7.9349      2.4595      0.0548     11.5442     21.8530    153.0175
   624.9000      7.9349      2.4884      0.0274      9.7940     21.8463    152.9834
   625.0000      7.9296      2.5337      0.1154      7.0476     21.9943    155.2286
   625.1000      7.9296      2.5906      0.0797      3.6008     22.3625    155.4489
   625.2000      7.9296      2.6396      0.1818      0.6276     22.7908    151.3272
   625.3000      7.9239      2.6654      0.1535     -0.9321     23.1306    146.9176
   625.4000      7.9239      2.6785      0.1209     -1.7283     23.7070    143.7975
   625.5000      7.9162      2.6909      0.1718     -2.4810     24.5299    140.6975
   625.6000      7.9162      2.6936      0.1299     -2.6435     24.9093    138.3412
   625.7000      7.9162      2.6855      0.0948     -2.1538     24.7488    139.8603
   625.8000      7.9064      2.6776      0.0710     -1.6748     24.2831    146.7074
   625.9000      7.9064      2.6707      0.0734     -1.2521     23.4995    154.6582
   626.0000      7.9045      2.6512      0.0822     -0.0753     22.9454    157.1652
   626.1000      7.9045      2.6134      0.0719      2.2187     23.0835    150.5629
   626.2000      7.9045      2.5775      0.0326      4.3954     23.3069    141.0144
   626.3000      7.9143      2.5626      0.0447      5.2988     22.9569    137.7719
   626.4000      7.9143      2.5616      0.0031      5.3603     22.3417    141.7457
   626.5000      7.9306      2.5616      0.0545      5.3576     21.9467    143.7462
   626.6000      7.9306      2.5575      0.0233      5.6058     21.7711    136.4895
   626.7000      7.9306      2.5488     -0.0144      6.1319     21.6572    127.2992
   626.8000      7.9418      2.5297      0.0443      7.2894     21.6133    125.5527
   626.9000      7.9418      2.4977      0.0197      9.2313     21.6523    127.8752
   627.0000      7.9446      2.4705     -0.0455     10.8775     21.6583    127.1605
   627.1000      7.9446      2.4635     -0.0069     11.3048     21.7452    123.9752
   627.2000      7.9446      2.4715     -0.0366     10.8202     22.1743    125.6218
   627.3000      7.9494      2.4801     -0.0012     10.2973     22.7214    136.1112
   627.4000      7.9494      2.4727      0.0189     10.7427     22.9480    150.7344
   627.5000      7.9551      2.4497     -0.0105     12.1386     22.7539    163.0957
   627.6000      7.9551      2.4337     -0.0240     13.1078     22.3038    170.6296
   627.7000      7.9551      2.4407     -0.0271     12.6842     21.6802    171.8427
   627.8000      7.9549      2.4579      0.0233     11.6402     20.8976    165.4841
   627.9000      7.9549      2.4608      0.0468     11.4678     20.3351    153.9120
   628.0000      7.9505      2.4404      0.0285     12.7021     20.4191    141.6390
   628.1000      7.9505      2.4102      0.0109     14.5327     20.7603    135.9054
   628.2000      7.9505      2.3864      0.0085     15.9740     20.6503    140.7957
   628.3000      7.9435      2.3729     -0.0031     16.7936     20.0446    147.1489
   628.4000      7.9435      2.3629      0.0483     17.3981     19.3749    145.8922
   628.5000      7.9345      2.3530      0.0061     17.9979     18.8806    141.6776
   628.6000      7.9345      2.3498      0.0332     18.1960     18.5139    140.5908
   628.7000      7.9345      2.3525      0.0707     18.0323     18.0757    141.4056
   628.8000      7.9288      2.3572      0.0595     17.7458     17.4411    140.4767
   628.9000      7.9288      2.3708      0.0812     16.9217     16.8363    136.0647
