~Version Information
VERS.                      2.0: CWLS Log ASCII Standard - VERSION 2.0
WRAP.                       NO: One line per depth step
~Well Information Block
STRT.FT                65.0000: 
STOP.FT               998.0000: 
STEP.FT                 0.2500: 
NULL.                -999.2500: 
COMP.          Pioneer Natural Resources: COMPANY
WELL.              Gough 14-29: WELL
FLD.           Purgatorie River: FIELD
LOC.           1199' FSL & 676' FWL: LOCATION
PROV.                 Colorado: PROVINCE
CNTY.               Las Animas: COUNTRY
SRVC.                Patterson: SERVICE COMPANY
DATE.          Wed Dec 28 08:38:26 2005: LOG DATE
UWI.                          : UNIQUE WELL ID
~Curve Information Block
DEPT.FT            0 000 00 00: Depth
CCL.                          : Casing Collar Locator
TT3.usec                      : CBL 3' Travel Time
AMP3.mV                       : CBL 3' Amplitude
GR.GAPI                       : Gamma Ray
~Parameter Information Block
~A  Depth       CCL         TT3         AMP3         GR     
# ...
   802.0000      0.0000    705.2470      8.9448     75.4052
   802.2500      0.0000    703.4119      8.9831     73.9499
   802.5000      0.0000    702.4324      9.2418     72.5323
   802.7500      0.0000    705.2330      9.6171     71.4577
   803.0000      0.0000    709.8989      9.9528     70.5247
   803.2500      0.0000    713.0887     10.2138     69.5477
   803.5000      0.0000    714.0242     10.4288     68.8268
   803.7500      0.0000    713.0621     10.5902     68.7892
   804.0000      0.0000    709.9011     10.6817     69.1453
   804.2500      0.0000    705.2909     10.7141     68.8640
   804.5000      0.0000    702.7460     10.7144     67.1825
   804.7500      0.0000    704.8293     10.6982     64.3710
   805.0000      0.0000    709.3414     10.6654     61.4196
   805.2500      0.0000    712.8347     10.6311     59.2227
   805.5000      0.0000    714.6658     10.6186     58.1901
   805.7500      0.0000    715.8752     10.6257     58.3328
   806.0000      0.0000    717.1071     10.6448     59.2917
   806.2500      0.0000    718.4686     10.6827     60.2994
   806.5000      0.0000    720.5911     10.7450     60.6675
   806.7500      0.0000    725.2103     10.8291     60.5127
   807.0000      0.0000    733.3960     10.9238     60.4503
   807.2500      0.0000    742.6691     11.0131     60.3546
   807.5000      0.0000    748.1815     11.0818     59.0833
   807.7500      0.0000    748.5104     11.1334     55.7822
   808.0000      0.0000    747.8627     11.1947     50.9903
   808.2500      0.0000    750.2284     11.2782     46.1856
   808.5000      0.0000    754.5112     11.3620     42.6343
   808.7500      0.0000    757.8702     11.4212     40.8487
   809.0000      0.0000    759.6303     11.4470     40.7569
   809.2500      0.0000    760.4208     11.4371     42.0374
   809.5000      0.0000    760.7263     11.3924     44.3318
   809.7500      0.0000    760.8287     11.3231     47.1873
   810.0000      0.0000    760.8611     11.2421     49.8468
   810.2500      0.0000    760.7906     11.1497     51.3654
   810.5000      0.0000    760.5784     11.0415     51.2306
   810.7500      0.0000    760.1043     10.9291     49.7695
   811.0000      0.0000    758.5800     10.8156     47.7819
   811.2500      0.0000    754.1492     10.6704     45.9758
   811.5000      0.0000    745.4608     10.4882     44.9081
   811.7500      0.0000    734.3788     10.3383     45.0510
   812.0000      0.0000    724.6497     10.2907     46.3560
   812.2500      0.0000    717.5009     10.3400     47.8615
   812.5000      0.0000    712.1793     10.4368     48.3062
   812.7500      0.0000    709.5883     10.5409     47.3199
   813.0000      0.0000    710.8174     10.6274     45.7779
   813.2500      0.0000    714.0430     10.6842     44.9232
   813.5000      0.0000    716.5789     10.7175     45.2733
   813.7500      0.0000    717.6613     10.7476     46.3986
   814.0000      0.0000    717.8240     10.7901     47.6793
   814.2500      0.0000    717.5474     10.8537     49.0634
   814.5000      0.0000    717.0954     10.9518     50.8833
   814.7500      0.0000    717.0503     11.0814     53.1265
   815.0000      0.0000    718.7186     11.2161     55.3292
   815.2500      0.0000    723.9798     11.3568     57.1664
   815.5000      0.0000    733.7452     11.5343     58.7160
   815.7500      0.0000    745.5952     11.7452     60.0708
   816.0000      0.0000    754.9421     11.9524     61.0645
   816.2500      0.0000    759.6453     12.1303     61.5295
   816.5000      0.0000    761.1601     12.2583     61.7057
   816.7500      0.0000    761.5602     12.3125     62.3082
   817.0000      0.0000    761.6557     12.2942     64.1160
   817.2500      0.0000    761.5054     12.2400     67.2917
   817.5000      0.0000    761.2413     12.1817     71.0713
   817.7500      0.0000    760.8375     12.1288     74.3158
   818.0000      0.0000    759.3325     12.0832     76.4054
   818.2500      0.0000    754.7665     12.0228     77.5120
   818.5000      0.0000    745.9541     11.9092     78.1178
   818.7500      0.0000    735.0334     11.7362     78.4362
   819.0000      0.0000    726.3068     11.5180     78.3250
   819.2500      0.0000    721.9482     11.2625     77.6575
   819.5000      0.0000    721.4245     10.9908     76.4580
   819.7500      0.0000    723.8758     10.7366     74.5736
   820.0000      0.0000    726.4217     10.5145     71.6249
   820.2500      0.0000    719.2509     10.3209     67.5531
   820.5000      0.0000    686.5859     10.1605     62.9446
   820.7500      0.0000    619.2174     10.0504     58.7732
   821.0000      0.0000    530.5120     10.0022     56.0677
   821.2500      0.0000    451.9454     10.0034     55.5262
   821.5000      0.0000    404.7348     10.0214     57.0072
   821.7500      0.0000    385.3739     10.0318     59.5649
   822.0000      0.0000    379.6424     10.0239     62.2227
   822.2500      0.0000    377.3127      9.9993     64.5288
   822.5000      0.0000    373.4583      9.9827     66.3306
   822.7500      0.0000    366.2082      9.9962     67.4236
   823.0000      0.0000    357.0822     10.0120     67.6561
   823.2500      0.0000    349.7014      9.9814     67.1427
   823.5000      0.0000    346.0224      9.9136     66.1755
   823.7500      0.0000    345.7901      9.8717     64.9764
   824.0000      0.0000    349.0347      9.8946     63.5283
   824.2500      0.0000    356.1048      9.9714     61.6274
   824.5000      0.0000    365.1637     10.0765     59.1944
   824.7500      0.0000    372.6154     10.1935     56.5578
   825.0000      0.0000    376.7263     10.3099     54.3307
   825.2500      0.0000    378.4813     10.4129     52.9964
   825.5000      0.0000    379.3173     10.4858     52.5988
   825.7500      0.0000    379.8612     10.5095     52.7114
   826.0000      0.0000    380.2006     10.4859     52.6912
   826.2500      0.0000    380.2722     10.4613     52.0812
   826.5000      0.0000    380.0384     10.5024     50.8547
   826.7500      0.0000    379.6136     10.6380     49.4445
   827.0000      0.0000    379.2917     10.8266     48.6089
   827.2500      0.0000    379.4498     10.9876     48.9913
   827.5000      0.0000    380.7584     11.0732     50.5771
   827.7500      0.0000    385.0788     11.1056     52.6195
   828.0000      0.0000    395.6540     11.1454     54.0693
   828.2500      0.0000    412.8286     11.2470     54.1087
   828.5000      0.0000    428.0023     11.4413     52.6478
   828.7500      0.0000    430.2888     11.7168     50.4896
   829.0000      0.0000    422.6333     12.0024     48.7837
   829.2500      0.0000    418.0044     12.2147     48.1941
   829.5000      0.0000    419.1297     12.3366     48.6010
   829.7500      0.0000    416.6776     12.4160     49.3397
   830.0000      0.0000    403.2059     12.4908     49.6500
   830.2500      0.0000    381.0421     12.5437     49.2663
   830.5000      0.0000    360.1778     12.5501     48.8083
   830.7500      0.0000    347.8137     12.5348     49.3774
   831.0000      0.0000    342.8902     12.5352     51.5081
   831.2500      0.0000    341.4607     12.5503     54.6338
   831.5000      0.0000    341.2253     12.5625     57.7579
   831.7500      0.0000    341.3709     12.5711     60.3732
   832.0000      0.0000    341.6510     12.5811     62.3138
   832.2500      0.0000    341.9525     12.5749     63.1044
   832.5000      0.0000    342.1243     12.5289     62.2452
   832.7500      0.0000    342.0696     12.4525     60.0959
   833.0000      0.0000    341.8727     12.3707     57.8370
   833.2500      0.0000    341.6690     12.2824     56.4584
   833.5000      0.0000    341.4960     12.1800     56.0722
   833.7500      0.0000    341.3446     12.0848     56.2113
   834.0000      0.0000    341.2085     12.0124     56.5722
   834.2500      0.0000    341.0827     11.9348     57.2422
   834.5000      0.0000    341.0309     11.8313     58.1896
   834.7500      0.0000    341.1538     11.7344     59.0226
   835.0000      0.0000    341.3892     11.6867     59.7016
   835.2500      0.0000    341.5313     11.7027     60.8763
