~Version Information
VERS.                      2.0: CWLS Log ASCII Standard - VERSION 2.0
WRAP.                       NO: One line per depth step
~Well Information Block
STRT.FT               830.0000: 
STOP.FT              1792.5000: 
STEP.FT                 0.1000: 
NULL.                -999.2500: 
COMP.          Pioneer Natural Resources: COMPANY
WELL.           Rolls 14-14 Tr: WELL
FLD.           Purgatoire River: FIELD
LOC.           473' FSL & 817' FWL: LOCATION
PROV.                 Colorado: PROVINCE
CNTY.               Las Animas: COUNTRY
SRVC.                Patterson: SERVICE COMPANY
DATE.          Wed Aug 03 07:11:37 2005: LOG DATE
UWI.           05 071 08454 00: UNIQUE WELL ID
~Curve Information Block
DEPT.FT            0 000 00 00: Depth
DCAL.in                       : CDL Caliper
RHOB.g/cc                     : CDL Bulk Density
RHOC.g/cc                     : CDL Density Correction
DPOR.pu                       : CDL Density Porosity
GR.GAPI                       : Gamma Ray
NPOR.pu                       : Neutron Porosity
~Parameter Information Block
~A  Depth       DCAL        RHOB        RHOC        DPOR         GR         NPOR    
# ...
  1214.0000      8.0542      2.5290      0.0448      7.3321     79.6905     18.0574
  1214.1000      8.0542      2.4955     -0.0221      9.3613     72.3828     15.5845
  1214.2000      8.0542      2.4732     -0.0280     10.7166     65.3199     15.4128
  1214.3000      8.0486      2.4780     -0.0025     10.4269     60.3603     17.5372
  1214.4000      8.0486      2.5009      0.0025      9.0374     59.6048     19.6419
  1214.5000      8.0685      2.5246      0.0429      7.5974     60.1071     19.1933
  1214.6000      8.0685      2.5419      0.0315      6.5504     58.8117     17.3530
  1214.7000      8.0685      2.5647      0.0431      5.1670     59.0713     16.7313
  1214.8000      8.0709      2.5950      0.0610      3.3328     62.4087     17.9579
  1214.9000      8.0709      2.6142      0.0928      2.1712     66.8255     19.3214
  1215.0000      8.0653      2.6195      0.0635      1.8460     69.9625     18.9292
  1215.1000      8.0653      2.6254      0.0844      1.4917     68.5853     18.0457
  1215.2000      8.0653      2.6372      0.0370      0.7742     63.7900     18.4872
  1215.3000      8.0748      2.6514      0.0641     -0.0835     61.5367     18.9235
  1215.4000      8.0748      2.6512      0.0727     -0.0715     64.9104     17.1910
  1215.5000      8.0768      2.6277      0.0248      1.3540     70.8738     14.8932
  1215.6000      8.0768      2.6032     -0.0016      2.8340     75.6586     14.6458
  1215.7000      8.0768      2.5989      0.0751      3.0946     78.4736     16.9290
  1215.8000      8.0443      2.6024      0.0521      2.8852     80.5898     20.1114
  1215.9000      8.0443      2.6000      0.0626      3.0308     83.0950     22.3205
  1216.0000      8.0122      2.6076      0.0314      2.5707     84.2408     23.1400
  1216.1000      8.0122      2.6385      0.1175      0.6952     81.9947     22.4433
  1216.2000      8.0122      2.6730      0.1750     -1.3936     79.7683     20.8998
  1216.3000      7.9982      2.6865      0.1463     -2.2127     84.8315     20.4339
  1216.4000      7.9982      2.6800      0.1110     -1.8181     96.4330     21.9600
  1216.5000      7.9981      2.6664      0.0767     -0.9939    104.5002     23.3983
  1216.6000      7.9981      2.6447      0.0759      0.3197    106.0149     22.0377
  1216.7000      7.9981      2.6078      0.0252      2.5548    107.2253     19.7187
  1216.8000      8.0340      2.5667      0.0206      5.0501    113.0552     19.7880
  1216.9000      8.0340      2.5421      0.0040      6.5420    123.3929     22.7446
  1217.0000      8.0390      2.5469      0.0504      6.2512    133.6317     25.8434
  1217.1000      8.0390      2.5741      0.0484      4.5989    139.6438     26.6286
  1217.2000      8.0390      2.5953      0.0914      3.3158    141.4897     25.3422
  1217.3000      8.0804      2.5831      0.0634      4.0572    140.2432     23.0623
  1217.4000      8.0804      2.5372      0.0537      6.8373    137.9828     21.5624
  1217.5000      8.1150      2.4827      0.0162     10.1377    139.7992     22.2367
  1217.6000      8.1150      2.4492     -0.0064     12.1676    146.0225     25.0544
  1217.7000      8.1150      2.4420      0.0503     12.6043    150.2370     27.3382
  1217.8000      8.1131      2.4452      0.0338     12.4148    149.8367     25.8280
  1217.9000      8.1131      2.4455      0.0520     12.3914    146.3159     23.1019
  1218.0000      8.1273      2.4392      0.1076     12.7738    142.9454     22.9241
  1218.1000      8.1273      2.4400      0.0259     12.7245    144.8967     23.9255
  1218.2000      8.1273      2.4612      0.1127     11.4453    150.2071     21.9154
  1218.3000      8.1357      2.4890      0.1001      9.7589    151.1919     17.5906
  1218.4000      8.1357      2.5121      0.1301      8.3587    149.3673     15.5180
  1218.5000      8.1457      2.5248      0.1468      7.5890    148.3922     17.7015
  1218.6000      8.1457      2.5195      0.1614      7.9112    146.1863     23.6037
  1218.7000      8.1457      2.5003      0.1345      9.0726    143.2312     28.6710
  1218.8000      8.1188      2.4743      0.1083     10.6484    141.0180     29.9518
  1218.9000      8.1188      2.4455      0.0640     12.3916    138.4251     30.1718
  1219.0000      8.1069      2.4273      0.0227     13.4998    137.7507     30.3292
  1219.1000      8.1069      2.4350      0.0226     13.0286    141.2317     29.3892
  1219.2000      8.1069      2.4660      0.0779     11.1518    143.9179     27.2110
  1219.3000      8.1025      2.4981      0.1447      9.2054    142.4766     24.9161
  1219.4000      8.1025      2.5046      0.1731      8.8110    140.0551     23.1917
  1219.5000      8.1112      2.4793      0.1352     10.3469    138.6742     22.5570
  1219.6000      8.1112      2.4459      0.0711     12.3695    139.8668     24.3999
  1219.7000      8.1112      2.4222      0.1102     13.8070    143.2983     28.4880
  1219.8000      8.1142      2.4024      0.0605     15.0046    146.0509     31.6175
  1219.9000      8.1142      2.3934      0.0181     15.5486    147.0196     32.2491
  1220.0000      8.1316      2.4095      0.0888     14.5743    145.1579     30.9832
  1220.1000      8.1316      2.4427      0.1087     12.5626    140.2678     27.6780
  1220.2000      8.1316      2.4798      0.1264     10.3146    136.1317     23.4826
  1220.3000      8.1730      2.5132      0.1790      8.2888    136.8636     21.3824
  1220.4000      8.1730      2.5416      0.1627      6.5725    139.0587     22.7293
  1220.5000      8.2081      2.5725      0.2365      4.6957    137.1999     25.7987
  1220.6000      8.2081      2.6050      0.2222      2.7264    132.1424     25.9192
  1220.7000      8.2081      2.6270      0.2277      1.3912    128.0778     22.0182
  1220.8000      8.1777      2.6309      0.1815      1.1583    128.6762     19.0370
  1220.9000      8.1777      2.6151      0.1749      2.1150    131.3395     19.8229
  1221.0000      8.2376      2.5843      0.1175      3.9801    129.5078     23.4372
  1221.1000      8.2376      2.5526      0.1278      5.9010    122.5336     26.6394
  1221.2000      8.2376      2.5346      0.0802      6.9967    114.7626     27.2031
  1221.3000      8.1408      2.5321      0.1102      7.1459    110.6066     25.1217
  1221.4000      8.1408      2.5355      0.0599      6.9418    110.4051     22.4101
  1221.5000      8.0278      2.5403      0.0418      6.6503    111.2876     21.9326
  1221.6000      8.0278      2.5473      0.0373      6.2221    113.7297     23.8164
  1221.7000      8.0278      2.5547      0.0648      5.7730    116.5148     24.7934
  1221.8000      8.0394      2.5632      0.0655      5.2582    118.1023     22.4440
  1221.9000      8.0394      2.5718      0.0633      4.7374    122.3026     20.4689
  1222.0000      8.0296      2.5730      0.0833      4.6655    127.6595     22.0840
  1222.1000      8.0296      2.5663      0.0378      5.0747    130.6377     25.6808
  1222.2000      8.0296      2.5596      0.0583      5.4798    132.8413     27.3405
  1222.3000      8.0360      2.5550      0.0591      5.7586    134.0939     26.4475
  1222.4000      8.0360      2.5488      0.0490      6.1353    133.0857     23.0745
  1222.5000      8.0396      2.5383      0.0326      6.7689    132.4298     18.2471
  1222.6000      8.0396      2.5259      0.0215      7.5238    136.5668     15.8369
  1222.7000      8.0396      2.5173      0.0301      8.0417    144.6264     17.5778
  1222.8000      8.0396      2.5168      0.0165      8.0721    151.0018     22.2668
  1222.9000      8.0396      2.5265      0.0307      7.4866    152.8000     26.0398
  1223.0000      8.0248      2.5452      0.0593      6.3514    151.3055     26.9807
  1223.1000      8.0248      2.5741      0.0521      4.6029    146.1560     26.0714
  1223.2000      8.0248      2.6072      0.0971      2.5915    140.1940     23.9997
  1223.3000      8.0036      2.6199      0.1029      1.8236    139.8633     21.9996
  1223.4000      8.0036      2.6033      0.1011      2.8273    142.4961     21.9794
  1223.5000      8.0104      2.5822      0.0755      4.1082    142.0484     24.0537
