~Version Information
VERS.                      2.0: CWLS Log ASCII Standard - VERSION 2.0
WRAP.                       NO: One line per depth step
~Well Information Block
STRT.FT                -6.5000: 
STOP.FT              1564.2500: 
STEP.FT                 0.2500: 
NULL.                -999.2500: 
COMP.          Pioneer Natural Resources: COMPANY
WELL.            Bluesky 44-17: WELL
FLD.           Purgatorie River: FIELD
LOC.           --39' FSL & 288' FEL------: LOCATION
STAT.                       CO: State
CNTY.               Las Animas: COUNTY
CTRY. USA : Country
SECT. 17 : Section
TOWN. 33S : Township
RANG. 66W : Range
SRVC.          Patterson Wireline: SERVICE COMPANY
DATE.          Tue Sep 13 13:24:14 2005: LOG DATE
API.           05 071 08511 00: UNIQUE WELL ID
~Curve Information Block
DEPT.FT            0 000 00 00: Depth
CCL.                          : Casing Collar Locator
TT3.usec                      : CBL 3' Travel Time
AMP3.mV                       : CBL 3' Amplitude
GR.GAPI                       : Gamma Ray
~Parameter Information Block
~A  Depth       CCL         TT3         AMP3         GR     
# ...
   931.5000      0.0000    754.8560      8.8080    110.1215
   931.7500      0.0000    764.6696      8.9022    109.3626
   932.0000      0.0000    774.2868      8.9853    108.5851
   932.2500      0.0000    780.6794      9.0508    109.6918
   932.5000      0.0000    780.8215      9.1025    113.0313
   932.7500      0.0000    772.9583      9.1457    116.9809
   933.0000      0.0000    758.0495      9.1794    119.2306
   933.2500      0.0000    740.3801      9.1955    118.3401
   933.5000      0.0000    725.7430      9.1830    114.4728
   933.7500      0.0000    717.9531      9.1329    109.1176
   934.0000      0.0000    717.0044      9.0435    104.4160
   934.2500      0.0000    720.2650      8.9234    102.6191
   934.5000      0.0000    724.4900      8.7894    105.6655
   934.7500      0.0000    726.7946      8.6588    114.8221
   935.0000      0.0000    725.3694      8.5377    130.3089
   935.2500      0.0000    720.5527      8.4194    150.4712
   935.5000      0.0000    715.0158      8.2978    170.9351
   935.7500      0.0000    712.1030      8.1861    185.5543
   936.0000      0.0000    713.4822      8.1191    189.7633
   936.2500      0.0000    718.2948      8.1312    183.6338
   936.5000      0.0000    724.4674      8.2281    171.2926
   936.7500      0.0000    730.4918      8.3833    157.3482
   937.0000      0.0000    735.8425      8.5622    144.1479
   937.2500      0.0000    740.4421      8.7469    131.9064
   937.5000      0.0000    744.2515      8.9362    120.3597
   937.7500      0.0000    746.6885      9.1240    109.7852
   938.0000      0.0000    746.3984      9.2892    100.8099
   938.2500      0.0000    743.1508      9.4080     93.7545
   938.5000      0.0000    739.9080      9.4739     88.3671
   938.7500      0.0000    740.5822      9.4947     84.2030
   939.0000      0.0000    745.1279      9.4746     81.3224
   939.2500      0.0000    748.7322      9.4086     80.5988
   939.5000      0.0000    746.1795      9.2967     83.2142
   939.7500      0.0000    735.8121      9.1590     89.4766
   940.0000      0.0000    719.9346      9.0325     97.8939
   940.2500      0.0000    703.0220      8.9508    105.6614
   940.5000      0.0000    689.2464      8.9269    110.6323
   940.7500      0.0000    680.5209      8.9542    113.1514
   941.0000      0.0000    676.4180      9.0183    115.8661
   941.2500      0.0000    675.7358      9.1062    121.4026
   941.5000      0.0000    677.8792      9.2037    130.0743
   941.7500      0.0000    682.8120      9.2911    139.8135
   942.0000      0.0000    689.9515      9.3454    147.9532
   942.2500      0.0000    697.3294      9.3528    152.6611
   942.5000      0.0000    702.0805      9.3198    153.3249
   942.7500      0.0000    702.0682      9.2700    150.9142
   943.0000      0.0000    697.2813      9.2278    147.9740
   943.2500      0.0000    689.8332      9.2054    147.0645
   943.5000      0.0000    682.5485      9.2002    148.6479
   943.7500      0.0000    677.3329      9.1941    150.9027
   944.0000      0.0000    674.6578      9.1468    151.5743
   944.2500      0.0000    674.2899      8.9943    149.5776
   944.5000      0.0000    676.2025      8.6856    145.0812
   944.7500      0.0000    680.8172      8.2532    138.9272
   945.0000      0.0000    688.8623      7.8330    132.3837
   945.2500      0.0000    701.3466      7.5599    127.0242
   945.5000      0.0000    719.0651      7.4428    124.2752
   945.7500      0.0000    740.6486      7.3879    124.8210
   946.0000      0.0000    760.8879      7.3268    128.3300
   946.2500      0.0000    772.8691      7.2679    133.6351
   946.5000      0.0000    773.5159      7.2429    139.1966
   946.7500      0.0000    766.6005      7.2665    143.5088
   947.0000      0.0000    759.2684      7.3523    145.3820
   947.2500      0.0000    755.8709      7.5505    144.5083
   947.5000      0.0000    755.7209      7.9567    141.9816
   947.7500      0.0000    756.1663      8.6419    139.5639
   948.0000      0.0000    756.2089      9.5257    137.6710
   948.2500      0.0000    756.0543     10.3561    134.4826
   948.5000      0.0000    754.2637     10.8881    127.9311
   948.7500      0.0000    747.9620     11.0726    118.4421
   949.0000      0.0000    736.6418     11.0352    108.8499
   949.2500      0.0000    724.1849     10.9164    101.4620
   949.5000      0.0000    715.9736     10.7770     96.0932
   949.7500      0.0000    714.0236     10.6200     91.4589
   950.0000      0.0000    715.1344     10.4412     87.6320
   950.2500      0.0000    713.8420     10.2513     86.1342
   950.5000      0.0000    707.3337     10.0713     87.9885
   950.7500      0.0000    697.5948      9.9230     92.6138
   951.0000      0.0000    689.3179      9.8201     98.5133
   951.2500      0.0000    686.4988      9.7663    104.2825
   951.5000      0.0000    690.5024      9.7588    108.9398
   951.7500      0.0000    699.5682      9.7915    112.1014
   952.0000      0.0000    709.3719      9.8517    114.3434
   952.2500      0.0000    715.3035      9.9164    117.0731
   952.5000      0.0000    715.5470      9.9607    121.5166
   952.7500      0.0000    711.9419      9.9715    127.5647
   953.0000      0.0000    707.9378      9.9544    133.7239
   953.2500      0.0000    706.0789      9.9251    138.2996
   953.5000      0.0000    706.6364      9.8977    140.4870
   953.7500      0.0000    707.3990      9.8794    140.0797
   954.0000      0.0000    705.1729      9.8723    136.4773
   954.2500      0.0000    698.6604      9.8782    128.8380
   954.5000      0.0000    689.9251      9.8983    117.4445
   954.7500      0.0000    682.6793      9.9298    104.2776
   955.0000      0.0000    679.6793      9.9623     91.9134
   955.2500      0.0000    681.7614      9.9826     82.1409
   955.5000      0.0000    687.7584      9.9827     75.4257
   955.7500      0.0000    694.3267      9.9636     71.2029
   956.0000      0.0000    697.1753      9.9313     68.7756
   956.2500      0.0000    694.3160      9.8903     68.1680
   956.5000      0.0000    688.0898      9.8417     70.0050
   956.7500      0.0000    683.3997      9.7856     74.6352
   957.0000      0.0000    684.2401      9.7256     81.6006
   957.2500      0.0000    691.6879      9.6689     89.7356
   957.5000      0.0000    703.8253      9.6232     97.4770
   957.7500      0.0000    717.0896      9.5929    103.0780
   958.0000      0.0000    728.6158      9.5768    104.7446
   958.2500      0.0000    737.7047      9.5698    101.2052
   958.5000      0.0000    744.8815      9.5674     93.0124
   958.7500      0.0000    750.1071      9.5674     83.2424
   959.0000      0.0000    752.6487      9.5677     75.8639
   959.2500      0.0000    752.0491      9.5616     72.8436
   959.5000      0.0000    748.5621      9.5385     73.1192
   959.7500      0.0000    743.8099      9.4908     74.3388
   960.0000      0.0000    741.6817      9.4237     75.0126
   960.2500      0.0000    746.4125      9.3573     75.0842
   960.5000      0.0000    758.1957      9.3163     75.4458
   960.7500      0.0000    772.0961      9.3118     77.3979
   961.0000      0.0000    782.1754      9.3301     81.9245
   961.2500      0.0000    785.9648      9.3411     88.8834
   961.5000      0.0000    785.1808      9.3194     97.1307
   961.7500      0.0000    783.5120      9.2556    105.5948
   962.0000      0.0000    783.7729      9.1465    113.7999
   962.2500      0.0000    786.1288      8.9889    121.2456
   962.5000      0.0000    788.4406      8.7944    126.9653
   962.7500      0.0000    788.3199      8.6028    130.2261
   963.0000      0.0000    785.2017      8.4646    131.4620
   963.2500      0.0000    780.9354      8.4045    132.1209
   963.5000      0.0000    778.3122      8.4079    133.3468
   963.7500      0.0000    778.5573      8.4422    134.9047
   964.0000      0.0000    780.4586      8.4823    135.7151
   964.2500      0.0000    782.1625      8.5147    135.3565
   964.5000      0.0000    783.0890      8.5321    134.5166
   964.7500      0.0000    783.6606      8.5320    133.8478
