~Version Information
VERS.                      2.0: CWLS Log ASCII Standard - VERSION 2.0
WRAP.                       NO: One line per depth step
~Well Information Block
STRT.FT               625.0000: 
STOP.FT              2053.7500: 
STEP.FT                 0.2500: 
NULL.                -999.2500: 
COMP.          Pioneer Natural Resources: COMPANY
WELL.            Zink 44-10 Tr: WELL
FLD.           Purgatoire River: FIELD
LOC.           486' FSL & 554' FEL--: LOCATION
PROV.                 Colorado: PROVINCE
CNTY.               Las Animas: COUNTRY
SRVC.                Patterson: SERVICE COMPANY
DATE.          Sun Jul 24 06:18:01 2005: LOG DATE
UWI.           05 071 08446 00: UNIQUE WELL ID
~Curve Information Block
DEPT.FT            0 000 00 00: Depth
SN.Ohm-m                      : IEL Short Normal
SP.mV                         : IEL Spontaneous Potential
DIR.Ohm-m                     : IEL Induction Resistivity
GR.GAPI                       : Gamma Ray
~Parameter Information Block
~A  Depth        SN          SP         DIR          GR     
# ...
   725.5000   2000.0000   1979.0000     14.8924    122.6211
   725.7500   2000.0000   1979.0000     14.8965    123.1972
   726.0000   2000.0000   1979.0000     14.9309    124.9167
   726.2500   2000.0000   1979.0000     14.9966    126.5322
   726.5000   2000.0000   1979.0000     15.0969    129.2371
   726.7500   2000.0000   1979.0000     15.2280    131.0021
   727.0000   2000.0000   1979.0000     15.3758    133.2559
   727.2500   2000.0000   1979.0000     15.5204    134.2967
   727.5000   2000.0000   1979.0000     15.6454    134.7873
   727.7500   2000.0000   1979.0000     15.7439    134.2358
   728.0000   2000.0000   1979.0000     15.8176    132.3388
   728.2500   2000.0000   1979.0000     15.8714    130.9444
   728.5000   2000.0000   1979.0000     15.9096    129.7908
   728.7500   2000.0000   1979.0000     15.9377    129.8709
   729.0000   2000.0000   1979.0000     15.9645    130.7833
   729.2500   2000.0000   1979.0000     15.9997    131.5730
   729.5000   2000.0000   1979.0000     16.0472    132.8921
   729.7500   2000.0000   1979.0000     16.0997    133.8474
   730.0000   2000.0000   1979.0000     16.1404    134.9821
   730.2500   2000.0000   1979.0000     16.1512    135.2361
   730.5000   2000.0000   1979.0000     16.1225    134.7341
   730.7500   2000.0000   1979.0000     16.0596    133.8540
   731.0000   2000.0000   1979.0000     15.9810    131.5916
   731.2500   2000.0000   1979.0000     15.9087    129.3912
   731.5000   2000.0000   1979.0000     15.8587    125.4063
   731.7500   2000.0000   1979.0000     15.8349    122.6889
   732.0000   2000.0000   1979.0000     15.8297    119.0780
   732.2500   2000.0000   1979.0000     15.8307    117.2110
   732.5000   2000.0000   1979.0000     15.8284    115.6556
   732.7500   2000.0000   1979.0000     15.8221    115.6315
   733.0000   2000.0000   1979.0000     15.8202    116.8396
   733.2500   2000.0000   1979.0000     15.8348    117.9578
   733.5000   2000.0000   1979.0000     15.8740    119.1417
   733.7500   2000.0000   1979.0000     15.9369    119.2562
   734.0000   2000.0000   1979.0000     16.0145    118.2964
   734.2500   2000.0000   1979.0000     16.0962    117.0848
   734.5000   2000.0000   1979.0000     16.1768    115.0426
   734.7500   2000.0000   1979.0000     16.2580    113.8873
   735.0000   2000.0000   1979.0000     16.3463    112.5351
   735.2500   2000.0000   1979.0000     16.4503    111.5435
   735.5000   2000.0000   1979.0000     16.5797    109.1797
   735.7500   2000.0000   1979.0000     16.7466    106.8701
   736.0000   2000.0000   1979.0000     16.9628    102.7256
   736.2500   2000.0000   1979.0000     17.2344     99.9008
   736.5000   2000.0000   1979.0000     17.5572     95.8916
   736.7500   2000.0000   1979.0000     17.9194     93.2677
   737.0000   2000.0000   1979.0000     18.3114     89.0587
   737.2500   2000.0000   1979.0000     18.7328     85.9526
   737.5000   2000.0000   1979.0000     19.1915     80.9165
   737.7500   2000.0000   1979.0000     19.6950     77.5497
   738.0000   2000.0000   1979.0000     20.2415     73.2278
   738.2500   2000.0000   1979.0000     20.8184     71.2643
   738.5000   2000.0000   1979.0000     21.4044     69.8205
   738.7500   2000.0000   1979.0000     21.9737     69.4357
   739.0000   2000.0000   1979.0000     22.4999     68.6622
   739.2500   2000.0000   1979.0000     22.9615     67.6084
   739.5000   2000.0000   1979.0000     23.3494     65.2389
   739.7500   2000.0000   1979.0000     23.6740     63.5188
   740.0000   2000.0000   1979.0000     23.9659     61.6799
   740.2500   2000.0000   1979.0000     24.2693     61.3335
   740.5000   2000.0000   1979.0000     24.6329     61.9679
   740.7500   2000.0000   1979.0000     25.1032     62.6678
   741.0000   2000.0000   1979.0000     25.7164     63.2829
   741.2500   2000.0000   1979.0000     26.4907     63.1699
   741.5000   2000.0000   1979.0000     27.4221     62.2606
   741.7500   2000.0000   1979.0000     28.4884     61.3189
   742.0000   2000.0000   1979.0000     29.6627     59.6696
   742.2500   2000.0000   1979.0000     30.9239     58.4746
   742.5000   2000.0000   1979.0000     32.2529     56.5596
   742.7500   2000.0000   1979.0000     33.6111     55.3445
   743.0000   2000.0000   1979.0000     34.9154     54.1537
   743.2500   2000.0000   1979.0000     36.0312     54.0288
   743.5000   2000.0000   1979.0000     36.7984     54.7667
   743.7500   2000.0000   1979.0000     37.0918     55.6083
   744.0000   2000.0000   1979.0000     36.8865     56.9057
   744.2500   2000.0000   1979.0000     36.2780     57.5816
   744.5000   2000.0000   1979.0000     35.4331     58.0779
   744.7500   2000.0000   1979.0000     34.5124     57.9869
   745.0000   2000.0000   1979.0000     33.6211     57.1718
   745.2500   2000.0000   1979.0000     32.8077     56.1728
   745.5000   2000.0000   1979.0000     32.0901     54.0669
   745.7500   2000.0000   1979.0000     31.4816     52.4309
   746.0000   2000.0000   1979.0000     31.0026     50.2064
   746.2500   2000.0000   1979.0000     30.6735     49.2350
   746.5000   2000.0000   1979.0000     30.4983     48.8403
   746.7500   2000.0000   1979.0000     30.4514     49.2205
   747.0000   2000.0000   1979.0000     30.4828     50.4141
   747.2500   2000.0000   1979.0000     30.5399     51.3910
   747.5000   2000.0000   1979.0000     30.5873     52.7866
   747.7500   2000.0000   1979.0000     30.6113     53.5635
   748.0000   2000.0000   1979.0000     30.6091     54.4455
   748.2500   2000.0000   1979.0000     30.5790     54.8094
   748.5000   2000.0000   1979.0000     30.5230     55.0038
   748.7500   2000.0000   1979.0000     30.4538     55.0638
   749.0000   2000.0000   1979.0000     30.3960     55.5413
   749.2500   2000.0000   1979.0000     30.3769     56.2234
   749.5000   2000.0000   1979.0000     30.4132     57.3515
   749.7500   2000.0000   1979.0000     30.5056     57.7619
   750.0000   2000.0000   1979.0000     30.6424     57.5149
   750.2500   2000.0000   1979.0000     30.8080     56.9533
   750.5000   2000.0000   1979.0000     30.9866     56.2905
   750.7500   2000.0000   1979.0000     31.1608     56.3867
   751.0000   2000.0000   1979.0000     31.3109     57.4759
   751.2500   2000.0000   1979.0000     31.4212     58.5715
   751.5000   2000.0000   1979.0000     31.4920     60.0537
   751.7500   2000.0000   1979.0000     31.5416     60.5068
   752.0000   2000.0000   1979.0000     31.5916     59.9176
   752.2500   2000.0000   1979.0000     31.6440     58.7641
   752.5000   2000.0000   1979.0000     31.6755     56.7550
   752.7500   2000.0000   1979.0000     31.6577     55.9093
   753.0000   2000.0000   1979.0000     31.5831     56.1774
   753.2500   2000.0000   1979.0000     31.4690     57.4213
   753.5000   2000.0000   1979.0000     31.3324     60.4219
   753.7500   2000.0000   1979.0000     31.1651     62.8758
   754.0000   2000.0000   1979.0000     30.9274     66.7984
   754.2500   2000.0000   1979.0000     30.5628     69.1569
   754.5000   2000.0000   1979.0000     30.0175     71.3489
   754.7500   2000.0000   1979.0000     29.2544     71.6936
   755.0000   2000.0000   1979.0000     28.2689     71.5190
   755.2500   2000.0000   1979.0000     27.0987     72.1029
   755.5000   2000.0000   1979.0000     25.8199     75.9511
   755.7500   2000.0000   1979.0000     24.5234     81.0787
   756.0000   2000.0000   1979.0000     23.2876     92.1322
   756.2500   2000.0000   1979.0000     22.1648    100.5120
   756.5000   2000.0000   1979.0000     21.1819    111.5551
   756.7500   2000.0000   1979.0000     20.3495    116.4756
   757.0000   2000.0000   1979.0000     19.6725    119.8780
   757.2500   2000.0000   1979.0000     19.1585    120.5309
   757.5000   2000.0000   1979.0000     18.8207    121.1788
   757.7500   2000.0000   1979.0000     18.6723    121.7769
   758.0000   2000.0000   1979.0000     18.7172    121.9234
   758.2500   2000.0000   1979.0000     18.9448    120.7203
   758.5000   2000.0000   1979.0000     19.3323    116.5660
   758.7500   2000.0000   1979.0000     19.8520    112.6262
