~Version Information
VERS.                      2.0: CWLS Log ASCII Standard - VERSION 2.0
WRAP.                       NO: One line per depth step
~Well Information Block
STRT.FT               570.0000: 
STOP.FT              2090.5000: 
STEP.FT                 0.1000: 
NULL.                -999.2500: 
COMP.          XTO Energy Inc.: COMPANY
WELL.          Golden Eagle 19-10: WELL
FLD.           Purgatoire River: FIELD
LOC.           2684' FSL & 1825' FEL: LOCATION
CNTY.               Las Animas: COUNTY
SRVC.                Patterson: SERVICE COMPANY
DATE.          Mon Mar 06 07:05:15 2006: LOG DATE
UWI.           05 071 08697 00: UNIQUE WELL ID
STAT.                 Colorado: STATE
~Curve Information Block
DEPT.FT            0 000 00 00: Depth
DCAL.in                       : CDL Caliper
RHOB.g/cc                     : CDL Bulk Density
RHOC.g/cc                     : CDL Density Correction
DPOR.pu                       : CDL Density Porosity
GR.GAPI                       : Gamma Ray
NPOR.pu                       : Neutron Porosity
~Parameter Information Block
~A  Depth       DCAL        RHOB        RHOC        DPOR         GR         NPOR    
# ...
  1674.0000      7.8260      2.5062      0.0390      8.7173     45.5990     19.8335
  1674.1000      7.8260      2.5090      0.0061      8.5456     45.9972     20.1215
  1674.2000      7.8260      2.5277      0.0607      7.4097     48.0986     20.3651
  1674.3000      7.8282      2.5418      0.0323      6.5581     48.4251     20.0152
  1674.4000      7.8282      2.5478      0.0274      6.1953     49.9269     19.1306
  1674.5000      7.8350      2.5520      0.0586      5.9421     51.9886     18.8971
  1674.6000      7.8350      2.5529      0.0643      5.8864     49.6830     19.4456
  1674.7000      7.8350      2.5562      0.0276      5.6855     45.4538     20.0108
  1674.8000      7.8430      2.5664      0.0670      5.0664     43.9687     20.3277
  1674.9000      7.8430      2.5695      0.0984      4.8792     44.3714     20.2264
  1675.0000      7.8472      2.5576      0.0431      5.5979     44.1362     19.6142
  1675.1000      7.8472      2.5422      0.0249      6.5338     44.5031     18.8484
  1675.2000      7.8472      2.5339      0.0406      7.0339     47.5591     18.5753
  1675.3000      7.8481      2.5395     -0.0395      6.6983     51.1849     19.1911
  1675.4000      7.8481      2.5533      0.0722      5.8615     54.5749     20.2881
  1675.5000      7.8432      2.5561      0.0607      5.6917     57.9259     20.7851
  1675.6000      7.8432      2.5537     -0.0047      5.8383     59.1778     20.0428
  1675.7000      7.8432      2.5645      0.0509      5.1831     57.7495     18.9558
  1675.8000      7.8368      2.5780      0.0499      4.3659     53.4861     18.6159
  1675.9000      7.8368      2.5778      0.0434      4.3778     47.7060     19.1025
  1676.0000      7.8347      2.5684      0.0559      4.9469     43.5185     20.0034
  1676.1000      7.8347      2.5617      0.0406      5.3544     41.3270     20.6616
  1676.2000      7.8347      2.5555      0.0648      5.7290     41.1972     20.7954
  1676.3000      7.8378      2.5430      0.0280      6.4820     43.5594     20.8488
  1676.4000      7.8378      2.5306      0.0213      7.2373     46.9772     21.1479
  1676.5000      7.8448      2.5249      0.0220      7.5823     49.2265     21.6833
  1676.6000      7.8448      2.5279      0.0181      7.3997     50.4874     21.9576
  1676.7000      7.8448      2.5416      0.0023      6.5680     52.4627     21.5077
  1676.8000      7.8507      2.5580      0.0661      5.5742     54.3524     20.7968
  1676.9000      7.8507      2.5671      0.0545      5.0245     55.6910     20.1537
  1677.0000      7.8527      2.5706      0.0570      4.8137     58.9196     19.2072
  1677.1000      7.8527      2.5696      0.0439      4.8700     64.1647     18.3292
  1677.2000      7.8527      2.5642      0.0133      5.1972     67.4933     18.5622
  1677.3000      7.8532      2.5555      0.0380      5.7267     67.2677     19.7221
  1677.4000      7.8532      2.5435      0.0143      6.4570     65.9032     21.0592
  1677.5000      7.8530      2.5302      0.0479      7.2578     65.1252     22.2425
  1677.6000      7.8530      2.5161      0.0217      8.1126     62.5147     22.8266
  1677.7000      7.8530      2.5098      0.0089      8.4977     58.8470     22.7880
  1677.8000      7.8469      2.5227      0.0155      7.7161     58.5647     22.4389
  1677.9000      7.8469      2.5458      0.0424      6.3134     58.7069     21.9644
  1678.0000      7.8330      2.5573      0.0395      5.6171     54.5395     21.3886
  1678.1000      7.8330      2.5467      0.0145      6.2602     47.8114     20.7752
  1678.2000      7.8330      2.5306     -0.0055      7.2347     44.1751     20.6611
  1678.3000      7.8155      2.5329      0.0260      7.0976     45.8553     21.1437
  1678.4000      7.8155      2.5476      0.0567      6.2042     48.3580     21.5146
  1678.5000      7.8056      2.5550      0.0573      5.7561     48.5450     21.2501
  1678.6000      7.8056      2.5533      0.0580      5.8627     49.7158     20.6855
  1678.7000      7.8056      2.5492      0.0396      6.1067     56.2079     20.4202
  1678.8000      7.8053      2.5451      0.0400      6.3606     63.8918     20.2626
  1678.9000      7.8053      2.5439      0.0419      6.4310     66.0072     19.9640
  1679.0000      7.8117      2.5484      0.0413      6.1561     63.3154     19.7687
  1679.1000      7.8117      2.5517      0.0503      5.9581     58.0640     19.7843
  1679.2000      7.8117      2.5450      0.0638      6.3658     52.6967     19.7760
  1679.3000      7.8209      2.5332      0.0308      7.0768     50.8697     19.5470
  1679.4000      7.8209      2.5294      0.0337      7.3087     51.0764     19.3745
  1679.5000      7.8257      2.5377      0.0229      6.8073     50.0821     19.4368
  1679.6000      7.8257      2.5507      0.0341      6.0157     49.4671     19.2771
  1679.7000      7.8257      2.5553      0.0692      5.7390     50.5735     18.9706
  1679.8000      7.8260      2.5474      0.0217      6.2169     50.5970     19.3550
  1679.9000      7.8260      2.5349      0.0330      6.9750     48.0736     20.4817
  1680.0000      7.8253      2.5244      0.0202      7.6110     45.7767     21.3319
  1680.1000      7.8253      2.5248      0.0028      7.5901     46.7650     21.0105
  1680.2000      7.8253      2.5430      0.0462      6.4826     51.5245     20.0173
  1680.3000      7.8229      2.5695      0.0747      4.8766     54.5220     19.3087
  1680.4000      7.8229      2.5911      0.0291      3.5683     51.8521     19.1089
  1680.5000      7.8176      2.6067      0.0768      2.6272     48.2539     19.4467
  1680.6000      7.8176      2.6085      0.0908      2.5169     46.8496     20.1216
  1680.7000      7.8176      2.5817      0.0816      4.1405     46.0915     20.4907
  1680.8000      7.8140      2.5385      0.0272      6.7548     46.4959     20.0839
  1680.9000      7.8140      2.5132      0.0218      8.2908     50.0760     19.0981
  1681.0000      7.8135      2.5184      0.0107      7.9785     53.5504     18.3993
  1681.1000      7.8135      2.5462      0.0125      6.2886     50.1496     18.5211
  1681.2000      7.8135      2.5853      0.0646      3.9196     42.4336     19.0276
  1681.3000      7.8112      2.6226      0.0685      1.6624     39.7455     19.4386
  1681.4000      7.8112      2.6529      0.0544     -0.1754     43.9988     19.4916
  1681.5000      7.8061      2.6757      0.1093     -1.5556     50.0775     19.2787
  1681.6000      7.8061      2.6843      0.1436     -2.0765     54.7852     18.9669
  1681.7000      7.8061      2.6687      0.1265     -1.1343     58.2174     18.5801
  1681.8000      7.8097      2.6293      0.0818      1.2526     58.9276     18.6660
  1681.9000      7.8097      2.5834      0.0139      4.0346     55.8347     19.4663
  1682.0000      7.8236      2.5562     -0.0100      5.6857     52.1302     20.3299
  1682.1000      7.8236      2.5581      0.0300      5.5685     51.8836     20.4430
  1682.2000      7.8236      2.5741      0.0615      4.6028     53.0213     20.2280
  1682.3000      7.8344      2.5858      0.0484      3.8921     51.7791     20.5003
  1682.4000      7.8344      2.5913      0.0581      3.5561     50.5978     20.9221
  1682.5000      7.8391      2.5891      0.0821      3.6911     52.5308     20.8322
  1682.6000      7.8391      2.5673      0.0810      5.0135     54.9222     20.6312
  1682.7000      7.8391      2.5317      0.0377      7.1714     54.6581     20.8148
  1682.8000      7.8419      2.5133     -0.0073      8.2845     52.8350     21.1016
  1682.9000      7.8419      2.5262      0.0131      7.5038     52.6670     21.1945
  1683.0000      7.8403      2.5466      0.0228      6.2691     53.2993     20.8969
  1683.1000      7.8403      2.5480      0.0466      6.1815     50.3205     20.3073
  1683.2000      7.8403      2.5361     -0.0212      6.9032     45.3562     19.9112
  1683.3000      7.8338      2.5360      0.0044      6.9063     44.3160     20.0654
  1683.4000      7.8338      2.5543      0.0074      5.8023     48.9378     20.8477
  1683.5000      7.8303      2.5748      0.0216      4.5582     54.0734     21.9566
