~Version Information
VERS.                      2.0: CWLS Log ASCII Standard - VERSION 2.0
WRAP.                       NO: One line per depth step
~Well Information Block
STRT.FT                -5.7500: 
STOP.FT              2734.0000: 
STEP.FT                 0.2500: 
NULL.                -999.2500: 
COMP.          Pioneer Natural Resources: COMPANY
WELL.              Loews 41-32: WELL
FLD.           Purgatoire River: FIELD
LOC.           751' FNL & 128' FEL--: LOCATION
CNTY.               Las Animas: COUNTY
SRVC.                         : SERVICE COMPANY
DATE.          Sat Mar 04 08:20:59 2006: LOG DATE
UWI.           05 071 08693 00: UNIQUE WELL ID
STAT.                       CO: STATE
~Curve Information Block
DEPT.FT            0 000 00 00: Depth
GR.GAPI                       : Gamma Ray
CCL.                          : Casing Collar Locator
TT3.usec                      : CBL 3' Travel Time
AMP3.mV                       : CBL 3' Amplitude
~Parameter Information Block
~A  Depth        GR         CCL         TT3         AMP3    
# ...
  2339.2500     83.2501      0.0000    671.9639      4.3009
  2339.5000     96.4264      0.0000    676.7665      4.3267
  2339.7500    109.9351      0.0000    677.3904      4.3642
  2340.0000    121.0134      0.0000    676.5606      4.4029
  2340.2500    128.3149      0.0000    675.6993      4.4391
  2340.5000    132.6960      0.0000    675.1895      4.4746
  2340.7500    136.0227      0.0000    674.8972      4.5083
  2341.0000    139.5131      0.0000    674.5721      4.5307
  2341.2500    142.9060      0.0000    674.1760      4.5309
  2341.5000    144.8158      0.0000    673.9620      4.5094
  2341.7500    144.1128      0.0000    673.9827      4.4802
  2342.0000    141.3149      0.0000    673.6154      4.4584
  2342.2500    138.5978      0.0000    671.7935      4.4492
  2342.5000    138.1468      0.0000    667.5494      4.4484
  2342.7500    140.1098      0.0000    660.6273      4.4492
  2343.0000    142.1914      0.0000    652.4888      4.4457
  2343.2500    141.7985      0.0000    646.5993      4.4364
  2343.5000    138.7707      0.0000    646.1675      4.4291
  2343.7500    135.4544      0.0000    651.0472      4.4398
  2344.0000    134.0583      0.0000    657.9218      4.4803
  2344.2500    134.6633      0.0000    663.7643      4.5441
  2344.5000    135.8092      0.0000    668.1992      4.6096
  2344.7500    136.2380      0.0000    672.5466      4.6566
  2345.0000    135.7887      0.0000    677.5965      4.6798
  2345.2500    135.1378      0.0000    682.5915      4.6838
  2345.5000    135.2002      0.0000    685.8892      4.6697
  2345.7500    136.5894      0.0000    686.3565      4.6342
  2346.0000    139.2548      0.0000    684.2773      4.5803
  2346.2500    142.6976      0.0000    681.0293      4.5283
  2346.5000    146.4635      0.0000    677.8626      4.5099
  2346.7500    149.9131      0.0000    675.0798      4.5481
  2347.0000    151.6754      0.0000    672.4373      4.6377
  2347.2500    150.2943      0.0000    669.9812      4.7449
  2347.5000    145.8659      0.0000    668.1194      4.8294
  2347.7500    140.4590      0.0000    667.0866      4.8665
  2348.0000    136.4645      0.0000    666.7191      4.8537
  2348.2500    134.7283      0.0000    666.7404      4.7996
  2348.5000    134.3077      0.0000    667.0372      4.7136
  2348.7500    133.5491      0.0000    667.3646      4.6066
  2349.0000    131.1983      0.0000    666.2526      4.4964
  2349.2500    126.9672      0.0000    659.6844      4.4076
  2349.5000    121.4555      0.0000    641.4807      4.3600
  2349.7500    115.6011      0.0000    607.0091      4.3568
  2350.0000    110.2791      0.0000    558.1226      4.3823
  2350.2500    106.2570      0.0000    504.0341      4.4118
  2350.5000    104.0666      0.0000    456.1066      4.4276
  2350.7500    103.7436      0.0000    421.3428      4.4278
  2351.0000    104.8511      0.0000    400.2955      4.4231
  2351.2500    106.8030      0.0000    389.5154      4.4228
  2351.5000    109.1497      0.0000    384.8460      4.4264
  2351.7500    111.5789      0.0000    383.1796      4.4289
  2352.0000    113.5984      0.0000    382.7309      4.4290
  2352.2500    114.3200      0.0000    382.6727      4.4312
  2352.5000    112.9347      0.0000    382.7044      4.4401
  2352.7500    109.6710      0.0000    382.7565      4.4555
  2353.0000    105.9807      0.0000    382.8316      4.4761
  2353.2500    103.3859      0.0000    382.9251      4.5020
  2353.5000    102.3047      0.0000    383.0185      4.5318
  2353.7500    102.1946      0.0000    383.1132      4.5590
  2354.0000    102.3428      0.0000    383.2997      4.5761
  2354.2500    102.1552      0.0000    383.8526      4.5810
  2354.5000    101.2347      0.0000    385.3398      4.5765
  2354.7500     99.8386      0.0000    388.6116      4.5675
  2355.0000     99.1131      0.0000    394.4161      4.5595
  2355.2500    100.4372      0.0000    402.6758      4.5579
  2355.5000    104.3354      0.0000    412.1055      4.5638
  2355.7500    109.8443      0.0000    421.0290      4.5738
  2356.0000    114.8668      0.0000    428.9722      4.5852
  2356.2500    117.5291      0.0000    437.6029      4.6012
  2356.5000    117.5098      0.0000    449.6165      4.6280
  2356.7500    116.1136      0.0000    465.5873      4.6675
  2357.0000    115.1178      0.0000    481.5602      4.7142
  2357.2500    115.4784      0.0000    491.7139      4.7585
  2357.5000    116.7766      0.0000    495.0633      4.7897
  2357.7500    117.6824      0.0000    497.1759      4.7970
  2358.0000    117.1097      0.0000    502.5714      4.7730
  2358.2500    115.1956      0.0000    507.9525      4.7200
  2358.5000    113.2192      0.0000    507.2518      4.6552
  2358.7500    112.4713      0.0000    502.2612      4.6144
  2359.0000    113.2821      0.0000    503.7765      4.6319
  2359.2500    115.2502      0.0000    521.2137      4.7031
  2359.5000    117.9528      0.0000    553.5392      4.7837
  2359.7500    120.8441      0.0000    590.7245      4.8410
  2360.0000    122.9249      0.0000    621.7642      4.8855
  2360.2500    123.5347      0.0000    641.1684      4.9351
  2360.5000    123.3679      0.0000    650.5345      4.9765
  2360.7500    123.8190      0.0000    655.5824      4.9803
  2361.0000    125.2764     -2.0000    660.4702      4.9322
  2361.2500    126.6942      0.0000    663.8037      4.8372
  2361.5000    126.7695      0.0000    660.3945      4.7062
  2361.7500    124.9850      0.0000    646.3962      4.5482
  2362.0000    121.5017      0.0000    621.4114      4.3755
  2362.2500    116.6643      0.0000    586.4130      4.2162
  2362.5000    111.1062      0.0000    543.0668      4.1193
  2362.7500    106.1164      0.0000    496.2813      4.1318
  2363.0000    103.2160      0.0000    454.3110      4.2497
  2363.2500    102.9400      0.0000    423.7069      4.3999
  2363.5000    104.2063      0.0000    405.1026      4.4894
  2363.7500    105.0930      0.0000    394.7516      4.4746
  2364.0000    104.1842      0.0000    388.8777      4.3825
  2364.2500    101.2305      0.0000    385.7288      4.2725
  2364.5000     96.9993      0.0000    384.5890      4.1849
  2364.7500     92.8537      0.0000    384.3867      4.1213
  2365.0000     90.2254      0.0000    383.6453      4.0611
  2365.2500     89.8905      0.0000    381.1954      3.9903
  2365.5000     91.4847      0.0000    376.6833      3.9181
  2365.7500     93.8300      0.0000    370.8468      3.8723
  2366.0000     95.9129      0.0000    365.5618      3.8816
  2366.2500     97.6705      0.0000    363.0266      3.9562
  2366.5000     99.7749      0.0000    364.2380      4.0833
  2366.7500    102.4351      0.0000    368.2013      4.2378
  2367.0000    104.4969      0.0000    372.8230      4.3926
  2367.2500    104.1417      0.0000    376.5191      4.5213
  2367.5000    100.5083      0.0000    379.0841      4.6045
  2367.7500     94.3400      0.0000    381.6331      4.6378
  2368.0000     87.2788      0.0000    386.3589      4.6331
  2368.2500     80.8872      0.0000    395.9311      4.6092
  2368.5000     76.0509      0.0000    411.3644      4.5834
  2368.7500     72.7671      0.0000    429.0137      4.5657
  2369.0000     70.4288      0.0000    440.7219      4.5546
  2369.2500     68.4750      0.0000    439.5987      4.5414
  2369.5000     66.8696      0.0000    426.3485      4.5213
  2369.7500     65.9209      0.0000    408.5981      4.5010
  2370.0000     65.6022      0.0000    394.1029      4.4936
  2370.2500     65.2026      0.0000    385.7820      4.5052
  2370.5000     64.0322      0.0000    382.3867      4.5279
  2370.7500     62.5205      0.0000    381.5468      4.5483
  2371.0000     62.0897      0.0000    381.4710      4.5623
  2371.2500     63.6876      0.0000    380.9323      4.5797
  2371.5000     66.7446      0.0000    378.8605      4.6114
  2371.7500     69.6745      0.0000    374.4384      4.6547
  2372.0000     71.0607      0.0000    367.7440      4.6948
  2372.2500     70.3412      0.0000    360.1917      4.7193
  2372.5000     67.9340      0.0000    354.0275      4.7310
