~Version Information
VERS.                      2.0: CWLS Log ASCII Standard - VERSION 2.0
WRAP.                       NO: One line per depth step
~Well Information Block
STRT.FT               260.0000: 
STOP.FT               713.2500: 
STEP.FT                 0.2500: 
NULL.                -999.2500: 
COMP.          Pioneer Natural Resources: COMPANY
WELL.           Quintessa 23-7: WELL
FLD.           Purgatoire River: FIELD
LOC.           1964' FSL & 2589' FWL--: LOCATION
PROV.                 Colorado: PROVINCE
CNTY.               Las Animas: COUNTRY
SRVC.                Patterson: SERVICE COMPANY
DATE.          Fri Nov 18 16:07:34 2005: LOG DATE
UWI.           05 071 08558 00: UNIQUE WELL ID
~Curve Information Block
DEPT.FT            0 000 00 00: Depth
SN.Ohm-m                      : IEL Short Normal
SP.mV                         : IEL Spontaneous Potential
DIR.Ohm-m                     : IEL Induction Resistivity
GR.GAPI                       : Gamma Ray
~Parameter Information Block
~A  Depth        SN          SP         DIR          GR     
# ...
   394.0000     11.5242    123.1023     10.8165    121.1636
   394.2500     11.6935    122.7799     11.2283    117.6117
   394.5000     11.9057    122.4369     11.6750    113.3043
   394.7500     12.1799    122.0749     12.1282    111.3352
   395.0000     12.5247    121.6949     12.5528    109.1688
   395.2500     12.9291    121.2964     12.9171    107.8262
   395.5000     13.3606    120.8768     13.2055    105.9183
   395.7500     13.7767    120.4313     13.4246    105.0369
   396.0000     14.1454    119.9527     13.5979    104.5477
   396.2500     14.4572    119.4311     13.7525    121.7757
   396.5000     14.7231    118.8554     13.9085    120.3910
   396.7500     14.9653    118.2132     14.0758    118.2969
   397.0000     15.2098    117.4920     14.2595    113.7137
   397.2500     15.4825    116.6804     14.4685    127.5071
   397.5000     15.8102    115.7681     14.7225    121.6613
   397.7500     16.2211    114.7471     15.0523    118.6085
   398.0000     16.7416    113.6121     15.4948    115.9120
   398.2500     17.3873    112.3604     16.0818    114.9326
   398.5000     18.1534    110.9923     16.8270    112.9142
   398.7500     19.0116    109.5112     17.7170    110.4427
   399.0000     19.9286    107.9230     18.7104    105.4373
   399.2500     20.8962    106.2360     19.7507    102.2609
   399.5000     21.9414    104.4601     20.7882     99.3610
   399.7500     23.1010    102.6062     21.7980     98.8282
   400.0000     24.3864    100.6847     22.7829     99.0390
   400.2500     25.7778     98.7054     23.7603     98.9748
   400.5000     27.2357     96.6760     24.7454     97.5192
   400.7500     28.7053     94.6025     25.7413     95.4316
   401.0000     30.1165     92.4886     26.7401     90.9293
   401.2500     31.4116     90.3364     27.7287     87.4785
   401.5000     32.5946     88.1470     28.6920     82.5985
   401.7500     33.7546     85.9217     29.6129     80.1351
   402.0000     35.0251     83.6628     30.4731     78.6106
   402.2500     36.4973     81.3750     31.2570     79.3769
   402.5000     38.1477     79.0665     31.9615     82.8164
   402.7500     39.8447     76.7504     32.6047     85.8261
   403.0000     41.4341     74.4449     33.2231     89.6894
   403.2500     42.8327     72.1740     33.8552     91.1468
   403.5000     44.0597     69.9666     34.5250     91.5328
   403.7500     45.2096     67.8548     35.2424     90.9858
   404.0000     46.4023     65.8718     36.0187     89.8144
   404.2500     47.7276     64.0484     36.8712     89.0941
   404.5000     49.2056     62.4102     37.8106     87.9242
   404.7500     50.7975     60.9748     38.8268     86.7571
   405.0000     52.4657     59.7500     39.8982     84.4115
   405.2500     54.2258     58.7335     41.0105     82.9071
   405.5000     56.1384     57.9136     42.1586     81.2395
   405.7500     58.2406     57.2712     43.3329     80.0407
   406.0000     60.4793     56.7823     44.5184     76.4815
   406.2500     62.7188     56.4207     45.7104     72.4351
   406.5000     64.8273     56.1605     46.9174     64.8886
   406.7500     66.7613     55.9779     48.1244     60.2639
   407.0000     68.5697     55.8528     49.2546     55.9395
   407.2500     70.3284     55.7684     50.1838     55.0499
   407.5000     72.0652     55.7123     50.8170     55.7614
   407.7500     73.7253     55.6748     51.1532     56.8281
   408.0000     75.2037     55.6496     51.2771     58.3017
   408.2500     76.4192     55.6321     51.3011     58.8036
   408.5000     77.3582     55.6194     51.3190     58.4731
   408.7500     78.0627     55.6097     51.3968     57.6033
   409.0000     78.6143     55.6019     51.5744     55.8953
   409.2500     79.1379     55.5953     51.8593     54.8662
   409.5000     79.7854     55.5896     52.2175     53.8150
   409.7500     80.6874     55.5846     52.5793     53.4417
   410.0000     81.9135     55.5803     52.8697     53.3506
   410.2500     83.4714     55.5766     53.0526     53.7073
   410.5000     85.3283     55.5736     53.1635     55.0794
   410.7500     87.4337     55.5714     53.3067     56.3858
   411.0000     89.7492     55.5698     53.6151     57.7644
   411.2500     92.2902     55.5689     54.1990     57.3148
   411.5000     95.1577     55.5685     55.1139     53.5065
   411.7500     98.5136     55.5686     56.3505     49.0874
   412.0000    102.4865     55.5689     57.8404     41.2831
   412.2500    107.0728     55.5694     59.4633     36.4693
   412.5000    112.1105     55.5700     61.0687     31.2722
   412.7500    117.3357     55.5706     62.5157     29.4825
   413.0000    122.4601     55.5712     63.7230     29.2247
   413.2500    127.2220     55.5717     64.6901     30.5202
   413.5000    131.4156     55.5722     65.4813     34.5231
   413.7500    134.9097     55.5732     66.1988     38.3714
   414.0000    137.6505     55.5751     66.9572     44.8603
   414.2500    139.6481     55.5789     67.8449     48.6713
   414.5000    140.9568     55.5864     68.8631     52.0359
   414.7500    141.6482     55.6009     69.8875     52.2846
   415.0000    141.7731     55.6279     70.7106     50.1461
   415.2500    141.3356     55.6765     71.1464     48.0123
   415.5000    140.2973     55.7605     71.0949     45.8846
   415.7500    138.6054     55.9007     70.5084     45.9846
   416.0000    136.2298     56.1264     69.3299     48.0045
   416.2500    133.1885     56.4764     67.5206     49.4465
   416.5000    129.5342     56.9999     65.1547     49.5469
   416.7500    125.2997     57.7551     62.4380     47.5974
   417.0000    120.4484     58.8059     59.5901     42.2444
   417.2500    114.8720     60.2171     56.7002     38.0513
   417.5000    108.4351     62.0467     53.6987     32.3452
   417.7500    101.0411     64.3373     50.4604     29.3119
   418.0000     92.7064     67.1083     46.9349     26.1260
   418.2500     83.6293     70.3483     43.1889     25.1807
   418.5000     74.2085     74.0126     39.3555     26.2137
   418.7500     64.9667     78.0227     35.5680     28.7126
   419.0000     56.3955     82.2728     31.9329     34.9589
   419.2500     48.8045     86.6378     28.5332     40.6715
   419.5000     42.2656     90.9860     25.4307     51.6953
   419.7500     36.6742     95.1908     22.6606     60.6498
   420.0000     31.8736     99.1421     20.2290     75.5364
   420.2500     27.7522    102.7541     18.1222     85.4158
   420.5000     24.2663    105.9697     16.3195     98.5705
   420.7500     21.4030    108.7608     14.7992    105.8064
   421.0000     19.1339    111.1253     13.5379    114.4458
   421.2500     17.3958    113.0821     12.5071    118.8846
   421.5000     16.0960    114.6648     11.6731    123.4577
   421.7500     15.1319    115.9160     11.0003    124.8945
   422.0000     14.4117    116.8813     10.4555    124.7271
   422.2500     13.8704    117.6065     10.0108    123.6573
   422.5000     13.4701    118.1343      9.6456    121.9631
   422.7500     13.1875    118.5035      9.3460    121.2210
   423.0000     13.0009    118.7483      9.1042    120.5835
   423.2500     12.8895    118.8986      8.9185    120.1398
   423.5000     12.8398    118.9799      8.7919    118.8568
   423.7500     12.8492    119.0135      8.7322    117.3477
   424.0000     12.9221    119.0168      8.7490    113.8948
   424.2500     13.0557    119.0026      8.8509    110.7318
   424.5000     13.2233    118.9798      9.0411    104.6008
   424.7500     13.3680    118.9530      9.3124     99.6187
   425.0000     13.4170    118.9232      9.6449     91.0665
   425.2500     13.3161    118.8888     10.0066     84.9066
   425.5000     13.0754    118.8463     10.3611     75.7392
   425.7500     12.7951    118.7914     10.6792     70.5104
   426.0000     12.6382    118.7198     10.9486     66.1072
   426.2500     12.7461    118.6279     11.1742     66.6373
   426.5000     13.1455    118.5128     11.3693     73.3824
   426.7500     13.7204    118.3720     11.5423     81.2872
   427.0000     14.2810    118.2034     11.6878     95.9201
   427.2500     14.6796    118.0050     11.7880    105.7404
