~Version Information
VERS.                      2.0: CWLS Log ASCII Standard - VERSION 2.0
WRAP.                       NO: One line per depth step
~Well Information Block
STRT.FT                -8.5000: 
STOP.FT              2030.0000: 
STEP.FT                 0.2500: 
NULL.                -999.2500: 
COMP.          Pioneer Natural Resources: COMPANY
WELL.           Alabaster 11-8: WELL
FLD.           Purgatorie River: FIELD
LOC.           1249' FNL & 215' FWL--: LOCATION
PROV.                       CO: PROVINCE
CNTY.               Las Animas: COUNTRY
SRVC.          Patterson Wireline: SERVICE COMPANY
DATE.          Mon Jan 30 11:59:01 2006: LOG DATE
UWI.           05 071 08642 00: UNIQUE WELL ID
~Curve Information Block
DEPT.FT            0 000 00 00: Depth
CCL.                          : Casing Collar Locator
TT3.usec                      : CBL 3' Travel Time
AMP3.mV                       : CBL 3' Amplitude
GR.GAPI                       : Gamma Ray
~Parameter Information Block
~A  Depth       CCL         TT3         AMP3         GR     
# ...
   661.5000      0.0000    674.3104      3.5331     87.6798
   661.7500      0.0000    674.2696      3.4086     91.1925
   662.0000      0.0000    673.7863      3.3067     91.9767
   662.2500      0.0000    672.3088      3.2430     91.3697
   662.5000      0.0000    669.7025      3.2197     92.1466
   662.7500      0.0000    666.6875      3.2343     95.7391
   663.0000      0.0000    664.2049      3.2840    100.8845
   663.2500      0.0000    661.7553      3.3614    105.0839
   663.5000      0.0000    656.3379      3.4491    107.0633
   663.7500      0.0000    643.4756      3.5222    107.5997
   664.0000      0.0000    619.9767      3.5609    108.2315
   664.2500      0.0000    587.0883      3.5645    109.5431
   664.5000      0.0000    552.0617      3.5528    110.8150
   664.7500      0.0000    526.1866      3.5479    111.1067
   665.0000      0.0000    519.6889      3.5581    110.1949
   665.2500      0.0000    536.4570      3.5796    108.4780
   665.5000      0.0000    571.2296      3.6066    106.6717
   665.7500      0.0000    611.2757      3.6330    105.8219
   666.0000      0.0000    643.0566      3.6488    106.8163
   666.2500      0.0000    659.4910      3.6421    109.3413
   666.5000      0.0000    661.6320      3.6075    111.9348
   666.7500      0.0000    654.8011      3.5512    113.6607
   667.0000      0.0000    644.2786      3.4859    115.1021
   667.2500      0.0000    633.6761      3.4211    117.0834
   667.5000      0.0000    625.1335      3.3581    118.9916
   667.7500      0.0000    619.2771      3.2930    119.1485
   668.0000      0.0000    614.5069      3.2244    116.7443
   668.2500      0.0000    607.9467      3.1566    113.0020
   668.5000      0.0000    599.1908      3.0959    110.3788
   668.7500      0.0000    592.9273      3.0460    110.6051
   669.0000      0.0000    595.7995      3.0067    113.4579
   669.2500      0.0000    609.8770      2.9785    117.3283
   669.5000      0.0000    630.0122      2.9649    120.5387
   669.7500      0.0000    647.9807      2.9701    121.9552
   670.0000      0.0000    658.6459      2.9964    121.0593
   670.2500      0.0000    662.2081      3.0412    118.1630
   670.5000      0.0000    661.7424      3.0971    114.4413
   670.7500      0.0000    659.6649      3.1565    111.4476
   671.0000      0.0000    656.4918      3.2174    110.2882
   671.2500      0.0000    652.0046      3.2837    110.7782
   671.5000      0.0000    646.6663      3.3611    111.3095
   671.7500      0.0000    641.8264      3.4519    110.0578
   672.0000      0.0000    638.7562      3.5538    106.5985
   672.2500      0.0000    637.4154      3.6620    102.3829
   672.5000      0.0000    636.3591      3.7728     99.8598
   672.7500      0.0000    634.2279      3.8841    101.0857
   673.0000      0.0000    631.1093      3.9917    106.4864
   673.2500      0.0000    628.1527      4.0876    114.3187
   673.5000      0.0000    626.2455      4.1662    121.3943
   673.7500      0.0000    625.4425      4.2304    124.7001
   674.0000      0.0000    625.3375      4.2881    122.8288
   674.2500      0.0000    625.5311      4.3410    116.7024
   674.5000      0.0000    625.7898      4.3836    109.3486
   674.7500      0.0000    626.0228      4.4107    104.2800
   675.0000      0.0000    626.2860      4.4220    103.2519
   675.2500      0.0000    626.8489      4.4206    105.5134
   675.5000      0.0000    628.3076      4.4120    109.1015
   675.7500      0.0000    631.5425      4.4025    112.5271
   676.0000      0.0000    637.1934      4.3956    115.2458
   676.2500      0.0000    644.6288      4.3871    117.0314
   676.5000      0.0000    651.3708      4.3688    117.5429
   676.7500      0.0000    654.2054      4.3389    116.8551
   677.0000      0.0000    651.5569      4.3071    115.9042
   677.2500      0.0000    644.8315      4.2876    115.6760
   677.5000      0.0000    637.2507      4.2868    116.0897
   677.7500      0.0000    631.4823      4.3011    116.2100
   678.0000      0.0000    628.4352      4.3250    115.4310
   678.2500      0.0000    627.8336      4.3564    113.9536
   678.5000      0.0000    629.2032      4.3968    112.1040
   678.7500      0.0000    632.0104      4.4503    109.6876
   679.0000      0.0000    635.2239      4.5211    106.3791
   679.2500      0.0000    637.5438      4.6043    102.7095
   679.5000      0.0000    638.4680      4.6787    100.0449
   679.7500      0.0000    638.6620      4.7161     99.0980
   680.0000      0.0000    638.8987      4.7036     99.0336
   680.2500      0.0000    639.2935      4.6551     98.8508
   680.5000      0.0000    640.0952      4.5977     98.9598
   680.7500      0.0000    642.1115      4.5488    100.4434
   681.0000      0.0000    644.7982      4.5086    103.4386
   681.2500      0.0000    643.8903      4.4734    107.1061
   681.5000      0.0000    632.5610      4.4486    110.5146
   681.7500      0.0000    607.3948      4.4431    112.9241
   682.0000      0.0000    574.9105      4.4516    113.8135
   682.2500      0.0000    550.8184      4.4475    113.1085
   682.5000      0.0000    549.2114      4.4072    111.1978
   682.7500      0.0000    571.0823      4.3403    108.6676
   683.0000      0.0000    604.7311      4.2772    106.0877
   683.2500      0.0000    636.7247      4.2185    103.8160
   683.5000      0.0000    660.5560      4.1288    101.7803
   683.7500      0.0000    676.7523      3.9961     99.7212
   684.0000      0.0000    689.2440      3.8621     97.8422
   684.2500      0.0000    702.4946      3.7745     96.9268
   684.5000      2.0000    718.9160      3.7394     97.6056
   684.7500     -2.0000    736.5161      3.7332     99.7742
   685.0000      0.0000    749.2776      3.7366    102.8959
   685.2500      0.0000    751.5020      3.7494    106.5777
   685.5000      0.0000    742.7092      3.7869    110.6519
   685.7500      0.0000    727.8170      3.8631    114.7914
   686.0000      0.0000    712.2095      3.9699    118.1375
   686.2500      0.0000    697.5159      4.0789    119.4613
   686.5000      0.0000    682.6309      4.1667    118.1821
   686.7500      0.0000    667.5845      4.2227    115.3677
   687.0000      0.0000    655.0124      4.2358    113.0983
   687.2500      0.0000    647.7946      4.1993    112.5517
   687.5000      0.0000    646.0140      4.1280    113.3196
   687.7500      0.0000    646.6274      4.0537    114.7526
   688.0000      0.0000    646.3051      4.0041    117.0210
   688.2500      0.0000    644.3797      3.9921    120.2855
   688.5000      0.0000    642.6884      4.0167    123.6654
   688.7500      0.0000    642.7779      4.0659    125.9039
   689.0000      0.0000    643.9401      4.1213    126.6388
   689.2500      0.0000    644.0231      4.1654    126.3707
   689.5000      0.0000    641.5403      4.1866    125.4828
   689.7500      0.0000    636.8524      4.1787    123.8127
   690.0000      0.0000    631.7175      4.1416    121.0120
   690.2500      0.0000    628.0202      4.0821    117.0786
   690.5000      0.0000    626.9610      4.0109    112.7880
   690.7500      0.0000    629.1760      3.9391    109.6730
   691.0000      0.0000    634.9545      3.8754    109.1498
   691.2500      0.0000    643.7818      3.8255    111.4331
   691.5000      0.0000    653.8730      3.7879    115.2838
   691.7500      0.0000    662.8060      3.7512    118.6556
   692.0000      0.0000    668.9506      3.7009    119.7191
   692.2500      0.0000    672.2066      3.6332    117.8635
   692.5000      0.0000    673.4984      3.5618    114.0710
   692.7500      0.0000    673.8325      3.5081    109.9619
   693.0000      0.0000    673.7963      3.4831    106.0056
   693.2500      0.0000    673.5933      3.4770    100.8828
   693.5000      0.0000    673.2867      3.4658     93.1016
   693.7500      0.0000    672.9585      3.4299     82.9610
   694.0000      0.0000    672.7090      3.3685     72.3409
   694.2500      0.0000    672.5817      3.2972     62.9000
   694.5000      0.0000    672.5465      3.2326     55.1367
   694.7500      0.0000    672.5536      3.1813     48.9460
