~Version Information
VERS.                      2.0: CWLS Log ASCII Standard - VERSION 2.0
WRAP.                       NO: One line per depth step
~Well Information Block
STRT.FT                -8.5000: 
STOP.FT              2823.2500: 
STEP.FT                 0.2500: 
NULL.                -999.2500: 
COMP.          Pioneer Natural Resources: COMPANY
WELL.                AMX 13-13: WELL
FLD.           Purgatorie River: FIELD
LOC.           2316' FSL & 865' FWL--: LOCATION
PROV.                       CO: PROVINCE
CNTY.               Las Animas: COUNTRY
SRVC.          Patterson Wireline: SERVICE COMPANY
DATE.          Tue Dec 27 10:40:58 2005: LOG DATE
UWI.           05 071 08630 00: UNIQUE WELL ID
~Curve Information Block
DEPT.FT            0 000 00 00: Depth
CCL.                          : Casing Collar Locator
TT3.usec                      : CBL 3' Travel Time
AMP3.mV                       : CBL 3' Amplitude
GR.GAPI                       : Gamma Ray
~Parameter Information Block
~A  Depth       CCL         TT3         AMP3         GR     
# ...
  2068.5000      0.0000    613.1536      6.5642    158.8668
  2068.7500      0.0000    589.2362      6.5820    159.0458
  2069.0000      0.0000    561.7479      6.6053    155.4230
  2069.2500      0.0000    527.0648      6.6190    149.3245
  2069.5000      0.0000    487.6599      6.6197    143.6425
  2069.7500      0.0000    455.3546      6.6162    141.2424
  2070.0000      0.0000    443.7663      6.6214    142.9599
  2070.2500      0.0000    458.7384      6.6448    146.7859
  2070.5000      0.0000    494.6694      6.6898    149.0715
  2070.7500      0.0000    536.4239      6.7545    146.9756
  2071.0000      0.0000    565.5183      6.8332    140.3080
  2071.2500      0.0000    569.6601      6.9184    131.7539
  2071.5000      0.0000    550.4403      7.0024    125.7225
  2071.7500      0.0000    522.6343      7.0786    126.0805
  2072.0000      0.0000    504.7354      7.1452    133.4546
  2072.2500      0.0000    506.9430      7.2051    144.2705
  2072.5000      0.0000    524.6913      7.2590    153.0993
  2072.7500      0.0000    542.6915      7.3008    156.4859
  2073.0000      0.0000    547.3556      7.3214    154.6146
  2073.2500      0.0000    537.7813      7.3147    149.7773
  2073.5000      0.0000    525.7655      7.2820    143.9849
  2073.7500      0.0000    526.0736      7.2337    137.9884
  2074.0000      0.0000    546.2994      7.1908    131.7297
  2074.2500      0.0000    582.6740      7.1785    125.0798
  2074.5000      0.0000    621.9662      7.2170    118.0985
  2074.7500      0.0000    647.6834      7.3179    110.9781
  2075.0000      0.0000    648.0740      7.4854    104.2229
  2075.2500      0.0000    622.0733      7.7167     98.9552
  2075.5000      0.0000    580.0280      7.9990     96.4680
  2075.7500      0.0000    539.1545      8.3079     97.0622
  2076.0000      0.0000    516.2344      8.6103     99.6167
  2076.2500      0.0000    519.9608      8.8739    102.6377
  2076.5000      0.0000    546.5328      9.0769    105.4715
  2076.7500      0.0000    583.2269      9.2105    108.1979
  2077.0000      0.0000    617.9534      9.2734    110.7618
  2077.2500      0.0000    645.1590      9.2677    112.7889
  2077.5000      0.0000    663.9132      9.2013    114.2129
  2077.7500      0.0000    674.3514      9.0945    115.7630
  2078.0000      0.0000    677.7582      8.9785    118.8690
  2078.2500      0.0000    677.8652      8.8785    125.0628
  2078.5000      0.0000    679.2231      8.7978    134.9733
  2078.7500      0.0000    683.7626      8.7156    147.4239
  2079.0000      0.0000    689.4703      8.6045    159.5379
  2079.2500      0.0000    692.3472      8.4534    168.2923
  2079.5000      0.0000    689.0890      8.2753    172.4455
  2079.7500      0.0000    678.7533      8.0903    172.8669
  2080.0000      0.0000    664.0729      7.9040    171.1152
  2080.2500      0.0000    651.7709      7.7093    168.3399
  2080.5000      0.0000    649.2214      7.5093    165.4054
  2080.7500      0.0000    658.4550      7.3257    162.9595
  2081.0000      0.0000    673.9782      7.1824    161.0035
  2081.2500      0.0000    687.6652      7.0891    159.1615
  2081.5000      0.0000    695.1732      7.0404    157.7789
  2081.7500      0.0000    697.3822      7.0227    158.0113
  2082.0000      0.0000    697.2068      7.0218    160.2004
  2082.2500      0.0000    696.0017      7.0312    162.6942
  2082.5000      0.0000    692.2178      7.0521    162.9416
  2082.7500      0.0000    682.1508      7.0803    159.7003
  2083.0000      0.0000    661.4991      7.1017    153.9709
  2083.2500      0.0000    627.5410      7.1102    148.0198
  2083.5000      0.0000    582.1432      7.1212    143.7682
  2083.7500      0.0000    533.3132      7.1598    142.0137
  2084.0000      0.0000    491.8627      7.2377    142.6021
  2084.2500      0.0000    465.1081      7.3481    144.8012
  2084.5000      0.0000    453.8657      7.4747    147.7422
  2084.7500      0.0000    454.6233      7.5978    151.0394
  2085.0000      0.0000    462.7686      7.6983    155.0058
  2085.2500      0.0000    473.9567      7.7623    160.0215
  2085.5000      0.0000    484.6447      7.7821    165.7432
  2085.7500      0.0000    493.0319      7.7538    170.9108
  2086.0000      0.0000    499.7989      7.6832    173.9742
  2086.2500      0.0000    508.0882      7.5919    174.3239
  2086.5000      0.0000    522.7214      7.5079    172.9289
  2086.7500      0.0000    547.9734      7.4440    171.3568
  2087.0000      0.0000    583.8997      7.3904    170.2257
  2087.2500      0.0000    624.3266      7.3285    168.9986
  2087.5000      0.0000    660.0005      7.2481    167.1973
  2087.7500      0.0000    684.7142      7.1433    165.5056
  2088.0000      0.0000    698.0520      6.9984    165.3548
  2088.2500      0.0000    702.5655      6.7881    167.2298
  2088.5000      0.0000    699.8897      6.5043    169.7838
  2088.7500      0.0000    690.3736      6.1827    171.2264
  2089.0000      0.0000    675.7444      5.8991    171.3706
  2089.2500      0.0000    660.6800      5.7332    171.4810
  2089.5000      0.0000    650.9579      5.7256    172.1776
  2089.7500      0.0000    650.2902      5.8597    172.5212
  2090.0000      0.0000    658.8492      6.0781    171.2644
  2090.2500      0.0000    673.5580      6.3183    167.8370
  2090.5000      0.0000    688.3613      6.5423    161.9740
  2090.7500     -2.0000    695.6194      6.7425    153.5553
  2091.0000      0.0000    690.8503      6.9280    143.4304
  2091.2500      0.0000    677.3353      7.1091    134.0833
  2091.5000      0.0000    663.6383      7.2977    128.9492
  2091.7500      0.0000    655.3986      7.5194    130.2953
  2092.0000      0.0000    651.4705      7.8190    137.0229
  2092.2500      0.0000    648.2114      8.2373    144.7306
  2092.5000      0.0000    644.3661      8.7676    148.8641
  2092.7500      0.0000    640.3112      9.3337    148.2136
  2093.0000      0.0000    634.8448      9.8262    145.1845
  2093.2500      0.0000    624.2873     10.1688    142.7629
  2093.5000      0.0000    604.6193     10.3466    141.6309
  2093.7500      0.0000    575.7522     10.3822    140.2612
  2094.0000      0.0000    545.2053     10.3092    137.3610
  2094.2500      0.0000    525.5079     10.1653    133.6491
  2094.5000      0.0000    524.0144      9.9898    131.2103
  2094.7500      0.0000    535.5159      9.8150    131.7268
  2095.0000      0.0000    548.0469      9.6601    135.4190
  2095.2500      0.0000    555.1204      9.5369    140.8997
  2095.5000      0.0000    558.6358      9.4534    145.7552
  2095.7500      0.0000    561.9403      9.4124    147.8515
  2096.0000      0.0000    565.9450      9.4053    146.6091
  2096.2500      0.0000    571.4597      9.4134    143.1351
  2096.5000      0.0000    579.1694      9.4162    139.1248
  2096.7500      0.0000    585.4913      9.4004    135.6532
  2097.0000      0.0000    583.4001      9.3648    133.0339
  2097.2500      0.0000    571.6797      9.3197    131.6263
  2097.5000      0.0000    561.2296      9.2794    132.2492
  2097.7500      0.0000    566.7459      9.2524    135.3898
  2098.0000      0.0000    591.3898      9.2338    140.2066
  2098.2500      0.0000    623.5083      9.2069    144.7424
  2098.5000      0.0000    648.4393      9.1516    147.2983
  2098.7500      0.0000    659.8699      9.0544    147.6904
  2099.0000      0.0000    660.3289      8.9197    147.4319
  2099.2500      0.0000    655.6476      8.7791    148.7228
  2099.5000      0.0000    650.8805      8.6828    152.5857
  2099.7500      0.0000    649.0596      8.6704    157.3825
  2100.0000      0.0000    651.2214      8.7442    159.5238
  2100.2500      0.0000    656.7941      8.8716    156.1171
  2100.5000      0.0000    664.2212      9.0123    146.9717
  2100.7500      0.0000    671.6201      9.1394    134.4728
  2101.0000      0.0000    676.5903      9.2390    122.1222
  2101.2500      0.0000    674.8840      9.3046    112.8869
  2101.5000      0.0000    660.4257      9.3422    108.1101
  2101.7500      0.0000    629.5756      9.3707    107.5688
