~Version Information
VERS.                      2.0: CWLS Log ASCII Standard - VERSION 2.0
WRAP.                       NO: One line per depth step
~Well Information Block
STRT.FT               745.0000: 
STOP.FT              1985.0000: 
STEP.FT                 0.1000: 
NULL.                -999.2500: 
COMP.          Pioneer Natural Resources: COMPANY
WELL.          Lorencito 15-36-33-67: WELL
FLD.           Purgatoire River: FIELD
LOC.           38' FSL & 1446' FEL: LOCATION
STAT.                 Colorado: State
CNTY.               Las Animas: COUNTY
CTRY. USA : Country
SECT. 36 : Section
TOWN. 33S : Township
RANG. 67W : Range
SRVC.                Patterson: SERVICE COMPANY
DATE.          Thu Oct 13 10:16:17 2005: LOG DATE
API.           05 071 08515 00: UNIQUE WELL ID
~Curve Information Block
DEPT.FT            0 000 00 00: Depth
DCAL.in                       : CDL Caliper
RHOB.g/cc                     : CDL Bulk Density
RHOC.g/cc                     : CDL Density Correction
DPOR.pu                       : CDL Density Porosity
GR.GAPI                       : Gamma Ray
NPOR.pu                       : Neutron Porosity
~Parameter Information Block
~A  Depth       DCAL        RHOB        RHOC        DPOR         GR         NPOR    
# ...
  1484.2000      8.1132      2.5458      0.0155      6.3158    129.4647     21.5256
  1484.3000      8.1141      2.5426      0.0473      6.5106    132.2948     17.1260
  1484.4000      8.1141      2.5409      0.0196      6.6100    133.1884     17.6750
  1484.5000      8.1126      2.5449      0.0466      6.3707    130.8180     20.5892
  1484.6000      8.1126      2.5566      0.0520      5.6598    127.8687     19.2663
  1484.7000      8.1126      2.5693      0.0617      4.8929    123.8239     15.2294
  1484.8000      8.1126      2.5788      0.0730      4.3161    120.3190     14.8315
  1484.9000      8.1126      2.5845      0.0834      3.9691    123.3392     18.3172
  1485.0000      8.1199      2.5836      0.0571      4.0237    131.1216     20.1508
  1485.1000      8.1199      2.5784      0.0412      4.3376    136.0968     16.5768
  1485.2000      8.1199      2.5722      0.0603      4.7136    136.8439     11.7493
  1485.3000      8.1138      2.5650      0.0377      5.1531    136.5474     12.6437
  1485.4000      8.1138      2.5563      0.0534      5.6762    134.8810     18.1235
  1485.5000      8.1105      2.5478      0.0125      6.1967    129.9477     20.8218
  1485.6000      8.1105      2.5410      0.0304      6.6036    124.7242     19.3652
  1485.7000      8.1105      2.5351      0.0004      6.9627    122.9713     19.2214
  1485.8000      8.1122      2.5378      0.0080      6.8020    122.6293     21.2917
  1485.9000      8.1122      2.5583      0.0237      5.5572    122.3129     21.5211
  1486.0000      8.1122      2.5859      0.0424      3.8836    123.1266     18.6993
  1486.1000      8.1122      2.6022      0.0641      2.8965    125.1098     17.3509
  1486.2000      8.1122      2.6030      0.0599      2.8481    126.3785     20.1325
  1486.3000      8.1127      2.5953      0.0596      3.3149    124.5322     24.3089
  1486.4000      8.1127      2.5833      0.0603      4.0397    122.7711     24.9588
  1486.5000      8.1112      2.5675      0.0344      5.0027    124.5880     21.4491
  1486.6000      8.1112      2.5503      0.0427      6.0449    123.0840     17.8615
  1486.7000      8.1112      2.5390      0.0232      6.7284    115.1852     17.4387
  1486.8000      8.1070      2.5351      0.0447      6.9622    110.6251     19.4098
  1486.9000      8.1070      2.5317     -0.0140      7.1681    115.3948     19.9052
  1487.0000      8.1112      2.5281      0.0214      7.3901    122.7484     18.9193
  1487.1000      8.1112      2.5272      0.0065      7.4438    125.8248     19.7742
  1487.2000      8.1112      2.5336      0.0153      7.0518    124.1927     22.0560
  1487.3000      8.1104      2.5487      0.0505      6.1378    120.0958     23.2834
  1487.4000      8.1104      2.5663      0.0077      5.0757    120.5279     23.9257
  1487.5000      8.1104      2.5709      0.0843      4.7928    126.6654     24.9769
  1487.6000      8.1104      2.5495      0.0509      6.0896    132.6805     25.3769
  1487.7000      8.1104      2.5157      0.0057      8.1375    137.9056     23.5652
  1487.8000      8.1116      2.5003     -0.0124      9.0733    140.7562     20.2054
  1487.9000      8.1116      2.5146      0.0226      8.2032    136.4760     18.7405
  1488.0000      8.1120      2.5375      0.0639      6.8152    130.3051     20.4407
  1488.1000      8.1120      2.5464      0.0609      6.2798    127.9502     22.0403
  1488.2000      8.1120      2.5469      0.0604      6.2465    126.5863     20.1591
  1488.3000      8.1116      2.5506      0.0692      6.0253    128.5234     16.8574
  1488.4000      8.1116      2.5517      0.1053      5.9546    134.1537     16.6104
  1488.5000      8.1104      2.5442      0.0689      6.4115    135.1422     20.4099
  1488.6000      8.1104      2.5391      0.0737      6.7194    130.0901     25.4378
  1488.7000      8.1104      2.5553      0.0178      5.7374    126.8401     28.3503
  1488.8000      8.1101      2.5907      0.0933      3.5934    129.6539     27.6748
  1488.9000      8.1101      2.6173      0.1461      1.9829    135.3444     26.1490
  1489.0000      8.1090      2.6180      0.1244      1.9413    138.1103     26.7482
  1489.1000      8.1090      2.6010      0.0852      2.9673    136.4681     27.9649
  1489.2000      8.1090      2.5838      0.0760      4.0122    133.4932     26.8575
  1489.3000      8.1094      2.5769      0.0487      4.4316    129.8106     24.7042
  1489.4000      8.1094      2.5730      0.0846      4.6686    125.6413     24.3057
  1489.5000      8.1092      2.5653      0.0473      5.1340    127.1498     25.7615
  1489.6000      8.1092      2.5666      0.0651      5.0521    135.1215     26.4688
  1489.7000      8.1092      2.5798      0.0923      4.2537    138.2301     23.8817
  1489.8000      8.1095      2.5888      0.0872      3.7091    131.9001     20.5648
  1489.9000      8.1095      2.5867      0.0691      3.8337    122.8033     20.5644
  1490.0000      8.1099      2.5772      0.0613      4.4134    116.9645     23.9300
  1490.1000      8.1099      2.5656      0.0625      5.1129    116.0998     27.5511
  1490.2000      8.1099      2.5585      0.0739      5.5467    117.5018     28.4388
  1490.3000      8.1109      2.5569      0.0216      5.6404    115.7997     25.5930
  1490.4000      8.1109      2.5582      0.0547      5.5662    108.8340     21.2877
  1490.5000      8.1116      2.5603      0.0116      5.4370     99.6126     18.5568
  1490.6000      8.1116      2.5535      0.0673      5.8477     92.0145     17.8999
  1490.7000      8.1116      2.5248      0.0020      7.5862     88.2271     19.1272
  1490.8000      8.1109      2.4973     -0.0695      9.2521     89.7763     21.9087
  1490.9000      8.1109      2.5039     -0.0147      8.8564     93.7136     23.6095
  1491.0000      8.1093      2.5313      0.0496      7.1910     92.7799     21.7049
  1491.1000      8.1093      2.5483      0.0063      6.1661     87.0326     18.9123
  1491.2000      8.1093      2.5404      0.0805      6.6436     83.6850     18.0881
  1491.3000      8.1095      2.5101      0.0119      8.4780     83.2777     18.2716
  1491.4000      8.1095      2.4780     -0.0445     10.4242     82.2370     19.1870
  1491.5000      8.1097      2.4645     -0.0271     11.2442     83.8427     21.9981
  1491.6000      8.1097      2.4791     -0.0190     10.3548     88.3267     24.0868
  1491.7000      8.1097      2.5217      0.0384      7.7747     87.0130     22.1030
  1491.8000      8.1093      2.5662      0.0813      5.0796     78.9537     19.4877
  1491.9000      8.1093      2.5791      0.0883      4.2992     73.5202     19.9621
  1492.0000      8.1096      2.5647      0.0326      5.1690     72.6314     21.8422
  1492.1000      8.1096      2.5522      0.0454      5.9301     73.3260     21.2160
  1492.2000      8.1096      2.5527      0.0207      5.8965     77.6159     17.7943
  1492.3000      8.1086      2.5580      0.0493      5.5776     81.0015     14.5386
  1492.4000      8.1086      2.5555      0.0203      5.7300     78.2874     14.4341
  1492.5000      8.1091      2.5418      0.0223      6.5587     73.5440     15.8281
  1492.6000      8.1091      2.5235      0.0181      7.6648     68.4379     13.0317
  1492.7000      8.1091      2.5047      0.0025      8.8078     63.4676      6.2314
  1492.8000      8.1097      2.4793      0.0363     10.3451     62.3746      4.8193
  1492.9000      8.1097      2.4558     -0.0416     11.7680     66.9470     11.6005
  1493.0000      8.1093      2.4609     -0.0071     11.4622     74.1783     17.1712
  1493.1000      8.1093      2.4922      0.0224      9.5652     78.1017     19.8749
  1493.2000      8.1093      2.5147      0.0743      8.2007     76.6281     22.5699
  1493.3000      8.1086      2.5140      0.0358      8.2419     73.6197     25.4110
  1493.4000      8.1086      2.5150      0.0559      8.1834     73.9418     25.8986
  1493.5000      8.1008      2.5340      0.1103      7.0302     78.7548     24.6874
  1493.6000      8.1008      2.5617      0.0969      5.3535     84.7029     24.6015
  1493.7000      8.1008      2.5881      0.0982      3.7528     87.6955     26.2333
