~Version Information
VERS.                      2.0: CWLS Log ASCII Standard - VERSION 2.0
WRAP.                       NO: One line per depth step
~Well Information Block
STRT.FT               -12.2500: 
STOP.FT              1442.2500: 
STEP.FT                 0.2500: 
NULL.                -999.2500: 
COMP.          Pioneer Natural Resources: COMPANY
WELL.              Lucky 21-36: WELL
FLD.           Purgatorie River: FIELD
LOC.           799' FNL & 1578' FWL--: LOCATION
CDN. :
PROV. :
UWI. :
STAT. :
CNTY. :
CTRY. :
API. :
COMP. :
WELL. :
FLD. :
LOC. :
DATE. :
SRVC. :
CNTY.               Las Animas: COUNTY
SRVC.          Superior Well Services: SERVICE COMPANY
DATE.          Mon Jul 21 12-16-21 2008: LOG DATE
UWI.           05 071 08456 00: UNIQUE WELL ID
STAT.                       CO: STATE
~Curve Information Block
DEPT.FT            0 000 00 00: Depth
CCL.                          : Casing Collar Locator
TT3.usec                      : CBL 3' Travel Time
AMP3.mV                       : CBL 3' Amplitude
GR.GAPI                       : Gamma Ray
~Parameter Information Block
~A  Depth       CCL         TT3         AMP3         GR     
# ...
   456.7500      0.0000    303.6893     36.4521    109.3036
   457.0000      0.0000    303.6918     36.5689    112.0309
   457.2500      0.0000    303.7024     36.6030    116.3844
   457.5000      0.0000    303.7209     36.5718    121.6763
   457.7500      0.0000    303.7427     36.5020    125.8860
   458.0000      0.0000    303.7591     36.4203    127.5586
   458.2500      0.0000    303.7628     36.3436    126.7770
   458.5000      0.0000    303.7495     36.2775    124.5460
   458.7500      0.0000    303.7204     36.2144    121.9736
   459.0000      0.0000    303.6808     36.1290    120.0589
   459.2500      0.0000    303.6378     35.9799    119.5276
   459.5000      0.0000    303.5962     35.7257    120.5503
   459.7500      0.0000    303.5579     35.3571    122.8488
   460.0000      0.0000    303.5233     34.9245    126.1624
   460.2500      0.0000    303.4933     34.5252    130.3199
   460.5000      0.0000    303.4708     34.2408    134.5485
   460.7500      0.0000    303.4606     34.0836    137.0782
   461.0000      0.0000    303.4653     34.0088    136.2777
   461.2500      0.0000    303.4783     33.9699    132.2972
   461.5000      0.0000    303.4851     33.9454    127.1221
   461.7500      0.0000    303.4740     33.9256    123.1552
   462.0000      0.0000    303.4431     33.9057    121.9717
   462.2500      0.0000    303.3959     33.9092    123.7490
   462.5000      0.0000    303.3310     34.0037    127.2178
   462.7500      0.0000    303.2452     34.2668    130.4373
   463.0000      0.0000    303.1496     34.7155    132.1118
   463.2500      0.0000    303.0777     35.2648    132.3941
   463.5000      0.0000    303.0692     35.7610    132.7529
   463.7500      0.0000    303.1400     36.0661    134.9145
   464.0000      0.0000    303.2665     36.1347    139.2642
   464.2500      0.0000    303.3991     36.0337    144.1116
   464.5000      0.0000    303.4934     35.8927    146.9125
   464.7500      0.0000    303.5329     35.8226    146.3301
   465.0000      0.0000    303.5299     35.8622    142.9757
   465.2500      0.0000    303.5087     35.9834    138.2367
   465.5000      0.0000    303.4864     36.1333    132.6998
   465.7500      0.0000    303.4656     36.2740    125.8925
   466.0000      0.0000    303.4411     36.3942    117.3769
   466.2500      0.0000    303.4094     36.4988    107.6889
   466.5000      0.0000    303.3750     36.5897     98.0360
   466.7500      0.0000    303.3477     36.6533     89.4308
   467.0000      0.0000    303.3350     36.6676     82.4893
   467.2500      0.0000    303.3346     36.6213     77.7556
   467.5000      0.0000    303.3364     36.5289     75.5857
   467.7500      0.0000    303.3316     36.4238     75.7854
   468.0000      0.0000    303.3219     36.3378     77.8756
   468.2500      0.0000    303.3159     36.2815     81.5420
   468.5000      0.0000    303.3204     36.2428     86.3553
   468.7500      0.0000    303.3339     36.2037     91.3573
   469.0000      0.0000    303.3502     36.1580     95.6585
   469.2500      0.0000    303.3626     36.1115     99.4313
   469.5000      0.0000    303.3677     36.0718    103.7708
   469.7500      0.0000    303.3653     36.0459    109.5127
   470.0000      0.0000    303.3558     36.0466    116.3385
   470.2500      0.0000    303.3378     36.0872    122.7377
   470.5000      0.0000    303.3098     36.1629    126.6437
   470.7500      0.0000    303.2721     36.2362    126.6178
   471.0000      0.0000    303.2270     36.2488    122.8817
   471.2500      0.0000    303.1793     36.1558    117.3190
   471.5000      0.0000    303.1377     35.9601    112.4891
   471.7500      0.0000    303.1134     35.7258    110.2082
   472.0000      0.0000    303.1116     35.5510    110.3127
   472.2500      0.0000    303.1256     35.5093    110.6805
   472.5000      0.0000    303.1421     35.6067    109.0005
   472.7500      0.0000    303.1497     35.7955    104.6583
   473.0000      0.0000    303.1449     36.0237     98.7549
   473.2500      0.0000    303.1285     36.2723     92.6621
   473.5000      0.0000    303.0920     36.5595     87.0632
   473.7500      0.0000    302.9801     36.9280     82.1329
   474.0000      0.0000    302.6173     37.4255     77.8463
   474.2500      0.0000    301.6279     38.0747     73.6988
   474.5000      0.0000    299.4997     38.8417     68.7003
   474.7500      0.0000    296.0285     39.6264     62.5950
   475.0000      0.0000    291.9943     40.2930     57.1179
   475.2500      0.0000    289.2046     40.7301     55.2465
   475.5000      0.0000    289.2771     40.9049     58.8324
   475.7500      0.0000    292.1729     40.8680     67.1327
   476.0000      0.0000    296.2237     40.6982     77.6560
   476.2500      0.0000    299.6293     40.4379     88.2259
   476.5000      0.0000    301.6614     40.0749     98.2242
   476.7500      0.0000    302.5786     39.5881    108.0398
   477.0000      0.0000    302.9161     39.0164    117.5725
   477.2500      0.0000    303.0392     38.4810    125.5227
   477.5000      0.0000    303.1002     38.1172    130.2382
   477.7500      0.0000    303.1424     37.9713    131.0426
   478.0000      0.0000    303.1778     37.9736    128.5780
   478.2500      0.0000    303.2106     38.0117    124.1765
   478.5000      0.0000    303.2365     38.0123    119.2788
   478.7500      0.0000    303.2483     37.9580    115.2111
   479.0000      0.0000    303.2419     37.8639    112.9518
   479.2500      0.0000    303.2178     37.7615    113.0428
   479.5000      0.0000    303.1753     37.6973    115.7706
   479.7500      0.0000    303.1133     37.7269    120.9902
   480.0000      0.0000    303.0358     37.8879    127.5037
   480.2500      0.0000    302.9575     38.1624    133.0653
   480.5000      0.0000    302.9008     38.4563    135.5443
   480.7500      0.0000    302.8859     38.6354    134.1019
   481.0000      0.0000    302.9186     38.6124    129.3168
   481.2500      0.0000    302.9817     38.4174    122.8030
   481.5000      0.0000    303.0432     38.1726    116.8621
   481.7500      0.0000    303.0762     37.9906    113.6488
   482.0000      0.0000    303.0733     37.9035    114.0193
   482.2500      0.0000    303.0441     37.8857    117.2016
   482.5000      0.0000    303.0026     37.9206    121.4586
   482.7500      0.0000    302.9601     38.0256    125.0113
   483.0000      0.0000    302.9243     38.2174    126.9069
   483.2500      0.0000    302.8988     38.4756    127.7097
   483.5000      0.0000    302.8802     38.7490    129.1957
   483.7500      0.0000    302.8585     38.9902    132.6552
   484.0000      0.0000    302.8237     39.1700    137.4546
   484.2500      0.0000    302.7754     39.2629    141.9103
   484.5000      0.0000    302.7258     39.2363    145.3431
   484.7500      0.0000    302.6926     39.0673    148.1330
   485.0000      0.0000    302.6866     38.7740    149.7940
   485.2500      0.0000    302.7060     38.4228    148.4214
   485.5000      0.0000    302.7400     38.0889    142.7227
   485.7500      0.0000    302.7791     37.7962    133.9037
   486.0000      0.0000    302.8213     37.4946    124.9286
   486.2500      0.0000    302.8695     37.1088    118.1106
   486.5000      0.0000    302.9259     36.6106    113.7598
   486.7500      0.0000    302.9893     36.0390    111.0308
   487.0000      0.0000    303.0582     35.4618    109.5863
   487.2500      0.0000    303.1313     34.9363    110.0620
   487.5000      0.0000    303.2067     34.5023    112.9806
   487.7500      0.0000    303.2814     34.1868    117.5060
   488.0000      0.0000    303.3531     33.9971    121.5968
   488.2500      0.0000    303.4221     33.9072    123.5838
   488.5000      0.0000    303.4905     33.8563    123.4648
   488.7500      0.0000    303.5604     33.7704    122.3213
   489.0000      0.0000    303.6316     33.5992    120.7099
   489.2500      0.0000    303.7022     33.3425    118.4063
   489.5000      0.0000    303.7704     33.0428    115.8435
   489.7500      0.0000    303.8368     32.7510    114.6998
   490.0000      0.0000    303.9073     32.4928    116.3513
