~Version Information
VERS.                      2.0: CWLS Log ASCII Standard - VERSION 2.0
WRAP.                       NO: One line per depth step
~Well Information Block
STRT.FT               380.0000: 
STOP.FT              1887.5000: 
STEP.FT                 0.1000: 
NULL.                -999.2500: 
COMP.          Pioneer Natural Resources: COMPANY
WELL.          Cortina 23-25 Tr: WELL
FLD.           Purgatoire River: FIELD
LOC.           2521' FSL & 2345' FWL: LOCATION
STAT.                 Colorado: State
CNTY.               Las Animas: COUNTY
CTRY. USA : Country
SECT. 25 : Section
TOWN. 32S : Township
RANG. 67W : Range
SRVC.                Patterson: SERVICE COMPANY
DATE.          Mon Sep 26 06:09:01 2005: LOG DATE
API.           05 071 08534 00: UNIQUE WELL ID
~Curve Information Block
DEPT.FT            0 000 00 00: Depth
DCAL.in                       : CDL Caliper
RHOB.g/cc                     : CDL Bulk Density
RHOC.g/cc                     : CDL Density Correction
DPOR.pu                       : CDL Density Porosity
GR.GAPI                       : Gamma Ray
NPOR.pu                       : Neutron Porosity
~Parameter Information Block
~A  Depth       DCAL        RHOB        RHOC        DPOR         GR         NPOR    
# ...
  1580.0000      7.9831      2.4138      0.0339     14.3132    134.5993     30.6128
  1580.1000      7.9847      2.4271      0.0666     13.5097    132.9814     30.4930
  1580.2000      7.9865      2.4508      0.0978     12.0735    133.3663     30.6813
  1580.3000      7.9886      2.4653      0.0972     11.1956    132.6801     30.9782
  1580.4000      7.9907      2.4715      0.0722     10.8196    127.2820     30.9040
  1580.5000      7.9926      2.4812      0.0798     10.2287    114.4658     30.4404
  1580.6000      7.9939      2.4985      0.1015      9.1848    102.8438     30.0380
  1580.7000      7.9943      2.5207      0.0855      7.8354    103.2107     30.0601
  1580.8000      7.9938      2.5350      0.1665      6.9703    111.4063     30.2240
  1580.9000      7.9920      2.5235      0.1508      7.6679    117.6736     30.1778
  1581.0000      7.9889      2.4907      0.0996      9.6551    118.1184     29.9131
  1581.1000      7.9847      2.4612      0.0673     11.4433    113.7451     29.7580
  1581.2000      7.9795      2.4517      0.0718     12.0199    109.5603     29.6653
  1581.3000      7.9735      2.4553      0.1031     11.7991    112.8551     29.3172
  1581.4000      7.9670      2.4634      0.0609     11.3108    122.3028     29.2165
  1581.5000      7.9604      2.4837      0.0152     10.0806    128.3278     29.7912
  1581.6000      7.9537      2.5040      0.1425      8.8494    127.8755     30.2770
  1581.7000      7.9473      2.4971      0.0651      9.2668    125.0921     30.0244
  1581.8000      7.9413      2.4748      0.0049     10.6203    121.5769     28.9407
  1581.9000      7.9358      2.4641      0.0299     11.2685    116.0444     27.3182
  1582.0000      7.9311      2.4676      0.0188     11.0551    111.8610     26.1721
  1582.1000      7.9273      2.4718      0.1057     10.7972    111.9161     26.3220
  1582.2000      7.9247      2.4615      0.0862     11.4233    113.9818     27.4401
  1582.3000      7.9235      2.4376      0.0331     12.8733    117.4502     28.4541
  1582.4000      7.9242      2.4152      0.0127     14.2307    123.2040     28.7744
  1582.5000      7.9271      2.3984      0.0299     15.2458    131.8141     29.0361
  1582.6000      7.9324      2.3796     -0.0228     16.3876    143.0038     29.9901
  1582.7000      7.9404      2.3549      0.0287     17.8847    151.4267     31.5577
  1582.8000      7.9511      2.3270      0.0308     19.5759    152.7038     33.1274
  1582.9000      7.9644      2.3020      0.0606     21.0884    149.2921     33.6386
  1583.0000      7.9803      2.2856      0.0635     22.0852    144.3260     32.6496
  1583.1000      7.9986      2.2741      0.1218     22.7818    141.3787     31.3073
  1583.2000      8.0189      2.2574      0.1046     23.7957    141.3681     30.8457
  1583.3000      8.0411      2.2357      0.1073     25.1121    138.4331     31.1000
  1583.4000      8.0647      2.2203      0.1065     26.0432    131.5998     31.4113
  1583.5000      8.0897      2.2237      0.0806     25.8375    127.8436     31.9201
  1583.6000      8.1154      2.2425      0.1842     24.6971    129.7426     32.4020
  1583.7000      8.1416      2.2516      0.1953     24.1468    134.3845     32.0765
  1583.8000      8.1677      2.2375      0.2081     25.0028    138.1984     31.2796
  1583.9000      8.1930      2.2126      0.1955     26.5075    137.2463     30.9595
  1584.0000      8.2171      2.1990      0.2185     27.3331    133.6032     31.4141
  1584.1000      8.2391      2.2042      0.2850     27.0185    134.8820     32.0845
  1584.2000      8.2584      2.2209      0.3089     26.0091    141.6159     32.0492
  1584.3000      8.2745      2.2469      0.2965     24.4307    147.5903     31.3687
  1584.4000      8.2867      2.2826      0.3379     22.2651    149.5226     31.1597
  1584.5000      8.2948      2.3280      0.3360     19.5148    148.0267     31.6588
  1584.6000      8.2984      2.3872      0.3040     15.9260    143.9790     31.9263
  1584.7000      8.2977      2.4467      0.4088     12.3213    137.7975     31.5692
  1584.8000      8.2926      2.4751      0.3936     10.6021    132.1954     31.0048
  1584.9000      8.2838      2.4686      0.3230     10.9918    128.1159     30.7373
  1585.0000      8.2718      2.4500      0.2960     12.1186    125.3801     31.1186
  1585.1000      8.2571      2.4309      0.2546     13.2777    128.8566     32.1198
  1585.2000      8.2404      2.4113      0.2065     14.4641    138.1596     32.6936
  1585.3000      8.2222      2.3947      0.1587     15.4706    143.7358     31.8927
  1585.4000      8.2027      2.3879      0.1550     15.8851    141.2633     30.8886
  1585.5000      8.1820      2.3949      0.1778     15.4612    135.5620     31.0226
  1585.6000      8.1597      2.4116      0.2260     14.4458    131.3380     31.7892
  1585.7000      8.1358      2.4230      0.2568     13.7580    129.6342     32.4767
  1585.8000      8.1101      2.4115      0.2521     14.4566    129.7957     32.9105
  1585.9000      8.0828      2.3660      0.2341     17.2129    128.1622     32.8292
  1586.0000      8.0544      2.2821      0.2669     22.2981    121.5875     32.3327
  1586.1000      8.0257      2.1709      0.1685     29.0339    114.6303     32.0769
  1586.2000      7.9976      2.0495      0.1437     36.3922    113.3582     32.2592
  1586.3000      7.9713      1.9171      0.0544     44.4162    112.3493     32.5425
  1586.4000      7.9479      1.7791      0.0003     52.7825    104.9741     33.1189
  1586.5000      7.9279      1.6655     -0.0676     59.6667     95.2840     34.0926
  1586.6000      7.9118      1.5990     -0.0775     63.6991     87.1069     34.4183
  1586.7000      7.8995      1.5620      0.0301     65.9379     79.5884     33.5484
  1586.8000      7.8907      1.5230      0.0459     68.3047     72.3442     32.9260
  1586.9000      7.8849      1.4826      0.0413     70.7520     65.9011     33.7178
  1587.0000      7.8814      1.4554      0.0474     72.3998     62.6928     35.2270
  1587.1000      7.8797      1.4400      0.0529     73.3317     64.0089     36.1432
  1587.2000      7.8796      1.4299      0.0066     73.9461     66.2361     36.0239
  1587.3000      7.8808      1.4151      0.0506     74.8411     64.8875     35.5027
  1587.4000      7.8833      1.3885     -0.0298     76.4551     62.0769     34.9756
  1587.5000      7.8870      1.3665     -0.0468     77.7859     62.7951     34.1184
  1587.6000      7.8921      1.3715      0.0026     77.4846     66.4954     33.1755
  1587.7000      7.8982      1.4113     -0.0092     75.0703     69.8386     32.7353
  1587.8000      7.9052      1.4884      0.0111     70.3998     72.9206     32.4780
  1587.9000      7.9126      1.5909      0.0472     64.1856     79.0489     32.4204
  1588.0000      7.9196      1.6907      0.0906     58.1411     89.6787     32.8736
  1588.1000      7.9256      1.7649      0.1328     53.6418    101.4361     33.4685
  1588.2000      7.9298      1.8189      0.0931     50.3726    108.1689     33.9303
  1588.3000      7.9315      1.8808      0.1080     46.6206    107.7099     34.2198
  1588.4000      7.9303      1.9506      0.1722     42.3849    104.1831     34.1490
  1588.5000      7.9262      1.9883      0.1243     40.1030    101.1230     33.6993
  1588.6000      7.9196      1.9728      0.0490     41.0439     99.7489     33.3584
  1588.7000      7.9112      1.9173      0.0492     44.4079    101.8579     33.4536
  1588.8000      7.9024      1.8370      0.0128     49.2728    107.5990     33.3334
  1588.9000      7.8943      1.7559     -0.0689     54.1889    113.0094     33.0146
  1589.0000      7.8883      1.7008     -0.0223     57.5275    115.7212     33.5831
  1589.1000      7.8851      1.6646     -0.0142     59.7233    118.9072     34.7382
  1589.2000      7.8852      1.6225      0.0024     62.2741    121.2830     35.0647
  1589.3000      7.8885      1.5736     -0.0366     65.2384    119.6668     34.6750
  1589.4000      7.8947      1.5393     -0.0034     67.3153    117.6140     34.5903
  1589.5000      7.9031      1.5338      0.0128     67.6455    117.7075     34.5367
