~Version Information
VERS.                      2.0: CWLS Log ASCII Standard - VERSION 2.0
WRAP.                       NO: One line per depth step
~Well Information Block
STRT.FT                 8.2500: 
STOP.FT              1156.2500: 
STEP.FT                 0.2500: 
NULL.                -999.2500: 
COMP.          Pioneer Natural Resources: COMPANY
WELL.              Davida 34-8: WELL
FLD.           Purgatoire River: FIELD
LOC.           418' FSL & 1923' FEL: LOCATION
CNTY.               Las Animas: COUNTY
SRVC.                Patterson: SERVICE COMPANY
DATE.          Thu Mar 30 09:09:42 2006: LOG DATE
UWI.           05 071 08722 00: UNIQUE WELL ID
STAT.                 Colorado: STATE
~Curve Information Block
DEPT.FT            0 000 00 00: Depth
GR.GAPI                       : Gamma Ray
CCL.                          : Casing Collar Locator
TT3.usec                      : CBL 3' Travel Time
AMP3.mV                       : CBL 3' Amplitude
~Parameter Information Block
~A  Depth        GR         CCL         TT3         AMP3    
# ...
   611.2500    117.1548      0.0000    747.5859      6.8250
   611.5000    118.1740      0.0000    747.4836      6.8369
   611.7500    118.6959      0.0000    746.8987      6.8343
   612.0000    118.9321      0.0000    747.3899      6.8116
   612.2500    118.7230      0.0000    749.8432      6.7746
   612.5000    117.4904      0.0000    754.8041      6.7366
   612.7500    114.4449      0.0000    762.8524      6.7053
   613.0000    109.0838      0.0000    773.4047      6.6757
   613.2500    101.8163      0.0000    783.7909      6.6346
   613.5000     94.1271      0.0000    790.5599      6.5694
   613.7500     87.8336      0.0000    791.3680      6.4742
   614.0000     83.8809      0.0000    785.4601      6.3526
   614.2500     81.8872      0.0000    773.4486      6.2179
   614.5000     80.8927      0.0000    757.3517      6.0888
   614.7500     80.2320      0.0000    740.3237      5.9797
   615.0000     79.5632      0.0000    725.5279      5.8942
   615.2500     78.5373      0.0000    714.8829      5.8285
   615.5000     76.9527      0.0000    708.5925      5.7811
   615.7500     75.1518      0.0000    705.6111      5.7575
   616.0000     73.8396      0.0000    704.5311      5.7630
   616.2500     73.3084      0.0000    704.2413      5.7946
   616.5000     73.0291      0.0000    704.1101      5.8417
   616.7500     72.2833      0.0000    703.8817      5.8956
   617.0000     71.0484      0.0000    703.5474      5.9558
   617.2500     69.8524      0.0000    703.3226      6.0247
   617.5000     68.8211      0.0000    703.7304      6.0986
   617.7500     67.4237      0.0000    705.7761      6.1640
   618.0000     65.3585      0.0000    710.9595      6.2056
   618.2500     63.2663      0.0000    720.6423      6.2200
   618.5000     62.2393      0.0000    734.7829      6.2214
   618.7500     62.8054      0.0000    751.1344      6.2336
   619.0000     64.5473      0.0000    765.9631      6.2770
   619.2500     66.5432      0.0000    775.4741      6.3591
   619.5000     67.9467      0.0000    776.5535      6.4745
   619.7500     68.2119      0.0000    767.4006      6.6097
   620.0000     67.2135      0.0000    749.1689      6.7496
   620.2500     65.4586      0.0000    726.9316      6.8803
   620.5000     63.9036      0.0000    707.3224      6.9918
   620.7500     63.2752      0.0000    694.2574      7.0793
   621.0000     63.6998      0.0000    687.2153      7.1450
   621.2500     64.9925      0.0000    683.3835      7.1977
   621.5000     66.9693      0.0000    680.3041      7.2526
   621.7500     69.4241      0.0000    676.2918      7.3271
   622.0000     72.0806      0.0000    669.9109      7.4211
   622.2500     74.6582      0.0000    660.8806      7.4889
   622.5000     76.8970      0.0000    651.6124      7.4445
   622.7500     78.4174      0.0000    646.2870      7.2298
   623.0000     78.5104      0.0000    647.1900      6.8882
   623.2500     76.3121      0.0000    652.4072      6.5451
   623.5000     71.6769      0.0000    658.2064      6.3043
   623.7500     65.9821      0.0000    663.1321      6.1794
   624.0000     61.6196      0.0000    668.2411      6.1219
   624.2500     60.3182      0.0000    673.3813      6.0843
   624.5000     61.8728      0.0000    675.5529      6.0497
   624.7500     64.4959      0.0000    672.1216      6.0277
   625.0000     66.4071      0.0000    664.2193      6.0412
   625.2500     67.0720      0.0000    656.1557      6.1089
   625.5000     66.9799      0.0000    652.4536      6.2317
   625.7500     66.5994      0.0000    655.5902      6.3997
   626.0000     65.8767      0.0000    665.1517      6.5998
   626.2500     64.6227      0.0000    678.1415      6.8052
   626.5000     63.1098      0.0000    690.5725      6.9662
   626.7500     62.1840      0.0000    699.6816      7.0299
   627.0000     62.6815      0.0000    704.9913      6.9675
   627.2500     64.5544      0.0000    707.5513      6.7835
   627.5000     66.6403      0.0000    708.6343      6.5086
   627.7500     67.5180      0.0000    709.0712      6.1847
   628.0000     66.6302      0.0000    709.2818      5.8513
   628.2500     64.5760      0.0000    709.3895      5.5397
   628.5000     62.5292      0.0000    709.2001      5.2783
   628.7500     61.4706      0.0000    708.0950      5.0980
   629.0000     61.7047      0.0000    705.0828      5.0255
   629.2500     62.8108      0.0000    699.3210      5.0661
   629.5000     64.0385      0.0000    691.0264      5.1929
   629.7500     64.8678      0.0000    681.9825      5.3557
   630.0000     65.1808      0.0000    674.8697      5.5040
   630.2500     64.9187      0.0000    671.7932      5.6063
   630.5000     63.8691      0.0000    673.0931      5.6521
   630.7500     62.0353      0.0000    677.0152      5.6435
   631.0000     59.9398      0.0000    680.4637      5.5898
   631.2500     58.3001      0.0000    680.8693      5.5064
   631.5000     57.6560      0.0000    678.0051      5.4144
   631.7500     58.4380      0.0000    673.9571      5.3349
   632.0000     60.9546      0.0000    671.3422      5.2808
   632.2500     64.9208      0.0000    671.7004      5.2514
   632.5000     69.1576      0.0000    675.0004      5.2360
   632.7500     72.0979      0.0000    679.6776      5.2234
   633.0000     72.8152      0.0000    683.1457      5.2080
   633.2500     71.6639      0.0000    683.2943      5.1891
   633.5000     69.9440      0.0000    680.0886      5.1658
   633.7500     68.8761      0.0000    675.4479      5.1390
   634.0000     68.7897      0.0000    671.4692      5.1156
   634.2500     69.1573      0.0000    669.0226      5.1082
   634.5000     69.2645      0.0000    667.8464      5.1287
   634.7500     68.8155      0.0000    667.3584      5.1805
   635.0000     67.9875      0.0000    667.1484      5.2547
   635.2500     67.0230      0.0000    667.0117      5.3321
   635.5000     66.0231      0.0000    666.8496      5.3904
   635.7500     65.2044      0.0000    666.6262      5.4160
   636.0000     64.8808      0.0000    666.3751      5.4102
   636.2500     64.8872      0.0000    666.1921      5.3874
   636.5000     64.5023      0.0000    666.2184      5.3650
   636.7500     63.3759      0.0000    666.6827      5.3567
   637.0000     62.2262      0.0000    668.0315      5.3691
   637.2500     62.2302      0.0000    670.9866      5.4021
   637.5000     63.9110      0.0000    676.2131      5.4512
   637.7500     66.7377      0.0000    683.5999      5.5090
   638.0000     69.5681      0.0000    691.8528      5.5665
   638.2500     71.4484      0.0000    699.1165      5.6153
   638.5000     72.1523      0.0000    704.1509      5.6519
   638.7500     72.0593      0.0000    706.8372      5.6799
   639.0000     71.7447      0.0000    707.6583      5.7081
   639.2500     71.8538      0.0000    707.0532      5.7440
   639.5000     72.9630      0.0000    705.4654      5.7886
   639.7500     74.9440      0.0000    703.7845      5.8340
   640.0000     76.5159      0.0000    703.2020      5.8686
   640.2500     76.0483      0.0000    704.2569      5.8855
   640.5000     73.1898      0.0000    706.1672      5.8861
   640.7500     69.4677      0.0000    707.2673      5.8764
   641.0000     66.9644      0.0000    705.9634      5.8612
   641.2500     66.4790      0.0000    701.4131      5.8414
   641.5000     67.0869      0.0000    694.0046      5.8178
   641.7500     67.2470      0.0000    685.5784      5.7940
   642.0000     66.2632      0.0000    678.8422      5.7734
   642.2500     64.8776      0.0000    676.0950      5.7535
   642.5000     64.3905      0.0000    678.1748      5.7272
   642.7500     65.1066      0.0000    684.1622      5.6901
   643.0000     65.9290      0.0000    691.7782      5.6435
   643.2500     65.7791      0.0000    698.3792      5.5902
   643.5000     65.1345      0.0000    702.0342      5.5311
   643.7500     65.6958      0.0000    701.9214      5.4668
   644.0000     68.5615      0.0000    698.1096      5.3995
   644.2500     73.1952      0.0000    691.4658      5.3328
   644.5000     78.3214      0.0000    683.7203      5.2725
