~Version Information
VERS.                      2.0: CWLS Log ASCII Standard - VERSION 2.0
WRAP.                       NO: One line per depth step
~Well Information Block
STRT.FT               310.0000: 
STOP.FT              2298.0000: 
STEP.FT                 0.2500: 
NULL.                -999.2500: 
COMP.          Pioneer Natural Resources: COMPANY
WELL.               Relay 12-7: WELL
FLD.           Purgatoire River: FIELD
LOC.           1999' FNL & 848' FWL: LOCATION
PROV.                 Colorado: PROVINCE
CNTY.               Las Animas: COUNTRY
SRVC.                Patterson: SERVICE COMPANY
DATE.          Fri Dec 16 17:39:57 2005: LOG DATE
UWI.           05 071 08453 00: UNIQUE WELL ID
~Curve Information Block
DEPT.FT            0 000 00 00: Depth
SN.Ohm-m                      : IEL Short Normal
SP.mV                         : IEL Spontaneous Potential
DIR.Ohm-m                     : IEL Induction Resistivity
GR.GAPI                       : Gamma Ray
~Parameter Information Block
~A  Depth        SN          SP         DIR          GR     
# ...
  2253.0000     29.6236     54.1665     29.8443     88.6464
  2253.2500     29.2638     54.2684     29.6936     90.0391
  2253.5000     29.0075     54.3623     29.5497     91.5008
  2253.7500     28.7397     54.4638     29.4121     91.5913
  2254.0000     28.4460     54.5810     29.2829     90.2376
  2254.2500     28.1418     54.7112     29.1509     88.8986
  2254.5000     27.8864     54.8410     28.9794     87.6533
  2254.7500     27.8257     54.9509     28.7189     87.8178
  2255.0000     28.0296     55.0208     28.3456     89.4992
  2255.2500     28.3569     55.0389     27.8956     91.2819
  2255.5000     28.5573     55.0087     27.4594     94.2201
  2255.7500     28.5122     54.9489     27.1366     95.7370
  2256.0000     28.3046     54.8861     26.9850     96.3063
  2256.2500     28.0497     54.8445     26.9964     95.4216
  2256.5000     27.8584     54.8365     27.1085     93.2511
  2256.7500     27.8431     54.8602     27.2413     92.1945
  2257.0000     27.9449     54.9025     27.3330     92.0270
  2257.2500     27.9866     54.9492     27.3570     92.4787
  2257.5000     27.9033     54.9914     27.3151     92.4281
  2257.7500     27.7479     55.0214     27.2265     91.1807
  2258.0000     27.5880     55.0272     27.1222     87.6037
  2258.2500     27.4289     54.9930     27.0344     84.8903
  2258.5000     27.2405     54.9071     26.9800     81.7924
  2258.7500     27.0790     54.7663     26.9478     80.6366
  2259.0000     27.0271     54.5796     26.9074     79.7411
  2259.2500     27.0508     54.3688     26.8342     79.3270
  2259.5000     27.0810     54.1639     26.7305     78.7902
  2259.7500     27.1426     53.9902     26.6261     78.5745
  2260.0000     27.2639     53.8578     26.5669     78.6733
  2260.2500     27.3712     53.7605     26.6001     79.1038
  2260.5000     27.4284     53.6809     26.7609     80.2638
  2260.7500     27.5522     53.5970     27.0579     81.2652
  2261.0000     27.7996     53.4892     27.4616     82.9547
  2261.2500     28.0521     53.3475     27.9095     84.1948
  2261.5000     28.2683     53.1785     28.3370     86.1379
  2261.7500     28.5432     53.0031     28.7107     87.2804
  2262.0000     28.9023     52.8468     29.0347     88.2313
  2262.2500     29.2832     52.7262     29.3231     88.1052
  2262.5000     29.6126     52.6428     29.5718     86.7970
  2262.7500     29.8390     52.5860     29.7583     85.5349
  2263.0000     29.9957     52.5394     29.8646     83.8261
  2263.2500     30.1445     52.4866     29.8932     82.9301
  2263.5000     30.2620     52.4190     29.8591     81.5202
  2263.7500     30.2924     52.3435     29.7675     80.3777
  2264.0000     30.2237     52.2826     29.6012     78.8166
  2264.2500     30.1094     52.2648     29.3344     78.2454
  2264.5000     30.0732     52.3115     28.9647     78.1185
  2264.7500     30.1713     52.4279     28.5329     78.3134
  2265.0000     30.2270     52.6026     28.1066     78.8300
  2265.2500     29.9916     52.8140     27.7360     79.1844
  2265.5000     29.4847     53.0392     27.4241     79.0592
  2265.7500     28.9462     53.2581     27.1373     78.1940
  2266.0000     28.5171     53.4527     26.8436     76.0619
  2266.2500     28.1490     53.6019     26.5386     74.7221
  2266.5000     27.7135     53.6804     26.2351     73.6137
  2266.7500     27.1660     53.6653     25.9352     73.4162
  2267.0000     26.6121     53.5485     25.6216     73.3442
  2267.2500     26.1437     53.3468     25.2798     73.1990
  2267.5000     25.7384     53.0993     24.9266     72.7684
  2267.7500     25.3965     52.8537     24.6107     72.4138
  2268.0000     25.1794     52.6476     24.3851     71.9737
  2268.2500     25.0720     52.4986     24.2750     71.9194
  2268.5000     24.9836     52.4026     24.2637     72.6333
  2268.7500     24.9234     52.3409     24.3035     73.7842
  2269.0000     25.0170     52.2899     24.3395     76.1011
  2269.2500     25.2576     52.2297     24.3367     77.3875
  2269.5000     25.4160     52.1495     24.2952     77.8118
  2269.7500     25.3224     52.0504     24.2448     76.9048
  2270.0000     25.0895     51.9464     24.2226     74.4284
  2270.2500     24.9464     51.8591     24.2526     72.7000
  2270.5000     24.9807     51.8052     24.3416     70.8968
  2270.7500     25.1359     51.7851     24.4884     70.4388
  2271.0000     25.3257     51.7810     24.6894     70.7545
  2271.2500     25.4617     51.7668     24.9350     71.4282
  2271.5000     25.5151     51.7246     25.2070     72.8092
  2271.7500     25.5548     51.6602     25.4824     73.7786
  2272.0000     25.6289     51.6015     25.7468     74.7482
  2272.2500     25.7434     51.5750     26.0031     74.6931
  2272.5000     25.9349     51.5799     26.2705     73.3033
  2272.7500     26.2042     51.5885     26.5685     71.7457
  2273.0000     26.4831     51.5732     26.8949     69.3526
  2273.2500     26.7087     51.5293     27.2126     68.3349
  2273.5000     26.8699     51.4737     27.4696     68.6027
  2273.7500     27.0009     51.4266     27.6410     70.1909
  2274.0000     27.1085     51.3958     27.7511     73.9694
  2274.2500     27.1794     51.3741     27.8470     76.4543
  2274.5000     27.2564     51.3473     27.9528     78.6161
  2274.7500     27.3803     51.3034     28.0542     78.7820
  2275.0000     27.5224     51.2392     28.1205     77.9288
  2275.2500     27.6340     51.1588     28.1325     77.3380
  2275.5000     27.7351     51.0671     28.0907     76.9659
  2275.7500     27.9120     50.9653     28.0098     76.7701
  2276.0000     28.1991     50.8540     27.9181     75.7227
  2276.2500     28.5202     50.7365     27.8576     74.4074
  2276.5000     28.7776     50.6193     27.8730     72.1040
  2276.7500     29.0044     50.5092     27.9864     70.7379
  2277.0000     29.3245     50.4094     28.1830     69.1037
  2277.2500     29.7102     50.3164     28.4190     68.1936
  2277.5000     30.0136     50.2208     28.6535     66.8184
  2277.7500     30.2099     50.1125     28.8761     65.4502
  2278.0000     30.3420     49.9870     29.1103     61.0482
  2278.2500     30.3941     49.8460     29.3960     55.3807
  2278.5000     30.4411     49.6941     29.7733     42.2090
  2278.7500     30.6643     49.5319     30.2761     31.5442
  2279.0000     31.1004     49.3544     30.9229     16.6471
  2279.2500     31.6150     49.1530     31.6937      9.3459
  2279.5000     32.1375     48.9200     32.5053      3.0706
  2279.7500     32.7085     48.6527     33.2245      1.2291
  2280.0000     33.3143     48.3580     33.7340      0.2368
  2280.2500     33.8495     48.0564     34.0094      0.0648
  2280.5000     34.2673     47.7802     34.1316      0.0060
  2280.7500     34.6989     47.5626     34.2227      0.0000
  2281.0000     35.2996     47.4250     34.3711   -999.2500
  2281.2500     35.9960     47.3702     34.5960   -999.2500
  2281.5000     36.5719     47.3855     34.8493   -999.2500
  2281.7500     36.9719     47.4495     35.0388   -999.2500
  2282.0000     37.3326     47.5394     35.0789   -999.2500
  2282.2500     37.7337     47.6409     34.9525   -999.2500
  2282.5000     38.0865     47.7543     34.7333   -999.2500
  2282.7500     38.2948     47.8875     34.5303   -999.2500
  2283.0000     38.3565     48.0412     34.4002   -999.2500
  2283.2500     38.2876     48.1992     34.3077   -999.2500
  2283.5000     38.0831     48.3375     34.1647   -999.2500
  2283.7500     37.7582     48.4435     33.8994   -999.2500
  2284.0000     37.3942     48.5286     33.4860   -999.2500
  2284.2500     37.0753     48.6204     32.9191   -999.2500
  2284.5000     36.7354     48.7411     32.1873   -999.2500
  2284.7500     36.1914     48.8925     31.2898   -999.2500
  2285.0000     35.3593     49.0606     30.3665   -999.2500
  2285.2500     34.3018     49.2311     29.3098   -999.2500
  2285.5000     33.1057     49.3996     28.3123   -999.2500
  2285.7500     31.8666     49.5679     27.4221   -999.2500
  2286.0000     30.7003     49.7409     26.6393   -999.2500
  2286.2500     29.6325     49.9287     25.9396   -999.2500
