~Version Information
VERS.                      2.0: CWLS Log ASCII Standard - VERSION 2.0
WRAP.                       NO: One line per depth step
~Well Information Block
STRT.FT                -6.0000: 
STOP.FT              1295.2500: 
STEP.FT                 0.2500: 
NULL.                -999.2500: 
COMP.          Pioneer Natural Resources: COMPANY
WELL.            Erin 21-15 Tr: WELL
FLD.           Purgatoire River: FIELD
LOC.           1217' FNL & 2284' FWL--: LOCATION
CNTY.               Las Animas: COUNTY
SRVC.                         : SERVICE COMPANY
DATE.          Fri Mar 10 09:14:17 2006: LOG DATE
UWI.           05 071 08712 00: UNIQUE WELL ID
STAT.                       CO: STATE
~Curve Information Block
DEPT.FT            0 000 00 00: Depth
GR.GAPI                       : Gamma Ray
CCL.                          : Casing Collar Locator
TT3.usec                      : CBL 3' Travel Time
AMP3.mV                       : CBL 3' Amplitude
~Parameter Information Block
~A  Depth        GR         CCL         TT3         AMP3    
# ...
   429.5000     64.3738      0.0000    745.7737     12.9313
   429.7500     63.8969      0.0000    750.8788     12.8417
   430.0000     63.5369      0.0000    756.8011     12.7025
   430.2500     62.5216      0.0000    762.4935     12.5983
   430.5000     61.0291      0.0000    766.9206     12.6064
   430.7500     59.5286      0.0000    769.4123     12.7466
   431.0000     58.2427      0.0000    770.4445     12.9700
   431.2500     57.3582      0.0000    771.9387     13.1762
   431.5000     57.4600      0.0000    776.0563     13.2456
   431.7500     59.3772      0.0000    782.8469     13.1005
   432.0000     63.4467      0.0000    789.1641     12.7794
   432.2500     68.9604      0.0000    790.9477     12.4553
   432.5000     74.4918      0.0000    787.2104     12.3305
   432.7500     78.8488      0.0000    781.2497     12.4828
   433.0000     81.6329      0.0000    777.3200     12.8209
   433.2500     83.0330      0.0000    776.6106     13.1916
   433.5000     83.4848      2.0000    777.1973     13.5112
   433.7500     83.6666      2.0000    777.1354     13.8111
   434.0000     84.4699      0.0000    776.0582     14.2082
   434.2500     86.4861      0.0000    773.8682     14.8210
   434.5000     89.2805      0.0000    769.7583     15.6264
   434.7500     91.3131      0.0000    763.8495     16.3565
   435.0000     90.9968      0.0000    758.7943     16.6283
   435.2500     88.1937      0.0000    757.9035     16.2748
   435.5000     84.4582      0.0000    761.7004     15.5243
   435.7500     81.4549      0.0000    767.5188     14.8106
   436.0000     79.3907      0.0000    772.3258     14.4403
   436.2500     77.4240      0.0000    774.9698     14.4411
   436.5000     75.2438      0.0000    775.9547     14.6465
   436.7500     73.6507      0.0000    776.1655     14.8683
   437.0000     73.7557      0.0000    776.1235     15.0036
   437.2500     76.0903      0.0000    775.8935     15.0214
   437.5000     80.3700      0.0000    775.2146     14.9072
   437.7500     85.6159      0.0000    773.7342     14.6622
   438.0000     90.3632      0.0000    771.4504     14.3486
   438.2500     93.2178      0.0000    769.1154     14.0916
   438.5000     93.7273      0.0000    767.9384     14.0111
   438.7500     92.5721      0.0000    768.5365     14.1367
   439.0000     90.7195      0.0000    770.2216     14.3822
   439.2500     88.8325      0.0000    771.4445     14.6043
   439.5000     87.5922      0.0000    770.8324     14.7005
   439.7500     87.8256      0.0000    768.0148     14.6676
   440.0000     89.8936      0.0000    764.0693     14.5751
   440.2500     93.3155      0.0000    761.2284     14.4933
   440.5000     97.0393      0.0000    761.4216     14.4489
   440.7500     99.8769      0.0000    764.6677     14.4260
   441.0000    100.9171      0.0000    769.1298     14.3923
   441.2500     99.9641      0.0000    772.8041     14.3358
   441.5000     97.7115      0.0000    774.8832     14.2822
   441.7500     95.3797      0.0000    775.6850     14.2625
   442.0000     93.9107      0.0000    775.8522     14.2726
   442.2500     93.2815      0.0000    775.8123     14.2869
   442.5000     92.7062      0.0000    775.7060     14.2947
   442.7500     91.7258      0.0000    775.5283     14.2994
   443.0000     91.0133      0.0000    775.2344     14.3018
   443.2500     91.8232      0.0000    774.7271     14.3146
   443.5000     94.6310      0.0000    773.8013     14.3740
   443.7500     98.4867      0.0000    772.2348     14.4998
   444.0000    101.6178      0.0000    770.1218     14.6503
   444.2500    102.5306      0.0000    768.1798     14.7531
   444.5000    100.7668      0.0000    767.4587     14.7913
   444.7500     97.0144      0.0000    768.4319     14.8281
   445.0000     92.5058      0.0000    770.4385     14.9310
   445.2500     88.1463      0.0000    772.1992     15.0900
   445.5000     84.2734      0.0000    772.6992     15.2252
   445.7500     81.2059      0.0000    771.4888     15.2637
   446.0000     79.6099      0.0000    768.5359     15.1965
   446.2500     79.9914      0.0000    764.1874     15.0726
   446.5000     81.9753      0.0000    759.1666     14.9501
   446.7500     84.3438      0.0000    754.3900     14.8507
   447.0000     85.7398      0.0000    750.7213     14.7545
   447.2500     85.3034      0.0000    748.6555     14.6322
   447.5000     82.9019      0.0000    747.9219     14.4788
   447.7500     78.9939      0.0000    747.7025     14.3132
   448.0000     74.3295      0.0000    747.6505     14.1562
   448.2500     69.8164      0.0000    748.4159     14.0207
   448.5000     66.5198      0.0000    750.8394     13.9183
   448.7500     65.3854      0.0000    754.9808     13.8579
   449.0000     66.6646      0.0000    760.1499     13.8346
   449.2500     69.6954      0.0000    765.4352     13.8366
   449.5000     73.4411      0.0000    769.9985     13.8704
   449.7500     77.2545      0.0000    773.3371     13.9623
   450.0000     81.0340      0.0000    775.6065     14.1200
   450.2500     84.7050      0.0000    777.6929     14.2987
   450.5000     87.8929      0.0000    780.8598     14.4268
   450.7500     90.3570      0.0000    785.9993     14.4687
   451.0000     92.4085      0.0000    792.6584     14.4457
   451.2500     94.3102      0.0000    798.6628     14.3892
   451.5000     95.4512      0.0000    801.2427     14.2995
   451.7500     94.7242      0.0000    799.1260     14.1602
   452.0000     91.8003      0.0000    793.5851     13.9712
   452.2500     87.6858      0.0000    787.3297     13.7577
   452.5000     83.9305      0.0000    782.4747     13.5619
   452.7500     81.3682      0.0000    779.5637     13.4329
   453.0000     79.5948      0.0000    778.0659     13.4192
   453.2500     77.5220      0.0000    777.2785     13.5624
   453.5000     74.2914      0.0000    776.7697     13.8845
   453.7500     69.8523      0.0000    776.3741     14.3553
   454.0000     65.1035      0.0000    776.0645     14.8656
   454.2500     61.4698      0.0000    775.8563     15.2569
   454.5000     60.0035      0.0000    775.7605     15.4047
   454.7500     60.8492      0.0000    775.7857     15.2963
   455.0000     63.4631      0.0000    775.9470     15.0432
   455.2500     66.8889      0.0000    776.2433     14.8121
   455.5000     69.9233      0.0000    776.6333     14.7261
   455.7500     71.7233      0.0000    777.0519     14.8216
   456.0000     72.5399      0.0000    777.4377     15.0724
   456.2500     73.5152      0.0000    777.7363     15.4106
   456.5000     75.5548      0.0000    777.9066     15.7160
   456.7500     78.3470      0.0000    777.9442     15.8456
   457.0000     80.5025      0.0000    777.8819     15.7348
   457.2500     80.7607      0.0000    777.7596     15.4755
   457.5000     78.9928      0.0000    777.5892     15.2541
   457.7500     75.8546      0.0000    777.3544     15.1852
   458.0000     71.8668      0.0000    777.0612     15.2145
   458.2500     67.4501      0.0000    776.7875     15.2001
   458.5000     63.5687      0.0000    776.6560     15.0829
   458.7500     61.4941      0.0000    776.7315     14.9526
   459.0000     61.7034      0.0000    776.9501     14.9433
   459.2500     63.3607      0.0000    777.1675     15.0848
   459.5000     65.1350      0.0000    777.2872     15.2675
   459.7500     66.4853      0.0000    777.3337     15.3371
   460.0000     67.9303      0.0000    777.3994     15.2063
   460.2500     70.0417      0.0000    777.5415     14.8885
   460.5000     72.4890      0.0000    777.7478     14.4600
   460.7500     74.1662      0.0000    777.9847     14.0122
   461.0000     74.1787      0.0000    778.2378     13.6194
   461.2500     72.7296      0.0000    778.5002     13.3246
   461.5000     71.1548      0.0000    778.7501     13.1481
   461.7500     71.0702      0.0000    778.9474     13.1061
   462.0000     73.3477      0.0000    779.0305     13.2054
   462.2500     77.6128      0.0000    778.9305     13.4162
   462.5000     82.4490      0.0000    778.6298     13.6639
   462.7500     86.2084      0.0000    778.2068     13.8602
