~Version Information
VERS.                      2.0: CWLS Log ASCII Standard - VERSION 2.0
WRAP.                       NO: One line per depth step
~Well Information Block
STRT.FT               595.7000: 
STOP.FT              1567.2000: 
STEP.FT                 0.1000: 
NULL.                -999.2500: 
COMP.          Pioneer Natural Resources: COMPANY
WELL.           Butch 33-10 Tr: WELL
FLD.           Purgatoire River: FIELD
LOC.           2309' FSL & 1337' FEL--: LOCATION
PROV.                 Colorado: PROVINCE
CNTY.               Las Animas: COUNTRY
SRVC.                Patterson: SERVICE COMPANY
DATE.          Mon Jan 16 07:34:05 2006: LOG DATE
UWI.           05 071 08649 00: UNIQUE WELL ID
~Curve Information Block
DEPT.FT            0 000 00 00: Depth
DCAL.in                       : CDL Caliper
RHOB.g/cc                     : CDL Bulk Density
RHOC.g/cc                     : CDL Density Correction
DPOR.pu                       : CDL Density Porosity
GR.GAPI                       : Gamma Ray
~Parameter Information Block
~A  Depth       DCAL        RHOB        RHOC        DPOR         GR     
# ...
  1346.1000      8.0022      2.5933      0.0267      3.4365     80.8507
  1346.2000      8.0022      2.6030      0.0440      2.8483     84.3523
  1346.3000      8.0047      2.6094      0.0830      2.4596     88.3536
  1346.4000      8.0047      2.6081      0.0247      2.5402     90.6614
  1346.5000      8.0040      2.6106      0.0635      2.3859     89.5014
  1346.6000      8.0040      2.6076      0.0769      2.5680     86.6335
  1346.7000      8.0040      2.5881      0.0278      3.7491     84.6917
  1346.8000      8.0003      2.5701      0.0184      4.8416     83.9030
  1346.9000      8.0003      2.5744      0.0044      4.5831     83.8803
  1347.0000      7.9972      2.5983      0.0440      3.1322     82.9292
  1347.1000      7.9972      2.6182      0.0879      1.9272     78.3932
  1347.2000      7.9972      2.6163      0.0957      2.0433     71.5310
  1347.3000      7.9975      2.5994      0.0713      3.0674     64.7289
  1347.4000      7.9975      2.5875      0.0366      3.7883     58.8794
  1347.5000      7.9986      2.5946      0.0366      3.3574     56.8893
  1347.6000      7.9986      2.6119      0.0680      2.3109     59.3050
  1347.7000      7.9986      2.6200      0.0768      1.8184     63.2847
  1347.8000      7.9966      2.6132      0.0780      2.2281     67.0929
  1347.9000      7.9966      2.5964      0.0659      3.2483     69.0128
  1348.0000      7.9972      2.5771      0.0183      4.4199     68.4888
  1348.1000      7.9972      2.5568      0.0278      5.6475     69.3750
  1348.2000      7.9972      2.5267      0.0424      7.4710     73.9873
  1348.3000      8.0082      2.4869     -0.0161      9.8865     76.9212
  1348.4000      8.0082      2.4449      0.0054     12.4302     76.7519
  1348.5000      8.0329      2.3915     -0.0062     15.6690     77.7130
  1348.6000      8.0329      2.3243     -0.0445     19.7384     81.7128
  1348.7000      8.0329      2.2617     -0.0217     23.5319     89.4662
  1348.8000      8.0639      2.2085     -0.0032     26.7571     99.2571
  1348.9000      8.0639      2.1510      0.0206     30.2433    110.2946
  1349.0000      8.0851      2.0910     -0.0337     33.8761    121.7231
  1349.1000      8.0851      2.0505     -0.0387     36.3310    129.9908
  1349.2000      8.0851      2.0376      0.0320     37.1175    134.1179
  1349.3000      8.1007      2.0510      0.0302     36.3006    134.8253
  1349.4000      8.1007      2.1086      0.0980     32.8095    135.6864
  1349.5000      8.1268      2.2231      0.2182     25.8727    140.6307
  1349.6000      8.1268      2.3604      0.3700     17.5505    148.8077
  1349.7000      8.1268      2.4616      0.3593     11.4168    155.0661
  1349.8000      8.1778      2.5055      0.2959      8.7606    152.3560
  1349.9000      8.1778      2.5120      0.2572      8.3633    141.7812
  1350.0000      8.2332      2.5031      0.2191      8.9005    138.4938
  1350.1000      8.2332      2.4885      0.1779      9.7894    148.2330
  1350.2000      8.2332      2.4737      0.0943     10.6878    157.5837
  1350.3000      8.2319      2.4598      0.1172     11.5256    158.0506
  1350.4000      8.2319      2.4433      0.0358     12.5294    153.4258
  1350.5000      8.1658      2.4266      0.0389     13.5365    149.4025
  1350.6000      8.1658      2.4036      0.0929     14.9314    148.2337
  1350.7000      8.1658      2.3585      0.0506     17.6678    149.8689
  1350.8000      8.1065      2.2958      0.0424     21.4679    153.9614
  1350.9000      8.1065      2.2306      0.0311     25.4171    159.4433
  1351.0000      8.0824      2.1598      0.0341     29.7097    163.3827
  1351.1000      8.0824      2.0715     -0.0180     35.0596    164.4495
  1351.2000      8.0824      1.9728     -0.0794     41.0394    161.8551
  1351.3000      8.0762      1.8801     -0.1097     46.6614    155.0468
  1351.4000      8.0762      1.7920     -0.0502     51.9974    149.3202
  1351.5000      8.0779      1.7055     -0.0818     57.2409    147.3789
  1351.6000      8.0779      1.6363     -0.1103     61.4359    141.5679
  1351.7000      8.0779      1.5994     -0.0761     63.6747    130.4814
  1351.8000      8.0926      1.6003     -0.0617     63.6184    118.3000
  1351.9000      8.0926      1.6449     -0.0039     60.9151    106.3886
  1352.0000      8.1216      1.7307      0.0706     55.7173     98.7066
  1352.1000      8.1216      1.8371      0.1718     49.2672     97.8832
  1352.2000      8.1216      1.9408      0.2160     42.9790     98.3699
  1352.3000      8.1316      2.0438      0.2149     36.7400     97.1178
  1352.4000      8.1316      2.1589      0.2367     29.7613     95.4622
  1352.5000      8.0930      2.2713      0.2585     22.9485     93.8650
  1352.6000      8.0930      2.3549      0.2583     17.8837     93.3455
  1352.7000      8.0930      2.4113      0.1529     14.4674     89.7711
  1352.8000      8.0370      2.4511      0.1573     12.0541     84.7803
  1352.9000      8.0370      2.4682      0.1448     11.0168     85.3160
  1353.0000      8.0095      2.4634      0.0678     11.3064     88.5413
  1353.1000      8.0095      2.4513      0.0832     12.0408     90.6950
  1353.2000      8.0095      2.4375      0.0914     12.8816     93.0015
  1353.3000      8.0035      2.4224      0.0494     13.7929     96.5918
  1353.4000      8.0035      2.4181      0.0229     14.0529    100.7787
  1353.5000      7.9998      2.4330      0.0451     13.1510    105.4260
  1353.6000      7.9998      2.4580      0.0730     11.6381    110.9096
  1353.7000      7.9998      2.4789      0.0792     10.3676    115.8041
  1353.8000      7.9998      2.4903      0.0414      9.6779    117.8975
  1353.9000      7.9998      2.4973      0.0817      9.2531    116.1975
  1354.0000      8.0049      2.5092      0.0543      8.5351    111.5824
  1354.1000      8.0049      2.5285      0.0949      7.3632    105.3272
  1354.2000      8.0049      2.5416      0.1090      6.5724    102.6127
  1354.3000      8.0056      2.5329      0.0457      7.0942    106.7416
  1354.4000      8.0056      2.5121      0.0225      8.3561    111.8133
  1354.5000      7.9982      2.5030      0.0198      8.9097    113.9070
  1354.6000      7.9982      2.5106      0.0442      8.4481    116.2619
  1354.7000      7.9982      2.5211      0.0524      7.8099    119.3352
  1354.8000      7.9854      2.5315      0.0179      7.1842    119.7088
  1354.9000      7.9854      2.5452      0.0709      6.3487    116.9726
  1355.0000      7.9716      2.5502      0.0921      6.0513    112.0315
  1355.1000      7.9716      2.5438      0.0322      6.4357    105.4909
  1355.2000      7.9716      2.5476      0.0458      6.2043    100.9845
  1355.3000      7.9585      2.5675      0.0668      4.9984    101.9339
  1355.4000      7.9585      2.5894      0.0584      3.6711    103.8182
  1355.5000      7.9508      2.6030      0.0679      2.8480    101.3402
  1355.6000      7.9508      2.5993      0.0829      3.0742     97.8861
  1355.7000      7.9508      2.5771      0.0430      4.4152     94.8386
  1355.8000      7.9573      2.5560      0.0240      5.6956     87.7758
  1355.9000      7.9573      2.5480      0.0344      6.1831     79.8001
  1356.0000      7.9745      2.5424      0.0475      6.5196     77.6317
  1356.1000      7.9745      2.5377     -0.0182      6.8047     80.8746
  1356.2000      7.9745      2.5439      0.0433      6.4296     86.8943
  1356.3000      7.9896      2.5536      0.0457      5.8402     96.6606
  1356.4000      7.9896      2.5493      0.0834      6.1045    113.8606
  1356.5000      7.9976      2.5286      0.0373      7.3552    135.0247
  1356.6000      7.9976      2.5088      0.0454      8.5587    146.8545
  1356.7000      7.9976      2.5074      0.0172      8.6451    144.1922
  1356.8000      7.9989      2.5237      0.0864      7.6527    134.2829
  1356.9000      7.9989      2.5426      0.0567      6.5065    126.8317
  1357.0000      7.9958      2.5610      0.0587      5.3911    127.0989
  1357.1000      7.9958      2.5813      0.1129      4.1659    130.9891
  1357.2000      7.9958      2.5896      0.1209      3.6598    129.5728
