~Version Information
 VERS.                                  2.0 : CWLS LAS VERSION
 WRAP.                                   NO : WRAPING MODE
 SWARE .                 MController 2.5.0J : SOFTWARE VERSION
~Well Information
 WELL.                          Rolls 14-14 : WELL
 COMP.    Pioneer Natural Resources USA Inc : COMPANY
 FLD.                      Purgatoire River : FIELD
 LOC.                SW/SW Sec 14 T32S R66W : LOCATION
 DATE.                       07/31-08/01/05 : DATE(S) LOGGED
 SRVC.       BLANCO Geological Services LLC : SERVICE COMPANY
 STAT.                                   CO : STATE
 CNTY.                           Las Animas : COUNTY
 CTRY.                                  USA : COUNTRY
 API.                       05-071-08455-00 : API NUMBER
 STRT.FT                             831.00 : START DEPTH
 STOP.FT                            2365.00 : STOP DEPTH
 STEP.FT                               1.00 : DEPTH INCREMENT
 NULL.                                -9999 : NULL VALUE
~Curve information
 DEPTH.FT                                   :
 ROP.MIN/FT                                 :
 GAS.UNITS                                  :
~ASCII Log data
# ...
      1431.0         0.23         88.9 
      1432.0         0.27         88.9 
      1433.0         0.23         93.0 
      1434.0         0.20         95.3 
      1435.0         0.23         95.3 
      1436.0         2.82         94.6 
      1437.0         0.13         60.8 
      1438.0         0.13         61.3 
      1439.0         0.13         61.8 
      1440.0         0.10         62.5 
      1441.0         0.13         63.9 
      1442.0         0.23         67.4 
      1443.0         0.23         73.7 
      1444.0         0.27         82.1 
      1445.0         0.23         95.9 
      1446.0         0.22        114.2 
      1447.0         0.23        147.6 
      1448.0         0.30        177.9 
      1449.0         0.33        190.7 
      1450.0         0.27        184.3 
      1451.0         0.20        163.4 
      1452.0         0.27        149.0 
      1453.0         0.23        122.7 
      1454.0         0.23        110.6 
      1455.0         0.20        104.9 
      1456.0         0.27        101.6 
      1457.0         0.27         92.7 
      1458.0         0.27         88.3 
      1459.0         0.25         83.6 
      1460.0         0.23         81.1 
      1461.0         0.20         78.9 
      1462.0         0.23         76.5 
      1463.0         0.23         73.8 
      1464.0         0.23         71.6 
      1465.0         0.20         69.7 
      1466.0         3.42         68.9 
      1467.0         0.40         62.0 
      1468.0         0.47         75.8 
      1469.0         0.37         93.9 
      1470.0         0.27        112.9 
      1471.0         0.22        140.8 
      1472.0         0.20        174.6 
      1473.0         0.20        194.6 
      1474.0         0.17        197.2 
      1475.0         0.17        189.6 
      1476.0         0.13        176.5 
      1477.0         0.13        161.2 
      1478.0         0.10        146.1 
      1479.0         0.13        142.6 
      1480.0         0.13        129.2 
      1481.0         0.13        117.4 
      1482.0         0.13        101.3 
      1483.0         0.13         99.2 
      1484.0         0.20         90.5 
      1485.0         0.17         86.0 
      1486.0         0.13         89.1 
      1487.0         0.17         92.8 
      1488.0         0.17         95.5 
      1489.0         0.13         96.7 
      1490.0         0.17        101.7 
      1491.0         0.17        107.9 
      1492.0         0.17        111.6 
      1493.0         0.18        112.2 
      1494.0         0.17        111.0 
      1495.0         0.17        108.1 
      1496.0         3.32        106.5 
      1497.0         0.43        116.6 
      1498.0         0.30        148.3 
      1499.0         0.23        177.5 
      1500.0         0.20        230.8 
      1501.0         0.27        302.9 
      1502.0         0.33        345.8 
      1503.0         0.37        349.2 
      1504.0         0.37        288.7 
      1505.0         0.30        215.9 
      1506.0         0.35        171.1 
      1507.0         0.27        138.5 
      1508.0         0.23        126.3 
      1509.0         0.20        117.4 
      1510.0         0.17        112.3 
      1511.0         0.13        103.3 
      1512.0         0.23        100.7 
      1513.0         0.27         95.1 
      1514.0         0.27         92.6 
      1515.0         0.27         97.3 
      1516.0         0.20        109.0 
      1517.0         0.27        138.0 
      1518.0         0.33        163.7 
      1519.0         0.28        168.7 
      1520.0         0.30        169.3 
      1521.0         0.30        168.6 
      1522.0         0.30        168.8 
      1523.0         0.33        167.8 
      1524.0         0.20        165.9 
      1525.0         0.27        164.7 
      1526.0         4.33        267.3 
      1527.0         0.33        389.2 
      1528.0         0.27        480.8 
      1529.0         0.23       1533.4 
      1530.0         0.17       1565.2 
      1531.0         0.23       1561.0 
      1532.0         0.23       1513.1 
      1533.0         0.17       1402.3 
      1534.0         0.20       1298.2 
      1535.0         0.23       1210.3 
      1536.0         0.20       1141.8 
      1537.0         0.20       1097.0 
      1538.0         0.22       1052.9 
      1539.0         0.17       1022.8 
      1540.0         0.13       1008.2 
      1541.0         0.13        995.1 
      1542.0         0.17        978.6 
      1543.0         0.13        967.2 
      1544.0         0.13        961.2 
      1545.0         0.20        950.4 
      1546.0         0.13        939.0 
      1547.0         0.13        935.2 
      1548.0         0.17        925.3 
      1549.0         0.20        910.4 
      1550.0         0.23        902.5 
      1551.0         0.20        893.3 
      1552.0         0.23        890.4 
      1553.0         0.20        886.0 
      1554.0         0.23        890.7 
      1555.0         0.20        896.4 
      1556.0         3.25        903.7 
      1557.0         0.45        891.0 
      1558.0         0.40        925.0 
      1559.0         0.50       1008.8 
      1560.0         0.40       1124.6 
      1561.0         0.37       1138.9 
      1562.0         0.30       1130.0 
      1563.0         0.20       1089.7 
      1564.0         0.20       1040.9 
      1565.0         0.17       1014.5 
      1566.0         0.20        997.4 
      1567.0         0.17        980.2 
      1568.0         0.13        968.2 
      1569.0         0.15        964.4 
      1570.0         0.13        963.4 
      1571.0         0.17        957.7 
      1572.0         0.27        948.2 
      1573.0         0.20        936.4 
      1574.0         0.17        925.6 
      1575.0         0.20        917.4 
      1576.0         0.27        913.9 
      1577.0         0.23        926.0 
      1578.0         0.27        943.7 
      1579.0         0.23        950.1 
      1580.0         0.27        951.0 
      1581.0         0.23        944.4 
      1582.0         0.23        939.3 
      1583.0         0.20        933.9 
      1584.0         0.25        931.7 
      1585.0         0.17        925.6 
      1586.0         3.18        922.5 
      1587.0         0.67        932.3 
      1588.0         0.33        972.6 
      1589.0         0.33       1044.0 
      1590.0         0.27       1143.4 
      1591.0         0.13       1162.1 
      1592.0         0.13       1183.7 
      1593.0         0.10       1184.0 
      1594.0         0.20       1175.1 
      1595.0         0.23       1158.6 
      1596.0         0.33       1116.7 
      1597.0         0.28       1043.4 
      1598.0         0.27       1010.4 
      1599.0         0.27       1002.1 
      1600.0         0.23       1004.0 
      1601.0         0.23       1003.4 
      1602.0         0.23        998.3 
      1603.0         0.30        988.2 
      1604.0         0.17        975.2 
      1605.0         0.17        967.5 
      1606.0         0.17        960.6 
      1607.0         0.17        954.2 
      1608.0         0.20        950.7 
      1609.0         0.20        941.8 
      1610.0         0.17        934.8 
      1611.0         0.18        924.1 
      1612.0         0.17        917.1 
      1613.0         0.13        912.3 
      1614.0         0.17        910.4 
      1615.0         0.20        906.9 
      1616.0         2.58        907.2 
      1617.0         0.50        863.8 
      1618.0         0.30        883.7 
      1619.0         0.30        910.4 
      1620.0         0.27        932.9 
      1621.0         0.27        975.2 
      1622.0         0.28       1009.4 
      1623.0         0.20       1049.1 
      1624.0         0.37       1089.4 
      1625.0         0.30       1093.2 
      1626.0         0.20       1068.8 
      1627.0         0.17       1046.6 
      1628.0         0.20       1038.0 
      1629.0         0.20       1013.2 
      1630.0         0.20        999.3 
