~Version Information
 VERS.                                  2.0 : CWLS LAS VERSION
 WRAP.                                   NO : WRAPING MODE
 SWARE .                 MController 2.5.0N : SOFTWARE VERSION
~Well Information
 WELL.                         John K 12-28 : WELL
 COMP.       Pioneer Natural Resources, USA : COMPANY
 FLD.                       Purgatory River : FIELD
 LOC.               SW/NW Sec 28 T32S R 65W : LOCATION
 DATE.                              4/07/06 : DATE(S) LOGGED
 SRVC.       Blanco Geological Services LLC : SERVICE COMPANY
 STAT.                             Colorado : STATE
 CNTY.                           Las Animas : COUNTY
 CTRY.                                  USA : COUNTRY
 API.                       05-071-08723-00 : API NUMBER
 STRT.FT                             321.00 : START DEPTH
 STOP.FT                            1440.00 : STOP DEPTH
 STEP.FT                               1.00 : DEPTH INCREMENT
 NULL.                                -9999 : NULL VALUE
~Curve information
 DEPTH.FT                                   :
 ROP.MIN/FT                                 :
 GAS.UNITS                                  :
~ASCII Log data
# ...
      1121.0         0.27        581.7 
      1122.0         0.23        511.6 
      1123.0         0.27        516.3 
      1124.0         0.20        540.9 
      1125.0         0.20        565.2 
      1126.0         0.23        586.1 
      1127.0         0.33        587.4 
      1128.0         0.32        566.2 
      1129.0         0.30        505.2 
      1130.0         0.27        443.5 
      1131.0         0.30        478.9 
      1132.0         4.75       2651.3 
      1133.0         0.43       2688.7 
      1134.0         0.62       1958.6 
      1135.0         0.47       1016.3 
      1136.0         0.47        877.1 
      1137.0         0.37        890.0 
      1138.0         0.37        900.4 
      1139.0         0.33        893.3 
      1140.0         0.40        847.2 
      1141.0         0.33        799.0 
      1142.0         0.33        791.9 
      1143.0         0.35        766.0 
      1144.0         0.33        707.0 
      1145.0         0.33        633.9 
      1146.0         0.27        588.4 
      1147.0         0.30        575.6 
      1148.0         0.27        568.9 
      1149.0         0.30        561.1 
      1150.0         0.27        548.7 
      1151.0         0.30        522.0 
      1152.0         0.33        471.2 
      1153.0         0.37        440.0 
      1154.0         0.32        190.5 
      1155.0         0.23        193.0 
      1156.0         0.23        203.6 
      1157.0         0.23        221.7 
      1158.0         0.23        241.2 
      1159.0         0.30        249.3 
      1160.0         0.23        240.7 
      1161.0         0.27        213.7 
      1162.0         5.90       2758.8 
      1163.0         0.60       1814.8 
      1164.0         0.43        804.4 
      1165.0         0.37        813.1 
      1166.0         0.40        998.1 
      1167.0         0.37       1044.6 
      1168.0         0.35       1042.6 
      1169.0         0.33        990.4 
      1170.0         0.27        903.4 
      1171.0         0.17        801.7 
      1172.0         0.17        784.5 
      1173.0         0.23        720.8 
      1174.0         0.27        689.5 
      1175.0         0.27        622.1 
      1176.0         0.27        558.8 
      1177.0         0.30        476.2 
      1178.0         0.30        440.0 
      1179.0         0.30        208.3 
      1180.0         0.35        222.8 
      1181.0         0.30        236.7 
      1182.0         0.30        242.9 
      1183.0         0.30        243.4 
      1184.0         0.30        236.3 
      1185.0         0.30        230.4 
      1186.0         0.33        233.0 
      1187.0         0.30        245.6 
      1188.0         0.23        247.7 
      1189.0         0.27        247.3 
      1190.0         0.27        246.7 
      1191.0         0.25        246.0 
      1192.0         5.42       2455.9 
      1193.0         0.50       1575.9 
      1194.0         0.37        866.7 
      1195.0         0.42        657.5 
      1196.0         0.43        857.3 
      1197.0         0.43        930.7 
      1198.0         0.47        929.0 
      1199.0         0.33        808.1 
      1200.0         0.30        707.3 
      1201.0         0.37        596.2 
      1202.0         0.33        546.0 
      1203.0         0.27        523.4 
      1204.0         0.27        502.2 
      1205.0         0.22        479.9 
      1206.0         0.20        468.5 
      1207.0         0.23        458.7 
      1208.0         0.27        456.3 
      1209.0         0.23        455.7 
      1210.0         0.27        449.9 
      1211.0         0.23        440.0 
      1212.0         0.27        229.9 
      1213.0         0.30        233.8 
      1214.0         0.27        235.5 
      1215.0         0.23        233.5 
      1216.0         0.23        233.9 
      1217.0         0.27        267.6 
      1218.0         0.23        293.3 
      1219.0         0.25        321.3 
      1220.0         0.23        326.5 
      1221.0         0.27        319.2 
      1222.0         4.62       1365.7 
      1223.0         0.40       1343.4 
      1224.0         0.47       1058.4 
      1225.0         0.43        828.6 
      1226.0         0.18        717.1 
      1227.0         0.17        750.5 
      1228.0         0.33        855.2 
      1229.0         0.30        933.8 
      1230.0         0.17        955.6 
      1231.0         0.23        954.6 
      1232.0         0.30        994.4 
      1233.0         0.30       1040.2 
      1234.0         0.33       1052.0 
      1235.0         0.30       1004.8 
      1236.0         0.27        961.0 
      1237.0         0.20        963.1 
      1238.0         0.23        961.4 
      1239.0         0.22        953.3 
      1240.0         0.20        939.5 
      1241.0         0.27        910.5 
      1242.0         0.27        835.4 
      1243.0         0.23        737.0 
      1244.0         0.23        685.8 
      1245.0         0.23        624.5 
      1246.0         0.20        635.2 
      1247.0         0.20        661.5 
      1248.0         0.23        683.1 
      1249.0         0.27        693.5 
      1250.0         0.23        696.2 
      1251.0         0.20        684.1 
      1252.0         4.30       2117.0 
      1253.0         0.30       1974.1 
      1254.0         0.43       1589.4 
      1255.0         0.47       1235.0 
      1256.0         0.43       1247.4 
      1257.0         0.37       1428.3 
      1258.0         0.37       1498.1 
      1259.0         0.37       1492.7 
      1260.0         0.38       1418.6 
      1261.0         0.40       1310.1 
      1262.0         0.37       1085.0 
      1263.0         0.33        928.0 
      1264.0         0.37        833.7 
      1265.0         0.33        789.2 
      1266.0         0.33        768.7 
      1267.0         0.33        729.6 
      1268.0         0.37        716.1 
      1269.0         0.35        703.3 
      1270.0         0.40        703.3 
      1271.0         0.33        686.1 
      1272.0         0.40        668.6 
      1273.0         0.40        671.6 
      1274.0         0.37        672.0 
      1275.0         0.27        660.9 
      1276.0         0.23        639.3 
      1277.0         0.27        628.2 
      1278.0         0.27        630.2 
      1279.0         0.23        624.5 
      1280.0         0.32        603.2 
      1281.0         0.30        563.5 
      1282.0         4.05       2158.4 
      1283.0         0.37       2157.8 
      1284.0         0.33       1863.0 
      1285.0         0.40       1293.9 
      1286.0         0.57       1209.3 
      1287.0         0.42       1214.4 
      1288.0         0.50       1226.2 
      1289.0         0.37       1227.5 
      1290.0         0.30       1160.8 
      1291.0         0.33       1035.8 
      1292.0         0.30        947.9 
      1293.0         0.33        897.0 
      1294.0         0.33        825.9 
      1295.0         0.33        768.0 
      1296.0         0.33        768.0 
      1297.0         0.35        777.4 
      1298.0         0.37        773.4 
      1299.0         0.30        755.2 
      1300.0         0.27        732.9 
      1301.0         0.30        710.7 
      1302.0         0.30        702.3 
      1303.0         0.30        688.8 
      1304.0         0.33        657.5 
      1305.0         0.27        635.9 
      1306.0         0.33        650.7 
      1307.0         0.27        646.4 
      1308.0         0.38        630.5 
      1309.0         0.30        627.5 
      1310.0         0.37        613.7 
      1311.0         0.37        604.2 
      1312.0         4.65       2459.0 
      1313.0         0.60       2112.6 
      1314.0         0.52       1172.3 
      1315.0         0.43       1154.8 
      1316.0         0.37       1238.0 
      1317.0         0.33       1334.0 
      1318.0         0.37       1365.0 
      1319.0         0.30       1354.6 
      1320.0         0.37       1299.3 
