~Version Information
VERS.                      2.0: CWLS Log ASCII Standard - VERSION 2.0
WRAP.                       NO: One line per depth step
~Well Information Block
STRT.FT               -14.0000: 
STOP.FT               951.0000: 
STEP.FT                 0.2500: 
NULL.                -999.2500: 
COMP.          Pioneer Natural Resources: COMPANY
WELL.             Giggle 21-22: WELL
FLD.           Purgatoire River: FIELD
LOC.           950' FNL & 2094' FWL: LOCATION
CNTY.               Las Animas: COUNTY
SRVC.                         : SERVICE COMPANY
DATE.          Mon Apr 17 17:51:33 2006: LOG DATE
UWI.           05 071 08726 00: UNIQUE WELL ID
STAT.                       CO: STATE
~Curve Information Block
DEPT.FT            0 000 00 00: Depth
CCL.                          : Casing Collar Locator
TT3.usec                      : CBL 3' Travel Time
AMP3.mV                       : CBL 3' Amplitude
GR.GAPI                       : Gamma Ray
~Parameter Information Block
~A  Depth       CCL         TT3         AMP3         GR     
# ...
   555.5000      0.0000    693.6985      5.9138    160.6820
   555.7500      0.0000    694.0292      6.0135    159.9248
   556.0000      0.0000    694.4271      6.1610    161.4404
   556.2500      0.0000    694.5996      6.3343    163.8404
   556.5000      0.0000    694.6088      6.5308    165.3400
   556.7500      0.0000    694.7496      6.7533    165.4549
   557.0000      0.0000    695.5666      6.9694    164.8449
   557.2500      0.0000    698.0571      7.0952    164.0004
   557.5000      0.0000    703.6971      7.0378    162.7723
   557.7500      0.0000    713.7913      6.7606    160.7376
   558.0000      0.0000    728.3934      6.3054    157.3906
   558.2500      0.0000    746.0433      5.7601    152.1696
   558.5000      0.0000    764.7267      5.2282    144.7652
   558.7500      0.0000    782.3724      4.8293    135.4107
   559.0000      0.0000    795.8465      4.6788    124.7721
   559.2500      0.0000    800.9811      4.8165    113.8764
   559.5000     -5.0000    796.0370      5.1568    104.2668
   559.7500      0.0000    785.2937      5.5344     97.5663
   560.0000      3.4964    776.8265      5.8050     94.4278
   560.2500      0.0000    774.5066      5.9228     94.4467
   560.5000      0.0000    773.2849      5.9539     97.4624
   560.7500      0.0000    765.0758      6.0113    104.2391
   561.0000      0.0000    748.6970      6.1524    115.3372
   561.2500      0.0000    730.6996      6.3407    129.6249
   561.5000      0.0000    716.9097      6.5200    144.0889
   561.7500      0.0000    707.4679      6.6950    155.0605
   562.0000      0.0000    700.3334      6.8992    160.0352
   562.2500      0.0000    694.8099      7.1037    158.8430
   562.5000      0.0000    689.8292      7.2128    153.2847
   562.7500      0.0000    681.1518      7.1573    145.8351
   563.0000      0.0000    661.6833      6.9720    138.6510
   563.2500      0.0000    625.2376      6.7735    133.1692
   563.5000      0.0000    572.0881      6.6818    129.9491
   563.7500      0.0000    511.7250      6.7691    128.8705
   564.0000      0.0000    458.2266      7.0564    129.5527
   564.2500      0.0000    421.2130      7.5146    131.5251
   564.5000      0.0000    401.2835      8.0604    134.2203
   564.7500      0.0000    392.9814      8.5842    137.1259
   565.0000      0.0000    390.1280      9.0137    139.8929
   565.2500      0.0000    388.4915      9.3472    142.0709
   565.5000      0.0000    385.7353      9.6173    142.6653
   565.7500      0.0000    380.8084      9.8309    140.3638
   566.0000      0.0000    373.8548      9.9544    134.8292
   566.2500      0.0000    366.1983      9.9499    127.8042
   566.5000      0.0000    359.7486      9.8201    122.3101
   566.7500      0.0000    356.0586      9.6214    120.3069
   567.0000      0.0000    355.8613      9.4266    121.2291
   567.2500      0.0000    359.0878      9.2658    123.0836
   567.5000      0.0000    364.7616      9.1129    124.8553
   567.7500      0.0000    370.9782      8.9386    127.3374
   568.0000      0.0000    375.7798      8.7593    131.4051
   568.2500      0.0000    378.5059      8.6208    136.0887
   568.5000      0.0000    379.9643      8.5394    138.9336
   568.7500      0.0000    380.9692      8.4711    138.0417
   569.0000      0.0000    381.0338      8.3466    133.3977
   569.2500      0.0000    378.8535      8.1545    126.5802
   569.5000      0.0000    373.9254      7.9886    119.7083
   569.7500      0.0000    367.3806      7.9833    114.4386
   570.0000      0.0000    361.2034      8.1925    111.4088
   570.2500      0.0000    356.8079      8.5454    110.3505
   570.5000      0.0000    354.4304      8.9191    110.6711
   570.7500      0.0000    353.6642      9.2208    112.0177
   571.0000      0.0000    354.3095      9.3996    114.4504
   571.2500      0.0000    356.7160      9.4234    118.1675
   571.5000      0.0000    361.4010      9.2804    122.9324
   571.7500      0.0000    368.3005      9.0018    127.7579
   572.0000      0.0000    376.5778      8.6669    131.3091
   572.2500      0.0000    385.7592      8.3694    132.6987
   572.5000      0.0000    397.7299      8.1733    131.8450
   572.7500      0.0000    417.4516      8.0909    129.2512
   573.0000      0.0000    450.1632      8.0794    125.6204
   573.2500      0.0000    495.8148      8.0665    121.6638
   573.5000      0.0000    546.0436      8.0059    118.0516
   573.7500      0.0000    588.6307      7.9014    115.1950
   574.0000      0.0000    616.2523      7.7573    112.9282
   574.2500      0.0000    630.5201      7.5403    110.6731
   574.5000      0.0000    637.9354      7.2353    108.0664
   574.7500      0.0000    643.5367      6.9178    105.1670
   575.0000      0.0000    648.6127      6.7244    101.8997
   575.2500      0.0000    652.5240      6.7422     97.7195
   575.5000      0.0000    654.8984      6.9403     92.2535
   575.7500      0.0000    656.1132      7.2133     86.1924
   576.0000      0.0000    656.7438      7.4835     81.1449
   576.2500      0.0000    657.1241      7.7408     78.3397
   576.5000      0.0000    657.3564      7.9759     77.4491
   576.7500      0.0000    657.4880      8.1195     76.7782
   577.0000      0.0000    657.6396      8.0938     74.6466
   577.2500      0.0000    658.0333      7.9123     70.7423
   577.5000      0.0000    659.0433      7.6858     66.3881
   577.7500      0.0000    661.2670      7.5096     63.6268
   578.0000      0.0000    665.3049      7.3662     63.8650
   578.2500      0.0000    671.1320      7.1653     67.0393
   578.5000      0.0000    677.6464      6.8679     71.7731
   578.7500      0.0000    683.0977      6.5422     76.2427
   579.0000      0.0000    686.0363      6.2937     79.1407
   579.2500      0.0000    685.8195      6.1665     80.1280
   579.5000      0.0000    682.5633      6.1264     79.5766
   579.7500      0.0000    677.1933      6.1269     78.1547
   580.0000      0.0000    671.4850      6.1742     76.7141
   580.2500      0.0000    667.2874      6.3213     76.1240
   580.5000      0.0000    665.2353      6.5935     76.7875
   580.7500      0.0000    664.5076      6.9334     78.3214
   581.0000      0.0000    664.1470      7.2496     79.8716
   581.2500      0.0000    664.0967      7.5217     80.8339
   581.5000      0.0000    664.1217      7.8175     81.3244
   581.7500      0.0000    661.2043      8.1811     81.8972
   582.0000      0.0000    648.4346      8.5457     82.7202
   582.2500      0.0000    618.4001      8.8013     83.1654
   582.5000      0.0000    570.1323      8.9302     82.3391
   582.7500      0.0000    513.2509      9.0276     79.9039
   583.0000      0.0000    463.7743      9.1887     76.4168
   583.2500      0.0000    435.4175      9.4136     73.0544
   583.5000      0.0000    434.9458      9.6316     71.0025
   583.7500      0.0000    462.6065      9.7758     70.8518
   584.0000      0.0000    512.0916      9.8121     72.2880
   584.2500      0.0000    570.1094      9.7342     74.2320
   584.5000      0.0000    621.0852      9.5671     75.6629
   584.7500      0.0000    655.7037      9.3547     76.6551
   585.0000      0.0000    674.5627      9.1207     78.1829
   585.2500      0.0000    683.7278      8.8607     80.5859
   585.5000      0.0000    688.5055      8.5913     82.8093
   585.7500      0.0000    691.2785      8.3676     83.5754
   586.0000      0.0000    692.7443      8.2210     82.7729
   586.2500      0.0000    693.2881      8.1114     81.3197
   586.5000      0.0000    693.2861      7.9813     80.1474
   586.7500      0.0000    692.9650      7.8339     79.7845
   587.0000      0.0000    692.1367      7.7239     80.5701
   587.2500      0.0000    689.8250      7.6848     82.6112
   587.5000      0.0000    683.8802      7.7051     85.3953
   587.7500      0.0000    671.5774      7.7646     87.6592
   588.0000      0.0000    651.9688      7.8413     87.9812
   588.2500      0.0000    627.9518      7.8752     85.8585
   588.5000      0.0000    604.2867      7.7806     82.2790
   588.7500      0.0000    583.5177      7.5251     79.0963
