~Version Information
VERS.                      2.0: CWLS Log ASCII Standard - VERSION 2.0
WRAP.                       NO: One line per depth step
~Well Information Block
STRT.FT                -8.7500: 
STOP.FT              1525.0000: 
STEP.FT                 0.2500: 
NULL.                -999.2500: 
COMP.          Pioneer Natural Resources: COMPANY
WELL.          Grand Prix 13-12 Tr: WELL
FLD.           Purgatorie River: FIELD
LOC.           2595' FSL & 1277' FWL--: LOCATION
CNTY.               Las Animas: COUNTY
SRVC.          Patterson Wireline: SERVICE COMPANY
DATE.          Thu Apr 13 10:28:30 2006: LOG DATE
UWI.           05 071 08711 00: UNIQUE WELL ID
STAT.                       CO: STATE
~Curve Information Block
DEPT.FT            0 000 00 00: Depth
CCL.                          : Casing Collar Locator
TT3.usec                      : CBL 3' Travel Time
AMP3.mV                       : CBL 3' Amplitude
GR.GAPI                       : Gamma Ray
~Parameter Information Block
~A  Depth       CCL         TT3         AMP3         GR     
# ...
  1197.2500      0.0000    712.4431      3.6231    149.1296
  1197.5000      0.0000    712.2532      3.6673    149.4918
  1197.7500      0.0000    711.8660      3.6995    153.1686
  1198.0000      0.0000    710.9651      3.7069    158.5061
  1198.2500      0.0000    709.4184      3.6745    162.2937
  1198.5000      0.0000    707.4503      3.6131    162.4735
  1198.7500      0.0000    704.8879      3.5675    159.4247
  1199.0000      0.0000    699.5078      3.5866    155.1135
  1199.2500      0.0000    686.3454      3.6818    151.7260
  1199.5000      0.0000    660.2841      3.8131    150.6858
  1199.7500      0.0000    620.9178      3.9174    151.8657
  1200.0000      0.0000    574.5110      3.9535    153.4556
  1200.2500      0.0000    529.7461      3.9247    153.2077
  1200.5000      0.0000    491.7924      3.8649    150.1534
  1200.7500      0.0000    461.3677      3.8083    144.8718
  1201.0000      0.0000    437.7708      3.7704    138.2392
  1201.2500      0.0000    420.3160      3.7501    130.5348
  1201.5000      0.0000    407.5331      3.7378    121.8424
  1201.7500      0.0000    397.3265      3.7228    112.6544
  1202.0000      0.0000    388.8288      3.6977    103.8035
  1202.2500      0.0000    383.9433      3.6578     96.1725
  1202.5000      0.0000    387.0544      3.5950     90.5097
  1202.7500      0.0000    402.7869      3.5004     87.0962
  1203.0000      0.0000    431.9356      3.3833     85.3243
  1203.2500      0.0000    467.1719      3.2827     83.7096
  1203.5000      0.0000    493.6608      3.2410     80.6850
  1203.7500      0.0000    498.3864      3.2654     75.8075
  1204.0000      0.0000    481.4106      3.3282     70.1891
  1204.2500      0.0000    455.9640      3.4018     65.4695
  1204.5000      0.0000    436.2759      3.4775     62.3536
  1204.7500      0.0000    427.1910      3.5557     60.3182
  1205.0000      2.0000    425.6256      3.6326     58.6547
  1205.2500      0.0000    428.9614      3.6961     57.5066
  1205.5000      0.0000    439.9538      3.7338     57.7261
  1205.7500      0.0000    463.5351      3.7481     59.7289
  1206.0000      0.0000    498.4814      3.7627     62.7115
  1206.2500      0.0000    532.1169      3.8007     65.2731
  1206.5000      0.0000    545.7906      3.8554     66.6533
  1206.7500      0.0000    528.9454      3.8948     66.9592
  1207.0000      0.0000    488.4656      3.8960     66.3949
  1207.2500      0.0000    443.5523      3.8648     64.9951
  1207.5000      0.0000    412.3398      3.8251     63.2870
  1207.7500      0.0000    403.4596      3.7974     62.5500
  1208.0000      0.0000    416.5572      3.7885     63.9118
  1208.2500      0.0000    446.1883      3.7937     67.3193
  1208.5000      0.0000    484.4569      3.8072     71.4808
  1208.7500      0.0000    522.7620      3.8291     74.5967
  1209.0000      0.0000    554.1413      3.8661     75.2539
  1209.2500      0.0000    575.9310      3.9248     73.1290
  1209.5000      0.0000    590.6770      4.0026     69.0276
  1209.7500      0.0000    603.4630      4.0876     64.0703
  1210.0000      0.0000    617.1322      4.1630     58.9639
  1210.2500      0.0000    630.2737      4.2108     54.2042
  1210.5000      0.0000    640.2277      4.2148     50.5574
  1210.7500      0.0000    646.8619      4.1702     48.9596
  1211.0000      0.0000    652.0062      4.0912     50.2105
  1211.2500      0.0000    656.3855      4.0045     55.0629
  1211.5000      0.0000    659.1661      3.9320     64.3216
  1211.7500      0.0000    659.9097      3.8827     78.2252
  1212.0000      0.0000    659.5022      3.8573     95.5500
  1212.2500      0.0000    659.5380      3.8546    113.6496
  1212.5000      0.0000    661.6852      3.8723    129.7791
  1212.7500      0.0000    667.1670      3.9019    142.4943
  1213.0000      0.0000    675.6915      3.9283    151.6191
  1213.2500      0.0000    684.9395      3.9394    157.0139
  1213.5000      0.0000    692.0854      3.9352    158.0080
  1213.7500      0.0000    696.1180      3.9278    154.3173
  1214.0000      0.0000    698.2608      3.9282    147.0292
  1214.2500      0.0000    700.1896      3.9385    138.3396
  1214.5000      0.0000    702.3667      3.9550    130.6172
  1214.7500      0.0000    704.1071      3.9726    125.6977
  1215.0000      0.0000    704.5034      3.9799    124.3165
  1215.2500      0.0000    702.9443      3.9553    125.8143
  1215.5000      0.0000    699.2924      3.8758    128.6340
  1215.7500      0.0000    694.2878      3.7368    131.0213
  1216.0000      0.0000    689.7929      3.5661    131.1875
  1216.2500      0.0000    687.9949      3.4169    127.5984
  1216.5000      0.0000    689.8477      3.3399    119.9349
  1216.7500      0.0000    694.2933      3.3542    109.5065
  1217.0000      0.0000    699.1341      3.4412     98.2272
  1217.2500      0.0000    702.6353      3.5655     87.4555
  1217.5000      0.0000    704.3512      3.6980     78.0097
  1217.7500      0.0000    704.8100      3.8190     70.7258
  1218.0000      0.0000    704.7676      3.9091     66.6300
  1218.2500      0.0000    704.7147      3.9448     66.6753
  1218.5000      0.0000    704.7855      3.9080     71.1171
  1218.7500      0.0000    704.9130      3.7970     78.8454
  1219.0000      0.0000    705.0051      3.6317     87.5525
  1219.2500      0.0000    705.0308      3.4501     94.9940
  1219.5000      0.0000    705.0241      3.2944    100.1871
  1219.7500      0.0000    705.0644      3.1931    103.4693
  1220.0000      0.0000    705.2305      3.1522    105.8285
  1220.2500      0.0000    705.5289      3.1626    108.2094
  1220.5000      0.0000    705.8600      3.2102    110.6911
  1220.7500      0.0000    706.0870      3.2827    111.8331
  1221.0000      0.0000    706.1469      3.3704    109.3726
  1221.2500      0.0000    706.0894      3.4660    102.2997
  1221.5000      0.0000    706.0203      3.5607     92.2589
  1221.7500      0.0000    706.0208      3.6411     82.6061
  1222.0000      0.0000    706.1045      3.6926     76.1351
  1222.2500      0.0000    706.2181      3.7076     73.8490
  1222.5000      0.0000    706.2748      3.6890     75.6476
  1222.7500      0.0000    706.1999      3.6471     81.5768
  1223.0000      0.0000    705.9585      3.5948     91.8899
  1223.2500      0.0000    705.5535      3.5455    105.7462
  1223.5000      0.0000    704.8157      3.5134    120.3528
  1223.7500      0.0000    702.7995      3.5098    132.1703
  1224.0000      0.0000    696.8004      3.5377    139.0829
  1224.2500      0.0000    681.9794      3.5915    141.0577
  1224.5000      0.0000    653.2853      3.6633    139.1134
  1224.7500      0.0000    609.8718      3.7475    134.6414
  1225.0000      0.0000    558.3266      3.8391    129.6602
  1225.2500      0.0000    510.1316      3.9289    126.4270
  1225.5000      0.0000    474.4795      4.0036    125.9123
  1225.7500      0.0000    453.2736      4.0522    127.2185
  1226.0000      0.0000    442.4999      4.0712    129.1449
  1226.2500      0.0000    436.9546      4.0671    131.7356
  1226.5000      0.0000    433.1541      4.0574    135.6099
  1226.7500      0.0000    429.4851      4.0662    140.4734
  1227.0000      0.0000    426.1368      4.1116    145.2490
  1227.2500      0.0000    426.0867      4.1895    149.1299
  1227.5000      0.0000    434.9094      4.2689    151.4434
  1227.7500      0.0000    456.4359      4.3059    150.9743
  1228.0000      0.0000    486.1045      4.2679    147.0154
  1228.2500      0.0000    510.0504      4.1520    141.1689
  1228.5000      0.0000    514.6614      3.9868    136.6429
  1228.7500      0.0000    498.4824      3.8201    135.1431
  1229.0000      0.0000    473.3195      3.6980    135.3934
  1229.2500      0.0000    453.9368      3.6459    135.2721
  1229.5000      0.0000    448.3141      3.6622    134.3595
  1229.7500      0.0000    456.3736      3.7292    133.5173
  1230.0000      0.0000    473.6251      3.8242    132.8711
  1230.2500      0.0000    493.9641      3.9251    131.4798
  1230.5000      0.0000    511.8617      4.0110    128.6527
