~Version Information
VERS.                      2.0: CWLS Log ASCII Standard - VERSION 2.0
WRAP.                       NO: One line per depth step
~Well Information Block
STRT.FT                -8.5000: 
STOP.FT              2030.0000: 
STEP.FT                 0.2500: 
NULL.                -999.2500: 
COMP.          Pioneer Natural Resources: COMPANY
WELL.           Alabaster 11-8: WELL
FLD.           Purgatorie River: FIELD
LOC.           1249' FNL & 215' FWL--: LOCATION
PROV.                       CO: PROVINCE
CNTY.               Las Animas: COUNTRY
SRVC.          Patterson Wireline: SERVICE COMPANY
DATE.          Mon Jan 30 11:59:01 2006: LOG DATE
UWI.           05 071 08642 00: UNIQUE WELL ID
~Curve Information Block
DEPT.FT            0 000 00 00: Depth
CCL.                          : Casing Collar Locator
TT3.usec                      : CBL 3' Travel Time
AMP3.mV                       : CBL 3' Amplitude
GR.GAPI                       : Gamma Ray
~Parameter Information Block
~A  Depth       CCL         TT3         AMP3         GR     
# ...
  1465.5000      0.0000    485.7587     11.0798     68.6898
  1465.7500      0.0000    465.0385     11.1778     74.3469
  1466.0000      0.0000    471.6687     11.2290     83.7705
  1466.2500      0.0000    504.1528     11.2478     96.5447
  1466.5000      0.0000    548.0734     11.2662    111.0033
  1466.7500      0.0000    585.3057     11.3056    124.4657
  1467.0000      0.0000    605.9479     11.3651    134.7973
  1467.2500      0.0000    611.8645     11.4277    141.5471
  1467.5000      0.0000    610.2789     11.4739    145.4240
  1467.7500      0.0000    606.3220     11.4906    147.1206
  1468.0000      0.0000    601.1727     11.4696    147.0456
  1468.2500      0.0000    593.9879     11.4019    145.7755
  1468.5000      0.0000    583.3702     11.2760    143.9780
  1468.7500      0.0000    568.3365     11.0848    141.6756
  1469.0000      0.0000    550.3912     10.8331    137.9654
  1469.2500      0.0000    534.9017     10.5406    131.7781
  1469.5000      0.0000    528.4668     10.2376    123.0070
  1469.7500      0.0000    533.4907      9.9577    113.0291
  1470.0000      0.0000    546.0331      9.7318    104.1572
  1470.2500      0.0000    559.8284      9.5817     98.2308
  1470.5000      0.0000    571.4870      9.5110     95.4527
  1470.7500      0.0000    580.7665      9.5050     94.6296
  1471.0000      0.0000    587.0150      9.5438     94.5472
  1471.2500      0.0000    587.5708      9.6193     94.9992
  1471.5000      0.0000    579.9863      9.7375     96.6574
  1471.7500      0.0000    564.6819      9.9022    100.3040
  1472.0000      0.0000    545.2734     10.0985    106.1621
  1472.2500      0.0000    527.5356     10.2938    113.6125
  1472.5000      0.0000    517.9990     10.4571    121.3553
  1472.7500      0.0000    521.1154     10.5771    127.8898
  1473.0000      0.0000    535.0641     10.6658    132.1579
  1473.2500      0.0000    550.1926     10.7440    134.2733
  1473.5000      0.0000    554.5593     10.8225    135.6588
  1473.7500      0.0000    544.7647     10.8893    137.7465
  1474.0000      0.0000    532.0861     10.9129    140.1962
  1474.2500      0.0000    535.0010     10.8612    140.9516
  1474.5000      0.0000    563.0915     10.7203    138.3253
  1474.7500      0.0000    608.8439     10.4990    132.6812
  1475.0000      0.0000    655.3243     10.2205    126.1195
  1475.2500      0.0000    689.3612      9.9109    121.0728
  1475.5000      0.0000    706.9548      9.5942    119.1180
  1475.7500      0.0000    710.7894      9.2959    120.3890
  1476.0000      0.0000    707.1993      9.0449    123.6173
  1476.2500      0.0000    704.5107      8.8645    126.6566
  1476.5000      0.0000    709.8625      8.7527    127.4190
  1476.7500      0.0000    724.9528      8.6742    125.1593
  1477.0000      0.0000    744.5595      8.5805    121.1652
  1477.2500      0.0000    759.7561      8.4453    117.6256
  1477.5000      0.0000    763.3278      8.2827    115.4746
  1477.7500      0.0000    753.5764      8.1310    113.7307
  1478.0000      0.0000    734.7474      8.0216    111.0805
  1478.2500      0.0000    714.6435      7.9601    107.5854
  1478.5000      0.0000    700.7333      7.9307    104.5765
  1478.7500      0.0000    696.7789      7.9142    103.1365
  1479.0000      0.0000    701.9107      7.9006    102.8563
  1479.2500      0.0000    712.3102      7.8909    102.1777
  1479.5000      0.0000    723.5154      7.8864     99.9844
  1479.7500      0.0000    731.5721      7.8804     96.6695
  1480.0000      0.0000    733.8220      7.8587     93.5723
  1480.2500      0.0000    730.5743      7.8128     91.6895
  1480.5000      0.0000    725.6594      7.7501     90.9052
  1480.7500      0.0000    723.4803      7.6878     89.9914
  1481.0000      0.0000    725.3297      7.6366     87.5034
  1481.2500      0.0000    729.6365      7.5906     83.2483
  1481.5000      0.0000    734.8281      7.5362     78.7676
  1481.7500      0.0000    739.9602      7.4673     75.9547
  1482.0000      0.0000    743.0121      7.3915     75.3564
  1482.2500      0.0000    741.0427      7.3219     75.9932
  1482.5000      0.0000    733.3004      7.2640     76.4876
  1482.7500      0.0000    723.5018      7.2105     76.0744
  1483.0000      0.0000    717.2404      7.1497     74.7452
  1483.2500      0.0000    715.5468      7.0765     72.7978
  1483.5000      0.0000    711.9261      6.9954     70.3164
  1483.7500      0.0000    698.0728      6.9168     66.9873
  1484.0000      0.0000    673.3137      6.8537     62.5149
  1484.2500      0.0000    647.6169      6.8161     57.2946
  1484.5000      0.0000    634.6641      6.8023     52.3344
  1484.7500      0.0000    641.5241      6.7959     48.2989
  1485.0000      0.0000    663.9742      6.7767     45.0313
  1485.2500      0.0000    690.8105      6.7345     42.2869
  1485.5000      0.0000    712.3671      6.6741     40.4183
  1485.7500      0.0000    725.4151      6.6075     39.8514
  1486.0000      0.0000    731.8906      6.5480     40.3595
  1486.2500      0.0000    735.6810      6.5076     41.6381
  1486.5000      0.0000    740.6050      6.4920     44.4925
  1486.7500      0.0000    748.6020      6.4902     50.6349
  1487.0000      0.0000    758.1973      6.4699     60.9098
  1487.2500      0.0000    765.0735      6.3874     73.9418
  1487.5000      0.0000    764.6517      6.2035     86.8016
  1487.7500      0.0000    754.3683      5.9008     97.0668
  1488.0000      0.0000    734.8579      5.5108    104.3075
  1488.2500      0.0000    710.6026      5.1411    109.7679
  1488.5000      0.0000    689.5727      4.9378    114.5558
  1488.7500      0.0000    680.2332      4.9647    117.9752
  1489.0000      0.0000    686.1626      5.1247    117.9762
  1489.2500      0.0000    702.6887      5.2502    113.7858
  1489.5000      0.0000    720.2094      5.2573    107.6730
  1489.7500      0.0000    732.0019      5.1746    103.2610
  1490.0000      0.0000    738.3551      5.0608    102.3368
  1490.2500      0.0000    743.2769      4.9561    104.1349
  1490.5000      2.0000    748.7651      4.8969    107.3911
  1490.7500      0.0000    752.5229      4.9340    111.9119
  1491.0000      0.0000    749.6497      5.1129    118.0618
  1491.2500      0.0000    735.8641      5.4135    125.5449
  1491.5000      0.0000    710.6686      5.7070    132.8936
  1491.7500      0.0000    678.6573      5.8262    138.0254
  1492.0000      0.0000    647.3065      5.7218    139.8480
  1492.2500      0.0000    622.8058      5.5117    139.7617
  1492.5000      0.0000    607.4551      5.3463    140.9096
  1492.7500      0.0000    599.7746      5.2742    145.2664
  1493.0000      0.0000    596.3043      5.2564    151.6603
  1493.2500      0.0000    593.9553      5.2498    156.8717
  1493.5000      0.0000    591.4865      5.2424    158.4127
  1493.7500      0.0000    589.1864      5.2394    156.3074
  1494.0000      0.0000    587.6443      5.2467    152.6157
  1494.2500      0.0000    587.1764      5.2669    149.5101
  1494.5000      0.0000    588.2219      5.2988    147.7146
  1494.7500      0.0000    591.9980      5.3363    146.3397
  1495.0000      0.0000    600.5045      5.3670    143.9142
  1495.2500      0.0000    615.0574      5.3767    139.9370
  1495.5000      0.0000    634.0778      5.3611    135.8283
  1495.7500      0.0000    652.9042      5.3322    133.9270
  1496.0000      0.0000    667.0965      5.3103    135.0429
  1496.2500      0.0000    675.9994      5.3084    137.5136
  1496.5000      0.0000    682.2341      5.3255    139.0435
  1496.7500      0.0000    687.8754      5.3527    138.6342
  1497.0000      0.0000    692.0911      5.3821    136.2779
  1497.2500      0.0000    692.6924      5.4082    131.9084
  1497.5000      0.0000    689.0612      5.4215    125.7256
  1497.7500      0.0000    682.3391      5.4078    119.1345
  1498.0000      0.0000    672.6776      5.3552    114.3826
  1498.2500      0.0000    657.8398      5.2641    112.9662
  1498.5000      0.0000    635.8336      5.1485    114.6334
  1498.7500      0.0000    608.3843      5.0292    117.9449
