~Version Information
VERS.                      2.0: CWLS Log ASCII Standard - VERSION 2.0
WRAP.                       NO: One line per depth step
~Well Information Block
STRT.FT               547.0000: 
STOP.FT              1685.5000: 
STEP.FT                 0.1000: 
NULL.                -999.2500: 
COMP.          Pioneer Natural Resources: COMPANY
WELL.           Pedri 42-33 Tr: WELL
FLD.           Purgatorie River: FIELD
LOC.           1933' FNL & 662' FEL: LOCATION
PROV.                 Colorado: PROVINCE
CNTY.               Las Animas: COUNTRY
SRVC.                Patterson: SERVICE COMPANY
DATE.          Mon Dec 19 13:36:44 2005: LOG DATE
UWI.                          : UNIQUE WELL ID
~Curve Information Block
DEPT.FT            0 000 00 00: Depth
DCAL.in                       : CDL Caliper
RHOB.g/cc                     : CDL Bulk Density
RHOC.g/cc                     : CDL Density Correction
DPOR.pu                       : CDL Density Porosity
GR.GAPI                       : Gamma Ray
~Parameter Information Block
~A  Depth       DCAL        RHOB        RHOC        DPOR         GR     
# ...
  1073.4000      7.9182      2.6778      0.1174     -1.6857     95.6534
  1073.5000      7.9237      2.6830      0.0927     -2.0013     97.4886
  1073.6000      7.9237      2.6700      0.0665     -1.2121     96.7132
  1073.7000      7.9237      2.6525      0.0928     -0.1538     92.1714
  1073.8000      7.9738      2.6463      0.1317      0.2242     89.8508
  1073.9000      7.9738      2.6518      0.1512     -0.1097     92.4328
  1074.0000      7.9391      2.6603      0.1227     -0.6216     96.4019
  1074.1000      7.9391      2.6719      0.1112     -1.3269     97.6035
  1074.2000      7.9391      2.6888      0.1476     -2.3538     94.9817
  1074.3000      7.9338      2.6967      0.1843     -2.8329     91.7808
  1074.4000      7.9338      2.6706      0.1564     -1.2461     89.8393
  1074.5000      7.9293      2.6090      0.1015      2.4823     88.3314
  1074.6000      7.9293      2.5506      0.0087      6.0222     87.5411
  1074.7000      7.9293      2.5335      0.0202      7.0607     86.3028
  1074.8000      7.9412      2.5588      0.0255      5.5284     84.3661
  1074.9000      7.9412      2.6006      0.1218      2.9943     83.9461
  1075.0000      7.9319      2.6317      0.1418      1.1080     84.9620
  1075.1000      7.9319      2.6378      0.1650      0.7414     85.3713
  1075.2000      7.9319      2.6279      0.1242      1.3409     84.8911
  1075.3000      7.9409      2.6280      0.1422      1.3308     83.4775
  1075.4000      7.9409      2.6448      0.1963      0.3139     81.2034
  1075.5000      7.9071      2.6580      0.1835     -0.4831     80.9107
  1075.6000      7.9071      2.6560      0.1746     -0.3618     83.2999
  1075.7000      7.9071      2.6469      0.0987      0.1899     84.6172
  1075.8000      7.8578      2.6386      0.1063      0.6922     84.0635
  1075.9000      7.8578      2.6291      0.1330      1.2667     85.1003
  1076.0000      7.9416      2.6114      0.1301      2.3422     90.0533
  1076.1000      7.9416      2.5783      0.1120      4.3425     97.3245
  1076.2000      7.9416      2.5376      0.0693      6.8094    103.2618
  1076.3000      7.9233      2.5106      0.0445      8.4483    107.1024
  1076.4000      7.9233      2.4972      0.1093      9.2590    109.3534
  1076.5000      7.9206      2.4801      0.0479     10.2978    110.5157
  1076.6000      7.9206      2.4590      0.0646     11.5727    113.2312
  1076.7000      7.9206      2.4426      0.0639     12.5675    118.0216
  1076.8000      8.0398      2.4390      0.0411     12.7900    121.8966
  1076.9000      8.0398      2.4491      0.0731     12.1755    123.0224
  1077.0000      8.0880      2.4620      0.1075     11.3959    121.6226
  1077.1000      8.0880      2.4775      0.0602     10.4538    118.4550
  1077.2000      8.0880      2.5028      0.1126      8.9210    114.8407
  1077.3000      8.0893      2.5243      0.1659      7.6165    112.5455
  1077.4000      8.0893      2.5310      0.0679      7.2144    112.1042
  1077.5000      8.0359      2.5344      0.0910      7.0070    111.7295
  1077.6000      8.0359      2.5431      0.0781      6.4795    111.0189
  1077.7000      8.0359      2.5535      0.0589      5.8478    112.6680
  1077.8000      8.0105      2.5522      0.1001      5.9279    116.8665
  1077.9000      8.0105      2.5385      0.0585      6.7559    119.9528
  1078.0000      7.9944      2.5414     -0.0039      6.5798    120.9300
  1078.1000      7.9944      2.5697      0.0696      4.8645    122.3643
  1078.2000      7.9944      2.5950      0.0739      3.3322    125.3438
  1078.3000      8.0256      2.5979      0.1035      3.1591    128.3890
  1078.4000      8.0256      2.5808      0.0832      4.1947    128.8763
  1078.5000      8.0200      2.5577      0.0463      5.5953    126.4351
  1078.6000      8.0200      2.5475      0.0165      6.2127    123.9655
  1078.7000      8.0200      2.5595      0.0227      5.4843    121.8367
  1078.8000      7.9864      2.5852      0.0380      3.9246    117.7926
  1078.9000      7.9864      2.6037      0.0652      2.8079    112.9427
  1079.0000      8.0154      2.6017      0.0476      2.9257    110.4736
  1079.1000      8.0154      2.5866      0.0904      3.8451    108.8046
  1079.2000      8.0154      2.5706      0.0628      4.8099    106.1428
  1079.3000      8.0365      2.5646      0.0696      5.1755    104.6552
  1079.4000      8.0365      2.5676      0.1262      4.9931    104.6704
  1079.5000      8.0470      2.5569      0.1297      5.6424    105.1996
  1079.6000      8.0470      2.5228      0.0272      7.7084    106.9766
  1079.7000      8.0470      2.4879      0.0035      9.8272    110.1432
  1079.8000      8.0602      2.4695      0.0172     10.9402    112.5884
  1079.9000      8.0602      2.4603     -0.0272     11.4995    112.6634
  1080.0000      8.0625      2.4441      0.0394     12.4765    111.2125
  1080.1000      8.0625      2.4152      0.0434     14.2310    110.3830
  1080.2000      8.0625      2.3896      0.0240     15.7831    112.2856
  1080.3000      8.0413      2.3855      0.0755     16.0333    117.2963
  1080.4000      8.0413      2.3958      0.1439     15.4053    123.3281
  1080.5000      7.9751      2.4097      0.1515     14.5625    126.4069
  1080.6000      7.9751      2.4346      0.1800     13.0536    125.0526
  1080.7000      7.9751      2.4759      0.2365     10.5487    122.3777
  1080.8000      7.8716      2.5238      0.2865      7.6477    120.3371
  1080.9000      7.8716      2.5665      0.3226      5.0624    118.5695
  1081.0000      7.9117      2.5973      0.3367      3.1967    116.4305
  1081.1000      7.9117      2.6163      0.2790      2.0449    113.7593
  1081.2000      7.9117      2.6328      0.2230      1.0440    109.9387
  1081.3000      8.0115      2.6473      0.2632      0.1657    104.0230
  1081.4000      8.0115      2.6419      0.2319      0.4914     97.6077
  1081.5000      8.0224      2.6065      0.1601      2.6341     92.9074
  1081.6000      8.0224      2.5589      0.1029      5.5235     89.6843
  1081.7000      8.0224      2.5320      0.0532      7.1489     88.0522
  1081.8000      7.9999      2.5398      0.0650      6.6797     89.0305
  1081.9000      7.9999      2.5633      0.0933      5.2538     90.8858
  1082.0000      7.9362      2.5840      0.0659      4.0023     90.7272
  1082.1000      7.9362      2.6047      0.1177      2.7451     88.8655
  1082.2000      7.9362      2.6343      0.1111      0.9486     88.1554
  1082.3000      7.9715      2.6713      0.1914     -1.2931     89.6572
  1082.4000      7.9715      2.6970      0.2504     -2.8503     90.8196
  1082.5000      7.9114      2.6955      0.2125     -2.7570     89.9711
  1082.6000      7.9114      2.6770      0.1424     -1.6340     89.1205
  1082.7000      7.9114      2.6573      0.1131     -0.4417     90.5349
  1082.8000      7.8754      2.6375      0.1062      0.7600     93.3842
  1082.9000      7.8754      2.6220      0.0841      1.6995     94.6002
  1083.0000      7.9343      2.6186      0.0907      1.9012     92.4757
  1083.1000      7.9343      2.6276      0.0620      1.3567     89.9663
  1083.2000      7.9343      2.6492      0.0636      0.0457     89.9640
  1083.3000      7.9640      2.6784      0.0713     -1.7226     90.9940
  1083.4000      7.9640      2.7026      0.0690     -3.1850     91.6437
  1083.5000      7.9802      2.7158      0.1026     -3.9868     92.7420
  1083.6000      7.9802      2.7263      0.0352     -4.6236     94.4202
  1083.7000      7.9802      2.7429      0.0658     -5.6324     94.0913
  1083.8000      8.0057      2.7601      0.1015     -6.6729     91.6623
  1083.9000      8.0057      2.7784      0.0667     -7.7827     90.1617
  1084.0000      8.0230      2.8011      0.1193     -9.1585     89.3681
  1084.1000      8.0230      2.8136      0.1033     -9.9123     88.5072
  1084.2000      8.0230      2.8084      0.0912     -9.6009     88.2839
  1084.3000      7.9794      2.8006      0.0431     -9.1260     87.1197
  1084.4000      7.9794      2.8052      0.0375     -9.4031     84.8110
  1084.5000      7.9966      2.8181      0.1077    -10.1867     84.9428
