~Version Information
VERS.                      2.0: CWLS Log ASCII Standard - VERSION 2.0
WRAP.                       NO: One line per depth step
~Well Information Block
STRT.FT               742.7000: 
STOP.FT              1614.5000: 
STEP.FT                 0.1000: 
NULL.                -999.2500: 
COMP.          Pioneer Natural Resources: COMPANY
WELL.           Kermit 32-7 Tr: WELL
FLD.           Purgatoire River: FIELD
LOC.           2009' FNL & 2196' FEL: LOCATION
PROV.                 Colorado: PROVINCE
CNTY.               Las Animas: COUNTRY
SRVC.                Patterson: SERVICE COMPANY
DATE.          Mon Jan 16 13:19:56 2006: LOG DATE
UWI.           05 071 08664 00: UNIQUE WELL ID
~Curve Information Block
DEPT.FT            0 000 00 00: Depth
DCAL.in                       : CDL Caliper
RHOB.g/cc                     : CDL Bulk Density
RHOC.g/cc                     : CDL Density Correction
DPOR.pu                       : CDL Density Porosity
GR.GAPI                       : Gamma Ray
~Parameter Information Block
~A  Depth       DCAL        RHOB        RHOC        DPOR         GR     
# ...
   776.3000      8.1860      2.1178     -0.4620     32.2562     75.2819
   776.4000      8.1860      2.1396     -0.4595     30.9350     76.7109
   776.5000      8.1807      2.1517     -0.4289     30.2019     76.3794
   776.6000      8.1807      2.1474     -0.4469     30.4587     72.1044
   776.7000      8.1807      2.1289     -0.4268     31.5825     69.3567
   776.8000      8.1876      2.1034     -0.4948     33.1264     74.2448
   776.9000      8.1876      2.0931     -0.5661     33.7521     81.2472
   777.0000      8.1995      2.1114     -0.4291     32.6397     83.9370
   777.1000      8.1995      2.1417     -0.4226     30.8081     82.6904
   777.2000      8.1995      2.1615     -0.4191     29.6067     78.9913
   777.3000      8.2002      2.1565     -0.4122     29.9111     73.5345
   777.4000      8.2002      2.1270     -0.4769     31.6970     68.9021
   777.5000      8.1944      2.0948     -0.5139     33.6506     65.8416
   777.6000      8.1944      2.0859     -0.5542     34.1872     62.4426
   777.7000      8.1944      2.1041     -0.4492     33.0869     59.1805
   777.8000      8.1981      2.1285     -0.4827     31.6090     58.4308
   777.9000      8.1981      2.1508     -0.5313     30.2518     60.3059
   778.0000      8.2057      2.1661     -0.4154     29.3253     62.7545
   778.1000      8.2057      2.1574     -0.3849     29.8549     64.4163
   778.2000      8.2057      2.1395     -0.5489     30.9413     63.8240
   778.3000      8.2051      2.1297     -0.4111     31.5362     61.0261
   778.4000      8.2051      2.1085     -0.4894     32.8185     60.1883
   778.5000      8.1901      2.0808     -0.5345     34.4999     64.5999
   778.6000      8.1901      2.0740     -0.5258     34.9108     70.4357
   778.7000      8.1901      2.0842     -0.4741     34.2931     73.3446
   778.8000      8.1875      2.0912     -0.4884     33.8657     72.4285
   778.9000      8.1875      2.0948     -0.4758     33.6502     67.3828
   779.0000      8.1843      2.1026     -0.4485     33.1739     60.9798
   779.1000      8.1843      2.1142     -0.4426     32.4751     58.6208
   779.2000      8.1843      2.1195     -0.4299     32.1505     59.9937
   779.3000      8.1881      2.1117     -0.4318     32.6264     62.4279
   779.4000      8.1881      2.1018     -0.4783     33.2244     64.2765
   779.5000      8.1821      2.1026     -0.4107     33.1762     63.7563
   779.6000      8.1821      2.1088     -0.4476     32.8029     59.2471
   779.7000      8.1821      2.1113     -0.3968     32.6499     51.8083
   779.8000      8.1838      2.1094     -0.4896     32.7639     47.5716
   779.9000      8.1838      2.1039     -0.4463     33.0992     48.8669
   780.0000      8.1845      2.0969     -0.5028     33.5239     52.9687
   780.1000      8.1845      2.1014     -0.4885     33.2472     56.2857
   780.2000      8.1845      2.1167     -0.4654     32.3228     57.3247
   780.3000      8.1881      2.1164     -0.4005     32.3409     58.8470
   780.4000      8.1881      2.0968     -0.5400     33.5275     62.7183
   780.5000      8.1909      2.0898     -0.5154     33.9489     68.2066
   780.6000      8.1909      2.0991     -0.4361     33.3892     72.7416
   780.7000      8.1909      2.0902     -0.3922     33.9243     73.3720
   780.8000      8.1864      2.0579     -0.5318     35.8878     66.8131
   780.9000      8.1864      2.0319     -0.5228     37.4628     56.3091
   781.0000      8.1856      2.0269     -0.5977     37.7627     51.1098
   781.1000      8.1856      2.0278     -0.4886     37.7114     50.0899
   781.2000      8.1856      2.0083     -0.5349     38.8902     46.7867
   781.3000      8.1874      1.9751     -0.5896     40.9053     44.5122
   781.4000      8.1874      1.9682     -0.5881     41.3209     47.4223
   781.5000      8.1852      2.0005     -0.5085     39.3608     51.9899
   781.6000      8.1852      2.0393     -0.4631     37.0110     54.0515
   781.7000      8.1852      2.0556     -0.4463     36.0244     53.6247
   781.8000      8.1853      2.0572     -0.4735     35.9270     52.7078
   781.9000      8.1853      2.0652     -0.4759     35.4404     53.4991
   782.0000      8.1793      2.0779     -0.4602     34.6726     56.0883
   782.1000      8.1793      2.0655     -0.4066     35.4233     57.7137
   782.2000      8.1793      2.0157     -0.5453     38.4434     57.6656
   782.3000      8.1822      1.9618     -0.5872     41.7118     59.0746
   782.4000      8.1822      1.9330     -0.5640     43.4536     60.8737
   782.5000      8.1851      1.9283     -0.6104     43.7401     60.6306
   782.6000      8.1851      1.9407     -0.6055     42.9851     61.5753
   782.7000      8.1851      1.9578     -0.5364     41.9495     62.8776
   782.8000      8.1900      1.9598     -0.5264     41.8298     60.7505
   782.9000      8.1900      1.9493     -0.5722     42.4648     57.7977
   783.0000      8.1899      1.9539     -0.6301     42.1851     57.8549
   783.1000      8.1899      1.9841     -0.5648     40.3606     60.5725
   783.2000      8.1899      2.0173     -0.5739     38.3483     63.5420
   783.3000      8.1933      2.0291     -0.5037     37.6310     66.3001
   783.4000      8.1933      2.0207     -0.6051     38.1406     70.3978
   783.5000      8.1913      2.0130     -0.5935     38.6053     74.7298
   783.6000      8.1913      2.0084     -0.5646     38.8841     77.1208
   783.7000      8.1913      1.9834     -0.5508     40.3997     77.6572
   783.8000      8.1950      1.9320     -0.6595     43.5131     78.4094
   783.9000      8.1950      1.8832     -0.6713     46.4726     80.0201
   784.0000      8.1963      1.8613     -0.7062     47.7999     79.0043
   784.1000      8.1963      1.8531     -0.6311     48.2947     73.3230
   784.2000      8.1963      1.8379     -0.7260     49.2196     67.4221
   784.3000      8.1965      1.8376     -0.7548     49.2360     64.2131
   784.4000      8.1965      1.8796     -0.7014     46.6892     61.9639
   784.5000      8.1994      1.9371     -0.5790     43.2085     59.4788
   784.6000      8.1994      1.9704     -0.6119     41.1870     56.0070
   784.7000      8.1994      1.9813     -0.5762     40.5273     51.5849
   784.8000      8.1941      1.9790     -0.5235     40.6687     47.6098
   784.9000      8.1941      1.9604     -0.5396     41.7959     45.2917
   785.0000      8.1838      1.9390     -0.6116     43.0916     43.3015
   785.1000      8.1838      1.9411     -0.6314     42.9632     42.5209
   785.2000      8.1838      1.9753     -0.6217     40.8936     45.3551
   785.3000      8.1823      2.0332     -0.5630     37.3835     49.8167
   785.4000      8.1823      2.1075     -0.6256     32.8769     51.8790
   785.5000      8.1806      2.1783     -0.4644     28.5861     51.9040
   785.6000      8.1806      2.2145     -0.5684     26.3957     55.7621
   785.7000      8.1806      2.2177     -0.5714     26.1985     64.5943
   785.8000      8.1788      2.2131     -0.5300     26.4782     72.2276
   785.9000      8.1788      2.2137     -0.5350     26.4417     76.0041
   786.0000      8.1820      2.2267     -0.5691     25.6567     77.5613
   786.1000      8.1820      2.2548     -0.5290     23.9490     77.0510
   786.2000      8.1820      2.2803     -0.4750     22.4076     75.1182
   786.3000      8.1780      2.2860     -0.4702     22.0605     73.9367
   786.4000      8.1780      2.2802     -0.4989     22.4098     74.2721
   786.5000      8.1709      2.2716     -0.4516     22.9318     76.4754
   786.6000      8.1709      2.2635     -0.4899     23.4213     81.7826
   786.7000      8.1709      2.2818     -0.5588     22.3150     88.8039
   786.8000      8.1730      2.3473     -0.5443     18.3463     94.0703
   786.9000      8.1730      2.4316     -0.4084     13.2366     96.9473
   787.0000      8.1737      2.4872     -0.3754      9.8664     97.1350
   787.1000      8.1737      2.4791     -0.3711     10.3558     91.6243
   787.2000      8.1737      2.3619     -0.3388     17.4594     80.8688
   787.3000      8.1750      2.1129     -0.5320     32.5513     71.9965
   787.4000      8.1750      1.7960     -0.7570     51.7585     70.2260
