~Version Information
VERS.                      2.0: CWLS Log ASCII Standard - VERSION 2.0
WRAP.                       NO: One line per depth step
~Well Information Block
STRT.FT               880.0000: 
STOP.FT              1995.0000: 
STEP.FT                 0.2500: 
NULL.                -999.2500: 
COMP.          Petrogulf Corporation: COMPANY
WELL.          Collister 17-31R: WELL
FLD.           Purgatorie River: FIELD
LOC.           962' FNL & 1520' FEL: LOCATION
PROV.                 Colorado: PROVINCE
CNTY.               Las Animas: COUNTRY
SRVC.                Patterson: SERVICE COMPANY
DATE.          Mon Sep 26 09:32:26 2005: LOG DATE
UWI.                          : UNIQUE WELL ID
~Curve Information Block
DEPT.FT            0 000 00 00: Depth
SP.mV                         : DIL Spontaneous Potential
RILD.Ohm-m                    : DIL Deep Resistivity
RILM.Ohm-m                    : DIL Medium Resistivity
RLL3.Ohm-m                    : DIL Shallow Resistivity
GR.GAPI                       : Gamma Ray
~Parameter Information Block
~A  Depth        SP         RILD        RILM        RLL3         GR     
# ...
  1748.0000    299.9911     10.5677     10.3388     12.7645    161.1073
  1748.2500    299.9911     10.7648     10.6654     13.5228    168.3669
  1748.5000    299.9911     11.0443     10.9655     14.4088    142.6544
  1748.7500    299.9911     11.3679     11.3768     15.1515    153.8800
  1749.0000    299.9911     11.7566     11.7701     15.7340    139.6871
  1749.2500    299.9911     12.1120     12.2998     15.7571    158.5029
  1749.5000    299.9911     12.5458     12.7323     15.2053    143.0042
  1749.7500    299.9911     12.9866     13.1383     15.6122    128.1572
  1750.0000    299.9911     13.2465     13.7792     16.1738    142.9373
  1750.2500    299.9911     13.3599     14.2754     16.3321    154.0443
  1750.5000    299.9911     13.4532     14.6106     16.8152    141.3061
  1750.7500    299.9911     13.5871     14.8610     17.5740    132.5193
  1751.0000    299.9911     13.4892     15.1076     17.7411    125.8243
  1751.2500    299.9911     13.3050     15.0168     17.3716    113.1703
  1751.5000    299.9911     12.9782     14.8058     16.7175    144.1462
  1751.7500    299.9911     12.8554     14.6143     16.3184    135.4237
  1752.0000    299.9911     12.4505     13.9373     15.8406    145.8473
  1752.2500    299.9911     12.0227     13.1389     15.3605    152.4645
  1752.5000    299.9911     11.6704     12.3889     15.1292    141.0258
  1752.7500    299.9911     11.3060     11.5393     13.9480    131.2487
  1753.0000    299.9911     11.1236     10.7739     12.2937    130.2796
  1753.2500    299.9911     10.9594     10.2151     10.4273    156.7121
  1753.5000    299.9911     10.7942      9.7492      9.2648    172.6144
  1753.7500    299.9911     10.7686      9.5014      8.3610    158.7222
  1754.0000    299.9911     10.5093      9.3863      8.0826    163.3840
  1754.2500    299.9911     10.4618      9.5470      8.0232    181.3416
  1754.5000    299.9911     10.2797      9.7429      9.2119    172.5970
  1754.7500    299.9911     10.2267     10.0133     12.3469    152.3631
  1755.0000    299.9911      9.9076     10.2862     14.9818    159.7216
  1755.2500    299.9911      9.7967     10.5046     13.8864    154.8712
  1755.5000    299.9911      9.5758     10.6981     13.5473    131.6530
  1755.7500    299.9911      9.4557     10.7266     15.1082    128.7913
  1756.0000    299.9911      9.2360     10.7472     16.6933    115.7974
  1756.2500    299.9897      9.1357     10.6907     16.8999    114.2788
  1756.5000    299.4213      9.1196     10.3701     16.2174    115.1571
  1756.7500    294.3625      9.0546      9.9798     13.9239    114.4810
  1757.0000    287.0721      8.8887      9.5631     11.8398    105.0211
  1757.2500    284.0576      8.7233      9.0333     11.1709    123.0966
  1757.5000    282.3022      8.4775      8.6087     10.3893    119.9615
  1757.7500    281.2465      8.3776      8.1512      9.3550    128.2940
  1758.0000    280.4779      8.2085      7.7909      8.7151    143.3228
  1758.2500    279.9973      8.0584      7.5155      8.4781    142.1997
  1758.5000    279.7036      7.8373      7.2896      8.3523    164.2069
  1758.7500    279.4996      7.6884      7.1146      8.4134    168.3042
  1759.0000    279.2929      7.5366      6.9185      8.4135    190.3717
  1759.2500    279.1055      7.5516      6.8084      8.3679    177.5844
  1759.5000    278.9549      7.6424      6.7184      8.6034    164.2031
  1759.7500    278.6968      7.8011      6.7482      8.7030    190.9674
  1760.0000    278.4314      8.0039      6.8789      8.3523    150.6841
  1760.2500    278.1838      8.2968      7.1571      8.1884    153.5541
  1760.5000    278.0063      8.5939      7.5801      8.4891    141.0242
  1760.7500    277.8188      8.9089      8.2283      9.1974    147.1756
  1761.0000    277.6058      9.2523      9.0226     12.2124    161.2368
  1761.2500    277.1152      9.6631     10.0547     20.0982    150.5237
  1761.5000    276.5395     10.0402     11.0548     32.2883    122.0909
  1761.7500    275.9326     10.4149     12.2770     44.7312    137.4201
  1762.0000    275.3922     10.9313     13.0577     46.6433    107.8835
  1762.2500    274.7931     11.5734     13.4087     35.6976     98.1245
  1762.5000    274.0842     12.3516     13.6229     23.3932     78.9959
  1762.7500    273.2338     13.1305     13.8899     16.7711     87.1757
  1763.0000    272.2578     14.1384     14.4559     14.8466    100.9796
  1763.2500    271.2702     15.0376     15.5784     14.2531     87.3344
  1763.5000    270.3977     15.6764     17.1071     16.2518     94.7051
  1763.7500    269.4579     15.9195     18.0481     22.9302     98.7941
  1764.0000    268.6035     16.1119     19.1581     29.3354    118.9032
  1764.2500    268.0329     16.0241     19.3531     28.8178    106.9919
  1764.5000    267.6999     15.6819     18.7850     25.7300    105.9641
  1764.7500    267.1452     15.4405     18.3931     21.6513     87.5199
  1765.0000    265.6873     15.3504     17.8455     18.8070     86.3594
  1765.2500    263.8581     15.4423     17.4313     18.6136     99.9286
  1765.5000    262.0316     15.5030     17.2092     19.6037     87.0322
  1765.7500    260.3373     15.7994     17.1794     19.7819    102.2546
  1766.0000    258.7325     15.8378     16.8423     18.3494     99.1280
  1766.2500    257.3177     15.7631     17.0931     17.2071     98.4511
  1766.5000    256.0657     15.8182     17.4349     16.8560    113.6363
  1766.7500    254.9292     16.2514     17.7778     20.1292    102.8217
  1767.0000    253.9783     16.4306     18.0059     26.7138    102.2843
  1767.2500    253.3571     16.9355     17.9399     28.5997     94.4557
  1767.5000    253.0244     17.1434     18.0012     24.4958    104.3948
  1767.7500    252.8944     17.4039     17.7686     19.1775     91.5080
  1768.0000    252.5650     17.7327     18.5591     15.5160     83.1555
  1768.2500    252.1057     17.8834     19.5906     17.2520     88.6572
  1768.5000    251.4626     18.3398     21.1280     26.1794     94.7576
  1768.7500    250.7408     19.0193     22.7966     37.4388    118.4876
  1769.0000    250.4023     19.8836     24.7575     46.7772    115.7693
  1769.2500    250.3342     20.1413     25.5413     49.2556     99.7427
  1769.5000    250.6673     20.4055     25.9525     45.3080     80.0711
  1769.7500    251.2721     21.0737     26.0066     40.6950     56.4475
  1770.0000    251.7217     21.2195     26.1936     35.3490     55.6970
  1770.2500    251.3914     21.4195     26.8930     27.7256     55.2644
  1770.5000    250.4089     22.1522     27.5615     24.3825     51.4239
  1770.7500    249.3970     22.1373     29.1634     28.9756     68.6896
  1771.0000    248.5723     22.1007     31.3555     37.0622     91.0286
  1771.2500    247.8148     22.2172     33.0068     45.9877     85.3144
  1771.5000    247.5635     21.9680     33.4975     53.6729     71.3601
  1771.7500    247.6828     22.3155     33.7882     52.4194     69.9252
  1772.0000    247.8998     22.1938     32.5808     43.6619     77.4985
  1772.2500    248.2886     21.4439     31.7246     37.1271     76.9802
  1772.5000    248.8150     21.1924     30.6408     34.0445     81.2696
  1772.7500    249.3745     21.1396     29.6005     33.7983     77.8117
  1773.0000    249.9820     20.7033     28.7704     36.7130     57.2825
  1773.2500    250.7870     20.3582     26.7891     37.2190     68.1451
  1773.5000    251.7274     19.5934     25.7278     29.1859     89.9142
  1773.7500    252.7060     19.0158     24.8218     23.4992     76.1746
  1774.0000    253.7137     18.3119     24.3420     23.6401     84.6908
  1774.2500    254.8137     17.7629     23.0020     34.1558     94.6451
  1774.5000    255.9532     17.1684     22.0602     48.1600    107.1901
  1774.7500    257.1079     16.5202     20.2980     43.5430    110.3083
  1775.0000    258.3623     16.1140     18.6712     28.0435    116.5232
  1775.2500    259.3122     15.2498     17.2103     17.7760     94.4988
  1775.5000    259.7996     14.9165     16.2071     14.5429     93.4310
  1775.7500    260.1774     14.6903     15.7936     14.7911    108.2989
