~Version Information
VERS.                      2.0: CWLS Log ASCII Standard - VERSION 2.0
WRAP.                       NO: One line per depth step
~Well Information Block
STRT.FT               580.0000: 
STOP.FT              1179.0000: 
STEP.FT                 0.1000: 
NULL.                -999.2500: 
COMP.          Pioneer Natural Resources: COMPANY
WELL.          Tin Barn 14-20 TR: WELL
FLD.           Purgatorie River: FIELD
LOC.           925 FSL & 1151 FWL: LOCATION
PROV.                 Colorado: PROVINCE
CNTY.               Las Animas: COUNTRY
SRVC.                Patterson: SERVICE COMPANY
DATE.          Thu Jan 12 12:02:37 2006: LOG DATE
UWI.                          : UNIQUE WELL ID
~Curve Information Block
DEPT.FT            0 000 00 00: Depth
DCAL.in                       : CDL Caliper
RHOB.g/cc                     : CDL Bulk Density
RHOC.g/cc                     : CDL Density Correction
DPOR.pu                       : CDL Density Porosity
GR.GAPI                       : Gamma Ray
~Parameter Information Block
~A  Depth       DCAL        RHOB        RHOC        DPOR         GR     
# ...
   658.4000      8.0428      2.6778      0.0459     -1.6831    126.0863
   658.5000      8.0315      2.7198      0.0873     -4.2291    116.7027
   658.6000      8.0315      2.7661      0.0764     -7.0390    107.7370
   658.7000      8.0315      2.8123      0.0563     -9.8344    102.4574
   658.8000      7.9949      2.8448      0.1267    -11.8082     98.4183
   658.9000      7.9949      2.8568      0.0539    -12.5314     93.6945
   659.0000      7.9691      2.8649      0.0605    -13.0226     91.8806
   659.1000      7.9691      2.8715      0.0867    -13.4246     94.3636
   659.2000      7.9691      2.8510      0.0440    -12.1826     97.5541
   659.3000      7.9529      2.7886     -0.0207     -8.3988     99.6249
   659.4000      7.9529      2.7071     -0.1068     -3.4629    101.5727
   659.5000      7.9429      2.6439     -0.0408      0.3712    103.6515
   659.6000      7.9429      2.6121     -0.0042      2.2945    106.8130
   659.7000      7.9429      2.6052      0.0848      2.7148    112.5294
   659.8000      7.9418      2.6092      0.1585      2.4707    118.2691
   659.9000      7.9418      2.6091      0.1520      2.4780    121.6619
   660.0000      7.9422      2.5939      0.1966      3.3977    123.3680
   660.1000      7.9422      2.5619      0.1543      5.3377    122.1711
   660.2000      7.9422      2.5259      0.1186      7.5236    119.6101
   660.3000      7.9485      2.4989      0.0701      9.1575    120.6253
   660.4000      7.9485      2.4827      0.0667     10.1372    124.3925
   660.5000      7.9750      2.4676      0.0837     11.0574    125.5405
   660.6000      7.9750      2.4469      0.0330     12.3109    124.3474
   660.7000      7.9750      2.4251      0.0744     13.6285    124.5645
   660.8000      7.9962      2.4077      0.0384     14.6858    124.5613
   660.9000      7.9962      2.4006      0.0781     15.1136    122.7842
   661.0000      8.0111      2.4015      0.1138     15.0612    123.4559
   661.1000      8.0111      2.3968      0.1131     15.3483    126.8685
   661.2000      8.0111      2.3783      0.0770     16.4641    128.3336
   661.3000      8.0318      2.3578      0.0092     17.7087    128.0072
   661.4000      8.0318      2.3529      0.0294     18.0074    128.4118
   661.5000      8.0505      2.3616      0.0074     17.4766    128.7598
   661.6000      8.0505      2.3693      0.0531     17.0099    127.0853
   661.7000      8.0505      2.3689      0.0128     17.0383    124.1920
   661.8000      8.0780      2.3650      0.0477     17.2745    124.2872
   661.9000      8.0780      2.3600      0.0416     17.5729    128.5897
   662.0000      8.0577      2.3565      0.0149     17.7871    132.7606
   662.1000      8.0577      2.3562      0.0371     17.8076    134.0308
   662.2000      8.0577      2.3503      0.0413     18.1612    133.2645
   662.3000      8.0505      2.3337      0.0177     19.1712    131.5733
   662.4000      8.0505      2.3150     -0.0196     20.3014    127.2078
   662.5000      8.0510      2.3046     -0.0103     20.9310    120.2584
   662.6000      8.0510      2.3044     -0.0113     20.9432    116.7658
   662.7000      8.0510      2.3128      0.0116     20.4361    119.7654
   662.8000      8.1041      2.3285     -0.0006     19.4829    125.5705
   662.9000      8.1041      2.3472      0.0267     18.3526    130.2065
   663.0000      8.1224      2.3598      0.0330     17.5863    132.3309
   663.1000      8.1224      2.3620      0.0476     17.4565    133.2175
   663.2000      8.1224      2.3506      0.0276     18.1483    133.4751
   663.3000      8.1464      2.3223     -0.0105     19.8633    130.8116
   663.4000      8.1464      2.2926     -0.0448     21.6617    126.6744
   663.5000      8.1571      2.2951     -0.0579     21.5070    126.1233
   663.6000      8.1571      2.3342      0.0076     19.1377    129.8940
   663.7000      8.1571      2.3762      0.0261     16.5916    134.9543
   663.8000      8.1587      2.4032      0.0535     14.9602    138.7961
   663.9000      8.1587      2.4243      0.0835     13.6799    139.5489
   664.0000      8.1888      2.4428      0.1740     12.5594    135.7476
   664.1000      8.1888      2.4436      0.2750     12.5114    128.8004
   664.2000      8.1888      2.4051      0.2952     14.8432    123.5700
   664.3000      8.1705      2.3198      0.2286     20.0151    121.7248
   664.4000      8.1705      2.2079      0.1052     26.7926    121.6487
   664.5000      8.1876      2.1045     -0.0114     33.0608    122.4457
   664.6000      8.1876      2.0287     -0.0136     37.6555    121.8681
   664.7000      8.1876      1.9672      0.0131     41.3799    118.3684
   664.8000      8.1737      1.8960     -0.0345     45.6971    115.2573
   664.9000      8.1737      1.8138     -0.0482     50.6783    114.0305
   665.0000      8.1128      1.7330      0.0138     55.5783    111.2688
   665.1000      8.1128      1.6651     -0.0636     59.6884    106.4464
   665.2000      8.1128      1.6183      0.0289     62.5252    101.6439
   665.3000      8.1318      1.5786      0.0157     64.9304     95.6117
   665.4000      8.1318      1.5308     -0.0578     67.8322     87.0142
   665.5000      8.1638      1.4802     -0.0753     70.8970     78.2235
   665.6000      8.1638      1.4378     -0.0387     73.4652     72.2327
   665.7000      8.1638      1.3972      0.1233     75.9278     69.3806
   665.8000      8.2352      1.3444      0.1699     79.1280     67.4398
   665.9000      8.2352      1.3064      0.0936     81.4333     65.0198
   666.0000      8.2647      1.3380      0.0825     79.5129     64.3849
   666.1000      8.2647      1.4488      0.1385     72.7997     67.4498
   666.2000      8.2647      1.6042      0.1696     63.3830     71.9310
   666.3000      8.2920      1.7807      0.2251     52.6825     74.7834
   666.4000      8.2920      1.9639      0.3151     41.5789     76.3832
   666.5000      8.3588      2.1356      0.3732     31.1739     77.2337
   666.6000      8.3588      2.2878      0.4120     21.9496     79.3203
   666.7000      8.3588      2.4164      0.4105     14.1591     85.1683
   666.8000      8.2723      2.5123      0.3718      8.3458     90.9911
   666.9000      8.2723      2.5681      0.2127      4.9614     93.5736
   667.0000      8.1143      2.5873      0.0759      3.7994     97.2831
   667.1000      8.1143      2.5828      0.0357      4.0733    105.9194
   667.2000      8.1143      2.5627      0.0500      5.2929    115.5848
   667.3000      7.9916      2.5364      0.0242      6.8819    121.5162
   667.4000      7.9916      2.5247     -0.0296      7.5941    122.3923
   667.5000      7.9687      2.5398     -0.0128      6.6795    119.7609
   667.6000      7.9687      2.5649      0.0245      5.1573    118.7464
   667.7000      7.9687      2.5728      0.0423      4.6799    122.0006
   667.8000      8.0209      2.5620     -0.0022      5.3315    125.5301
   667.9000      8.0209      2.5530      0.0250      5.8799    124.8066
   668.0000      8.0226      2.5547      0.0197      5.7731    120.7922
   668.1000      8.0226      2.5598      0.0203      5.4644    117.3595
   668.2000      8.0226      2.5578      0.0088      5.5865    116.0610
   668.3000      8.0546      2.5498     -0.0008      6.0751    115.5192
   668.4000      8.0546      2.5562     -0.0267      5.6830    116.5589
   668.5000      8.0666      2.5813      0.0695      4.1626    120.4839
   668.6000      8.0666      2.5917      0.0827      3.5360    121.9309
   668.7000      8.0666      2.5734      0.0260      4.6421    117.3755
   668.8000      8.1055      2.5502     -0.0154      6.0491    111.5024
   668.9000      8.1055      2.5411     -0.0291      6.6027    107.3100
   669.0000      8.1006      2.5506     -0.0799      6.0260    104.4843
   669.1000      8.1006      2.5696      0.0116      4.8701    101.8212
   669.2000      8.1006      2.5781     -0.0068      4.3555     97.7714
   669.3000      8.1064      2.5742     -0.0360      4.5966     94.0249
   669.4000      8.1064      2.5683      0.0216      4.9500     92.0677
   669.5000      7.9768      2.5654      0.0120      5.1260     90.4275
