~Version Information
VERS.                      2.0: CWLS Log ASCII Standard - VERSION 2.0
WRAP.                       NO: One line per depth step
~Well Information Block
STRT.FT                -7.7500: 
STOP.FT              1519.0000: 
STEP.FT                 0.2500: 
NULL.                -999.2500: 
COMP.          Pioneer Natural Resources: COMPANY
WELL.          Mow 8-14-33-67 Tr: WELL
FLD.           Purgatorie River: FIELD
LOC.           2258' FNL & 929' FEL--: LOCATION
CNTY.               Las Animas: COUNTY
SRVC.          Patterson Wireline: SERVICE COMPANY
DATE.          Thu Feb 02 10:06:28 2006: LOG DATE
UWI.           05 071 08684 00: UNIQUE WELL ID
STAT.                       CO: STATE
~Curve Information Block
DEPT.FT            0 000 00 00: Depth
MINMK.                        : Magnetic Mark Ticks
CCL.                          : Casing Collar Locator
TT3.usec                      : CBL 3' Travel Time
AMP3.mV                       : CBL 3' Amplitude
GR.GAPI                       : Gamma Ray
~Parameter Information Block
~A  Depth      MINMK        CCL         TT3         AMP3         GR     
# ...
  1000.2500      0.0000      0.0000    263.7337     81.8735    135.2165
  1000.5000      0.0000      0.0000    263.7462     81.8217    138.2290
  1000.7500      0.0000      0.0000    263.7607     81.7775    140.5380
  1001.0000      0.0000      0.0000    263.7752     81.7612    141.6085
  1001.2500      0.0000      0.0000    263.7882     81.7811    141.1418
  1001.5000      0.0000      0.0000    263.7982     81.8311    139.4456
  1001.7500      0.0000      0.0000    263.8040     81.8968    137.7425
  1002.0000      0.0000      0.0000    263.8045     81.9613    137.3165
  1002.2500      0.0000      0.0000    263.7999     82.0049    138.1131
  1002.5000      0.0000      0.0000    263.7918     82.0091    138.7171
  1002.7500      0.0000      0.0000    263.7842     81.9655    137.6420
  1003.0000      0.0000      0.0000    263.7812     81.8814    133.9981
  1003.2500      0.0000      0.0000    263.7852     81.7733    127.3089
  1003.5000      0.0000      0.0000    263.7953     81.6551    117.8757
  1003.7500      0.0000      0.0000    263.8086     81.5311    107.4569
  1004.0000      0.0000      0.0000    263.8216     81.3979     98.6206
  1004.2500      0.0000      0.0000    263.8314     81.2550     93.1262
  1004.5000      0.0000      0.0000    263.8356     81.1100     91.2678
  1004.7500      0.0000      0.0000    263.8332     80.9737     92.5014
  1005.0000      0.0000      0.0000    263.8253     80.8489     96.1518
  1005.2500      0.0000      0.0000    263.8156     80.7256    101.5678
  1005.5000      0.0000      0.0000    263.8086     80.5836    108.0220
  1005.7500      0.0000      0.0000    263.8076     80.4050    114.6496
  1006.0000      0.0000      0.0000    263.8126     80.1916    120.4522
  1006.2500      0.0000      0.0000    263.8212     79.9753    124.3689
  1006.5000      0.0000      0.0000    263.8304     79.8025    125.6372
  1006.7500      0.0000      0.0000    263.8379     79.7059    124.4600
  1007.0000      0.0000      0.0000    263.8421     79.6890    122.2445
  1007.2500      0.0000      0.0000    263.8427     79.7359    120.9286
  1007.5000      0.0000      0.0000    263.8398     79.8307    122.0267
  1007.7500      0.0000      0.0000    263.8346     79.9659    126.0485
  1008.0000      0.0000      0.0000    263.8283     80.1383    132.0308
  1008.2500      0.0000      0.0000    263.8224     80.3413    137.3106
  1008.5000      0.0000      0.0000    263.8182     80.5626    138.8080
  1008.7500      0.0000      0.0000    263.8163     80.7857    135.8881
  1009.0000      0.0000      0.0000    263.8162     80.9913    131.7505
  1009.2500      0.0000      0.0000    263.8168     81.1616    130.6297
  1009.5000      0.0000      0.0000    263.8177     81.2858    133.3174
  1009.7500      0.0000      0.0000    263.8193     81.3627    136.3902
  1010.0000      0.0000      0.0000    263.8227     81.3940    136.1566
  1010.2500      0.0000      0.0000    263.8286     81.3829    132.4067
  1010.5000      0.0000      0.0000    263.8362     81.3393    127.8313
  1010.7500      0.0000      0.0000    263.8438     81.2826    124.8091
  1011.0000      0.0000      0.0000    263.8496     81.2326    123.7420
  1011.2500      0.0000      0.0000    263.8529     81.1996    123.7784
  1011.5000      0.0000      0.0000    263.8543     81.1830    123.7305
  1011.7500      0.0000      0.0000    263.8553     81.1777    122.4246
  1012.0000      0.0000      0.0000    263.8562     81.1741    119.3686
  1012.2500      0.0000      0.0000    263.8558     81.1587    115.4985
  1012.5000      0.0000      0.0000    263.8526     81.1200    112.8194
  1012.7500      0.0000      0.0000    263.8466     81.0602    113.0465
  1013.0000      0.0000      0.0000    263.8388     80.9999    116.5140
  1013.2500      0.0000      0.0000    263.8308     80.9689    122.0099
  1013.5000      0.0000      0.0000    263.8235     80.9852    127.3400
  1013.7500      0.0000      0.0000    263.8174     81.0434    130.4729
  1014.0000      0.0000      0.0000    263.8130     81.1193    130.6360
  1014.2500      0.0000      0.0000    263.8100     81.1862    128.2980
  1014.5000      0.0000      0.0000    263.8076     81.2253    124.3008
  1014.7500      0.0000      0.0000    263.8049     81.2305    119.5225
  1015.0000      0.0000      0.0000    263.8006     81.2096    115.1871
  1015.2500      0.0000      0.0000    263.7946     81.1838    112.8664
  1015.5000      0.0000      0.0000    263.7867     81.1811    113.9214
  1015.7500      0.0000      0.0000    263.7766     81.2257    118.7393
  1016.0000      0.0000      0.0000    263.7640     81.3253    126.0399
  1016.2500      0.0000      0.0000    263.7506     81.4654    132.9756
  1016.5000      0.0000      0.0000    263.7385     81.6168    136.4447
  1016.7500      0.0000      0.0000    263.7292     81.7506    134.6656
  1017.0000      0.0000      0.0000    263.7228     81.8488    127.8242
  1017.2500      0.0000      0.0000    263.7191     81.9023    117.8129
  1017.5000      0.0000      0.0000    263.7188     81.9088    107.6595
  1017.7500      0.0000      0.0000    263.7226     81.8747    100.5567
  1018.0000      0.0000      0.0000    263.7298     81.8166     98.4000
  1018.2500      0.0000      0.0000    263.7368     81.7604    100.8081
  1018.5000      0.0000      0.0000    263.7386     81.7372    105.5936
  1018.7500      0.0000      0.0000    263.7315     81.7760    110.1409
  1019.0000      0.0000      0.0000    263.7162     81.8861    112.4824
  1019.2500      0.0000      0.0000    263.6973     82.0459    111.9280
  1019.5000      0.0000      0.0000    263.6805     82.2112    109.5671
  1019.7500      0.0000      0.0000    263.6689     82.3420    108.0227
  1020.0000      0.0000      0.0000    263.6631     82.4229    109.7813
  1020.2500      0.0000      0.0000    263.6619     82.4627    115.1490
  1020.5000      0.0000      0.0000    263.6648     82.4811    121.9253
  1020.7500      0.0000      0.0000    263.6716     82.4936    127.3172
  1021.0000      0.0000      0.0000    263.6816     82.5041    130.2617
  1021.2500      0.0000      0.0000    263.6916     82.5083    131.8871
  1021.5000      0.0000      0.0000    263.6968     82.5051    133.8491
  1021.7500      0.0000      0.0000    263.6941     82.5005    136.5235
  1022.0000      0.0000      0.0000    263.6851     82.4972    139.0287
  1022.2500      0.0000      0.0000    263.6762     82.4871    140.6086
  1022.5000      0.0000      0.0000    263.6746     82.4596    141.3086
  1022.7500      0.0000      0.0000    263.6825     82.4119    141.3997
  1023.0000      0.0000      0.0000    263.6967     82.3482    140.8737
  1023.2500      0.0000      0.0000    263.7117     82.2711    139.7054
  1023.5000      0.0000      0.0000    263.7228     82.1770    138.0770
  1023.7500      0.0000      0.0000    263.7283     82.0596    136.0226
  1024.0000      0.0000      0.0000    263.7285     81.9185    133.1485
  1024.2500      0.0000      0.0000    263.7250     81.7645    129.1481
  1024.5000      0.0000      0.0000    263.7213     81.6166    124.4747
  1024.7500      0.0000      0.0000    263.7209     81.4947    120.0325
  1025.0000      1.0000      0.0000    263.7263     81.4114    116.2714
  1025.2500      0.0000      0.0000    263.7368     81.3672    113.0565
  1025.5000      0.0000      0.0000    263.7494     81.3534    110.4352
  1025.7500      0.0000      0.0000    263.7612     81.3583    109.0529
  1026.0000      0.0000      0.0000    263.7706     81.3695    109.6290
  1026.2500      0.0000      0.0000    263.7761     81.3744    112.2812
  1026.5000      0.0000      0.0000    263.7768     81.3660    116.4187
  1026.7500      0.0000      0.0000    263.7729     81.3442    121.0058
  1027.0000      0.0000      0.0000    263.7667     81.2983    124.8913
  1027.2500      0.0000      0.0000    263.7670     81.1856    127.3070
  1027.5000      0.0000      0.0000    263.8030     80.9092    128.3675
  1027.7500      0.0000      0.0000    263.9484     80.2821    129.0166
  1028.0000      0.0000      0.0000    264.3319     78.9663    130.3241
