~Version Information
VERS.                      2.0: CWLS Log ASCII Standard - VERSION 2.0
WRAP.                       NO: One line per depth step
~Well Information Block
STRT.FT                10.0000: 
STOP.FT              1360.0000: 
STEP.FT                 0.1000: 
NULL.                -999.2500: 
COMP.          Pioneer Natural Resources: COMPANY
WELL.              Geyser 41-2: WELL
FLD.           Purgatorie River: FIELD
LOC.           506' FNL & 1127' FEL: LOCATION
PROV.                 Colorado: PROVINCE
CNTY.               Las Animas: COUNTRY
SRVC.                Patterson: SERVICE COMPANY
DATE.          Thu Dec 01 07:38:14 2005: LOG DATE
UWI.                          : UNIQUE WELL ID
~Curve Information Block
DEPT.FT            0 000 00 00: Depth
DCAL.in                       : CDL Caliper
RHOB.g/cc                     : CDL Bulk Density
RHOC.g/cc                     : CDL Density Correction
DPOR.pu                       : CDL Density Porosity
GR.GAPI                       : Gamma Ray
NPOR.pu                       : Neutron Porosity
~Parameter Information Block
~A  Depth       DCAL        RHOB        RHOC        DPOR         GR         NPOR    
# ...
  1344.4000      7.9049      2.4836      0.0316     10.0837    114.8430   -999.2500
  1344.5000      7.9009      2.4837      0.0178     10.0810    110.9072   -999.2500
  1344.6000      7.9009      2.4812      0.0209     10.2329    106.0199   -999.2500
  1344.7000      7.9009      2.4815     -0.0020     10.2093    106.5848   -999.2500
  1344.8000      7.8803      2.4942     -0.0025      9.4405    112.7497   -999.2500
  1344.9000      7.8803      2.5210      0.0328      7.8152    116.7099   -999.2500
  1345.0000      7.8359      2.5394      0.0549      6.7041    114.5321   -999.2500
  1345.1000      7.8359      2.5316      0.0169      7.1762    110.7775   -999.2500
  1345.2000      7.8359      2.5229     -0.0293      7.7001    108.5397   -999.2500
  1345.3000      7.8227      2.5372      0.0374      6.8389    105.3048   -999.2500
  1345.4000      7.8227      2.5535      0.0670      5.8457    101.9395   -999.2500
  1345.5000      7.8177      2.5538      0.0483      5.8315    101.2224   -999.2500
  1345.6000      7.8177      2.5539     -0.0042      5.8255    100.7104   -999.2500
  1345.7000      7.8177      2.5648      0.0648      5.1646     98.8100   -999.2500
  1345.8000      7.8115      2.5662      0.0736      5.0795     96.6538   -999.2500
  1345.9000      7.8115      2.5492      0.0414      6.1107     94.6838   -999.2500
  1346.0000      7.8143      2.5337      0.0277      7.0503     94.3086   -999.2500
  1346.1000      7.8143      2.5314      0.0311      7.1905     95.4108   -999.2500
  1346.2000      7.8143      2.5364      0.0184      6.8854     95.6678   -999.2500
  1346.3000      7.8181      2.5434      0.0280      6.4586     94.2598   -999.2500
  1346.4000      7.8181      2.5519      0.0352      5.9437     90.9031   -999.2500
  1346.5000      7.8123      2.5607      0.0506      5.4139     82.0884   -999.2500
  1346.6000      7.8123      2.5713      0.0652      4.7688     61.5684   -999.2500
  1346.7000      7.8123      2.5896      0.0469      3.6605     32.5323   -999.2500
  1346.8000      7.8108      2.6077      0.0891      2.5665     10.6022   -999.2500
  1346.9000      7.8108      2.6073      0.0492      2.5882      1.9720   -999.2500
  1347.0000      7.8139      2.5915      0.0203      3.5452      0.2010   -999.2500
  1347.1000      7.8139      2.5774      0.0291      4.4014      0.0108   -999.2500
  1347.2000      7.8139      2.5725      0.0607      4.6971      0.0000   -999.2500
  1347.3000      7.8145      2.5781      0.0388      4.3577   -999.2500   -999.2500
  1347.4000      7.8145      2.5937      0.0735      3.4095   -999.2500   -999.2500
  1347.5000      7.8082      2.6104      0.0728      2.3975   -999.2500   -999.2500
  1347.6000      7.8082      2.6169      0.0817      2.0056   -999.2500   -999.2500
  1347.7000      7.8082      2.6092      0.0670      2.4734   -999.2500   -999.2500
  1347.8000      7.8054      2.5939      0.0862      3.4026   -999.2500   -999.2500
  1347.9000      7.8054      2.5863      0.0485      3.8618   -999.2500   -999.2500
  1348.0000      7.8059      2.5945      0.0614      3.3649   -999.2500   -999.2500
  1348.1000      7.8059      2.6077      0.0749      2.5606   -999.2500   -999.2500
  1348.2000      7.8059      2.6146      0.1037      2.1451   -999.2500   -999.2500
  1348.3000      7.8051      2.6176      0.0750      1.9622   -999.2500   -999.2500
  1348.4000      7.8051      2.6159      0.0812      2.0656   -999.2500   -999.2500
  1348.5000      7.8128      2.5996      0.0695      3.0565   -999.2500   -999.2500
  1348.6000      7.8128      2.5756      0.0461      4.5104   -999.2500   -999.2500
  1348.7000      7.8128      2.5633      0.0381      5.2550   -999.2500   -999.2500
  1348.8000      7.8123      2.5653      0.0446      5.1337   -999.2500   -999.2500
  1348.9000      7.8123      2.5717      0.0474      4.7447   -999.2500   -999.2500
  1349.0000      7.8161      2.5753      0.0307      4.5294   -999.2500   -999.2500
  1349.1000      7.8161      2.5781      0.0200      4.3560   -999.2500   -999.2500
  1349.2000      7.8161      2.5875      0.0601      3.7882   -999.2500   -999.2500
  1349.3000      7.8236      2.5950      0.1085      3.3311   -999.2500   -999.2500
  1349.4000      7.8236      2.5900      0.0589      3.6342   -999.2500   -999.2500
  1349.5000      7.8233      2.5792      0.0610      4.2926   -999.2500   -999.2500
  1349.6000      7.8233      2.5595      0.1190      5.4840   -999.2500   -999.2500
  1349.7000      7.8233      2.5293      0.0189      7.3126   -999.2500   -999.2500
  1349.8000      7.8219      2.5114      0.0395      8.4005   -999.2500   -999.2500
  1349.9000      7.8219      2.5147      0.0543      8.2029   -999.2500   -999.2500
  1350.0000      7.8270      2.5264      0.0551      7.4916   -999.2500   -999.2500
  1350.1000      7.8270      2.5360      0.0738      6.9100   -999.2500   -999.2500
  1350.2000      7.8270      2.5370      0.0632      6.8481   -999.2500   -999.2500
  1350.3000      7.8239      2.5309      0.0556      7.2194   -999.2500   -999.2500
  1350.4000      7.8239      2.5276      0.0060      7.4210   -999.2500   -999.2500
  1350.5000      7.8399      2.5333      0.0297      7.0730   -999.2500   -999.2500
  1350.6000      7.8399      2.5391      0.0822      6.7240   -999.2500   -999.2500
  1350.7000      7.8399      2.5317      0.0638      7.1704   -999.2500   -999.2500
  1350.8000      7.8429      2.5113      0.0676      8.4083   -999.2500   -999.2500
  1350.9000      7.8429      2.4888      0.0083      9.7708   -999.2500   -999.2500
  1351.0000      7.8360      2.4777      0.0294     10.4442   -999.2500   -999.2500
  1351.1000      7.8360      2.4847     -0.0035     10.0202   -999.2500   -999.2500
  1351.2000      7.8360      2.5040      0.0682      8.8485   -999.2500   -999.2500
  1351.3000      7.8521      2.5213      0.0528      7.7975   -999.2500   -999.2500
  1351.4000      7.8521      2.5268      0.0681      7.4643   -999.2500   -999.2500
  1351.5000      7.8642      2.5201      0.0816      7.8730   -999.2500   -999.2500
  1351.6000      7.8642      2.5118      0.0476      8.3768   -999.2500   -999.2500
  1351.7000      7.8642      2.5138      0.0486      8.2521   -999.2500   -999.2500
  1351.8000      7.8410      2.5251      0.0317      7.5689   -999.2500   -999.2500
  1351.9000      7.8410      2.5385      0.0156      6.7547   -999.2500   -999.2500
  1352.0000      7.8325      2.5509      0.0680      6.0046   -999.2500   -999.2500
  1352.1000      7.8325      2.5591      0.0582      5.5098   -999.2500   -999.2500
  1352.2000      7.8325      2.5605      0.0866      5.4231   -999.2500   -999.2500
  1352.3000      7.8095      2.5584      0.0466      5.5504   -999.2500   -999.2500
  1352.4000      7.8095      2.5625      0.0501      5.3038   -999.2500   -999.2500
  1352.5000      7.8086      2.5744      0.0950      4.5820   -999.2500   -999.2500
  1352.6000      7.8086      2.5792      0.0644      4.2932   -999.2500   -999.2500
  1352.7000      7.8086      2.5659      0.0426      5.0987   -999.2500   -999.2500
  1352.8000      7.8169      2.5445      0.0258      6.3920   -999.2500   -999.2500
  1352.9000      7.8169      2.5310      0.0463      7.2150   -999.2500   -999.2500
  1353.0000      7.8170      2.5299      0.0249      7.2774   -999.2500   -999.2500
  1353.1000      7.8170      2.5367      0.0626      6.8683   -999.2500   -999.2500
  1353.2000      7.8170      2.5433      0.0328      6.4663   -999.2500   -999.2500
  1353.3000      7.8167      2.5467      0.0487      6.2629   -999.2500   -999.2500
  1353.4000      7.8167      2.5422      0.0806      6.5338   -999.2500   -999.2500
  1353.5000      7.8169      2.5312      0.0263      7.2005   -999.2500   -999.2500
  1353.6000      7.8169      2.5319     -0.0009      7.1551   -999.2500   -999.2500
  1353.7000      7.8169      2.5537      0.0471      5.8339   -999.2500   -999.2500
  1353.8000      7.8241      2.5805      0.0987      4.2114   -999.2500   -999.2500
  1353.9000      7.8241      2.5964      0.0669      3.2509   -999.2500   -999.2500
