~Version Information
VERS.                      2.0: CWLS Log ASCII Standard - VERSION 2.0
WRAP.                       NO: One line per depth step
~Well Information Block
STRT.FT                -6.5000: 
STOP.FT              1467.0000: 
STEP.FT                 0.2500: 
NULL.                -999.2500: 
COMP.          Pioneer Natural Resources: COMPANY
WELL.          Surtees 23-34 Tr: WELL
FLD.           Purgatorie River: FIELD
LOC.           1559' FSL & 1997' FWL--: LOCATION
PROV.                       CO: PROVINCE
CNTY.               Las Animas: COUNTRY
SRVC.          Patterson Wireline: SERVICE COMPANY
DATE.          Tue Aug 02 13:04:45 2005: LOG DATE
UWI.           05 071 08449 00: UNIQUE WELL ID
~Curve Information Block
DEPT.FT            0 000 00 00: Depth
CCL.                          : Casing Collar Locator
TT3.usec                      : CBL 3' Travel Time
AMP3.mV                       : CBL 3' Amplitude
GR.GAPI                       : Gamma Ray
~Parameter Information Block
~A  Depth       CCL         TT3         AMP3         GR     
# ...
  1233.0000      0.0000    763.5329      8.7161     91.4522
  1233.2500      0.0000    763.2955      8.6991     89.5798
  1233.5000      0.0000    760.8391      8.6899     89.3131
  1233.7500      0.0000    759.7067      8.6836     91.0343
  1234.0000      0.0000    761.6030      8.6871     94.8443
  1234.2500      0.0000    765.6913      8.7157     99.2369
  1234.5000      0.0000    768.4524      8.7761    101.4009
  1234.7500      0.0000    765.1990      8.8496     99.6197
  1235.0000      0.0000    754.2352      8.8943     95.1349
  1235.2500      0.0000    739.9188      8.8724     91.2908
  1235.5000      0.0000    729.6920      8.7772     90.7587
  1235.7500      0.0000    727.4700      8.6331     93.5456
  1236.0000      0.0000    731.1385      8.4740     97.4193
  1236.2500      0.0000    736.1626      8.3241     99.9899
  1236.5000      0.0000    739.3234      8.1961    100.3605
  1236.7500      0.0000    738.9457      8.0999     99.2712
  1237.0000      0.0000    734.5204      8.0481     98.2506
  1237.2500      0.0000    727.4938      8.0482     98.3372
  1237.5000      0.0000    721.1251      8.0904     99.0124
  1237.7500      0.0000    718.8978      8.1443     98.6819
  1238.0000      0.0000    723.4213      8.1746     96.6206
  1238.2500      0.0000    735.5652      8.1633     93.8594
  1238.5000      0.0000    753.0718      8.1179     91.7859
  1238.7500      0.0000    770.8988      8.0602     90.6328
  1239.0000      0.0000    784.4808      8.0077     89.7223
  1239.2500      0.0000    792.5833      7.9663     88.4138
  1239.5000      0.0000    796.8322      7.9349     86.5210
  1239.7500      0.0000    799.1486      7.9114     84.4546
  1240.0000      0.0000    799.7141      7.8916     82.9428
  1240.2500      0.0000    796.6592      7.8679     82.0398
  1240.5000      0.0000    787.2758      7.8333     80.6582
  1240.7500      0.0000    770.1151      7.7871     77.6869
  1241.0000      0.0000    747.0026      7.7383     73.3108
  1241.2500      0.0000    723.4266      7.7022     68.6460
  1241.5000      0.0000    705.9584      7.6928     64.3311
  1241.7500      0.0000    698.0826      7.7141     60.1380
  1242.0000      0.0000    698.2884      7.7607     55.9098
  1242.2500      0.0000    702.1566      7.8225     52.2933
  1242.5000      0.0000    705.9008      7.8830     50.3871
  1242.7500      0.0000    708.2101      7.9190     50.9413
  1243.0000      0.0000    709.8915      7.9154     53.9885
  1243.2500      0.0000    712.4344      7.8790     58.9121
  1243.5000      0.0000    716.6376      7.8302     64.5774
  1243.7500      0.0000    722.4628      7.7840     69.4546
  1244.0000      0.0000    730.0654      7.7423     71.9446
  1244.2500      0.0000    739.4650      7.7054     71.0207
  1244.5000      0.0000    747.7087      7.6936     66.9445
  1244.7500      0.0000    747.1387      7.7653     61.3804
  1245.0000      0.0000    728.5721      7.9973     56.4006
  1245.2500      0.0000    688.0703      8.4093     52.9598
  1245.5000      0.0000    632.9883      8.8847     50.3986
  1245.7500      0.0000    582.6299      9.1958     47.7098
  1246.0000      0.0000    559.7089      9.1552     45.1206
  1246.2500      0.0000    575.1492      8.7643     44.1305
  1246.5000      0.0000    618.6038      8.2169     46.2993
  1246.7500      0.0000    666.2398      7.7541     52.4769
  1247.0000      0.0000    699.9734      7.5086     62.9008
  1247.2500      0.0000    718.6565      7.4696     77.3474
  1247.5000      0.0000    731.3931      7.5587     94.9717
  1247.7500      0.0000    744.1422      7.7108    114.1361
  1248.0000      0.0000    755.5132      7.8974    132.4610
  1248.2500      0.0000    762.7552      8.1079    147.1850
  1248.5000      0.0000    766.9797      8.3248    155.9003
  1248.7500      0.0000    771.4010      8.5154    157.5547
  1249.0000      0.0000    777.0443      8.6470    153.2436
  1249.2500      0.0000    781.8971      8.7079    145.8618
  1249.5000      0.0000    783.4502      8.7047    138.4191
  1249.7500      0.0000    781.0846      8.6444    132.5341
  1250.0000      0.0000    776.4263      8.5328    128.4192
  1250.2500      0.0000    771.8638      8.3889    125.8003
  1250.5000      0.0000    768.6431      8.2494    124.5634
  1250.7500      0.0000    766.2904      8.1524    124.7875
  1251.0000      0.0000    763.5582      8.1175    126.4240
  1251.2500      0.0000    759.4849      8.1389    129.0853
  1251.5000      0.0000    754.0418      8.1911    132.1482
  1251.7500      0.0000    748.5997      8.2416    135.0144
  1252.0000      0.0000    745.6161      8.2692    137.2730
  1252.2500      0.0000    747.3179      8.2724    138.7271
  1252.5000      0.0000    754.1277      8.2637    139.3991
  1252.7500      0.0000    763.7021      8.2577    139.6856
  1253.0000      0.0000    771.8785      8.2660    140.4318
  1253.2500      0.0000    775.7114      8.2951    142.2062
  1253.5000      0.0000    775.9142      8.3400    144.1777
  1253.7500      0.0000    775.8060      8.3872    144.2466
  1254.0000      0.0000    777.7406      8.4306    140.7730
  1254.2500      0.0000    781.1082      8.4815    134.0274
  1254.5000      0.0000    783.9922      8.5608    125.8519
  1254.7500      0.0000    785.9611      8.6804    118.0559
  1255.0000      0.0000    788.3275      8.8319    110.9276
  1255.2500      0.0000    791.6049      8.9901    103.0892
  1255.5000      0.0000    793.6766      9.1259     93.2329
  1255.7500      0.0000    791.5938      9.2130     82.2992
  1256.0000      0.0000    785.0402      9.2260     73.4457
  1256.2500      0.0000    777.0066      9.1392     69.5860
  1256.5000      0.0000    770.9994      8.9394     71.2982
  1256.7500      0.0000    768.4288      8.6457     77.0111
  1257.0000      0.0000    768.6947      8.3148     84.4952
  1257.2500      0.0000    770.7990      8.0155     91.9949
  1257.5000      0.0000    774.2443      7.7935     98.6108
  1257.7500      0.0000    778.5822      7.6551    104.3177
  1258.0000      0.0000    782.6956      7.5779    109.7556
  1258.2500      0.0000    784.8246      7.5346    115.5977
  1258.5000      0.0000    783.0366      7.5065    121.7992
  1258.7500      0.0000    775.7843      7.4836    127.5222
  1259.0000      0.0000    763.2560      7.4591    131.7718
  1259.2500      0.0000    749.2020      7.4297    133.8688
  1259.5000      0.0000    740.3975      7.4003    133.5938
  1259.7500      0.0000    742.1218      7.3828    131.3898
  1260.0000      0.0000    753.5304      7.3838    128.3567
  1260.2500      0.0000    768.4059      7.3958    125.6755
  1260.5000      0.0000    780.4658      7.4073    123.9520
  1260.7500      0.0000    787.2045      7.4185    123.0895
  1261.0000      0.0000    789.4152      7.4409    122.6616
  1261.2500      0.0000    788.9869      7.4788    122.4191
  1261.5000      0.0000    787.7277      7.5185    122.4983
  1261.7500      0.0000    787.0619      7.5385    122.9638
  1262.0000      0.0000    787.6321      7.5284    122.8169
  1262.2500      0.0000    789.0848      7.4921    119.5343
  1262.5000      0.0000    790.5852      7.4372    110.3493
  1262.7500      0.0000    791.5801      7.3681     94.7959
  1263.0000      0.0000    792.0410      7.2891     75.9520
  1263.2500      0.0000    792.1898      7.2082     58.7985
  1263.5000      0.0000    792.2073      7.1343     47.3209
  1263.7500      0.0000    792.1481      7.0756     42.8467
  1264.0000      0.0000    791.9874      7.0422     44.3888
  1264.2500      0.0000    791.6146      7.0520     50.1642
  1264.5000      0.0000    790.7227      7.1276     58.9967
  1264.7500      0.0000    788.7252      7.2764     70.4380
  1265.0000      0.0000    785.1710      7.4648     83.5316
  1265.2500      0.0000    781.0474      7.6127     95.9762
  1265.5000      0.0000    779.8101      7.6245    105.3117
  1265.7500      0.0000    785.9616      7.4426    110.8820
  1266.0000      0.0000    801.6130      7.0932    114.0037
  1266.2500      0.0000    825.3418      6.6830    116.2798
