~Version Information
VERS.                      2.0: CWLS Log ASCII Standard - VERSION 2.0
WRAP.                       NO: One line per depth step
~Well Information Block
STRT.FT               595.7000: 
STOP.FT              1567.2000: 
STEP.FT                 0.1000: 
NULL.                -999.2500: 
COMP.          Pioneer Natural Resources: COMPANY
WELL.           Butch 33-10 Tr: WELL
FLD.           Purgatoire River: FIELD
LOC.           2309' FSL & 1337' FEL--: LOCATION
PROV.                 Colorado: PROVINCE
CNTY.               Las Animas: COUNTRY
SRVC.                Patterson: SERVICE COMPANY
DATE.          Mon Jan 16 07:34:05 2006: LOG DATE
UWI.           05 071 08649 00: UNIQUE WELL ID
~Curve Information Block
DEPT.FT            0 000 00 00: Depth
DCAL.in                       : CDL Caliper
RHOB.g/cc                     : CDL Bulk Density
RHOC.g/cc                     : CDL Density Correction
DPOR.pu                       : CDL Density Porosity
GR.GAPI                       : Gamma Ray
~Parameter Information Block
~A  Depth       DCAL        RHOB        RHOC        DPOR         GR     
# ...
   853.3000      7.9886      2.7330      0.0817     -5.0315     81.9214
   853.4000      7.9886      2.7152      0.0250     -3.9495     82.9968
   853.5000      7.9850      2.6882      0.0546     -2.3138     81.7973
   853.6000      7.9850      2.6674     -0.0076     -1.0527     76.3001
   853.7000      7.9850      2.6655     -0.0011     -0.9384     69.2751
   853.8000      7.9809      2.6778      0.0219     -1.6838     66.0348
   853.9000      7.9809      2.6877      0.1005     -2.2864     67.1238
   854.0000      7.9737      2.6906      0.0523     -2.4628     72.6222
   854.1000      7.9737      2.6949      0.0316     -2.7226     83.1405
   854.2000      7.9737      2.7065      0.0139     -3.4235     92.7297
   854.3000      7.9682      2.7260      0.0524     -4.6033     93.6984
   854.4000      7.9682      2.7453      0.0899     -5.7783     87.7124
   854.5000      7.9724      2.7538      0.0560     -6.2933     82.8355
   854.6000      7.9724      2.7554      0.0809     -6.3882     81.3820
   854.7000      7.9724      2.7599      0.0410     -6.6577     80.3530
   854.8000      7.9789      2.7670      0.0511     -7.0915     78.2942
   854.9000      7.9789      2.7717      0.0622     -7.3762     76.5708
   855.0000      7.9824      2.7702      0.0197     -7.2836     76.5509
   855.1000      7.9824      2.7614      0.0353     -6.7485     79.5914
   855.2000      7.9824      2.7455      0.0371     -5.7859     84.0093
   855.3000      7.9861      2.7296      0.0076     -4.8225     85.2041
   855.4000      7.9861      2.7239      0.0262     -4.4795     84.4245
   855.5000      7.9909      2.7230      0.0048     -4.4229     86.6772
   855.6000      7.9909      2.7132      0.0269     -3.8286     90.3853
   855.7000      7.9909      2.6924      0.0077     -2.5682     91.1481
   855.8000      7.9956      2.6722     -0.0091     -1.3450     89.3664
   855.9000      7.9956      2.6677     -0.0466     -1.0703     87.5657
   856.0000      7.9992      2.6755      0.0249     -1.5469     88.5193
   856.1000      7.9992      2.6754      0.0118     -1.5387     92.6102
   856.2000      7.9992      2.6619      0.0290     -0.7234     93.1756
   856.3000      7.9996      2.6539     -0.0500     -0.2393     86.2769
   856.4000      7.9996      2.6628      0.0423     -0.7785     78.9682
   856.5000      7.9900      2.6700      0.0193     -1.2113     78.4910
   856.6000      7.9900      2.6663      0.0550     -0.9903     86.1769
   856.7000      7.9900      2.6649      0.0292     -0.9013     97.6860
   856.8000      7.9695      2.6712      0.0534     -1.2843    102.9608
   856.9000      7.9695      2.6753      0.0775     -1.5331     98.2661
   857.0000      7.9491      2.6680      0.0920     -1.0931     90.2944
   857.1000      7.9491      2.6578      0.0397     -0.4702     83.0292
   857.2000      7.9491      2.6560      0.0725     -0.3666     76.4932
   857.3000      7.9426      2.6526      0.0862     -0.1594     71.3538
   857.4000      7.9426      2.6364      0.0879      0.8248     68.8703
   857.5000      7.9553      2.6221      0.0231      1.6912     69.9088
   857.6000      7.9553      2.6267      0.0317      1.4111     73.5143
   857.7000      7.9553      2.6396      0.0834      0.6283     76.2299
   857.8000      7.9825      2.6493      0.0587      0.0449     75.1167
   857.9000      7.9825      2.6625      0.0361     -0.7554     71.7344
   858.0000      8.0084      2.6730      0.0866     -1.3946     69.1805
   858.1000      8.0084      2.6680      0.0578     -1.0897     66.8226
   858.2000      8.0084      2.6574      0.0355     -0.4481     66.0126
   858.3000      8.0242      2.6529      0.0380     -0.1745     69.8469
   858.4000      8.0242      2.6431      0.0744      0.4172     74.3851
   858.5000      8.0295      2.6142      0.0607      2.1707     75.1696
   858.6000      8.0295      2.5848     -0.0094      3.9529     75.5811
   858.7000      8.0295      2.5884      0.0371      3.7343     78.2913
   858.8000      8.0278      2.6248      0.0543      1.5290     80.4358
   858.9000      8.0278      2.6622      0.1013     -0.7365     78.8887
   859.0000      8.0261      2.6778      0.0249     -1.6836     74.8212
   859.1000      8.0261      2.6730      0.0630     -1.3929     70.4173
   859.2000      8.0261      2.6550      0.0531     -0.3054     66.0344
   859.3000      8.0222      2.6390      0.0184      0.6690     63.1295
   859.4000      8.0222      2.6382      0.0668      0.7154     64.6264
   859.5000      8.0183      2.6518      0.0004     -0.1079     68.5416
   859.6000      8.0183      2.6684      0.0598     -1.1141     68.8012
   859.7000      8.0183      2.6674      0.0627     -1.0565     66.6087
   859.8000      8.0218      2.6449      0.0486      0.3065     67.0382
   859.9000      8.0218      2.6196      0.0391      1.8410     67.4408
   860.0000      8.0235      2.5997      0.0589      3.0478     63.6394
   860.1000      8.0235      2.5784      0.0139      4.3398     57.4332
   860.2000      8.0235      2.5539      0.0272      5.8249     52.9716
   860.3000      8.0180      2.5261      0.0136      7.5089     51.1124
   860.4000      8.0180      2.4876      0.0075      9.8423     50.3738
   860.5000      8.0070      2.4276      0.0102     13.4813     50.3183
   860.6000      8.0070      2.3397      0.0057     18.8038     51.6935
   860.7000      8.0070      2.2364     -0.0099     25.0664     54.3449
   860.8000      8.0002      2.1437     -0.0450     30.6855     57.7396
   860.9000      8.0002      2.0690     -0.0674     35.2093     60.5945
   861.0000      8.0084      1.9914     -0.0314     39.9146     61.1147
   861.1000      8.0084      1.9014     -0.0983     45.3667     60.5629
   861.2000      8.0084      1.8212     -0.1127     50.2322     61.2158
   861.3000      8.0231      1.7703     -0.0580     53.3145     63.5832
   861.4000      8.0231      1.7559     -0.0508     54.1863     66.0404
   861.5000      8.0282      1.7863     -0.0053     52.3429     66.5867
   861.6000      8.0282      1.8626      0.0775     47.7223     66.9165
   861.7000      8.0282      1.9690      0.1624     41.2719     68.8782
   861.8000      8.0248      2.0847      0.1900     34.2630     70.0669
   861.9000      8.0248      2.1960      0.2435     27.5178     71.2837
   862.0000      8.0237      2.2986      0.2673     21.2972     77.0981
   862.1000      8.0237      2.3946      0.2555     15.4802     87.0786
   862.2000      8.0237      2.4811      0.2349     10.2377     96.0690
   862.3000      8.0258      2.5451      0.2322      6.3590     98.3711
   862.4000      8.0258      2.5748      0.2086      4.5567     97.6809
   862.5000      8.0276      2.5732      0.1234      4.6565    108.4045
   862.6000      8.0276      2.5548      0.1186      5.7680    133.3437
   862.7000      8.0276      2.5376      0.0791      6.8119    155.2708
   862.8000      8.0318      2.5366      0.1129      6.8707    161.2369
   862.9000      8.0318      2.5507      0.1116      6.0179    155.2068
   863.0000      8.0399      2.5672      0.0849      5.0172    145.5136
   863.1000      8.0399      2.5749      0.1007      4.5506    137.4721
   863.2000      8.0399      2.5691      0.1032      4.9055    134.3814
   863.3000      8.0470      2.5648      0.0637      5.1624    132.6733
   863.4000      8.0470      2.5786      0.0886      4.3248    130.7031
   863.5000      8.0562      2.5959      0.1135      3.2778    132.5058
   863.6000      8.0562      2.5926      0.1017      3.4812    137.9265
   863.7000      8.0562      2.5713      0.0537      4.7692    143.3167
   863.8000      8.0674      2.5565      0.0406      5.6681    146.7767
   863.9000      8.0674      2.5679      0.0088      4.9773    149.5395
   864.0000      8.0787      2.5985      0.0906      3.1227    152.2670
   864.1000      8.0787      2.6167      0.0796      2.0166    152.1529
   864.2000      8.0787      2.6118      0.0341      2.3165    149.1035
   864.3000      8.0823      2.6081      0.0342      2.5413    149.9386
   864.4000      8.0823      2.6235      0.0552      1.6080    155.5728
