~Version Information
VERS.                      2.0: CWLS Log ASCII Standard - VERSION 2.0
WRAP.                       NO: One line per depth step
~Well Information Block
STRT.FT               197.7500: 
STOP.FT              1631.0000: 
STEP.FT                 0.2500: 
NULL.                -999.2500: 
COMP.          Petrogulf Corporation: COMPANY
WELL.             State 16-44R: WELL
FLD.           Purgatoire River: FIELD
LOC.           632' FSL & 223' FEL--: LOCATION
PROV.                 Colorado: PROVINCE
CNTY.               Las Animas: COUNTRY
SRVC.                Patterson: SERVICE COMPANY
DATE.          Fri Oct 21 11:31:17 2005: LOG DATE
UWI.           05 071 08457 00: UNIQUE WELL ID
~Curve Information Block
DEPT.FT            0 000 00 00: Depth
SP.mV                         : DIL Spontaneous Potential
RILD.Ohm-m                    : DIL Deep Resistivity
RILM.Ohm-m                    : DIL Medium Resistivity
RLL3.Ohm-m                    : DIL Shallow Resistivity
GR.GAPI                       : Gamma Ray
~Parameter Information Block
~A  Depth        SP         RILD        RILM        RLL3         GR     
# ...
  1317.7500    119.5950     11.7956     13.7010     12.2463    116.2703
  1318.0000    119.5149     11.8142     13.7916     12.0439    118.1283
  1318.2500    119.4557     11.7427     13.8518     12.2717    118.3979
  1318.5000    119.3971     11.6017     13.8680     12.8480    117.8945
  1318.7500    119.3230     11.4181     13.8151     13.4939    117.5673
  1319.0000    119.2465     11.2190     13.6691     13.8626    118.0500
  1319.2500    119.2119     11.0255     13.4239     13.7322    119.1836
  1319.5000    119.2620     10.8488     13.1002     13.1163    121.6437
  1319.7500    119.3896     10.6882     12.7381     12.2268    123.3512
  1320.0000    119.5211     10.5343     12.3800     11.3520    125.2663
  1320.2500    119.5625     10.3735     12.0514     10.7445    125.6639
  1320.5000    119.4743     10.1940     11.7527     10.5452    124.4138
  1320.7500    119.3006      9.9897     11.4624     10.7184    122.5684
  1321.0000    119.1307      9.7614     11.1517     11.0239    119.8718
  1321.2500    119.0361      9.5154     10.8020     11.1203    119.2595
  1321.5000    119.0280      9.2621     10.4159     10.7932    120.8791
  1321.7500    119.0590      9.0139     10.0145     10.1105    123.1494
  1322.0000    119.0591      8.7813      9.6253      9.3360    127.0994
  1322.2500    118.9809      8.5699      9.2711      8.7006    129.8420
  1322.5000    118.8202      8.3790      8.9648      8.2741    134.2479
  1322.7500    118.6034      8.2038      8.7095      8.0129    137.1768
  1323.0000    118.3611      8.0389      8.5020      7.8621    140.3912
  1323.2500    118.1129      7.8818      8.3353      7.7947    141.1310
  1323.5000    117.8709      7.7332      8.2015      7.7917    140.4496
  1323.7500    117.6503      7.5962      8.0933      7.8241    139.7487
  1324.0000    117.4665      7.4740      8.0053      7.8638    139.6866
  1324.2500    117.3237      7.3692      7.9332      7.8995    140.2575
  1324.5000    117.2099      7.2833      7.8738      7.9362    140.9944
  1324.7500    117.1046      7.2171      7.8240      7.9802    140.9622
  1325.0000    116.9869      7.1721      7.7814      8.0278    140.2908
  1325.2500    116.8400      7.1509      7.7461      8.0617    139.8630
  1325.5000    116.6579      7.1551      7.7214      8.0566    139.6751
  1325.7500    116.4523      7.1842      7.7138      7.9965    139.5778
  1326.0000    116.2469      7.2335      7.7310      7.8959    138.5314
  1326.2500    116.0614      7.2953      7.7791      7.8036    136.9594
  1326.5000    115.9010      7.3613      7.8606      7.7834    133.5904
  1326.7500    115.7537      7.4252      7.9733      7.8860    130.9687
  1327.0000    115.5947      7.4836      8.1104      8.1323    126.8505
  1327.2500    115.3948      7.5363      8.2597      8.5134    124.2274
  1327.5000    115.1391      7.5859      8.4053      8.9943    120.8889
  1327.7500    114.8404      7.6386      8.5290      9.5122    119.1310
  1328.0000    114.5346      7.7044      8.6157      9.9704    117.2924
  1328.2500    114.2584      7.7961      8.6591     10.2460    116.9795
  1328.5000    114.0299      7.9266      8.6668     10.2251    118.9171
  1328.7500    113.8402      8.1060      8.6618      9.8660    122.0327
  1329.0000    113.6610      8.3391      8.6798      9.2560    128.3085
  1329.2500    113.4599      8.6243      8.7620      8.6189    132.1086
  1329.5000    113.2134      8.9535      8.9480      8.2677    134.2584
  1329.7500    112.9100      9.3133      9.2718      8.5683    131.8812
  1330.0000    112.5541      9.6870      9.7588      9.9686    121.7589
  1330.2500    112.1720     10.0566     10.4246     13.0108    111.5323
  1330.5000    111.8101     10.4066     11.2722     18.1452     94.4994
  1330.7500    111.5193     10.7275     12.2871     25.3050     84.3587
  1331.0000    111.3395     11.0162     13.4324     33.5248     73.6067
  1331.2500    111.2949     11.2739     14.6459     41.0657     69.6723
  1331.5000    111.3937     11.5000     15.8425     46.1903     67.3833
  1331.7500    111.6270     11.6876     16.9177     48.0859     67.2377
  1332.0000    111.9725     11.8225     17.7514     47.1772     67.9216
  1332.2500    112.4080     11.8861     18.2157     44.5896     68.9945
  1332.5000    112.9246     11.8617     18.2034     41.2735     72.9092
  1332.7500    113.5257     11.7388     17.6775     37.4948     78.2061
  1333.0000    114.2160     11.5153     16.7104     33.0005     90.9405
  1333.2500    114.9875     11.1979     15.4666     27.6307    101.7068
  1333.5000    115.8070     10.8014     14.1359     21.8112    118.1888
  1333.7500    116.6103     10.3466     12.8664     16.4605    127.7723
  1334.0000    117.3171      9.8569     11.7379     12.4097    138.7539
  1334.2500    117.8674      9.3557     10.7715      9.9172    143.8436
  1334.5000    118.2536      8.8637      9.9540      8.6780    148.6818
  1334.7500    118.5195      8.3984      9.2597      8.1717    150.3009
  1335.0000    118.7231      7.9746      8.6642      7.9663    150.8432
  1335.2500    118.8976      7.6036      8.1510      7.8135    150.6342
  1335.5000    119.0435      7.2927      7.7117      7.6132    151.0788
  1335.7500    119.1556      7.0442      7.3442      7.3533    152.4113
  1336.0000    119.2514      6.8548      7.0498      7.0657    155.5203
  1336.2500    119.3710      6.7168      6.8300      6.8005    157.6787
  1336.5000    119.5536      6.6198      6.6844      6.6096    159.9326
  1336.7500    119.8166      6.5537      6.6087      6.5382    160.1415
  1337.0000    120.1512      6.5104      6.5945      6.6183    157.9402
  1337.2500    120.5253      6.4849      6.6296      6.8524    155.3467
  1337.5000    120.8914      6.4744      6.6991      7.1874    152.0476
  1337.7500    121.2062      6.4769      6.7886      7.5099    151.3153
  1338.0000    121.4504      6.4899      6.8863      7.6986    152.1731
  1338.2500    121.6302      6.5102      6.9861      7.7168    152.8234
  1338.5000    121.7585      6.5337      7.0861      7.6785    151.5323
  1338.7500    121.8359      6.5572      7.1860      7.8281    148.3577
  1339.0000    121.8475      6.5787      7.2821      8.4176    140.2476
  1339.2500    121.7785      6.5978      7.3641      9.5009    133.5831
  1339.5000    121.6352      6.6156      7.4174     10.7675    124.7437
  1339.7500    121.4516      6.6339      7.4295     11.6272    121.6456
  1340.0000    121.2734      6.6552      7.3982     11.5970    123.0756
  1340.2500    121.1300      6.6815      7.3354     10.6762    127.5058
  1340.5000    121.0180      6.7135      7.2641      9.3269    136.1463
  1340.7500    120.9101      6.7503      7.2096      8.1063    141.0907
  1341.0000    120.7743      6.7893      7.1916      7.3383    144.7417
  1341.2500    120.5877      6.8271      7.2194      7.0608    144.2005
  1341.5000    120.3395      6.8610      7.2911      7.1509    139.8872
  1341.7500    120.0321      6.8903      7.3962      7.4524    135.9448
  1342.0000    119.6794      6.9161      7.5190      7.8361    130.6460
  1342.2500    119.3004      6.9420      7.6432      8.2098    128.2018
  1342.5000    118.9043      6.9725      7.7562      8.5133    125.9299
  1342.7500    118.4824      7.0115      7.8513      8.7168    124.7407
  1343.0000    118.0191      7.0622      7.9279      8.8215    122.5651
  1343.2500    117.5110      7.1265      7.9891      8.8538    120.7118
  1343.5000    116.9707      7.2066      8.0396      8.8491    117.6508
  1343.7500    116.4110      7.3054      8.0840      8.8312    115.7449
  1344.0000    115.8344      7.4266      8.1279      8.7990    113.6191
  1344.2500    115.2423      7.5740      8.1792      8.7328    112.9426
  1344.5000    114.6483      7.7500      8.2491      8.6197    113.3075
  1344.7500    114.0772      7.9554      8.3518      8.4802    114.4325
  1345.0000    113.5485      8.1892      8.5034      8.3764    116.8695
  1345.2500    113.0618      8.4494      8.7197      8.3958    118.3825
  1345.5000    112.5968      8.7348      9.0157      8.6267    119.3723
