~Version Information
VERS.                      2.0: CWLS Log ASCII Standard - VERSION 2.0
WRAP.                       NO: One line per depth step
~Well Information Block
STRT.FT               400.0000: 
STOP.FT              1577.5000: 
STEP.FT                 0.1000: 
NULL.                -999.2500: 
COMP.          Pioneer Natural Resources: COMPANY
WELL.          Lorencito 10-36-33-67: WELL
FLD.           Purgatoire River: FIELD
LOC.           2130' FSL & 2362' FEL: LOCATION
STAT.                 Colorado: State
CNTY.               Las Animas: COUNTY
CTRY. USA : Country
SECT. 36 : Section
TOWN. 33S : Township
RANG. 67W : Range
SRVC.                Patterson: SERVICE COMPANY
DATE.          Mon Aug 29 07:03:31 2005: LOG DATE
API.           05 071 08501 00: UNIQUE WELL ID
~Curve Information Block
DEPT.FT            0 000 00 00: Depth
DCAL.in                       : CDL Caliper
RHOB.g/cc                     : CDL Bulk Density
RHOC.g/cc                     : CDL Density Correction
DPOR.pu                       : CDL Density Porosity
GR.GAPI                       : Gamma Ray
NPOR.pu                       : Neutron Porosity
~Parameter Information Block
~A  Depth       DCAL        RHOB        RHOC        DPOR         GR         NPOR    
# ...
   707.2000      8.2205      2.5425     -0.0327      6.5148    134.6273     26.3433
   707.3000      8.2230      2.5526      0.0005      5.9053    132.9807     26.0272
   707.4000      8.2230      2.5621      0.0132      5.3256    128.2150     25.8488
   707.5000      8.2356      2.5656      0.0133      5.1173    125.5983     25.9877
   707.6000      8.2356      2.5667      0.0149      5.0486    128.8571     25.9719
   707.7000      8.2356      2.5687      0.0267      4.9287    136.3219     25.5036
   707.8000      8.2504      2.5718      0.0235      4.7384    142.8909     25.2125
   707.9000      8.2504      2.5767      0.0274      4.4435    144.7502     25.4301
   708.0000      8.2535      2.5822     -0.0032      4.1061    143.4993     25.8087
   708.1000      8.2535      2.5835      0.0064      4.0328    145.1834     26.0476
   708.2000      8.2535      2.5744      0.0027      4.5804    151.0157     25.9829
   708.3000      8.2558      2.5620     -0.0139      5.3304    155.7331     25.7385
   708.4000      8.2558      2.5688      0.0022      4.9223    155.6845     25.5605
   708.5000      8.2502      2.6092      0.0330      2.4732    151.6357     25.4285
   708.6000      8.2502      2.6547      0.1115     -0.2877    145.1378     25.2616
   708.7000      8.2502      2.6611      0.0448     -0.6758    138.7395     25.2369
   708.8000      8.2388      2.6285      0.0694      1.3013    136.3856     25.4381
   708.9000      8.2388      2.5933     -0.0738      3.4393    138.8753     25.7130
   709.0000      8.2284      2.5804      0.0632      4.2188    143.2786     25.9346
   709.1000      8.2284      2.5777      0.0033      4.3848    146.2802     26.1491
   709.2000      8.2284      2.5796     -0.0165      4.2638    146.5802     26.3858
   709.3000      8.2353      2.5955      0.0268      3.3015    147.1785     26.5374
   709.4000      8.2353      2.6089      0.0466      2.4889    147.8097     26.5910
   709.5000      8.2315      2.5999      0.0593      3.0351    142.9906     26.5535
   709.6000      8.2315      2.5750     -0.0009      4.5479    132.6805     26.3960
   709.7000      8.2315      2.5540     -0.0161      5.8184    125.8124     26.2585
   709.8000      8.2276      2.5483     -0.0501      6.1657    130.9108     26.1781
   709.9000      8.2276      2.5460      0.0391      6.3020    143.2161     25.8038
   710.0000      8.2179      2.5310      0.0074      7.2145    151.8290     25.1048
   710.1000      8.2179      2.5124      0.0254      8.3376    156.5143     24.7513
   710.2000      8.2179      2.5009     -0.0042      9.0343    160.6734     24.9299
   710.3000      8.2001      2.4901     -0.0278      9.6907    164.4812     25.1716
   710.4000      8.2001      2.4734     -0.0242     10.7022    166.3533     25.4497
   710.5000      8.2009      2.4558     -0.0658     11.7694    164.8799     25.7503
   710.6000      8.2009      2.4491     -0.0338     12.1741    162.0446     25.6563
   710.7000      8.2009      2.4544     -0.0346     11.8534    159.3434     25.0434
   710.8000      8.1958      2.4651     -0.0043     11.2040    154.6256     24.3605
   710.9000      8.1958      2.4739      0.0369     10.6757    147.6960     23.9529
   711.0000      8.1850      2.4771      0.0179     10.4808    142.6581     23.9455
   711.1000      8.1850      2.4805      0.0319     10.2717    141.5116     24.3576
   711.2000      8.1850      2.4867      0.0732      9.8998    143.9727     24.9960
   711.3000      8.1815      2.4945      0.0610      9.4266    149.6678     25.5227
   711.4000      8.1815      2.5105      0.0575      8.4535    154.0043     25.7297
   711.5000      8.1600      2.5408      0.0939      6.6192    152.8511     25.7824
   711.6000      8.1600      2.5737      0.1244      4.6240    148.7171     25.9314
   711.7000      8.1600      2.5918      0.1295      3.5246    148.6612     26.0069
   711.8000      8.1610      2.5890      0.1146      3.6973    153.7992     25.8631
   711.9000      8.1610      2.5731      0.0628      4.6612    157.4141     25.6234
   712.0000      8.1725      2.5576      0.0998      5.5983    158.8698     25.3543
   712.1000      8.1725      2.5428      0.0936      6.4990    162.3517     25.4533
   712.2000      8.1725      2.5341     -0.0374      7.0219    165.1065     26.3472
   712.3000      8.1894      2.5408      0.0134      6.6186    160.9723     27.5309
   712.4000      8.1894      2.5456      0.0346      6.3289    152.5802     28.0649
   712.5000      8.1934      2.5407     -0.0558      6.6238    146.4827     27.8555
   712.6000      8.1934      2.5422      0.0072      6.5332    146.6981     27.4439
   712.7000      8.1934      2.5529     -0.0080      5.8867    150.5082     27.1436
   712.8000      8.2235      2.5611      0.0218      5.3871    153.1660     26.9585
   712.9000      8.2235      2.5539      0.0304      5.8246    157.9666     26.7687
   713.0000      8.2537      2.5263     -0.0042      7.4944    167.1461     26.4417
   713.1000      8.2537      2.4874     -0.0607      9.8541    175.1777     26.0186
   713.2000      8.2537      2.4601     -0.0500     11.5078    176.5482     25.8672
   713.3000      8.2812      2.4651     -0.0365     11.2031    172.4452     26.2602
   713.4000      8.2812      2.4911      0.0241      9.6273    166.1009     26.9180
   713.5000      8.2689      2.5103      0.0108      8.4695    162.7653     27.1359
   713.6000      8.2689      2.5191     -0.0078      7.9344    165.0248     26.7557
   713.7000      8.2689      2.5301      0.0029      7.2675    160.5161     26.2305
   713.8000      8.2589      2.5519     -0.0062      5.9484    144.6221     25.8494
   713.9000      8.2589      2.5892      0.0502      3.6854    136.1942     25.7439
   714.0000      8.2874      2.6285      0.1285      1.3013    141.9097     25.8215
   714.1000      8.2874      2.6389      0.1529      0.6732    147.8115     25.8379
   714.2000      8.2874      2.6099      0.0695      2.4326    147.7722     25.9227
   714.3000      8.2380      2.5570      0.0214      5.6357    148.1086     26.2766
   714.4000      8.2380      2.4966     -0.0001      9.2966    153.9312     26.6713
   714.5000      8.2235      2.4519     -0.1132     12.0070    163.2135     26.7970
   714.6000      8.2235      2.4453     -0.1091     12.4081    170.1843     26.8216
   714.7000      8.2235      2.4628     -0.0200     11.3465    171.1019     27.0030
   714.8000      8.2252      2.4751      0.0097     10.6014    170.1691     27.2156
   714.9000      8.2252      2.4789     -0.0211     10.3711    173.9458     27.2449
   715.0000      8.2361      2.4804      0.0215     10.2792    178.7423     26.9773
   715.1000      8.2361      2.4803     -0.0053     10.2842    177.1398     26.5275
   715.2000      8.2361      2.4857     -0.0351      9.9594    169.5841     26.1977
   715.3000      8.2758      2.4927      0.0122      9.5315    162.2469     25.9739
   715.4000      8.2758      2.4910     -0.0084      9.6383    163.3462     25.8065
   715.5000      8.2963      2.4941     -0.0773      9.4462    171.3359     25.8982
   715.6000      8.2963      2.5084      0.0860      8.5828    175.4243     26.2172
   715.7000      8.2963      2.5119     -0.0059      8.3714    177.2368     26.4931
   715.8000      8.3373      2.4953      0.0605      9.3755    184.5755     26.3072
   715.9000      8.3373      2.4624      0.0097     11.3703    193.2025     25.6662
   716.0000      8.3632      2.4248     -0.0256     13.6465    193.0489     25.2897
   716.1000      8.3632      2.3953     -0.0353     15.4391    183.1272     25.6032
   716.2000      8.3632      2.3738     -0.0566     16.7389    172.2895     26.1162
   716.3000      8.3743      2.3610     -0.0717     17.5138    166.4293     26.3035
   716.4000      8.3743      2.3605     -0.0407     17.5458    166.7524     26.2612
   716.5000      8.3592      2.3742      0.0214     16.7166    172.8947     26.0754
   716.6000      8.3592      2.3951      0.1485     15.4502    182.1342     25.7185
   716.7000      8.3592      2.4163      0.0884     14.1636    190.0355     25.3168
