~Version Information
VERS.                      2.0: CWLS Log ASCII Standard - VERSION 2.0
WRAP.                       NO: One line per depth step
~Well Information Block
STRT.FT                 8.2500: 
STOP.FT              1156.2500: 
STEP.FT                 0.2500: 
NULL.                -999.2500: 
COMP.          Pioneer Natural Resources: COMPANY
WELL.              Davida 34-8: WELL
FLD.           Purgatoire River: FIELD
LOC.           418' FSL & 1923' FEL: LOCATION
CNTY.               Las Animas: COUNTY
SRVC.                Patterson: SERVICE COMPANY
DATE.          Thu Mar 30 09:09:42 2006: LOG DATE
UWI.           05 071 08722 00: UNIQUE WELL ID
STAT.                 Colorado: STATE
~Curve Information Block
DEPT.FT            0 000 00 00: Depth
GR.GAPI                       : Gamma Ray
CCL.                          : Casing Collar Locator
TT3.usec                      : CBL 3' Travel Time
AMP3.mV                       : CBL 3' Amplitude
~Parameter Information Block
~A  Depth        GR         CCL         TT3         AMP3    
# ...
    75.2500     94.0481      0.0000    764.3665     10.7331
    75.5000     95.5564      0.0000    776.2765     10.6150
    75.7500     93.7758      0.0000    785.8574     10.5288
    76.0000     89.1209      0.0000    791.0854     10.4867
    76.2500     82.8698      0.0000    791.3505     10.4750
    76.5000     76.2480      0.0000    787.8115     10.4705
    76.7500     69.8883      0.0000    782.9908     10.4612
    77.0000     64.0513      0.0000    779.7227     10.4512
    77.2500     59.1092      0.0000    779.8104     10.4483
    77.5000     55.7802      0.0000    783.0693     10.4516
    77.7500     54.8988      0.0000    787.3755     10.4552
    78.0000     56.7750      0.0000    789.8006     10.4613
    78.2500     60.7138      0.0000    788.3489     10.4837
    78.5000     65.3417      0.0000    783.4189     10.5344
    78.7500     69.5242      0.0000    777.6749     10.6117
    79.0000     72.9712      0.0000    773.5014     10.7013
    79.2500     76.0934      0.0000    769.8413     10.7866
    79.5000     79.4845      0.0000    762.3862     10.8550
    79.7500     83.4841      0.0000    748.0101     10.8971
    80.0000     87.9386      0.0000    728.7352     10.9072
    80.2500     92.1550      0.0000    710.6041     10.8907
    80.5000     95.1935      0.0000    699.2278     10.8721
    80.7500     96.3948      0.0000    696.9141     10.8870
    81.0000     95.5831      0.0000    702.8214     10.9565
    81.2500     92.7647      0.0000    714.1423     11.0689
    81.5000     88.0219      0.0000    727.4131     11.1893
    81.7500     81.9012      0.0000    740.2317     11.2867
    82.0000     75.6560      0.0000    752.2599     11.3496
    82.2500     70.8944      0.0000    764.2368     11.3760
    82.5000     68.9659      0.0000    776.0491     11.3630
    82.7500     70.3922      0.0000    786.0979     11.3112
    83.0000     74.4789      0.0000    792.4096     11.2345
    83.2500     79.5439      0.0000    793.9833     11.1567
    83.5000     83.9234      0.0000    791.2903     11.0974
    83.7500     86.9010      0.0000    786.2145     11.0632
    84.0000     88.7290      0.0000    781.5092     11.0478
    84.2500     90.0541      0.0000    779.2793     11.0409
    84.5000     91.3441      0.0000    779.5014     11.0338
    84.7500     92.4285      0.0000    780.3729     11.0158
    85.0000     92.4459      0.0000    780.0844     10.9604
    85.2500     90.5430      0.0000    777.2911     10.8247
    85.5000     86.7463      0.0000    769.8074     10.5700
    85.7500     81.9866      0.0000    754.7416     10.1928
    86.0000     77.3887      0.0000    732.0140      9.7378
    86.2500     73.7987      0.0000    707.5187      9.2613
    86.5000     71.8012      0.0000    690.9129      8.7695
    86.7500     71.5893      0.0000    689.3530      8.2243
    87.0000     72.5886      0.0000    703.3362      7.6366
    87.2500     73.6130      0.0000    727.4277      7.1113
    87.5000     73.8973      0.0000    753.6812      6.7553
    87.7500     74.0497     -3.0000    775.2150      6.5707
    88.0000     75.6150     -3.0000    788.5504      6.4754
    88.2500     79.4053      0.0000    793.5729      6.4114
    88.5000     84.4598      0.0000    791.8448      6.4212
    88.7500     88.9146      0.0000    785.6549      6.6246
    89.0000     91.7126      0.0000    778.3499      7.1012
    89.2500     93.2166      0.0000    773.7352      7.7639
    89.5000     94.3371      0.0000    773.8141      8.3790
    89.7500     95.4025      0.0000    777.6204      8.7556
    90.0000     95.9734      0.0000    782.7400      8.8896
    90.2500     95.6426      0.0000    787.0736      8.8990
    90.5000     94.7992      0.0000    788.9379      8.8761
    90.7500     94.3100      0.0000    786.9655      8.8340
    91.0000     94.3862      0.0000    781.0615      8.7496
    91.2500     94.0954      0.0000    773.1203      8.6133
    91.5000     92.3366      0.0000    766.1889      8.4437
    91.7500     89.1850      0.0000    762.6871      8.2726
    92.0000     85.9502      0.0000    763.2366      8.1194
    92.2500     83.9305      0.0000    766.7136      7.9787
    92.5000     83.4415      0.0000    771.2699      7.8315
    92.7500     83.9945      0.0000    775.6339      7.6667
    93.0000     84.7970      0.0000    779.7513      7.4906
    93.2500     84.9651      0.0000    784.2231      7.3172
    93.5000     83.8758      0.0000    789.1817      7.1518
    93.7500     81.6458      0.0000    793.8479      6.9916
    94.0000     78.9837      0.0000    797.1347      6.8450
    94.2500     76.4884      0.0000    798.3937      6.7417
    94.5000     74.3049      0.0000    797.6041      6.7133
    94.7500     72.4327      0.0000    795.3532      6.7620
    95.0000     71.0585      0.0000    792.9190      6.8530
    95.2500     70.4850      0.0000    791.8630      6.9349
    95.5000     70.9966      0.0000    792.9394      6.9686
    95.7500     72.8889      0.0000    795.4600      6.9481
    96.0000     76.3091      0.0000    798.0347      6.9072
    96.2500     80.7593      0.0000    799.7639      6.8987
    96.5000     84.9293      0.0000    800.5987      6.9556
    96.7500     87.4587      0.0000    800.8986      7.0655
    97.0000     88.0672      0.0000    800.9800      7.1803
    97.2500     87.7717      0.0000    800.9969      7.2513
    97.5000     87.8078      0.0000    801.0000      7.2606
    97.7500     88.4414      0.0000    801.0000      7.2285
    98.0000     88.9586      0.0000    801.0000      7.1951
    98.2500     88.7492      0.0000    801.0000      7.1948
    98.5000     88.1104      0.0000    801.0000      7.2410
    98.7500     87.9299      0.0000    801.0000      7.3251
    99.0000     88.7873      0.0000    801.0000      7.4233
    99.2500     90.4294      0.0000    801.0000      7.5038
    99.5000     91.9597      0.0000    801.0000      7.5377
    99.7500     92.4834      0.0000    801.0000      7.5097
   100.0000     91.7511      0.0000    801.0000      7.4262
   100.2500     90.3995      0.0000    801.0000      7.3126
   100.5000     89.5589      0.0000    801.0000      7.2007
   100.7500     89.9938      0.0000    801.0000      7.1142
   101.0000     91.5161      0.0000    801.0000      7.0651
   101.2500     93.3729      0.0000    801.0000      7.0612
   101.5000     95.1755      0.0000    801.0000      7.1066
   101.7500     97.2320      0.0000    801.0000      7.1920
   102.0000     99.9978      0.0000    801.0000      7.2898
   102.2500    103.2825      0.0000    801.0000      7.3676
   102.5000    105.8437      0.0000    801.0000      7.4100
   102.7500    105.9266      0.0000    801.0000      7.4251
   103.0000    102.7675      0.0000    801.0000      7.4288
   103.2500     97.6795      0.0000    801.0000      7.4245
   103.5000     93.1782      0.0000    801.0000      7.3993
   103.7500     90.9245      0.0000    801.0000      7.3395
   104.0000     90.8290      0.0000    801.0000      7.2481
   104.2500     91.9091      0.0000    801.0000      7.1488
   104.5000     93.3555      0.0000    801.0000      7.0755
   104.7500     94.7429      0.0000    801.0000      7.0557
   105.0000     95.8481      0.0000    801.0000      7.0984
   105.2500     96.5836      0.0000    800.9981      7.1925
   105.5000     96.8117      0.0000    800.9857      7.3168
   105.7500     95.9842      0.0000    800.9242      7.4507
   106.0000     93.1296      0.0000    800.6853      7.5771
   106.2500     87.5007      0.0000    799.9714      7.6764
   106.5000     79.3869      0.0000    798.3503      7.7296
   106.7500     70.1931      0.0000    795.6124      7.7300
   107.0000     61.5796      0.0000    792.3419      7.6889
   107.2500     54.5093      0.0000    789.9875      7.6300
   107.5000     49.1416      0.0000    789.8663      7.5836
   107.7500     45.3962      0.0000    791.8682      7.5798
   108.0000     43.2840      0.0000    794.3075      7.6347
   108.2500     42.7446      0.0000    795.0590      7.7359
   108.5000     43.5053      0.0000    792.7698      7.8458
