~Version Information
VERS.                      2.0: CWLS Log ASCII Standard - VERSION 2.0
WRAP.                       NO: One line per depth step
~Well Information Block
STRT.FT                 0.0000: 
STOP.FT              3428.7500: 
STEP.FT                 0.2500: 
NULL.                -999.2500: 
COMP.          Pioneer Natural Resources: COMPANY
WELL.          Cordillera 34-7: WELL
FLD.           Purgatorie River: FIELD
LOC.           598' FSL & 1770' FEL: LOCATION
PROV.                 Colorado: PROVINCE
CNTY.               Las Animas: COUNTRY
SRVC.                Patterson: SERVICE COMPANY
DATE.          Fri Nov 18 07:55:32 2005: LOG DATE
UWI.                          : UNIQUE WELL ID
~Curve Information Block
DEPT.FT            0 000 00 00: Depth
AMP3.mV                       : CBL 3' Amplitude
CCL.                          : Casing Collar Locator
GR.GAPI                       : Gamma Ray
TT3.usec                      : CBL 3' Travel Time
~Parameter Information Block
~A  Depth       AMP3        CCL          GR         TT3     
# ...
  2479.0000      4.7324      0.0000    115.2190    624.8401
  2479.2500      4.7805      0.0000    112.5446    611.7227
  2479.5000      4.8519      0.0000    111.0657    590.1946
  2479.7500      4.9602      0.0000    110.1970    558.7733
  2480.0000      5.0683      0.0000    108.9479    527.2136
  2480.2500      5.1403      0.0000    106.7406    502.7715
  2480.5000      5.1817      0.0000    103.8523    485.3390
  2480.7500      5.2152      0.0000    100.9450    474.2820
  2481.0000      5.2372      0.0000     98.4620    469.1891
  2481.2500      5.2121      0.0000     96.5440    467.8386
  2481.5000      5.1207      0.0000     95.2605    467.8281
  2481.7500      5.0079      0.0000     94.8647    468.3561
  2482.0000      4.9448      0.0000     95.8811    470.2253
  2482.2500      4.9409      0.0000     98.6473    474.5793
  2482.5000      4.9381      0.0000    102.4268    480.0761
  2482.7500      4.9043      0.0000    105.3557    481.3844
  2483.0000      4.8868      0.0000    106.0395    474.3554
  2483.2500      4.9370      0.0000    105.1626    463.8531
  2483.5000      5.0202      0.0000    104.9113    460.7603
  2483.7500      5.0565      0.0000    106.8521    467.5779
  2484.0000      5.0110      0.0000    110.8557    475.1804
  2484.2500      4.9145      0.0000    115.8619    477.3002
  2484.5000      4.8331      0.0000    120.8862    477.1219
  2484.7500      4.8011      0.0000    125.1754    481.6035
  2485.0000      4.7853      0.0000    128.1276    498.6612
  2485.2500      4.7341      0.0000    129.3753    532.2711
  2485.5000      4.6401      0.0000    128.7207    571.9260
  2485.7500      4.5331      0.0000    126.0984    598.2719
  2486.0000      4.4352      0.0000    121.8311    606.8290
  2486.2500      4.3570      0.0000    116.6496    611.7815
  2486.5000      4.3085      0.0000    111.3524    623.9698
  2486.7500      4.2904      0.0000    106.8152    639.2505
  2487.0000      4.2971      0.0000    104.2169    646.9547
  2487.2500      4.3182      0.0000    104.5362    641.1923
  2487.5000      4.3374      0.0000    107.6995    624.0270
  2487.7500      4.3648      0.0000    112.5045    602.8786
  2488.0000      4.4412      0.0000    117.1579    585.9403
  2488.2500      4.5696      0.0000    119.7125    568.3956
  2488.5000      4.6926      0.0000    118.6863    531.4111
  2488.7500      4.7536      0.0000    114.0711    473.7089
  2489.0000      4.7282      0.0000    107.7148    421.0934
  2489.2500      4.5964      0.0000    102.2607    393.6221
  2489.5000      4.3574      0.0000     99.4162    392.0443
  2489.7500      4.1294      0.0000     99.0601    414.0655
  2490.0000      4.0678      0.0000     99.7234    458.4133
  2490.2500      4.0887      0.0000     99.7440    513.6507
  2490.5000      3.9909      0.0000     98.1071    560.1644
  2490.7500      3.8201      0.0000     94.6237    586.8923
  2491.0000      3.7266      0.0000     89.8181    594.1692
  2491.2500      3.6880      0.0000     84.8361    579.3675
  2491.5000      3.6257      2.0000     81.0133    538.0350
  2491.7500      3.5564      0.0000     78.9534    484.9981
  2492.0000      3.5130      0.0000     77.9938    452.3123
  2492.2500      3.4944      0.0000     76.7515    455.8978
  2492.5000      3.5671      0.0000     74.2459    482.8769
  2492.7500      3.7604      0.0000     70.5982    515.7934
  2493.0000      3.8479      0.0000     66.8424    546.8976
  2493.2500      3.6667      0.0000     64.0380    569.1703
  2493.5000      3.4806      0.0000     62.4398    575.2419
  2493.7500      3.5650      0.0000     61.4814    568.5717
  2494.0000      3.8170      0.0000     60.4275    569.4787
  2494.2500      4.0048      0.0000     58.9105    592.4804
  2494.5000      4.0432      0.0000     57.0880    622.6461
  2494.7500      3.9679      0.0000     55.6958    634.3465
  2495.0000      3.8384      0.0000     55.8105    614.1248
  2495.2500      3.7105      0.0000     58.1136    564.7930
  2495.5000      3.6325      0.0000     62.2959    510.5495
  2495.7500      3.6276      0.0000     67.2453    477.8719
  2496.0000      3.6774      0.0000     71.6204    460.2872
  2496.2500      3.7314      0.0000     74.1799    435.3846
  2496.5000      3.7522      0.0000     74.0123    404.5240
  2496.7500      3.7365      0.0000     71.0221    382.8758
  2497.0000      3.6865      0.0000     66.3920    375.1232
  2497.2500      3.6174      0.0000     62.3824    376.1624
  2497.5000      3.5723      0.0000     61.2347    378.7201
  2497.7500      3.5701      0.0000     63.8832    379.1538
  2498.0000      3.5753      0.0000     69.6213    379.8414
  2498.2500      3.5574      0.0000     76.8121    383.7439
  2498.5000      3.5339      0.0000     83.7290    389.3063
  2498.7500      3.5334      0.0000     89.1213    393.3720
  2499.0000      3.5584      0.0000     92.5289    394.9931
  2499.2500      3.5847      0.0000     94.0344    394.7973
  2499.5000      3.5826      0.0000     93.6378    393.4384
  2499.7500      3.5446      0.0000     91.2036    390.9415
  2500.0000      3.4936      0.0000     87.0403    386.7853
  2500.2500      3.4562      0.0000     82.1264    382.7173
  2500.5000      3.4205      0.0000     77.7301    388.4154
  2500.7500      3.3559      0.0000     75.0392    420.6422
  2501.0000      3.2846      0.0000     75.0140    485.8766
  2501.2500      3.2764      0.0000     78.0778    563.7215
  2501.5000      3.3626      0.0000     83.5842    622.8941
  2501.7500      3.5147      0.0000     89.7343    651.6751
  2502.0000      3.7010      0.0000     94.4939    659.3964
  2502.2500      3.8923      0.0000     97.0715    658.9754
  2502.5000      4.0383      0.0000     98.6405    657.6708
  2502.7500      4.0904      0.0000    101.2658    657.3051
  2503.0000      4.0196      0.0000    105.8282    657.3788
  2503.2500      3.8111      0.0000    111.1737    657.3085
  2503.5000      3.5068      0.0000    115.3661    657.0377
  2503.7500      3.2277      0.0000    117.2054    656.7932
  2504.0000      3.0694      0.0000    116.1895    656.8511
  2504.2500      3.0141      0.0000    111.8473    658.0551
  2504.5000      2.9904      0.0000    104.1354    662.4058
  2504.7500      2.9474      0.0000     94.1861    671.2638
  2505.0000      2.8604      0.0000     83.8187    681.2756
  2505.2500      2.7320      0.0000     74.3855    686.1236
  2505.5000      2.5893      0.0000     66.5615    686.6823
  2505.7500      2.4558      0.0000     60.8632    691.7823
  2506.0000      2.3371      0.0000     57.7588    703.9490
  2506.2500      2.2476      0.0000     57.4658    715.2882
  2506.5000      2.2147      0.0000     59.9135    719.9979
  2506.7500      2.2426      0.0000     64.6298    720.6372
  2507.0000      2.3172      0.0000     70.6053    720.9347
  2507.2500      2.4344      0.0000     76.7116    719.6882
  2507.5000      2.5786      0.0000     82.3678    714.8574
  2507.7500      2.7125      0.0000     87.4889    709.3885
  2508.0000      2.8316      0.0000     92.0066    707.2901
  2508.2500      2.9927      0.0000     96.0091    704.6737
  2508.5000      3.2459      0.0000     99.9234    691.6432
  2508.7500      3.5641      0.0000    103.7681    664.8004
  2509.0000      3.8680      0.0000    106.6965    634.0801
  2509.2500      4.0964      0.0000    108.0385    615.6068
  2509.5000      4.2299      0.0000    108.1876    613.9944
  2509.7500      4.2638      0.0000    107.7992    615.4421
  2510.0000      4.1939      0.0000    106.8369    605.8726
  2510.2500      4.0427      0.0000    104.9512    586.1393
  2510.5000      3.8822      0.0000    102.0181    566.2885
  2510.7500      3.7927      0.0000     97.9301    552.6812
  2511.0000      3.7960      0.0000     92.6637    543.2346
  2511.2500      3.8601      0.0000     86.9985    538.7740
  2511.5000      3.9385      0.0000     82.6709    548.4914
  2511.7500      3.9869      0.0000     81.3693    572.3109
  2512.0000      3.9827      0.0000     83.6134    594.2423
  2512.2500      3.9392      0.0000     88.6421    601.4387
