~Version Information
VERS.                      2.0: CWLS Log ASCII Standard - VERSION 2.0
WRAP.                       NO: One line per depth step
~Well Information Block
STRT.FT               315.0000: 
STOP.FT              1292.5000: 
STEP.FT                 0.1000: 
NULL.                -999.2500: 
COMP.          Pioneer Natural Resources: COMPANY
WELL.          Hot Tomatoes 22-20: WELL
FLD.           Purgatoire River: FIELD
LOC.           2120' FNL & 2585' FWL: LOCATION
CNTY.               Las Animas: COUNTY
SRVC.                Patterson: SERVICE COMPANY
DATE.          Mon Feb 27 07:06:41 2006: LOG DATE
UWI.           05 071 08701 00: UNIQUE WELL ID
STAT.                 Colorado: STATE
~Curve Information Block
DEPT.FT            0 000 00 00: Depth
DCAL.in                       : CDL Caliper
RHOB.g/cc                     : CDL Bulk Density
RHOC.g/cc                     : CDL Density Correction
DPOR.pu                       : CDL Density Porosity
GR.GAPI                       : Gamma Ray
NPOR.pu                       : Neutron Porosity
~Parameter Information Block
~A  Depth       DCAL        RHOB        RHOC        DPOR         GR         NPOR    
# ...
  1083.0000      7.9472      1.5030      0.0803     69.5124    109.3817     33.4789
  1083.1000      7.9472      1.4938      0.0500     70.0738    114.5300     33.3616
  1083.2000      7.9472      1.4859      0.0275     70.5510    119.7219     33.5312
  1083.3000      7.9476      1.4643      0.0599     71.8605    120.9124     33.9649
  1083.4000      7.9476      1.4080     -0.0368     75.2748    112.1124     34.0707
  1083.5000      7.9274      1.3326     -0.1492     79.8395     95.9606     33.4275
  1083.6000      7.9274      1.2791     -0.1174     83.0853     81.2777     32.6287
  1083.7000      7.9274      1.2583     -0.0257     84.3430     72.3742     32.6341
  1083.8000      7.9289      1.2552     -0.0326     84.5353     65.6482     33.7093
  1083.9000      7.9289      1.2613      0.0072     84.1614     56.4867     34.8693
  1084.0000      7.9586      1.2710      0.0304     83.5769     47.9487     35.0716
  1084.1000      7.9586      1.2832     -0.0128     82.8368     45.8189     34.4510
  1084.2000      7.9586      1.3093      0.0226     81.2554     46.7586     33.9266
  1084.3000      7.9808      1.3602      0.0275     78.1715     44.5910     33.8055
  1084.4000      7.9808      1.4453      0.0308     73.0151     40.9681     33.7611
  1084.5000      8.0006      1.5643      0.0949     65.7989     40.8993     33.6444
  1084.6000      8.0006      1.6946      0.1495     57.9040     43.6959     33.5039
  1084.7000      8.0006      1.8229      0.1055     50.1253     46.9431     33.4157
  1084.8000      7.9655      1.9573      0.1693     41.9837     54.1080     33.4068
  1084.9000      7.9655      2.0815      0.2232     34.4516     65.4889     33.1358
  1085.0000      7.9805      2.1721      0.2097     28.9633     72.6228     32.4658
  1085.1000      7.9805      2.2431      0.1297     24.6634     73.4601     31.8576
  1085.2000      7.9805      2.3134      0.1044     20.4016     76.7935     31.5920
  1085.3000      7.9628      2.3712      0.0556     16.8964     88.4535     31.7199
  1085.4000      7.9628      2.4039      0.0514     14.9138    101.0519     32.1155
  1085.5000      7.9783      2.4215      0.0158     13.8499    104.7785     32.1839
  1085.6000      7.9783      2.4394      0.0460     12.7641    103.2525     31.6012
  1085.7000      7.9783      2.4560      0.0343     11.7576    104.3769     31.2977
  1085.8000      7.9610      2.4609      0.0659     11.4631    109.4044     32.1574
  1085.9000      7.9610      2.4602      0.0024     11.5015    113.2278     33.2604
  1086.0000      7.9529      2.4661      0.0630     11.1441    113.1586     33.2700
  1086.1000      7.9529      2.4749      0.0925     10.6137    116.0304     32.4778
  1086.2000      7.9529      2.4825      0.0844     10.1491    121.2225     32.2299
  1086.3000      7.9188      2.4843      0.1174     10.0415    121.4532     32.2683
  1086.4000      7.9188      2.4731      0.0908     10.7189    118.9953     31.2817
  1086.5000      7.8778      2.4549      0.0538     11.8246    119.8435     29.8048
  1086.6000      7.8778      2.4369      0.0493     12.9138    123.6390     29.1407
  1086.7000      7.8778      2.4168      0.0570     14.1327    123.2264     28.9902
  1086.8000      7.8622      2.3959      0.0195     15.4009    112.5087     28.8042
  1086.9000      7.8622      2.3802      0.0110     16.3534     98.8431     29.2050
  1087.0000      7.8569      2.3648      0.0279     17.2824     97.0162     30.0790
  1087.1000      7.8569      2.3443     -0.0191     18.5294    108.5718     29.8860
  1087.2000      7.8569      2.3268     -0.0092     19.5867    122.5732     28.4568
  1087.3000      7.8667      2.3185     -0.0402     20.0925    129.9114     27.2588
  1087.4000      7.8667      2.3122      0.0273     20.4743    125.6602     27.2066
  1087.5000      7.8760      2.2949      0.0657     21.5197    113.2978     28.1307
  1087.6000      7.8760      2.2542      0.0775     23.9898    102.3246     29.2365
  1087.7000      7.8760      2.1843      0.0249     28.2222     95.1459     30.0065
  1087.8000      7.8788      2.0873     -0.0096     34.1058     88.3383     30.2513
  1087.9000      7.8788      1.9740     -0.0469     40.9691     82.1468     29.8601
  1088.0000      7.8757      1.8688     -0.1059     47.3449     78.7043     29.4926
  1088.1000      7.8757      1.7881     -0.0894     52.2394     74.6222     29.9128
  1088.2000      7.8757      1.7141      0.0043     56.7199     67.0943     30.6435
  1088.3000      7.8858      1.6306     -0.0654     61.7847     59.9345     30.8584
  1088.4000      7.8858      1.5582     -0.0865     66.1700     55.5441     30.9194
  1088.5000      7.9214      1.5108     -0.0091     69.0437     52.6126     31.2959
  1088.6000      7.9214      1.4780      0.0267     71.0329     50.3753     31.7724
  1088.7000      7.9214      1.4649      0.0272     71.8228     49.2011     32.0819
  1088.8000      7.9360      1.4966      0.0147     69.9054     49.4478     31.9025
  1088.9000      7.9360      1.5888      0.0785     64.3128     50.9778     31.3538
  1089.0000      7.9066      1.7294      0.1223     55.7912     53.3372     31.2748
  1089.1000      7.9066      1.8899      0.1929     46.0650     54.4647     31.8840
  1089.2000      7.9066      2.0518      0.2368     36.2549     54.0830     32.7006
  1089.3000      7.8985      2.2088      0.2209     26.7387     54.0865     33.1501
  1089.4000      7.8985      2.3493      0.3013     18.2220     56.7271     32.9113
  1089.5000      7.9162      2.4545      0.2747     11.8500     66.2439     32.1737
  1089.6000      7.9162      2.5157      0.2351      8.1383     82.9296     31.0876
  1089.7000      7.9162      2.5405      0.1721      6.6348     97.6345     29.6701
  1089.8000      7.9384      2.5401      0.1500      6.6605    101.6812     28.3778
  1089.9000      7.9384      2.5233      0.1057      7.6800     97.7060     28.0142
  1090.0000      7.9268      2.5021      0.0906      8.9653     94.3364     28.8206
  1090.1000      7.9268      2.4809      0.0632     10.2489     92.9944     29.8576
  1090.2000      7.9268      2.4599     -0.0012     11.5206     91.6043     30.1864
  1090.3000      7.8925      2.4456      0.0362     12.3873     92.7888     30.2497
  1090.4000      7.8925      2.4395      0.0363     12.7560     98.8808     30.3016
  1090.5000      7.8618      2.4400      0.0213     12.7250    108.5649     29.9097
  1090.6000      7.8618      2.4433      0.0444     12.5295    115.5690     29.2423
  1090.7000      7.8618      2.4432      0.0302     12.5343    113.6922     28.5997
  1090.8000      7.8455      2.4417      0.0336     12.6232    106.4798     28.3150
  1090.9000      7.8455      2.4531      0.0334     11.9328    102.4063     28.7790
  1091.0000      7.8543      2.4855      0.0884      9.9686    101.7763     29.4301
  1091.1000      7.8543      2.5125      0.1404      8.3314    102.1987     29.6214
  1091.2000      7.8543      2.5051      0.0964      8.7847    105.0518     29.5476
  1091.3000      7.8628      2.4811      0.0285     10.2350    107.6788     29.5125
  1091.4000      7.8628      2.4713      0.0952     10.8283    106.4488     29.5575
  1091.5000      7.8716      2.4751      0.0725     10.5982    103.8574     29.5045
  1091.6000      7.8716      2.4819      0.0926     10.1877    106.7206     29.2785
  1091.7000      7.8716      2.4897      0.0904      9.7177    115.6330     29.0714
  1091.8000      7.8545      2.5055      0.0989      8.7587    120.0699     29.0739
  1091.9000      7.8545      2.5316      0.0984      7.1738    118.2686     29.6386
  1092.0000      7.8493      2.5482      0.1352      6.1722    116.8675     30.3406
  1092.1000      7.8493      2.5359      0.1009      6.9124    116.5158     30.0669
  1092.2000      7.8493      2.5136      0.0411      8.2642    115.1313     29.0602
  1092.3000      7.8503      2.5118      0.0324      8.3744    109.3321     28.4787
  1092.4000      7.8503      2.5292      0.0667      7.3229    100.1950     28.8949
  1092.5000      7.8544      2.5422      0.0706      6.5309     93.9133     29.5019
