~Version Information
VERS.                      2.0: CWLS Log ASCII Standard - VERSION 2.0
WRAP.                       NO: One line per depth step
~Well Information Block
STRT.FT                -6.5000: 
STOP.FT              1564.2500: 
STEP.FT                 0.2500: 
NULL.                -999.2500: 
COMP.          Pioneer Natural Resources: COMPANY
WELL.            Bluesky 44-17: WELL
FLD.           Purgatorie River: FIELD
LOC.           --39' FSL & 288' FEL------: LOCATION
STAT.                       CO: State
CNTY.               Las Animas: COUNTY
CTRY. USA : Country
SECT. 17 : Section
TOWN. 33S : Township
RANG. 66W : Range
SRVC.          Patterson Wireline: SERVICE COMPANY
DATE.          Tue Sep 13 13:24:14 2005: LOG DATE
API.           05 071 08511 00: UNIQUE WELL ID
~Curve Information Block
DEPT.FT            0 000 00 00: Depth
CCL.                          : Casing Collar Locator
TT3.usec                      : CBL 3' Travel Time
AMP3.mV                       : CBL 3' Amplitude
GR.GAPI                       : Gamma Ray
~Parameter Information Block
~A  Depth       CCL         TT3         AMP3         GR     
# ...
  1132.5000      0.0000    788.3796      9.6397     53.5968
  1132.7500      0.0000    786.2204      9.8040     50.1326
  1133.0000      0.0000    782.7978      9.9431     47.2724
  1133.2500      0.0000    779.5498     10.0657     45.7153
  1133.5000      0.0000    777.4957     10.1819     45.3521
  1133.7500      0.0000    776.0992     10.2940     45.3747
  1134.0000      0.0000    773.7342     10.4025     44.7679
  1134.2500      0.0000    769.2173     10.5145     42.9956
  1134.5000      0.0000    762.5470     10.6387     40.4461
  1134.7500      0.0000    754.4778     10.7747     38.1188
  1135.0000      0.0000    746.1045     10.9110     36.7665
  1135.2500      0.0000    738.6703     11.0342     36.4204
  1135.5000      0.0000    732.9087     11.1394     36.6975
  1135.7500      0.0000    728.4612     11.2319     37.2966
  1136.0000      0.0000    724.4819     11.3200     38.0517
  1136.2500      0.0000    720.7340     11.4060     38.7079
  1136.5000      0.0000    717.6699     11.4811     38.8856
  1136.7500      0.0000    715.7417     11.5305     38.3844
  1137.0000      0.0000    715.1912     11.5407     37.5379
  1137.2500      0.0000    716.4984     11.5028     37.2099
  1137.5000      0.0000    720.5891     11.4136     38.4998
  1137.7500      0.0000    728.1346     11.2820     42.6350
  1138.0000      0.0000    738.4118     11.1318     50.9882
  1138.2500      0.0000    749.2275     10.9907     64.4216
  1138.5000      0.0000    758.5515     10.8735     81.9429
  1138.7500      0.0000    766.2514     10.7798    100.2274
  1139.0000      0.0000    773.9373     10.7059    115.2804
  1139.2500      0.0000    783.2026     10.6566    124.8318
  1139.5000      0.0000    793.9293     10.6414    128.9095
  1139.7500      0.0000    803.8251     10.6628    128.4462
  1140.0000      0.0000    809.7199     10.7122    124.1543
  1140.2500      0.0000    809.9963     10.7771    117.0449
  1140.5000      0.0000    805.9664     10.8503    109.4742
  1140.7500      0.0000    800.7415     10.9285    104.7277
  1141.0000      0.0000    796.9692     11.0010    104.9162
  1141.2500      0.0000    795.8057     11.0460    109.4990
  1141.5000      0.0000    797.3914     11.0440    116.2629
  1141.7500      0.0000    801.2925     11.0010    123.2276
  1142.0000      0.0000    806.1499     10.9498    129.0904
  1142.2500      0.0000    809.6355     10.9231    132.7070
  1142.5000      0.0000    809.7674     10.9204    133.4621
  1142.7500      0.0000    806.5547     10.9095    131.9870
  1143.0000      0.0000    801.9405     10.8572    129.6653
  1143.2500      0.0000    798.0594     10.7555    127.4306
  1143.5000      0.0000    795.8192     10.6202    125.4388
  1143.7500      0.0000    794.9391     10.4766    123.6361
  1144.0000      0.0000    794.7336     10.3541    122.2811
  1144.2500      0.0000    794.6118     10.2832    121.9872
  1144.5000      0.0000    794.0833     10.2869    123.2459
  1144.7500      0.0000    792.5445     10.3699    125.6918
  1145.0000      0.0000    789.3494     10.5150    128.0284
  1145.2500      0.0000    784.5385     10.6866    129.1520
  1145.5000      0.0000    779.6455     10.8394    129.1391
  1145.7500      0.0000    777.1376     10.9319    128.4675
  1146.0000      0.0000    778.3666     10.9407    126.7029
  1146.2500      0.0000    782.3580     10.8618    123.1240
  1146.5000      0.0000    787.1089     10.6916    118.4914
  1146.7500      0.0000    791.8199     10.4029    114.8536
  1147.0000      0.0000    797.4338      9.9621    113.3151
  1147.2500      0.0000    805.0300      9.3916    112.9409
  1147.5000      0.0000    813.7297      8.7988    112.1675
  1147.7500      0.0000    820.4680      8.3071    110.3992
  1148.0000      0.0000    822.6052      7.9636    107.9103
  1148.2500      0.0000    820.8417      7.7346    105.0909
  1148.5000     -2.0000    818.7531      7.5797    102.4761
  1148.7500      0.0000    819.0948      7.5166    100.8316
  1149.0000      0.0000    821.1175      7.6246    100.3272
  1149.2500      0.0000    821.5771      7.9784     99.9333
  1149.5000      0.0000    817.9470      8.5432     98.4303
  1149.7500      0.0000    810.7103      9.1322     95.9509
  1150.0000      0.0000    803.0096      9.5125     94.0045
  1150.2500      0.0000    798.3905      9.5771     93.9099
  1150.5000      0.0000    798.8204      9.4024     95.5273
  1150.7500      0.0000    803.9428      9.1498     97.7306
  1151.0000      0.0000    811.1792      8.9410     99.8853
  1151.2500      0.0000    816.9186      8.8137    102.3553
  1151.5000      0.0000    818.6406      8.7524    105.5098
  1151.7500      0.0000    816.1650      8.7328    108.8104
  1152.0000      0.0000    810.8900      8.7404    111.2161
  1152.2500      0.0000    804.2483      8.7631    112.3048
  1152.5000      0.0000    796.8170      8.7873    112.9083
  1152.7500      0.0000    788.1454      8.8045    114.4211
  1153.0000      0.0000    777.4662      8.8129    117.0124
  1153.2500      0.0000    765.1617      8.8082    118.8607
  1153.5000      0.0000    753.3210      8.7803    118.0462
  1153.7500      0.0000    744.1716      8.7205    114.9371
  1154.0000      0.0000    738.4941      8.6293    111.7929
  1154.2500      0.0000    736.4366      8.5152    110.3323
  1154.5000      0.0000    738.7879      8.3908    110.5440
  1154.7500      0.0000    745.6721      8.2695    111.6468
  1155.0000      0.0000    754.4509      8.1629    113.3322
  1155.2500      0.0000    760.7288      8.0801    115.6149
  1155.5000      0.0000    761.8370      8.0285    117.7340
  1155.7500      0.0000    758.7983      8.0096    118.0239
  1156.0000      0.0000    755.0100      8.0145    115.5091
  1156.2500      0.0000    753.3846      8.0269    111.3734
  1156.5000      0.0000    754.5065      8.0345    108.1969
  1156.7500      0.0000    756.8790      8.0326    107.6670
  1157.0000      0.0000    758.2340      8.0196    109.2883
  1157.2500      0.0000    756.5474      7.9959    111.2542
  1157.5000      0.0000    751.1530      7.9724    112.1901
  1157.7500      0.0000    743.8793      7.9719    111.8385
  1158.0000      0.0000    738.1343      8.0120    110.2907
  1158.2500      0.0000    735.9044      8.0860    107.1942
  1158.5000      0.0000    736.2521      8.1645    102.1699
  1158.7500      0.0000    736.9443      8.2218     95.8849
  1159.0000      0.0000    736.3238      8.2577     90.2141
  1159.2500      0.0000    733.5229      8.2909     87.1242
  1159.5000      0.0000    728.4785      8.3325     87.6806
  1159.7500      0.0000    722.3148      8.3720     92.0080
  1160.0000      0.0000    716.6714      8.3894     99.3897
  1160.2500      0.0000    712.2350      8.3793    108.0160
  1160.5000      0.0000    708.2795      8.3572    115.3367
  1160.7500      0.0000    703.6685      8.3417    119.4974
  1161.0000      0.0000    698.1433      8.3336    120.5630
  1161.2500      0.0000    692.5566      8.3182    120.3343
  1161.5000      0.0000    687.8680      8.2849    121.1438
  1161.7500      0.0000    684.2427      8.2385    124.5520
  1162.0000      0.0000    681.5605      8.1918    130.4082
  1162.2500      0.0000    680.4788      8.1511    136.6981
  1162.5000      0.0000    682.2094      8.1128    140.6142
  1162.7500      0.0000    687.1086      8.0693    140.3118
  1163.0000      0.0000    693.8814      8.0171    135.9120
  1163.2500      0.0000    700.3867      7.9590    129.1023
  1163.5000      0.0000    705.1178      7.9000    122.0889
  1163.7500      0.0000    707.8433      7.8420    116.7476
  1164.0000      0.0000    709.1021      7.7821    113.9948
  1164.2500      0.0000    709.4254      7.7163    113.4111
  1164.5000      0.0000    708.9878      7.6429    113.6063
  1164.7500      0.0000    707.6177      7.5665    113.2503
  1165.0000      0.0000    704.9524      7.4977    111.8430
  1165.2500      0.0000    700.8990      7.4484    109.7256
  1165.5000      0.0000    696.3597      7.4238    107.7295
  1165.7500      0.0000    693.3217      7.4181    106.8296
