~Version Information
VERS.                      2.0: CWLS Log ASCII Standard - VERSION 2.0
WRAP.                       NO: One line per depth step
~Well Information Block
STRT.FT                -8.2500: 
STOP.FT              1118.7500: 
STEP.FT                 0.2500: 
NULL.                -999.2500: 
COMP.          Pioneer Natural Resources: COMPANY
WELL.             Croc 42-9 Tr: WELL
FLD.           Purgatorie River: FIELD
LOC.           --2429' FNL & 315' FEL------: LOCATION
STAT.                       CO: State
CNTY.               Las Animas: COUNTY
CTRY. USA : Country
SECT. 9 : Section
TOWN. 32S : Township
RANG. 66W : Range
SRVC.          Patterson Wireline: SERVICE COMPANY
DATE.          Tue Oct 18 14:14:43 2005: LOG DATE
API.           05 071 08550 00: UNIQUE WELL ID
~Curve Information Block
DEPT.FT            0 000 00 00: Depth
CCL.                          : Casing Collar Locator
TT3.usec                      : CBL 3' Travel Time
AMP3.mV                       : CBL 3' Amplitude
GR.GAPI                       : Gamma Ray
~Parameter Information Block
~A  Depth       CCL         TT3         AMP3         GR     
# ...
   862.7500      0.0000    325.9295     18.9025    131.8601
   863.0000      0.0000    324.5988     19.1847    138.9596
   863.2500      0.0000    324.1895     19.4091    143.6555
   863.5000      0.0000    324.1112     19.5532    146.9310
   863.7500      0.0000    324.3216     19.6210    149.1792
   864.0000      0.0000    325.3861     19.6192    150.6195
   864.2500      0.0000    329.3641     19.5427    151.5639
   864.5000      0.0000    340.9474     19.3853    151.9234
   864.7500      0.0000    366.8306     19.1584    150.9605
   865.0000      0.0000    410.2243     18.8921    148.2282
   865.2500      0.0000    462.3773     18.6206    144.6607
   865.5000      0.0000    501.8531     18.3645    141.9181
   865.7500      0.0000    509.1897     18.1215    140.5893
   866.0000      0.0000    484.8273     17.8708    139.7591
   866.2500      0.0000    449.3711     17.5881    138.1676
   866.5000      0.0000    425.9574     17.2586    134.9541
   866.7500      0.0000    425.1768     16.8777    129.5353
   867.0000      0.0000    445.0465     16.4481    121.9518
   867.2500      0.0000    479.2834     15.9835    113.7287
   867.5000      0.0000    522.1375     15.5156    107.8062
   867.7500      0.0000    567.2463     15.0951    106.9908
   868.0000      0.0000    607.0914     14.7842    112.0745
   868.2500      0.0000    637.5162     14.6296    121.1522
   868.5000      0.0000    661.3277     14.6276    130.7657
   868.7500      0.0000    683.8695     14.7088    137.9558
   869.0000      0.0000    705.9860     14.7745    141.4651
   869.2500      0.0000    724.0813     14.7574    141.4685
   869.5000      0.0000    735.4672     14.6508    138.7561
   869.7500      0.0000    740.8674     14.4865    134.3706
   870.0000      0.0000    742.4417     14.2999    129.6295
   870.2500      0.0000    741.0554     14.1209    125.9373
   870.5000      0.0000    734.8605     13.9870    124.2962
   870.7500      0.0000    719.3754     13.9464    125.0912
   871.0000      0.0000    689.9351     14.0347    128.2035
   871.2500      0.0000    646.3028     14.2427    132.7492
   871.5000      0.0000    595.3508     14.5107    136.6214
   871.7500      0.0000    548.0029     14.7625    137.2836
   872.0000      0.0000    513.2156     14.9490    133.7115
   872.2500      0.0000    495.5076     15.0590    127.2385
   872.5000      0.0000    496.4035     15.0984    120.2610
   872.7500      0.0000    514.0215     15.0733    114.5732
   873.0000      0.0000    539.7352     14.9980    110.9833
   873.2500      0.0000    559.9962     14.9028    109.5825
   873.5000      0.0000    567.8823     14.8231    109.6150
   873.7500      0.0000    572.2623     14.7804    109.5946
   874.0000      0.0000    588.9367     14.7758    108.4070
   874.2500      0.0000    621.2808     14.7982    106.2831
   874.5000      0.0000    653.8101     14.8362    104.2844
   874.7500      0.0000    664.5748     14.8838    103.0423
   875.0000      0.0000    640.6657     14.9423    102.3865
   875.2500      0.0000    585.0304     15.0175    101.9565
   875.5000      0.0000    514.3181     15.1156    101.7010
   875.7500      0.0000    449.5287     15.2376    102.0245
   876.0000      0.0000    404.2480     15.3772    103.8180
   876.2500      0.0000    379.5468     15.5197    107.9813
   876.5000      0.0000    368.4052     15.6449    114.3461
   876.7500      0.0000    362.9940     15.7362    121.3947
   877.0000      0.0000    358.6348     15.7877    127.5125
   877.2500      0.0000    354.2950     15.8003    132.1536
   877.5000      0.0000    351.3632     15.7721    135.2701
   877.7500      0.0000    351.4931     15.6986    136.1733
   878.0000      0.0000    354.6572     15.5843    133.8576
   878.2500      0.0000    359.0927     15.4486    128.4277
   878.5000      0.0000    362.9189     15.3174    121.6668
   878.7500      0.0000    365.4563     15.2063    116.2755
   879.0000      0.0000    367.1926     15.1107    114.6651
   879.2500      0.0000    369.1508     15.0137    117.7298
   879.5000      0.0000    372.5638     14.9084    124.0697
   879.7500      0.0000    378.5005     14.8110    130.9780
   880.0000      0.0000    386.7061     14.7505    137.0341
   880.2500      0.0000    394.4516     14.7465    143.2914
   880.5000      0.0000    397.6510     14.7994    150.9560
   880.7500      0.0000    394.3538     14.8920    158.4052
   881.0000      0.0000    386.8143     14.9901    161.9017
   881.2500      0.0000    379.4793     15.0449    159.3971
   881.5000      0.0000    375.6055     15.0097    152.5692
   881.7500      0.0000    376.2164     14.8646    144.9227
   882.0000      0.0000    381.0184     14.6277    138.8528
   882.2500      0.0000    388.9563     14.3461    134.8654
   882.5000      0.0000    398.0936     14.0766    132.6148
   882.7500      0.0000    405.9770     13.8704    131.8281
   883.0000      0.0000    410.5601     13.7680    132.4256
   883.2500      0.0000    410.7124     13.7987    134.3388
   883.5000      0.0000    406.2528     13.9685    137.3800
   883.7500      0.0000    398.1335     14.2398    141.0957
   884.0000      0.0000    388.5810     14.5308    144.6237
   884.2500      0.0000    380.4016     14.7547    146.8817
   884.5000      0.0000    376.0479     14.8659    147.2533
   884.7500      0.0000    378.0045     14.8666    146.2741
   885.0000      0.0000    390.2598     14.7770    145.4372
   885.2500      0.0000    417.7181     14.6154    145.9321
   885.5000      0.0000    460.6168     14.4065    147.4444
   885.7500      0.0000    507.4263     14.1863    148.4452
   886.0000      0.0000    536.9147     13.9853    147.6425
   886.2500      0.0000    533.7901     13.8077    144.8387
   886.5000      0.0000    504.0935     13.6343    140.7096
   886.7500      0.0000    471.5773     13.4359    136.4573
   887.0000      0.0000    457.4875     13.1757    133.5139
   887.2500      0.0000    465.7157     12.8001    132.8169
   887.5000      0.0000    487.5057     12.2675    134.1218
   887.7500      0.0000    515.6177     11.6292    136.1215
   888.0000      0.0000    548.9811     11.0701    137.0365
   888.2500      0.0000    585.4028     10.7984    135.1603
   888.5000      0.0000    617.2786     10.8756    129.6376
   888.7500      0.0000    637.6995     11.1914    121.3682
   889.0000      0.0000    647.0094     11.5864    113.0069
   889.2500      0.0000    650.2733     11.9401    107.6735
   889.5000     -2.0000    648.9062     12.1699    107.2692
   889.7500      2.0000    637.9458     12.2324    111.4872
   890.0000      0.0000    613.5457     12.1425    118.0512
   890.2500      0.0000    579.2821     12.0021    124.1301
   890.5000      0.0000    541.4194     12.0180    128.0810
   890.7500      0.0000    502.5832     12.4130    130.2457
   891.0000      0.0000    465.0248     13.2018    132.4340
   891.2500      0.0000    435.8317     14.0866    136.7704
   891.5000      0.0000    423.9011     14.6979    144.3451
   891.7500      0.0000    433.1200     14.9277    153.9056
   892.0000      0.0000    460.4357     14.9488    161.7582
   892.2500      0.0000    498.3338     14.9535    163.9901
   892.5000      0.0000    538.0512     14.9638    159.6339
   892.7500      0.0000    572.5385     14.8838    151.5043
   893.0000      0.0000    598.6939     14.6533    143.6684
   893.2500      0.0000    618.7451     14.3142    138.4202
   893.5000      0.0000    639.0513     13.9588    135.7770
   893.7500      0.0000    664.2900     13.6584    134.9134
   894.0000      0.0000    692.0673     13.4312    134.8642
   894.2500      0.0000    715.4832     13.2488    133.8508
   894.5000      0.0000    730.2657     13.0606    129.1547
   894.7500      0.0000    737.4365     12.8322    118.8089
   895.0000      0.0000    740.5755     12.5756    103.6411
   895.2500      0.0000    742.7548     12.3475     87.3066
   895.5000      0.0000    745.2781     12.2163     74.1363
   895.7500      0.0000    746.8424     12.2201     66.8331
   896.0000      0.0000    742.7751     12.3493     65.6694
