~Version Information
VERS.                      2.0: CWLS Log ASCII Standard - VERSION 2.0
WRAP.                       NO: One line per depth step
~Well Information Block
STRT.FT               694.2000: 
STOP.FT              1498.5000: 
STEP.FT                 0.1000: 
NULL.                -999.2500: 
COMP.          Pioneer Natural Resources: COMPANY
WELL.          Pallet Ranch 34-25 Tr: WELL
FLD.           Purgatoire River: FIELD
LOC.           465' FSL & 2138' FEL: LOCATION
PROV.                 Colorado: PROVINCE
CNTY.               Las Animas: COUNTRY
SRVC.                Patterson: SERVICE COMPANY
DATE.          Thu Jan 19 06:39:54 2006: LOG DATE
UWI.           05 071 08657 00: UNIQUE WELL ID
~Curve Information Block
DEPT.FT            0 000 00 00: Depth
DCAL.in                       : CDL Caliper
RHOB.g/cc                     : CDL Bulk Density
RHOC.g/cc                     : CDL Density Correction
DPOR.pu                       : CDL Density Porosity
GR.GAPI                       : Gamma Ray
~Parameter Information Block
~A  Depth       DCAL        RHOB        RHOC        DPOR         GR     
# ...
   963.0000      7.8388      2.6304      0.1226      1.1853    112.1316
   963.1000      7.8388      2.5919      0.1273      3.5214    114.4878
   963.2000      7.8388      2.5606      0.0534      5.4182    110.5043
   963.3000      7.8763      2.5485      0.0667      6.1486     99.6431
   963.4000      7.8763      2.5522      0.0652      5.9248     89.0977
   963.5000      7.9586      2.5609      0.1040      5.4009     83.0823
   963.6000      7.9586      2.5607      0.0876      5.4103     79.8891
   963.7000      7.9586      2.5563      0.0640      5.6812     76.2261
   963.8000      7.9117      2.5615      0.0367      5.3665     73.5442
   963.9000      7.9117      2.5705      0.0586      4.8208     76.3691
   964.0000      7.8979      2.5672      0.0469      5.0187     84.1725
   964.1000      7.8979      2.5531     -0.0103      5.8743     94.6363
   964.2000      7.8979      2.5374      0.0333      6.8229    106.6107
   964.3000      7.9156      2.5127      0.0365      8.3215    116.8509
   964.4000      7.9156      2.4779     -0.0673     10.4313    126.0611
   964.5000      7.9283      2.4529     -0.0521     11.9462    137.7293
   964.6000      7.9283      2.4399      0.0349     12.7320    148.0834
   964.7000      7.9283      2.4277      0.0285     13.4729    153.6632
   964.8000      7.9385      2.4302      0.0064     13.3196    155.8334
   964.9000      7.9385      2.4611      0.0568     11.4455    154.8655
   965.0000      7.9290      2.4989      0.1169      9.1573    149.6167
   965.1000      7.9290      2.5118      0.1802      8.3761    142.4225
   965.2000      7.9290      2.4833      0.1389     10.1006    138.7538
   965.3000      7.9412      2.4195      0.0765     13.9720    139.1666
   965.4000      7.9412      2.3433      0.0118     18.5876    138.5415
   965.5000      7.9681      2.2683      0.0031     23.1327    133.8571
   965.6000      7.9681      2.1907     -0.0313     27.8358    127.8186
   965.7000      7.9681      2.1101     -0.0788     32.7226    124.8947
   965.8000      8.0058      2.0364     -0.1072     37.1887    121.9493
   965.9000      8.0058      1.9813     -0.0616     40.5296    111.2941
   966.0000      7.9942      1.9542     -0.0912     42.1673     94.8316
   966.1000      7.9942      1.9558     -0.0167     42.0705     82.9632
   966.2000      7.9942      1.9707      0.0380     41.1700     80.2366
   966.3000      8.0194      1.9878      0.1093     40.1360     82.8906
   966.4000      8.0194      2.0161      0.0883     38.4179     83.9307
   966.5000      8.0522      2.0703      0.1251     35.1325     78.9829
   966.6000      8.0522      2.1508      0.1112     30.2525     73.3783
   966.7000      8.0522      2.2456      0.1660     24.5093     72.7673
   966.8000      8.0406      2.3301      0.2317     19.3897     76.4286
   966.9000      8.0406      2.3803      0.2002     16.3479     81.8638
   967.0000      7.9084      2.3989      0.1667     15.2205     86.2255
   967.1000      7.9084      2.3982      0.2039     15.2616     89.1543
   967.2000      7.9084      2.3849      0.1503     16.0692     93.3238
   967.3000      7.9072      2.3730      0.0881     16.7873    100.0737
   967.4000      7.9072      2.3767      0.0167     16.5624    107.8295
   967.5000      7.9247      2.3854      0.0925     16.0369    114.8988
   967.6000      7.9247      2.3731      0.0758     16.7809    119.3216
   967.7000      7.9247      2.3450      0.0157     18.4835    119.9305
   967.8000      7.9094      2.3331      0.0393     19.2066    120.1276
   967.9000      7.9094      2.3487      0.0531     18.2621    123.3776
   968.0000      7.9243      2.3753      0.1047     16.6510    128.3106
   968.1000      7.9243      2.3890      0.1166     15.8195    129.1516
   968.2000      7.9243      2.3791      0.0683     16.4170    123.3312
   968.3000      7.9641      2.3569      0.0670     17.7640    113.5285
   968.4000      7.9641      2.3414      0.0235     18.7020    102.1020
   968.5000      7.9676      2.3326      0.0300     19.2376     94.5280
   968.6000      7.9676      2.3029      0.0791     21.0388     93.6481
   968.7000      7.9676      2.2399      0.0072     24.8550     93.4903
   968.8000      7.9799      2.1655      0.0405     29.3608     90.3948
   968.9000      7.9799      2.1010     -0.0158     33.2699     86.8996
   969.0000      7.9863      2.0640     -0.0066     35.5177     82.6439
   969.1000      7.9863      2.0720      0.0585     35.0327     77.5813
   969.2000      7.9863      2.1209      0.1228     32.0661     75.0984
   969.3000      7.9077      2.1859      0.2014     28.1285     74.5708
   969.4000      7.9077      2.2550      0.1961     23.9397     74.2596
   969.5000      7.8511      2.3360      0.2464     19.0325     72.3107
   969.6000      7.8511      2.4258      0.2946     13.5903     67.6162
   969.7000      7.8511      2.5074      0.2878      8.6435     63.6648
   969.8000      7.8710      2.5746      0.2763      4.5701     61.1519
   969.9000      7.8710      2.6364      0.2659      0.8262     57.3842
   970.0000      7.8922      2.6917      0.2572     -2.5247     53.4163
   970.1000      7.8922      2.7186      0.2410     -4.1598     52.0419
   970.2000      7.8922      2.6941      0.2060     -2.6697     52.8957
   970.3000      7.9161      2.6221      0.1280      1.6918     55.6923
   970.4000      7.9161      2.5457      0.0264      6.3218     59.4155
   970.5000      7.9038      2.4983      0.1061      9.1944     60.9073
   970.6000      7.9038      2.4727      0.0414     10.7454     62.1955
   970.7000      7.9038      2.4617      0.0485     11.4105     65.7213
   970.8000      7.8960      2.4661      0.1265     11.1443     69.6573
   970.9000      7.8960      2.4821      0.1083     10.1753     73.5434
   971.0000      7.9020      2.5104      0.2051      8.4599     76.4560
   971.1000      7.9020      2.5473      0.1856      6.2217     78.3622
   971.2000      7.9020      2.5820      0.1862      4.1239     81.6556
   971.3000      7.8914      2.6073      0.1727      2.5859     84.8907
   971.4000      7.8914      2.6231      0.1403      1.6299     85.1135
   971.5000      7.9272      2.6236      0.1417      1.6016     84.1759
   971.6000      7.9272      2.6043      0.0763      2.7679     84.4830
   971.7000      7.9272      2.5760      0.0307      4.4872     85.8092
   971.8000      7.9156      2.5550      0.0171      5.7573     88.3133
   971.9000      7.9156      2.5468      0.0271      6.2547     93.2528
   972.0000      7.9085      2.5448      0.0181      6.3781    103.3137
   972.1000      7.9085      2.5474      0.0040      6.2168    116.9937
   972.2000      7.9085      2.5548      0.0244      5.7707    127.0034
   972.3000      7.9075      2.5555      0.0760      5.7277    128.7089
   972.4000      7.9075      2.5414      0.0531      6.5827    125.5471
   972.5000      7.9428      2.5249      0.0558      7.5805    128.2586
   972.6000      7.9428      2.5159      0.0360      8.1299    136.5681
   972.7000      7.9428      2.5112      0.0263      8.4116    137.6422
   972.8000      8.0192      2.5140     -0.0018      8.2426    132.7380
   972.9000      8.0192      2.5361     -0.0274      6.9021    132.6076
   973.0000      8.0534      2.5724      0.0421      4.7043    134.4029
   973.1000      8.0534      2.5940      0.0553      3.3957    129.8382
   973.2000      8.0534      2.5906      0.0248      3.5979    125.6386
   973.3000      8.0133      2.5702      0.0783      4.8388    130.6854
   973.4000      8.0133      2.5372     -0.0219      6.8393    138.2566
   973.5000      8.0176      2.5146     -0.0369      8.2032    141.6715
   973.6000      8.0176      2.5193      0.0398      7.9202    141.2487
   973.7000      8.0176      2.5315      0.0291      7.1812    139.4272
   973.8000      8.0384      2.5320      0.0103      7.1533    139.9201
   973.9000      8.0384      2.5237      0.0265      7.6572    140.4411
   974.0000      7.9849      2.5166      0.0023      8.0868    137.6240
   974.1000      7.9849      2.5139      0.0253      8.2515    137.1311
