~Version Information
VERS.                      2.0: CWLS Log ASCII Standard - VERSION 2.0
WRAP.                       NO: One line per depth step
~Well Information Block
STRT.FT               264.2500: 
STOP.FT              1134.7500: 
STEP.FT                 0.2500: 
NULL.                -999.2500: 
COMP.          Pioneer Natural Resources: COMPANY
WELL.          Black Cat 13-32 Tr: WELL
FLD.           Purgatoire River: FIELD
LOC.           1679' FSL & 1150' FWL--: LOCATION
CNTY.               Las Animas: COUNTY
SRVC.                Patterson: SERVICE COMPANY
DATE.          Tue Mar 07 10:58:06 2006: LOG DATE
UWI.           05 071 08721 00: UNIQUE WELL ID
STAT.                 Colorado: STATE
~Curve Information Block
DEPT.FT            0 000 00 00: Depth
SN.Ohm-m                      : IEL Short Normal
SP.mV                         : IEL Spontaneous Potential
DIR.Ohm-m                     : IEL Induction Resistivity
GR.GAPI                       : Gamma Ray
~Parameter Information Block
~A  Depth        SN          SP         DIR          GR     
# ...
   297.7500    513.0995   -539.1920 100000.0000     88.2033
   298.0000    535.2538   -536.7338 100000.0000     89.7755
   298.2500    538.2759   -534.6113 100000.0000     90.1998
   298.5000    518.5027   -532.8927 100000.0000     90.8639
   298.7500    483.2153   -531.6171 100000.0000     91.7663
   299.0000    452.2166   -530.7887 100000.0000     93.8414
   299.2500    445.3857   -530.3737 100000.0000     95.2977
   299.5000    465.6305   -530.3028 100000.0000     96.6630
   299.7500    497.6167   -530.4783 100000.0000     96.7065
   300.0000    524.4889   -530.7883 100000.0000     95.7608
   300.2500    541.2097   -531.1230 100000.0000     95.0443
   300.5000    551.2833   -531.3947 100000.0000     94.8499
   300.7500    557.7650   -531.5508 100000.0000     95.4673
   301.0000    561.7616   -531.5807 100000.0000     96.9869
   301.2500    565.0118   -531.5070 100000.0000     98.0155
   301.5000    568.5648   -531.3682 100000.0000     99.4485
   301.7500    569.7017   -531.1927 100000.0000    100.3974
   302.0000    563.7034   -530.9753 100000.0000    101.5021
   302.2500    549.9721   -530.6678 100000.0000    101.6939
   302.5000    535.4017   -530.1860 100000.0000    101.2589
   302.7500    529.5548   -529.4353 100000.0000    101.0861
   303.0000    535.2001   -528.3433 100000.0000    102.0164
   303.2500    545.0765   -526.8888 100000.0000    103.5704
   303.5000    549.5247   -525.1155 100000.0000    107.1670
   303.7500    545.7050   -523.1283 100000.0000    110.5528
   304.0000    536.9843   -521.0720 100000.0000    117.3013
   304.2500    525.3692   -519.1039 100000.0000    122.1245
   304.5000    510.1471   -517.3649 100000.0000    126.4225
   304.7500    495.3578   -515.9603 100000.0000    125.2065
   305.0000    492.0553   -514.9492 100000.0000    116.2416
   305.2500    507.6148   -514.3433 100000.0000    106.8188
   305.5000    536.2303   -514.1120 100000.0000     91.2001
   305.7500    564.3859   -514.1902 100000.0000     81.6403
   306.0000    583.1155   -514.4902 100000.0000     70.4659
   306.2500    592.1334   -514.9143 100000.0000     65.5891
   306.5000    595.3672   -515.3702 100000.0000     62.0007
   306.7500    596.2460   -515.7861 100000.0000     61.5402
   307.0000    596.4285   -516.1252 100000.0000     62.6339
   307.2500    596.4615   -516.3947 100000.0000     64.2490
   307.5000    596.4615   -516.6477 100000.0000     68.1815
   307.7500    596.4615   -516.9728 100000.0000     71.9938
   308.0000    596.4615   -517.4780 100000.0000     79.4340
   308.2500    596.4615   -518.2663 100000.0000     85.2824
   308.5000    596.4615   -519.4119 100000.0000     94.8238
   308.7500    596.4615   -520.9384 100000.0000    101.4037
   309.0000    596.4615   -522.8128     30.1443    111.1207
   309.2500    596.4615   -524.9463      6.6485    117.2230
   309.5000    596.4615   -527.2148      4.6448    125.4515
   309.7500    596.4615   -529.4865      4.7646    130.1169
   310.0000    596.4615   -531.6548      6.6617    135.2919
   310.2500    596.4615   -533.6633     14.2874    137.0993
   310.5000    596.4363   -535.5151    901.1581    137.1075
   310.7500    596.2633   -537.2606 100000.0000    135.7420
   311.0000    595.3767   -538.9679 100000.0000    133.0701
   311.2500    591.8157   -540.6872 100000.0000    131.5690
   311.5000    580.6556   -542.4250 100000.0000    129.9465
   311.7500    553.3389   -544.1389     23.3090    129.0059
   312.0000    501.1966   -545.7552     11.9577    127.5907
   312.2500    423.8600   -547.2005      8.7666    126.8920
   312.5000    335.5834   -548.4301      7.5984    126.7955
   312.7500    260.0157   -549.4419      7.2629    127.4185
   313.0000    215.1030   -550.2681      7.3697    128.8424
   313.2500    201.9862   -550.9531      7.7419    129.7502
   313.5000    207.6119   -551.5284      8.2681    130.8884
   313.7500    216.7251   -551.9966      8.8540    131.5007
   314.0000    221.7677   -552.3312      9.4165    131.6746
   314.2500    223.4237   -552.4868      9.9150    130.8340
   314.5000    224.2509   -552.4149     10.3956    128.1102
   314.7500    223.9730   -552.0750     10.9977    125.8422
   315.0000    220.9385   -551.4382     11.9132    122.6484
   315.2500    215.6658   -550.4831     13.3179    120.8401
   315.5000    211.2943   -549.1874     15.2685    118.7302
   315.7500    211.6412   -547.5201     17.5307    117.9656
   316.0000    219.4699   -545.4399     19.4799    118.2629
   316.2500    234.9466   -542.8904     20.4466    119.3195
   316.5000    254.5101   -539.8094     20.3470    121.0201
   316.7500    272.2141   -536.1382     19.7016    121.3851
   317.0000    283.8366   -531.8387     19.1026    120.3612
   317.2500    290.2269   -526.9150     18.9172    119.3066
   317.5000    296.4525   -521.4412     19.3066    119.0766
   317.7500    307.3333   -515.5889     20.3004    120.4922
   318.0000    322.7629   -509.6452     21.8216    124.3477
   318.2500    336.8204   -504.0136     23.6910    126.9767
   318.5000    342.4288   -499.1848     25.6657    129.2973
   318.7500    337.0278   -495.6734     27.5231    129.3266
   319.0000    322.2546   -493.9242     29.1330    127.2009
   319.2500    299.0237   -494.2097     30.4572    124.7147
   319.5000    266.8964   -496.5457     31.4931    120.4547
   319.7500    229.4417   -500.6512     32.2316    118.0430
   320.0000    196.2559   -505.9675     32.6605    116.3863
   320.2500    176.5133   -511.7328     32.7899    117.1438
   320.5000    172.0775   -517.0851     32.6539    121.2006
   320.7500    178.7423   -521.1631     32.2806    125.3328
   321.0000    191.4632   -523.1954     31.6656    132.2385
   321.2500    205.1863   -522.5546     30.7902    136.6089
   321.5000    213.1839   -518.8042     29.6710    142.3520
   321.7500    209.9599   -511.7455     28.3880    145.7828
   322.0000    195.9760   -501.4749     27.0598    150.7691
   322.2500    176.7585   -488.4433     25.7943    153.9469
   322.5000    158.1310   -473.4954     24.6542    157.7350
   322.7500    143.4248   -457.8542     23.6550    159.1504
   323.0000    132.6700   -443.0313     22.7833    159.6254
   323.2500    122.6961   -430.6583     22.0172    159.2943
   323.5000    109.9515   -422.2484     21.3405    158.5719
   323.7500     94.5744   -418.9386     20.7457    158.0334
   324.0000     80.6153   -421.2657     20.2303    156.8233
   324.2500     72.1001   -429.0390     19.7940    155.5640
   324.5000     70.1545   -441.3493     19.4370    153.0572
   324.7500     73.9402   -456.7175     19.1573    151.2048
   325.0000     82.8617   -473.3551     18.9472    148.6016
   325.2500     97.8055   -489.4690     18.7930    147.1743
   325.5000    121.0044   -503.5361     18.6804    145.6745
   325.7500    154.0407   -514.4908     18.5995    145.1030
   326.0000    194.5397   -521.7913     18.5438    144.6242
   326.2500    235.9790   -525.3828     18.5050    144.3103
   326.5000    273.2225   -525.5779     18.4716    143.5458
   326.7500    308.0755   -522.9017     18.4339    142.8346
   327.0000    345.9885   -517.9386     18.3909    141.6203
   327.2500    384.8344   -511.2120     18.3517    140.7489
   327.5000    409.0296   -503.1063     18.3308    139.1497
   327.7500    399.1794   -493.8404     18.3420    137.7482
   328.0000    349.0087   -483.4790     18.3960    135.2029
   328.2500    272.0419   -471.9707     18.5046    133.3341
   328.5000    192.6681   -459.2007     18.6845    130.2218
   328.7500    131.5654   -445.0551     18.9553    127.8157
   329.0000     97.0500   -429.4868     19.3280    123.6805
   329.2500     85.9350   -412.5910     19.7907    120.6164
   329.5000     89.7420   -394.7007     20.3046    115.6627
   329.7500    100.1954   -376.4770     20.8157    112.4126
   330.0000    111.2052   -358.9687     21.2757    108.5907
   330.2500    118.5573   -343.5991     21.6558    107.1166
   330.5000    119.4675   -332.0359     21.9457    106.0846
   330.7500    113.1206   -325.9403     22.1453    105.6447
   331.0000    101.3116   -326.6331     22.2604    105.2163
