~Version Information
VERS.                      2.0: CWLS Log ASCII Standard - VERSION 2.0
WRAP.                       NO: One line per depth step
~Well Information Block
STRT.FT                -7.7500: 
STOP.FT              2446.5000: 
STEP.FT                 0.2500: 
NULL.                -999.2500: 
COMP.          XTO Energy Inc.: COMPANY
WELL.          Hill Ranch 15-09: WELL
FLD.           Purgatoire River: FIELD
LOC.           1816' FSL & 521' FEL: LOCATION
STAT.                 Colorado: State
CNTY.               Las Animas: COUNTY
CTRY. USA : Country
SECT. 15 : Section
TOWN. 35S : Township
RANG. 67W : Range
SRVC.          Patterson Wireline: SERVICE COMPANY
DATE.          Fri Dec 09 17:49:58 2005: LOG DATE
API. 05-071-08474                          : UNIQUE WELL ID
~Curve Information Block
DEPT.FT            0 000 00 00: Depth
CCL.                          : Casing Collar Locator
TT3.usec                      : CBL 3' Travel Time
AMP3.mV                       : CBL 3' Amplitude
AMP5.mV                       : CBL 5' Amplitude
GR.GAPI                       : Gamma Ray
~Parameter Information Block
~A  Depth       CCL         TT3         AMP3        AMP5         GR     
    -7.7500   -999.2500   -999.2500   -999.2500   -999.2500     12.4641
    -7.5000   -999.2500   -999.2500   -999.2500   -999.2500     15.0257
    -7.2500   -999.2500   -999.2500   -999.2500   -999.2500     18.5828
    -7.0000   -999.2500   -999.2500   -999.2500   -999.2500     24.1594
    -6.7500   -999.2500   -999.2500   -999.2500   -999.2500     32.6380
    -6.5000   -999.2500   -999.2500   -999.2500   -999.2500     43.8727
    -6.2500   -999.2500   -999.2500   -999.2500   -999.2500     56.5675
    -6.0000   -999.2500   -999.2500   -999.2500   -999.2500     69.0829
    -5.7500   -999.2500   -999.2500   -999.2500   -999.2500     80.3166
    -5.5000   -999.2500   -999.2500   -999.2500   -999.2500     89.6064
    -5.2500   -999.2500   -999.2500   -999.2500   -999.2500     95.9190
    -5.0000   -999.2500   -999.2500   -999.2500   -999.2500     97.7484
    -4.7500   -999.2500   -999.2500   -999.2500   -999.2500     94.2479
    -4.5000   -999.2500   -999.2500   -999.2500   -999.2500     86.3817
    -4.2500   -999.2500   -999.2500   -999.2500   -999.2500     76.7364
    -4.0000   -999.2500   -999.2500   -999.2500   -999.2500     68.1115
    -3.7500   -999.2500   -999.2500   -999.2500     12.2503     62.2367
    -3.5000   -999.2500   -999.2500   -999.2500     17.0844     59.5942
    -3.2500   -999.2500   -999.2500   -999.2500     21.5471     60.0109
    -3.0000   -999.2500   -999.2500   -999.2500     24.9073     63.0965
    -2.7500   -999.2500    295.1840     43.3366     26.9984     68.1728
    -2.5000   -999.2500    287.1153     52.6832     28.1781     74.0795
    -2.2500   -999.2500    278.0702     63.3428     29.3023     79.2692
    -2.0000   -999.2500    270.1893     72.8384     31.7489     82.3001
    -1.7500   -999.2500    264.8437     79.5101     36.9853     82.5734
    -1.5000   -999.2500    262.0176     83.2348     45.4537     80.8131
    -1.2500   -999.2500    260.8510     84.8923     55.7361     78.6530
    -1.0000   -999.2500    260.4728     85.4674     65.2560     77.4007
    -0.7500   -999.2500    260.3739     85.5982     72.0623     77.0487
    -0.5000   -999.2500    260.3505     85.5904     75.8459     76.5469
    -0.2500   -999.2500    260.3436     85.5653     77.4451     75.0451
     0.0000   -999.2500    260.3410     85.5612     77.8621     72.7837
     0.2500   -999.2500    260.3357     85.6257     77.5983     69.7673
     0.5000   -999.2500    260.3304     85.6852     77.5008     69.6031
     0.7500   -999.2500    260.3242     85.7456     77.5687     69.6163
     1.0000   -999.2500    260.3171     85.7818     77.7803     69.3316
     1.2500   -999.2500    260.3073     85.7750     78.0465     68.6466
     1.5000   -999.2500    260.2929     85.7284     78.2738     67.5527
     1.7500   -999.2500    260.2754     85.6673     78.4114     66.0294
     2.0000   -999.2500    260.2587     85.6199     78.4431     64.1764
     2.2500   -999.2500    260.2464     85.5962     78.3700     62.1944
     2.5000   -999.2500    260.2390     85.5829     78.2353     60.2394
     2.7500      0.0000    260.2336     85.5593     78.1302     58.4446
     3.0000      0.0000    260.2273     85.5161     78.1229     57.0148
     3.2500      0.0000    260.2190     85.4628     78.1907     56.1854
     3.5000      0.0000    260.2099     85.4213     78.2619     56.1318
     3.7500      0.0000    260.2023     85.4109     78.3052     56.8570
     4.0000      0.0000    260.1991     85.4327     78.3363     58.0529
     4.2500      0.0000    260.2022     85.4656     78.3606     59.2368
     4.5000      0.0000    260.2108     85.4861     78.3661     60.2337
     4.7500      0.0000    260.2216     85.4912     78.3638     61.3581
     5.0000      0.0000    260.2311     85.4953     78.3877     62.9014
     5.2500      0.0000    260.2373     85.5082     78.4506     64.6269
     5.5000      0.0000    260.2391     85.5283     78.5238     65.9565
     5.7500      0.0000    260.2359     85.5537     78.5605     66.5259
     6.0000      0.0000    260.2294     85.5877     78.5362     66.4579
     6.2500      0.0000    260.2225     85.6290     78.4695     66.1852
     6.5000      0.0000    260.2170     85.6639     78.4088     66.0631
     6.7500      0.0000    260.2115     85.6722     78.3979     66.1485
     7.0000      0.0000    260.2039     85.6431     78.4454     66.2691
     7.2500      0.0000    260.1945     85.5854     78.5173     66.1971
     7.5000      0.0000    260.1873     85.5233     78.5563     65.8293
     7.7500      0.0000    260.1862     85.4827     78.5246     65.3429
     8.0000      0.0000    260.1920     85.4760     78.4390     65.0938
     8.2500      0.0000    260.2012     85.4975     78.3611     65.2212
     8.5000      0.0000    260.2089     85.5316     78.3445     65.4295
     8.7500      0.0000    260.2134     85.5655     78.3968     65.2395
     9.0000      0.0000    260.2170     85.5937     78.4894     64.3509
     9.2500      0.0000    260.2232     85.6138     78.5949     62.8023
     9.5000      0.0000    260.2329     85.6244     78.7039     61.0345
     9.7500      0.0000    260.2432     85.6271     78.8048     59.8014
    10.0000      0.0000    260.2489     85.6261     78.8653     59.7118
    10.2500      0.0000    260.2463     85.6241     78.8539     60.7076
    10.5000      0.0000    260.2366     85.6208     78.7743     62.1006
    10.7500      0.0000    260.2253     85.6155     78.6620     63.1695
    11.0000      0.0000    260.2171     85.6089     78.5526     63.6867
    11.2500      0.0000    260.2126     85.6006     78.4620     63.9528
    11.5000      0.0000    260.2098     85.5880     78.3853     64.4608
    11.7500      0.0000    260.2090     85.5690     78.3054     65.5501
    12.0000      0.0000    260.2122     85.5472     78.2132     67.2071
    12.2500      0.0000    260.2202     85.5326     78.1249     69.0420
    12.5000      0.0000    260.2297     85.5321     78.0711     70.5003
    12.7500      0.0000    260.2357     85.5394     78.0684     71.2496
    13.0000      0.0000    260.2353     85.5390     78.1140     71.4317
    13.2500      0.0000    260.2289     85.5248     78.2063     71.5650
    13.5000      0.0000    260.2197     85.5089     78.3489     72.1441
    13.7500      0.0000    260.2116     85.5081     78.5290     73.1889
    14.0000      0.0000    260.2067     85.5275     78.7084     74.2120
    14.2500      0.0000    260.2051     85.5629     78.8515     74.7980
    14.5000      0.0000    260.2053     85.6089     78.9488     75.1485
    14.7500      0.0000    260.2062     85.6573     79.0008     75.8479
    15.0000      0.0000    260.2080     85.6969     78.9893     77.1482
    15.2500      0.0000    260.2109     85.7255     78.8792     78.6570
    15.5000      0.0000    260.2147     85.7568     78.6484     79.6570
    15.7500      0.0000    260.2180     85.8060     78.3220     79.6968
    16.0000      0.0000    260.2187     85.8723     77.9830     79.0456
    16.2500      0.0000    260.2162     85.9376     77.7360     78.6130
    16.5000      0.0000    260.2125     85.9811     77.6346     79.2332
    16.7500      0.0000    260.2111     85.9919     77.6356     80.9344
    17.0000      0.0000    260.2142     85.9734     77.6409     82.9040
    17.2500      0.0000    260.2208     85.9384     77.5973     84.1092
    17.5000      0.0000    260.2289     85.9031     77.5383     83.9632
    17.7500      0.0000    260.2377     85.8794     77.5178     82.6097
    18.0000      0.0000    260.2477     85.8672     77.5326     80.7756
    18.2500      0.0000    260.2589     85.8530     77.5402     79.3491
    18.5000      0.0000    260.2689     85.8237     77.5196     78.9832
    18.7500      0.0000    260.2752     85.7837     77.4694     79.9009
    19.0000      0.0000    260.2783     85.7537     77.3772     81.7536
    19.2500      0.0000    260.2816     85.7518     77.2368     83.6042
    19.5000      0.0000    260.2879     85.7789     77.0812     84.3789
    19.7500      0.0000    260.2968     85.8177     76.9567     83.7281
    20.0000      0.0000    260.3051     85.8387     76.8820     82.4345
