~Version Information
VERS.                      2.0: CWLS Log ASCII Standard - VERSION 2.0
WRAP.                       NO: One line per depth step
~Well Information Block
STRT.FT               550.0000: 
STOP.FT              1500.5000: 
STEP.FT                 0.2500: 
NULL.                -999.2500: 
COMP.          Pioneer Natural Resources: COMPANY
WELL.          Surtees 23-34 Tr: WELL
FLD.           Purgatoire River: FIELD
LOC.           1559' FSL & 1997' FWL: LOCATION
PROV.                 Colorado: PROVINCE
CNTY.               Las Animas: COUNTRY
SRVC.                Patterson: SERVICE COMPANY
DATE.          Tue Jul 26 23:47:42 2005: LOG DATE
UWI.           05 071 08449 00: UNIQUE WELL ID
~Curve Information Block
DEPT.FT            0 000 00 00: Depth
SN.Ohm-m                      : IEL Short Normal
SP.mV                         : IEL Spontaneous Potential
DIR.Ohm-m                     : IEL Induction Resistivity
GR.GAPI                       : Gamma Ray
~Parameter Information Block
~A  Depth        SN          SP         DIR          GR     
# ...
   851.5000   2000.0000   2000.0000     12.8403     87.5560
   851.7500   2000.0000   2000.0000     13.2395     81.5683
   852.0000   2000.0000   2000.0000     13.6393     75.9051
   852.2500   2000.0000   2000.0000     14.0292     74.5438
   852.5000   2000.0000   2000.0000     14.3833     75.9392
   852.7500   2000.0000   2000.0000     14.6698     78.7688
   853.0000   2000.0000   2000.0000     14.8619     84.8204
   853.2500   2000.0000   2000.0000     14.9446     89.3740
   853.5000   2000.0000   2000.0000     14.9150     95.9631
   853.7500   2000.0000   2000.0000     14.7788     99.8152
   854.0000   2000.0000   2000.0000     14.5472    104.8044
   854.2500   2000.0000   2000.0000     14.2388    108.0781
   854.5000   2000.0000   2000.0000     13.8829    113.9366
   854.7500   2000.0000   2000.0000     13.5142    118.5850
   855.0000   2000.0000   2000.0000     13.1620    125.4327
   855.2500   2000.0000   2000.0000     12.8392    128.7855
   855.5000   2000.0000   2000.0000     12.5407    130.8894
   855.7500   2000.0000   2000.0000     12.2482    130.6508
   856.0000   2000.0000   2000.0000     11.9417    129.5155
   856.2500   2000.0000   2000.0000     11.6119    129.1687
   856.5000   2000.0000   2000.0000     11.2676    129.7717
   856.7500   2000.0000   2000.0000     10.9320    130.6508
   857.0000   2000.0000   2000.0000     10.6295    132.0628
   857.2500   2000.0000   2000.0000     10.3721    132.9184
   857.5000   2000.0000   2000.0000     10.1569    134.2084
   857.7500   2000.0000   2000.0000      9.9737    135.2294
   858.0000   2000.0000   2000.0000      9.8154    137.0267
   858.2500   2000.0000   2000.0000      9.6842    138.1878
   858.5000   2000.0000   2000.0000      9.5890    139.4530
   858.7500   2000.0000   2000.0000      9.5398    139.8950
   859.0000   2000.0000   2000.0000      9.5426    140.0255
   859.2500   2000.0000   2000.0000      9.5971    139.8170
   859.5000   2000.0000   2000.0000      9.6981    139.0862
   859.7500   2000.0000   2000.0000      9.8360    138.1860
   860.0000   2000.0000   2000.0000     10.0004    135.7471
   860.2500   2000.0000   2000.0000     10.1827    133.3098
   860.5000   2000.0000   2000.0000     10.3812    129.1047
   860.7500   2000.0000   2000.0000     10.6034    126.5121
   861.0000   2000.0000   2000.0000     10.8660    123.4193
   861.2500   2000.0000   2000.0000     11.1909    121.9313
   861.5000   2000.0000   2000.0000     11.6009    120.8553
   861.7500   2000.0000   2000.0000     12.1164    121.1349
   862.0000   2000.0000   2000.0000     12.7524    122.6240
   862.2500   2000.0000   2000.0000     13.5150    123.4019
   862.5000   2000.0000   2000.0000     14.3966    122.3850
   862.7500   2000.0000   2000.0000     15.3699    119.8546
   863.0000   2000.0000   2000.0000     16.3836    114.4265
   863.2500   2000.0000   2000.0000     17.3644    110.8169
   863.5000   2000.0000   2000.0000     18.2296    106.2995
   863.7500   2000.0000   2000.0000     18.9113    103.6341
   864.0000   2000.0000   2000.0000     19.3744     99.6410
   864.2500   2000.0000   2000.0000     19.6142     97.2589
   864.5000   2000.0000   2000.0000     19.6363     95.3384
   864.7500   2000.0000   2000.0000     19.4474     95.6668
   865.0000   2000.0000   2000.0000     19.0659     98.2290
   865.2500   2000.0000   2000.0000     18.5364    100.6161
   865.5000   2000.0000   2000.0000     17.9228    104.3108
   865.7500   2000.0000   2000.0000     17.2835    106.8913
   866.0000   2000.0000   2000.0000     16.6511    111.8251
   866.2500   2000.0000   2000.0000     16.0321    116.3927
   866.5000   2000.0000   2000.0000     15.4222    125.3308
   866.7500   2000.0000   2000.0000     14.8218    132.0483
   867.0000   2000.0000   2000.0000     14.2387    141.3979
   867.2500   2000.0000   2000.0000     13.6789    146.2165
   867.5000   2000.0000   2000.0000     13.1407    150.7685
   867.7500   2000.0000   2000.0000     12.6186    152.2318
   868.0000   2000.0000   2000.0000     12.1127    152.6599
   868.2500   2000.0000   2000.0000     11.6334    151.8904
   868.5000   2000.0000   2000.0000     11.1969    149.0682
   868.7500   2000.0000   2000.0000     10.8175    146.3056
   869.0000   2000.0000   2000.0000     10.5036    142.1980
   869.2500   2000.0000   2000.0000     10.2583    140.4804
   869.5000   2000.0000   2000.0000     10.0797    140.5386
   869.7500   2000.0000   2000.0000      9.9625    142.4489
   870.0000   2000.0000   2000.0000      9.8988    147.3614
   870.2500   2000.0000   2000.0000      9.8800    150.9754
   870.5000   2000.0000   2000.0000      9.8995    154.9084
   870.7500   2000.0000   2000.0000      9.9533    155.9937
   871.0000   2000.0000   2000.0000     10.0399    155.8347
   871.2500   2000.0000   2000.0000     10.1581    155.0746
   871.5000   2000.0000   2000.0000     10.3054    153.1686
   871.7500   2000.0000   2000.0000     10.4770    151.1222
   872.0000   2000.0000   2000.0000     10.6650    146.4976
   872.2500   2000.0000   2000.0000     10.8582    142.4914
   872.5000   2000.0000   2000.0000     11.0427    135.7502
   872.7500   2000.0000   2000.0000     11.2053    131.0549
   873.0000   2000.0000   2000.0000     11.3385    123.7196
   873.2500   2000.0000   2000.0000     11.4411    118.7242
   873.5000   2000.0000   2000.0000     11.5175    112.1957
   873.7500   2000.0000   2000.0000     11.5752    109.5290
   874.0000   2000.0000   2000.0000     11.6252    109.2607
   874.2500   2000.0000   2000.0000     11.6824    111.5124
   874.5000   2000.0000   2000.0000     11.7608    117.3833
   874.7500   2000.0000   2000.0000     11.8650    122.0470
   875.0000   2000.0000   2000.0000     11.9836    128.8021
   875.2500   2000.0000   2000.0000     12.0906    132.6574
   875.5000   2000.0000   2000.0000     12.1557    137.1507
   875.7500   2000.0000   2000.0000     12.1580    139.2718
   876.0000   2000.0000   2000.0000     12.0940    141.2150
   876.2500   2000.0000   2000.0000     11.9762    141.7741
   876.5000   2000.0000   2000.0000     11.8247    141.7724
   876.7500   2000.0000   2000.0000     11.6586    141.3892
   877.0000   2000.0000   2000.0000     11.4933    140.5171
   877.2500   2000.0000   2000.0000     11.3434    139.9433
   877.5000   2000.0000   2000.0000     11.2256    139.6210
   877.7500   2000.0000   2000.0000     11.1591    139.9467
   878.0000   2000.0000   2000.0000     11.1609    140.8961
   878.2500   2000.0000   2000.0000     11.2407    141.4497
   878.5000   2000.0000   2000.0000     11.3982    141.8200
   878.7500   2000.0000   2000.0000     11.6256    141.6779
   879.0000   2000.0000   2000.0000     11.9135    140.4783
   879.2500   2000.0000   2000.0000     12.2585    138.7255
   879.5000   2000.0000   2000.0000     12.6634    134.4628
   879.7500   2000.0000   2000.0000     13.1318    130.5691
   880.0000   2000.0000   2000.0000     13.6612    123.4397
   880.2500   2000.0000   2000.0000     14.2428    118.3065
   880.5000   2000.0000   2000.0000     14.8702    111.4178
   880.7500   2000.0000   2000.0000     15.5490    108.0221
   881.0000   2000.0000   2000.0000     16.2948    104.5996
   881.2500   2000.0000   2000.0000     17.1203    102.6670
   881.5000   2000.0000   2000.0000     18.0257     98.8510
   881.7500   2000.0000   2000.0000     19.0024     95.3405
   882.0000   2000.0000   2000.0000     20.0452     89.1347
   882.2500   2000.0000   2000.0000     21.1520     85.0566
   882.5000   2000.0000   2000.0000     22.3015     80.0504
   882.7500   2000.0000   2000.0000     23.4288     77.6554
   883.0000   2000.0000   2000.0000     24.4308     75.1407
   883.2500   2000.0000   2000.0000     25.2096     73.8059
   883.5000   2000.0000   2000.0000     25.7190     71.9792
   883.7500   2000.0000   2000.0000     25.9617     71.1013
   884.0000   2000.0000   2000.0000     25.9473     71.2522
   884.2500   2000.0000   2000.0000     25.6711     72.8621
   884.5000   2000.0000   2000.0000     25.1398     77.7924
   884.7500   2000.0000   2000.0000     24.4046     82.4483
