~Version Information
VERS.                      2.0: CWLS Log ASCII Standard - VERSION 2.0
WRAP.                       NO: One line per depth step
~Well Information Block
STRT.FT               830.0000: 
STOP.FT              1782.5000: 
STEP.FT                 0.1000: 
NULL.                -999.2500: 
COMP.          Pioneer Natural Resources: COMPANY
WELL.          Manville 42-14 Tr: WELL
FLD.           Purgatoire River: FIELD
LOC.           2018 FNL & 562' FEL: LOCATION
STAT.                 Colorado: State
CNTY.               Las Animas: COUNTY
CTRY. USA : Country
SECT. 14 : Section
TOWN. 32S : Township
RANG. 66W : Range
SRVC.                Patterson: SERVICE COMPANY
DATE.          Mon Sep 19 09:44:06 2005: LOG DATE
API.           05 071 08522 00: UNIQUE WELL ID
~Curve Information Block
DEPT.FT            0 000 00 00: Depth
DCAL.in                       : CDL Caliper
RHOB.g/cc                     : CDL Bulk Density
RHOC.g/cc                     : CDL Density Correction
DPOR.pu                       : CDL Density Porosity
GR.GAPI                       : Gamma Ray
NPOR.pu                       : Neutron Porosity
~Parameter Information Block
~A  Depth       DCAL        RHOB        RHOC        DPOR         GR         NPOR    
# ...
  1204.4000      8.0551      2.4965      0.0011      9.3031    145.5155     23.7833
  1204.5000      8.0169      2.5031      0.0093      8.9055    139.7537     23.4889
  1204.6000      8.0169      2.5508      0.0910      6.0144    135.0728     23.2732
  1204.7000      8.0169      2.6243      0.3186      1.5588    135.4650     23.2325
  1204.8000      8.0797      2.6770      0.4250     -1.6376    141.0198     23.5014
  1204.9000      8.0797      2.6731      0.4804     -1.3976    147.7061     23.9605
  1205.0000      8.1932      2.6254      0.2929      1.4880    151.8261     24.5381
  1205.1000      8.1932      2.5813      0.2188      4.1647    153.6336     25.4195
  1205.2000      8.1932      2.5652      0.1912      5.1412    153.7184     26.5003
  1205.3000      8.1978      2.5608      0.1683      5.4080    152.8511     27.5436
  1205.4000      8.1978      2.5495      0.0952      6.0935    150.3058     28.2340
  1205.5000      8.1883      2.5327      0.1215      7.1071    146.6788     28.5401
  1205.6000      8.1883      2.5137      0.1395      8.2619    144.3748     28.9433
  1205.7000      8.1883      2.4894      0.0908      9.7335    142.7891     29.3380
  1205.8000      8.1639      2.4588      0.0863     11.5875    140.7756     29.2974
  1205.9000      8.1639      2.4295      0.0185     13.3639    139.9447     29.0322
  1206.0000      8.1790      2.4246     -0.0462     13.6613    142.2861     28.8513
  1206.1000      8.1790      2.4468      0.0552     12.3138    148.6945     28.5880
  1206.2000      8.1790      2.4693      0.0145     10.9491    157.4514     28.0147
  1206.3000      8.1810      2.4911      0.0067      9.6327    162.7681     27.3640
  1206.4000      8.1810      2.5309      0.0645      7.2201    159.9201     26.9022
  1206.5000      8.1429      2.5745      0.1924      4.5777    150.7510     26.5099
  1206.6000      8.1429      2.5969      0.1574      3.2175    140.9887     26.1435
  1206.7000      8.1429      2.6040      0.1807      2.7899    137.6180     25.9595
  1206.8000      8.0563      2.6036      0.1666      2.8150    140.3990     25.7563
  1206.9000      8.0563      2.5940      0.1140      3.3920    141.2059     25.2259
  1207.0000      8.0278      2.5807      0.1379      4.2026    137.3872     24.7082
  1207.1000      8.0278      2.5631      0.1412      5.2642    134.3685     24.5067
  1207.2000      8.0278      2.5363      0.0854      6.8908    134.2539     24.4523
  1207.3000      8.0419      2.5120      0.0551      8.3608    131.6104     24.4776
  1207.4000      8.0419      2.5078      0.1022      8.6178    126.1138     24.5668
  1207.5000      8.0847      2.5222      0.1281      7.7480    126.4102     24.5292
  1207.6000      8.0847      2.5370      0.1375      6.8465    132.4152     24.4279
  1207.7000      8.0847      2.5371      0.1657      6.8426    136.5407     24.5244
  1207.8000      8.0890      2.5302      0.1008      7.2593    138.5731     24.7282
  1207.9000      8.0890      2.5316      0.1542      7.1758    143.4223     24.6882
  1208.0000      8.0577      2.5334      0.1516      7.0677    152.2262     24.3809
  1208.1000      8.0577      2.5219      0.1297      7.7658    157.6513     24.3871
  1208.2000      8.0577      2.5048      0.0495      8.7975    155.7658     24.9637
  1208.3000      8.0727      2.4984      0.0551      9.1852    154.8732     25.6354
  1208.4000      8.0727      2.5023      0.0329      8.9541    159.6110     26.1248
  1208.5000      8.1123      2.5041      0.0595      8.8448    161.0945     26.6682
  1208.6000      8.1123      2.5003      0.0847      9.0723    151.1617     27.2067
  1208.7000      8.1123      2.4985      0.0904      9.1828    134.7287     27.5215
  1208.8000      8.1441      2.4993      0.0924      9.1350    124.5015     27.9277
  1208.9000      8.1441      2.4966      0.0557      9.2974    126.7774     28.7125
  1209.0000      8.1383      2.4905      0.0686      9.6665    134.3591     29.3508
  1209.1000      8.1383      2.4956     -0.0166      9.3596    137.9700     29.2608
  1209.2000      8.1383      2.5283      0.0221      7.3765    134.6615     28.7814
  1209.3000      8.1193      2.5764      0.0452      4.4635    125.7110     28.4580
  1209.4000      8.1193      2.6108      0.0856      2.3732    114.9669     28.3104
  1209.5000      8.1212      2.6263      0.0842      1.4379    107.9712     27.9119
  1209.6000      8.1212      2.6367      0.0731      0.8038    106.4180     27.0323
  1209.7000      8.1212      2.6476      0.1062      0.1430    106.6229     26.2535
  1209.8000      8.1104      2.6508      0.1015     -0.0473    105.2514     26.0263
  1209.9000      8.1104      2.6449      0.0246      0.3076    101.8814     25.9206
  1210.0000      8.0636      2.6448      0.0046      0.3157     98.2725     25.4695
  1210.1000      8.0636      2.6465      0.0563      0.2147     94.4554     24.5257
  1210.2000      8.0636      2.6277      0.0769      1.3520     88.0808     23.1180
  1210.3000      8.0584      2.5938     -0.0036      3.4068     79.2669     21.5567
  1210.4000      8.0584      2.5733     -0.0500      4.6495     72.6177     20.4855
  1210.5000      8.0264      2.5750     -0.0228      4.5449     72.9968     20.2958
  1210.6000      8.0264      2.5796      0.0301      4.2683     78.4709     20.5940
  1210.7000      8.0264      2.5750      0.0066      4.5429     82.7064     20.8406
  1210.8000      8.0509      2.5697      0.0148      4.8670     83.9796     21.0594
  1210.9000      8.0509      2.5684      0.0327      4.9468     87.4044     21.3692
  1211.0000      8.0685      2.5693      0.0407      4.8885     96.7171     21.8743
  1211.1000      8.0685      2.5767      0.0373      4.4399    106.0212     22.4826
  1211.2000      8.0685      2.5881      0.1018      3.7530    109.0162     22.8914
  1211.3000      8.0719      2.5813      0.1377      4.1661    109.7259     23.3239
  1211.4000      8.0719      2.5518      0.0627      5.9513    112.7546     24.1668
  1211.5000      8.0780      2.5293      0.0224      7.3165    117.3369     25.1405
  1211.6000      8.0780      2.5300      0.0512      7.2743    124.3121     25.6961
  1211.7000      8.0780      2.5356      0.0543      6.9305    134.0172     25.8123
  1211.8000      8.1176      2.5263      0.0522      7.4965    139.7748     25.7036
  1211.9000      8.1176      2.5055     -0.0011      8.7573    139.8016     25.4664
  1212.0000      8.1707      2.4901      0.0089      9.6924    136.9072     25.3166
  1212.1000      8.1707      2.4911     -0.0391      9.6328    133.7811     25.5878
  1212.2000      8.1707      2.5056      0.0033      8.7488    134.6871     26.1226
  1212.3000      8.1740      2.5229     -0.0128      7.7007    136.8327     26.3301
  1212.4000      8.1740      2.5399     -0.0051      6.6737    132.7912     26.0458
  1212.5000      8.1276      2.5563      0.0650      5.6798    127.0583     25.8217
  1212.6000      8.1276      2.5770     -0.0056      4.4258    128.3249     25.8632
  1212.7000      8.1276      2.6071      0.0712      2.5984    130.9059     25.7999
  1212.8000      8.1038      2.6312      0.0785      1.1386    126.0144     25.6998
  1212.9000      8.1038      2.6395      0.0487      0.6369    116.9700     25.7976
  1213.0000      8.0625      2.6385      0.0631      0.6942    111.1794     25.8067
  1213.1000      8.0625      2.6324      0.0574      1.0665    108.2666     25.4360
  1213.2000      8.0625      2.6271      0.0204      1.3906    104.9942     24.8029
  1213.3000      8.0372      2.6271      0.0415      1.3909    102.5928     24.1505
  1213.4000      8.0372      2.6250      0.0326      1.5164    101.6442     23.8118
  1213.5000      8.0275      2.6175      0.0249      1.9713    100.0974     23.9667
  1213.6000      8.0275      2.6071      0.0430      2.5991     98.9553     24.5094
  1213.7000      8.0275      2.5851      0.0666      3.9353     99.6812     25.1828
  1213.8000      8.0502      2.5433      0.0267      6.4645    100.9498     25.4638
  1213.9000      8.0502      2.4953     -0.0339      9.3774    104.4943     24.8202
