~Version Information
VERS.                      2.0: CWLS Log ASCII Standard - VERSION 2.0
WRAP.                       NO: One line per depth step
~Well Information Block
STRT.FT               240.0000: 
STOP.FT              1252.5000: 
STEP.FT                 0.2500: 
NULL.                -999.2500: 
COMP.          Pioneer Natural Resources: COMPANY
WELL.             Margaux 11-1: WELL
FLD.           Purgatoire River: FIELD
LOC.           1154' FNL & 472' FWL: LOCATION
PROV.                 Colorado: PROVINCE
CNTY.               Las Animas: COUNTRY
SRVC.                Patterson: SERVICE COMPANY
DATE.          Mon Dec 19 04:21:59 2005: LOG DATE
UWI.           05 071 08639 00: UNIQUE WELL ID
~Curve Information Block
DEPT.FT            0 000 00 00: Depth
SN.Ohm-m                      : IEL Short Normal
SP.mV                         : IEL Spontaneous Potential
DIR.Ohm-m                     : IEL Induction Resistivity
GR.GAPI                       : Gamma Ray
~Parameter Information Block
~A  Depth        SN          SP         DIR          GR     
# ...
   642.0000     17.5916      1.3346     16.7781    109.0798
   642.2500     17.1941      1.0397     16.2179    110.1969
   642.5000     17.0552      0.6520     15.7988    112.1931
   642.7500     17.0909      0.2062     15.5120    113.0802
   643.0000     17.1968     -0.2407     15.3253    113.8083
   643.2500     17.3522     -0.6322     15.1910    114.3968
   643.5000     17.5057     -0.9338     15.0526    116.1477
   643.7500     17.5623     -1.1395     14.8602    117.8495
   644.0000     17.5177     -1.2621     14.5872    120.3308
   644.2500     17.3770     -1.3194     14.2374    121.3129
   644.5000     17.0998     -1.3296     13.8371    121.4004
   644.7500     16.7351     -1.3112     13.4198    120.9270
   645.0000     16.3954     -1.2829     13.0158    120.5903
   645.2500     16.1444     -1.2616     12.6472    121.1507
   645.5000     15.9545     -1.2606     12.3265    123.5582
   645.7500     15.7046     -1.2892     12.0558    126.1497
   646.0000     15.2771     -1.3539     11.8293    130.8109
   646.2500     14.7261     -1.4564     11.6349    133.7170
   646.5000     14.2781     -1.5900     11.4577    136.6900
   646.7500     14.0809     -1.7381     11.2834    137.5745
   647.0000     13.9978     -1.8802     11.1025    137.6508
   647.2500     13.7830     -2.0004     10.9156    137.1407
   647.5000     13.4066     -2.0932     10.7345    135.7970
   647.7500     13.0488     -2.1647     10.5777    134.7988
   648.0000     12.8465     -2.2320     10.4624    134.2002
   648.2500     12.7669     -2.3162     10.3967    135.1143
   648.5000     12.7408     -2.4331     10.3770    138.9643
   648.7500     12.7847     -2.5840     10.3919    142.7727
   649.0000     12.9252     -2.7545     10.4303    148.6756
   649.2500     13.1277     -2.9215     10.4877    151.6037
   649.5000     13.3516     -3.0609     10.5660    152.9544
   649.7500     13.5580     -3.1533     10.6684    151.3703
   650.0000     13.6529     -3.1866     10.7947    145.5439
   650.2500     13.6182     -3.1584     10.9428    140.2330
   650.5000     13.6759     -3.0796     11.1139    132.3706
   650.7500     14.0500     -2.9749     11.3185    128.4280
   651.0000     14.6480     -2.8785     11.5757    125.6367
   651.2500     15.1909     -2.8238     11.9054    125.7610
   651.5000     15.5317     -2.8311     12.3178    127.5191
   651.7500     15.7259     -2.8989     12.8074    128.6447
   652.0000     15.8830     -3.0045     13.3563    128.9577
   652.2500     16.0795     -3.1156     13.9415    127.9416
   652.5000     16.4396     -3.2041     14.5427    124.3306
   652.7500     17.1164     -3.2535     15.1432    120.3270
   653.0000     18.0565     -3.2601     15.7296    111.6134
   653.2500     19.0028     -3.2329     16.2890    104.1681
   653.5000     19.8309     -3.1946     16.8080     92.0400
   653.7500     20.6574     -3.1758     17.2725     84.7510
   654.0000     21.5889     -3.2026     17.6755     77.2254
   654.2500     22.5146     -3.2859     18.0254     75.1077
   654.5000     23.1588     -3.4208     18.3485     76.4612
   654.7500     23.2925     -3.5940     18.6758     80.3355
   655.0000     22.9068     -3.7911     19.0232     90.1796
   655.2500     22.2132     -4.0014     19.3771     98.5717
   655.5000     21.5304     -4.2193     19.6964    111.0852
   655.7500     21.0907     -4.4401     19.9288    117.3950
   656.0000     20.8281     -4.6564     20.0327    121.3071
   656.2500     20.4860     -4.8597     19.9877    119.8896
   656.5000     19.9812     -5.0453     19.7907    113.3390
   656.7500     19.4770     -5.2143     19.4490    107.8139
   657.0000     19.1957     -5.3724     18.9874    100.7760
   657.2500     19.2644     -5.5285     18.4617     97.7991
   657.5000     19.6144     -5.6934     17.9560     95.6034
   657.7500     20.0499     -5.8760     17.5569     94.9305
   658.0000     20.4095     -6.0782     17.3210     94.2095
   658.2500     20.6159     -6.2912     17.2617     94.0011
   658.5000     20.6459     -6.4991     17.3585     95.1750
   658.7500     20.4965     -6.6834     17.5769     97.5863
   659.0000     20.1865     -6.8273     17.8836    103.5189
   659.2500     19.7823     -6.9203     18.2479    108.0272
   659.5000     19.4388     -6.9666     18.6366    113.2486
   659.7500     19.3378     -6.9889     19.0157    114.6635
   660.0000     19.5245     -7.0213     19.3643    113.2696
   660.2500     19.9221     -7.0923     19.6917    110.4958
   660.5000     20.4837     -7.2093     20.0405    104.9316
   660.7500     21.2594     -7.3556     20.4672    100.8856
   661.0000     22.3238     -7.4992     21.0113     94.6368
   661.2500     23.6272     -7.6081     21.6709     90.3730
   661.5000     24.9723     -7.6673     22.4015     84.2018
   661.7500     26.1980     -7.6866     23.1353     80.6775
   662.0000     27.2917     -7.6929     23.8029     76.8703
   662.2500     28.2631     -7.7095     24.3448     75.2670
   662.5000     29.0506     -7.7379     24.7193     73.5338
   662.7500     29.5680     -7.7590     24.9195     72.4095
   663.0000     29.7628     -7.7522     24.9860     70.7974
   663.2500     29.6727     -7.7125     24.9892     70.2448
   663.5000     29.3719     -7.6557     24.9817     71.2838
   663.7500     28.7816     -7.6101     24.9599     73.7271
   664.0000     27.7282     -7.6034     24.8660     80.2053
   664.2500     26.3394     -7.6494     24.6287     85.8783
   664.5000     25.1127     -7.7437     24.2090     94.4835
   664.7500     24.3825     -7.8675     23.6193     98.9935
   665.0000     23.9219     -7.9937     22.9069    102.5258
   665.2500     23.2692     -8.0957     22.1257    102.6935
   665.5000     22.3660     -8.1569     21.3183    100.6985
   665.7500     21.6436     -8.1760     20.5153     98.7639
   666.0000     21.4471     -8.1661     19.7443     96.5470
   666.2500     21.6629     -8.1456     19.0348     96.3831
   666.5000     21.9159     -8.1256     18.4143     99.0623
   666.7500     21.8590     -8.1034     17.8973    102.7400
   667.0000     21.3690     -8.0665     17.4775    109.8322
   667.2500     20.6040     -8.0025     17.1307    114.6487
   667.5000     19.7876     -7.9045     16.8275    121.0968
   667.7500     19.0010     -7.7717     16.5470    124.9949
   668.0000     18.2119     -7.6103     16.2844    130.8693
   668.2500     17.4358     -7.4326     16.0467    134.8231
   668.5000     16.8270     -7.2543     15.8450    139.8314
   668.7500     16.5332     -7.0943     15.6898    141.7890
   669.0000     16.5120     -6.9736     15.5901    142.1074
   669.2500     16.5844     -6.9120     15.5533    140.8352
   669.5000     16.5965     -6.9211     15.5821    137.3361
   669.7500     16.5233     -6.9971     15.6719    134.0592
   670.0000     16.5247     -7.1184     15.8106    127.7936
   670.2500     16.8380     -7.2502     15.9813    123.0268
   670.5000     17.5189     -7.3560     16.1640    115.8167
   670.7500     18.4070     -7.4099     16.3341    111.1669
   671.0000     19.3402     -7.4056     16.4635    104.0554
   671.2500     20.2511     -7.3564     16.5273     99.0427
   671.5000     21.0540     -7.2865     16.5120     91.7296
   671.7500     21.5965     -7.2180     16.4165     87.7848
   672.0000     21.7916     -7.1627     16.2440     84.5202
   672.2500     21.6430     -7.1211     15.9932     84.5663
   672.5000     21.1181     -7.0882     15.6585     88.3966
   672.7500     20.2012     -7.0642     15.2401     93.3932
   673.0000     19.0358     -7.0592     14.7544    103.3709
   673.2500     17.8860     -7.0865     14.2347    110.4495
   673.5000     16.9861     -7.1496     13.7199    119.7457
   673.7500     16.3478     -7.2366     13.2392    124.5153
   674.0000     15.7568     -7.3272     12.8055    129.6801
   674.2500     15.0705     -7.4042     12.4221    132.1965
   674.5000     14.3721     -7.4589     12.0964    135.2526
   674.7500     13.8373     -7.4862     11.8465    137.1255
   675.0000     13.5745     -7.4832     11.6941    139.9206
   675.2500     13.5587     -7.4584     11.6507    141.3844
