~Version Information
VERS.                      2.0: CWLS Log ASCII Standard - VERSION 2.0
WRAP.                       NO: One line per depth step
~Well Information Block
STRT.FT               -10.0000: 
STOP.FT              1703.5000: 
STEP.FT                 0.2500: 
NULL.                -999.2500: 
COMP.          Pioneer Natural Resources: COMPANY
WELL.          Parrothead 31-31 Tr: WELL
FLD.           Purgatoire River: FIELD
LOC.           496' FNL & 1546' FEL--: LOCATION
PROV.                       CO: PROVINCE
CNTY.               Las Animas: COUNTRY
SRVC.          Patterson Wireline: SERVICE COMPANY
DATE.          Mon Nov 14 09:44:02 2005: LOG DATE
UWI.           05 071 08610 00: UNIQUE WELL ID
~Curve Information Block
DEPT.FT            0 000 00 00: Depth
CCL.                          : Casing Collar Locator
TT3.usec                      : CBL 3' Travel Time
AMP3.mV                       : CBL 3' Amplitude
GR.GAPI                       : Gamma Ray
~Parameter Information Block
~A  Depth       CCL         TT3         AMP3         GR     
# ...
   760.5000      0.0000    744.3509      6.6880    152.7488
   760.7500      0.0000    744.0737      6.6933    144.9622
   761.0000      0.0000    743.8121      6.7657    137.8123
   761.2500      0.0000    743.6102      6.8764    132.5585
   761.5000      0.0000    743.4734      6.9912    129.3967
   761.7500      0.0000    743.3954      7.0780    127.8933
   762.0000      0.0000    743.3752      7.1097    127.8116
   762.2500      0.0000    743.4045      7.0751    129.1565
   762.5000      0.0000    743.4584      6.9951    131.2258
   762.7500      0.0000    743.5167      6.9225    132.2111
   763.0000      0.0000    743.5837      6.9135    130.1355
   763.2500      0.0000    743.6791      6.9953    124.0278
   763.5000      0.0000    743.8165      7.1608    114.3336
   763.7500      0.0000    744.0009      7.3901    102.6305
   764.0000      0.0000    744.2340      7.6654     90.8234
   764.2500      0.0000    744.5046      7.9616     80.1694
   764.5000      0.0000    744.7733      8.2276     71.1624
   764.7500      0.0000    744.9747      8.3946     64.4970
   765.0000      0.0000    745.0532      8.4075     61.6105
   765.2500      0.0000    745.0363      8.2449     63.9053
   765.5000      0.0000    745.1285      7.9067     71.6383
   765.7500      0.0000    745.7067      7.3924     83.6056
   766.0000      0.0000    747.2232      6.7066     97.5045
   766.2500      0.0000    750.1872      5.9042    110.6799
   766.5000      0.0000    756.0434      5.1347    121.0879
   766.7500      0.0000    768.8899      4.6007    127.8407
   767.0000      0.0000    795.0724      4.4179    130.9581
   767.2500      0.0000    837.3069      4.5247    130.9033
   767.5000      0.0000    887.6644      4.7655    128.4137
   767.7500      0.0000    929.8906      5.0319    124.3844
   768.0000      0.0000    951.6272      5.2840    119.7105
   768.2500      0.0000    952.8025      5.4877    115.2767
   768.5000      0.0000    941.2606      5.6045    112.1041
   768.7500     -2.0000    923.6455      5.6282    111.4087
   769.0000      0.0000    902.3739      5.6062    114.1858
   769.2500      0.0000    878.1182      5.6272    120.2174
   769.5000      0.0000    851.6609      5.7672    127.4941
   769.7500      0.0000    823.3649      6.0061    133.2932
   770.0000      0.0000    792.7358      6.2191    136.2354
   770.2500      0.0000    760.0276      6.3139    137.2220
   770.5000      0.0000    728.1498      6.3559    138.2979
   770.7500      0.0000    701.3594      6.4970    140.5455
   771.0000      0.0000    681.3958      6.7953    142.9260
   771.2500      0.0000    665.9070      7.1621    143.3093
   771.5000      0.0000    651.5328      7.4692    140.8681
   771.7500      0.0000    638.2983      7.6587    137.0694
   772.0000      0.0000    630.1213      7.7520    134.0023
   772.2500      0.0000    630.1833      7.8036    132.3150
   772.5000      0.0000    635.9087      7.8793    131.0937
   772.7500      0.0000    640.2075      8.0466    129.0081
   773.0000      0.0000    639.4572      8.3363    125.3304
   773.2500      0.0000    639.0298      8.6958    120.4165
   773.5000      0.0000    647.4274      9.0063    115.2655
   773.7500      0.0000    664.4719      9.1684    110.4180
   774.0000      0.0000    678.9803      9.1701    105.6953
   774.2500      0.0000    679.8487      9.0753    101.2927
   774.5000      0.0000    666.8025      8.9656     98.5823
   774.7500      0.0000    648.0828      8.8993     99.2508
   775.0000      0.0000    629.7453      8.9076    103.6018
   775.2500      0.0000    611.7776      9.0045    109.8948
   775.5000      0.0000    594.3765      9.1847    115.5386
   775.7500      0.0000    581.1132      9.4103    119.0357
   776.0000      0.0000    571.9700      9.6121    120.5671
   776.2500      0.0000    558.2928      9.7253    120.9115
   776.5000      0.0000    530.4438      9.7341    120.4940
   776.7500      0.0000    489.5104      9.6801    119.6053
   777.0000      0.0000    448.1900      9.6321    118.8801
   777.2500      0.0000    421.4864      9.6459    119.0804
   777.5000      0.0000    419.2636      9.7351    120.6585
   777.7500      0.0000    444.6740      9.8618    123.6148
   778.0000      0.0000    493.2178      9.9570    127.4016
   778.2500      0.0000    551.9572      9.9592    130.7244
   778.5000      0.0000    604.2747      9.8446    131.6475
   778.7500      0.0000    638.9584      9.6321    128.4081
   779.0000      0.0000    655.0496      9.3680    120.7624
   779.2500      0.0000    658.9578      9.1036    110.7201
   779.5000      0.0000    658.5735      8.8769    101.5563
   779.7500      0.0000    659.1832      8.7082     95.6930
   780.0000      0.0000    662.2701      8.6068     93.4692
   780.2500      0.0000    666.6569      8.5773     93.8112
   780.5000      0.0000    670.7221      8.6135     95.4660
   780.7500      0.0000    673.9352      8.6865     97.3470
   781.0000      0.0000    676.7828      8.7484     98.3469
   781.2500      0.0000    679.7100      8.7582     97.5878
   781.5000      0.0000    682.2346      8.7060     94.9650
   781.7500      0.0000    683.1498      8.6115     91.0969
   782.0000      0.0000    681.6319      8.5029     86.7080
   782.2500      0.0000    677.8763      8.3995     82.1397
   782.5000      0.0000    672.4868      8.3127     77.3302
   782.7500      0.0000    665.7482      8.2539     72.1355
   783.0000      0.0000    658.0487      8.2357     66.6447
   783.2500      0.0000    650.7697      8.2661     61.0623
   783.5000      0.0000    646.0964      8.3436     55.4193
   783.7500      0.0000    645.4093      8.4603     49.7609
   784.0000      0.0000    647.3699      8.6067     44.6021
   784.2500      0.0000    646.8907      8.7698     40.7955
   784.5000      0.0000    636.0270      8.9271     38.9067
   784.7500      0.0000    607.6792      9.0493     39.0588
   785.0000      0.0000    561.0740      9.1187     41.3663
   785.2500      0.0000    504.5531      9.1490     45.9845
   785.5000      0.0000    451.7946      9.1762     52.4442
   785.7500      0.0000    414.4167      9.2248     59.2958
   786.0000      0.0000    398.3797      9.2864     64.7928
   786.2500      0.0000    405.9370      9.3334     67.8688
   786.5000      0.0000    437.1693      9.3471     68.4142
   786.7500      0.0000    487.0685      9.3316     66.9760
   787.0000      0.0000    542.9087      9.3092     64.4693
   787.2500      0.0000    588.5534      9.3017     61.9655
   787.5000      0.0000    612.8255      9.3148     60.3345
   787.7500      0.0000    612.8445      9.3396     59.7996
   788.0000      0.0000    590.8594      9.3722     59.7810
   788.2500      0.0000    551.5050      9.4273     59.3526
   788.5000      0.0000    502.5203      9.5246     58.0595
   788.7500      0.0000    454.4679      9.6603     56.3832
   789.0000      0.0000    416.8013      9.7998     55.3883
   789.2500      0.0000    393.8521      9.9030     55.7278
   789.5000      0.0000    384.5786      9.9568     56.9167
   789.7500      0.0000    385.7371      9.9842     57.8472
   790.0000      0.0000    395.8167     10.0220     58.1548
   790.2500      0.0000    417.0157     10.0836     58.7002
   790.5000      0.0000    453.3351     10.1380     60.5321
   790.7500      0.0000    505.4790     10.1271     63.8052
   791.0000      0.0000    566.8470     10.0144     67.9758
   791.2500      0.0000    625.2197      9.8192     72.6851
   791.5000      0.0000    669.9045      9.6034     78.0271
   791.7500      0.0000    698.1422      9.4287     84.1047
   792.0000      0.0000    714.6133      9.3256     90.8038
   792.2500      0.0000    725.4914      9.2892     97.9259
   792.5000      0.0000    733.8320      9.2879    105.0327
   792.7500      0.0000    739.6077      9.2774    111.2244
   793.0000      0.0000    741.9053      9.2196    115.7026
   793.2500      0.0000    740.3345      9.0987    118.7807
   793.5000      0.0000    735.4155      8.9190    121.8145
   793.7500      0.0000    728.7988      8.6948    125.7521
