~Version Information
VERS.                      2.0: CWLS Log ASCII Standard - VERSION 2.0
WRAP.                       NO: One line per depth step
~Well Information Block
STRT.FT               545.0000: 
STOP.FT              1452.5000: 
STEP.FT                 0.1000: 
NULL.                -999.2500: 
COMP.          Pioneer Natural Resources: COMPANY
WELL.          Parklane 43-34 Tr: WELL
FLD.           Purgatoire River: FIELD
LOC.           1643' FSL & 966' FEL: LOCATION
PROV.                 Colorado: PROVINCE
CNTY.               Las Animas: COUNTRY
SRVC.                Patterson: SERVICE COMPANY
DATE.          Fri Jul 29 07:27:28 2005: LOG DATE
UWI.           05 071 08452 00: UNIQUE WELL ID
~Curve Information Block
DEPT.FT            0 000 00 00: Depth
DCAL.in                       : CDL Caliper
RHOB.g/cc                     : CDL Bulk Density
RHOC.g/cc                     : CDL Density Correction
DPOR.pu                       : CDL Density Porosity
GR.GAPI                       : Gamma Ray
NPOR.pu                       : Neutron Porosity
~Parameter Information Block
~A  Depth       DCAL        RHOB        RHOC        DPOR         GR         NPOR    
   545.0000      8.1734      2.1103     -0.5317     32.7118    108.7132     18.7823
   545.1000      8.1734      2.1386     -0.4716     30.9963    115.3739     19.5498
   545.2000      8.1734      2.1466     -0.4792     30.5106    121.4832     19.8834
   545.3000      8.1796      2.1326     -0.5087     31.3559    126.1681     38.3573
   545.4000      8.1796      2.1309     -0.4911     31.4631    128.7987     38.7980
   545.5000      8.1810      2.1573     -0.4953     29.8622    128.1980     39.2616
   545.6000      8.1810      2.1881     -0.4338     27.9943    124.6297     39.5578
   545.7000      8.1810      2.1892     -0.4554     27.9267    118.5185     39.5625
   545.8000      8.1804      2.1543     -0.4192     30.0418    110.0836     39.3796
   545.9000      8.1804      2.1130     -0.5403     32.5464    103.6682     39.3142
   546.0000      8.1793      2.0954     -0.4970     33.6128    102.6663     39.3240
   546.1000      8.1793      2.0930     -0.4812     33.7560    105.7754     39.0404
   546.2000      8.1793      2.0842     -0.5108     34.2905    111.5559     38.5428
   546.3000      8.1824      2.0699     -0.5467     35.1570    117.9501     38.2831
   546.4000      8.1824      2.0627     -0.5103     35.5953    121.3268     38.3062
   546.5000      8.1833      2.0605     -0.4546     35.7289    121.1652     38.4656
   546.6000      8.1833      2.0636     -0.5408     35.5394    119.4403     38.6842
   546.7000      8.1833      2.0798     -0.3999     34.5585    117.4006     38.5057
   546.8000      8.1826      2.0922     -0.4825     33.8052    115.1539     37.8646
   546.9000      8.1826      2.0814     -0.4742     34.4603    112.1553     37.5298
   547.0000      8.1570      2.0623     -0.5388     35.6156    111.3831     37.7514
   547.1000      8.1570      2.0629     -0.4772     35.5832    112.6255     37.9704
   547.2000      8.1570      2.0782     -0.4484     34.6531    109.9908     37.8504
   547.3000      8.1796      2.0949     -0.4897     33.6423    105.5732     37.5310
   547.4000      8.1796      2.1119     -0.4499     32.6125    102.5949     37.4618
   547.5000      8.1846      2.1160     -0.4218     32.3648     98.2764     37.7000
   547.6000      8.1846      2.1047     -0.5333     33.0478     92.3936     37.8055
   547.7000      8.1846      2.0951     -0.4819     33.6274     88.8463     37.8399
   547.8000      8.1820      2.0908     -0.5147     33.8939     91.1233     37.9888
   547.9000      8.1820      2.0864     -0.4638     34.1592     95.2743     38.0269
   548.0000      8.1846      2.0776     -0.4400     34.6939     93.0400     37.7687
   548.1000      8.1846      2.0621     -0.4838     35.6306     88.2155     37.3589
   548.2000      8.1846      2.0453     -0.5024     36.6488     90.0042     37.2402
   548.3000      8.1795      2.0391     -0.5777     37.0234     93.7969     37.4035
   548.4000      8.1795      2.0461     -0.4518     36.5983     90.5681     37.3594
   548.5000      8.1799      2.0464     -0.4312     36.5807     83.5902     37.0831
   548.6000      8.1799      2.0240     -0.4666     37.9392     80.0470     36.9717
   548.7000      8.1799      1.9844     -0.4891     40.3410     80.9628     37.0730
   548.8000      8.1844      1.9439     -0.5619     42.7911     84.2975     37.0637
   548.9000      8.1844      1.9259     -0.5888     43.8873     87.5775     36.9373
   549.0000      8.1794      1.9418     -0.5415     42.9194     86.6269     37.0502
   549.1000      8.1794      1.9784     -0.4807     40.7052     80.3816     37.4775
   549.2000      8.1794      2.0134     -0.4620     38.5817     76.9239     37.7396
   549.3000      8.1785      2.0351     -0.4659     37.2693     83.6490     37.5820
   549.4000      8.1785      2.0442     -0.4640     36.7177     93.3632     37.2703
   549.5000      8.1798      2.0478     -0.4675     36.4948     95.3074     36.8752
   549.6000      8.1798      2.0470     -0.4382     36.5456     91.9721     36.5971
   549.7000      8.1798      2.0289     -0.4397     37.6399     91.2507     36.8572
   549.8000      8.1710      1.9924     -0.5098     39.8527     94.6429     37.3581
   549.9000      8.1710      1.9628     -0.5577     41.6480     97.4253     37.6503
   550.0000      8.1812      1.9584     -0.5225     41.9160     96.1042     37.5988
   550.1000      8.1812      1.9688     -0.5043     41.2843     92.4697     37.1531
   550.2000      8.1812      1.9763     -0.4702     40.8313     89.1439     36.7349
   550.3000      8.1827      1.9698     -0.4685     41.2230     85.4849     36.8323
   550.4000      8.1827      1.9493     -0.5581     42.4665     83.1578     37.2619
   550.5000      8.1851      1.9218     -0.5187     44.1363     85.5030     37.5541
   550.6000      8.1851      1.8882     -0.5448     46.1700     89.1927     37.5176
   550.7000      8.1851      1.8601     -0.6180     47.8751     88.1858     37.1649
   550.8000      8.1890      1.8547     -0.5897     48.2012     82.7264     36.6631
   550.9000      8.1890      1.8694     -0.5798     47.3063     76.8454     36.2204
   551.0000      8.2026      1.8832     -0.5534     46.4742     71.2784     36.0998
   551.1000      8.2026      1.8763     -0.6186     46.8919     64.2821     36.5526
   551.2000      8.2026      1.8512     -0.5744     48.4135     58.0938     37.0933
   551.3000      8.1859      1.8394     -0.6797     49.1253     56.8143     36.9927
   551.4000      8.1859      1.8747     -0.6631     46.9895     61.0236     36.4454
   551.5000      8.1822      1.9318     -0.4918     43.5302     69.0431     36.1709
   551.6000      8.1822      1.9535     -0.5127     42.2096     76.5969     36.3220
   551.7000      8.1822      1.9475     -0.6211     42.5766     77.7500     36.4346
   551.8000      8.1807      1.9602     -0.5513     41.8042     72.2360     36.3796
   551.9000      8.1807      1.9885     -0.4413     40.0916     64.6985     36.3387
   552.0000      8.1817      1.9970     -0.5083     39.5730     58.7948     36.2915
   552.1000      8.1817      1.9834     -0.5481     40.4014     55.2343     36.2642
   552.2000      8.1817      1.9738     -0.5385     40.9814     54.5525     36.4122
   552.3000      8.1860      1.9804     -0.4932     40.5833     56.9281     36.4733
   552.4000      8.1860      1.9919     -0.4817     39.8858     59.8695     35.9516
   552.5000      8.1834      1.9979     -0.5021     39.5225     62.0634     35.0693
   552.6000      8.1834      2.0029     -0.5293     39.2172     65.4805     34.4747
   552.7000      8.1834      2.0178     -0.5582     38.3159     70.5020     34.4288
   552.8000      8.1842      2.0328     -0.4902     37.4061     74.4082     34.8327
   552.9000      8.1842      2.0238     -0.5223     37.9536     75.4939     35.3990
   553.0000      8.1862      1.9940     -0.5134     39.7548     76.1776     35.9286
   553.1000      8.1862      1.9636     -0.4719     41.6029     78.9119     36.3985
   553.2000      8.1862      1.9318     -0.4982     43.5295     82.9846     36.7248
   553.3000      8.1886      1.8951     -0.5422     45.7489     89.9527     36.9694
   553.4000      8.1886      1.8759     -0.6670     46.9122    101.0857     37.3042
   553.5000      8.2024      1.8884     -0.5702     46.1581    112.6896     37.6485
   553.6000      8.2024      1.9043     -0.5121     45.1957    121.8459     38.0413
   553.7000      8.2024      1.9022     -0.5860     45.3238    126.6421     38.5549
   553.8000      8.1884      1.8973     -0.5758     45.6162    125.5945     39.2082
   553.9000      8.1884      1.9047     -0.5843     45.1668    120.4362     39.9617
   554.0000      8.1852      1.9166     -0.5084     44.4471    113.2488     40.5778
   554.1000      8.1852      1.9125     -0.4756     44.6942    110.4986     40.8335
   554.2000      8.1852      1.8916     -0.5690     45.9610    118.3507     40.6279
   554.3000      8.1873      1.8772     -0.5467     46.8334    131.9245     40.1271
   554.4000      8.1873      1.8778     -0.5527     46.8002    141.3414     39.6838
   554.5000      8.1871      1.8751     -0.4817     46.9648    142.7491     39.5169
