~Version Information
VERS.                      2.0: CWLS Log ASCII Standard - VERSION 2.0
WRAP.                       NO: One line per depth step
~Well Information Block
STRT.FT                 0.0000: 
STOP.FT              2473.5000: 
STEP.FT                 0.2500: 
NULL.                -999.2500: 
COMP.          Petrogulf Corporation: COMPANY
WELL.          Montoya 18-11V-B: WELL
FLD.           Purgatorie River: FIELD
LOC.           848' FNL & 619' FWL: LOCATION
PROV.                 Colorado: PROVINCE
CNTY.               Las Animas: COUNTRY
SRVC.                Patterson: SERVICE COMPANY
DATE.          Wed Nov 09 10:15:13 2005: LOG DATE
UWI.                          : UNIQUE WELL ID
~Curve Information Block
DEPT.FT            0 000 00 00: Depth
CCL.                          : Casing Collar Locator
TT3.usec                      : CBL 3' Travel Time
AMP3.mV                       : CBL 3' Amplitude
GR.GAPI                       : Gamma Ray
~Parameter Information Block
~A  Depth       CCL         TT3         AMP3         GR     
# ...
  1474.0000      0.0000    659.3514      5.9521    129.4136
  1474.2500      0.0000    645.4726      6.1051    130.6138
  1474.5000      0.0000    638.0204      6.3306    133.5510
  1474.7500      0.0000    637.4250      6.5676    138.6223
  1475.0000      0.0000    635.5551      6.7916    145.1368
  1475.2500      0.0000    623.2820      6.9557    151.8663
  1475.5000      0.0000    605.9556      7.0161    157.8074
  1475.7500      0.0000    594.4367      6.9940    162.2024
  1476.0000      0.0000    592.0427      6.9376    164.1049
  1476.2500      0.0000    598.8021      6.8467    162.5389
  1476.5000      0.0000    615.1194      6.6948    157.2548
  1476.7500      0.0000    637.3215      6.5031    149.1259
  1477.0000      0.0000    658.7457      6.3453    139.7732
  1477.2500      0.0000    676.6071      6.2957    130.6814
  1477.5000      0.0000    691.1476      6.3674    122.4775
  1477.7500      0.0000    701.3292      6.4907    115.1345
  1478.0000      0.0000    706.4835      6.5940    108.8441
  1478.2500      0.0000    708.0974      6.6846    104.3198
  1478.5000      0.0000    708.1189      6.7964    102.2304
  1478.7500      0.0000    707.6655      6.8969    102.5103
  1479.0000      0.0000    707.1950      6.9147    104.0687
  1479.2500      0.0000    706.8008      6.8451    105.2495
  1479.5000      0.0000    706.2142      6.7495    104.9423
  1479.7500      0.0000    704.5287      6.6580    103.2905
  1480.0000      0.0000    700.1191      6.5557    101.2260
  1480.2500      0.0000    692.4261      6.4549     99.4461
  1480.5000      0.0000    684.4106      6.4141     97.8397
  1480.7500      0.0000    679.7465      6.4695     95.7906
  1481.0000      0.0000    677.2490      6.5786     93.1262
  1481.2500      0.0000    673.5054      6.6631     90.7058
  1481.5000      0.0000    668.9308      6.6918     89.7778
  1481.7500      0.0000    665.8469      6.6871     90.8003
  1482.0000      0.0000    664.5439      6.6689     93.2198
  1482.2500      0.0000    664.0499      6.6279     96.1710
  1482.5000      0.0000    663.7823      6.5602     98.9336
  1482.7500      0.0000    663.6263      6.5076    100.8493
  1483.0000      0.0000    663.5844      6.5079    101.2742
  1483.2500      0.0000    663.6394      6.5182     99.9702
  1483.5000      0.0000    663.7415      6.4663     97.6716
  1483.7500      0.0000    663.8545      6.3608     95.9252
  1484.0000      0.0000    663.9968      6.2887     95.9245
  1484.2500      0.0000    664.2202      6.2983     97.5527
  1484.5000      0.0000    664.5779      6.3350     99.7515
  1484.7500      0.0000    665.0862      6.3405    101.6912
  1485.0000      0.0000    665.7126      6.3411    103.4548
  1485.2500      0.0000    666.3444      6.3653    105.5556
  1485.5000      0.0000    666.7122      6.3849    107.7455
  1485.7500      0.0000    666.5800      6.3756    108.4212
  1486.0000      0.0000    666.0485      6.3588    105.5707
  1486.2500      0.0000    665.4530      6.3874     98.5305
  1486.5000      0.0000    665.0377      6.4784     88.8461
  1486.7500      0.0000    664.8156      6.5736     79.3974
  1487.0000      0.0000    664.6457      6.6127     72.6021
  1487.2500      0.0000    664.4562      6.5960     69.1583
  1487.5000      0.0000    664.5758      6.5575     68.1045
  1487.7500      0.0000    666.0552      6.5086     67.9200
  1488.0000      0.0000    670.6569      6.4382     67.6860
  1488.2500      0.0000    679.3896      6.3604     67.4139
  1488.5000      0.0000    690.1281      6.3083     67.5457
  1488.7500      0.0000    698.6331      6.2910     68.2661
  1489.0000      0.0000    702.6706      6.2983     69.2089
  1489.2500      0.0000    702.5901      6.3190     69.8467
  1489.5000      0.0000    698.4900      6.3548     70.3447
  1489.7500      0.0000    690.1485      6.4093     71.9689
  1490.0000      0.0000    679.7227      6.4413     76.2551
  1490.2500      0.0000    671.2650      6.3840     83.6192
  1490.5000      0.0000    667.3190      6.2171     93.0796
  1490.7500      0.0000    668.6593      5.9776    103.4401
  1491.0000      0.0000    675.3451      5.7195    114.2915
  1491.2500      0.0000    684.8745      5.4952    125.3833
  1491.5000      0.0000    691.9753      5.3271    135.1922
  1491.7500      0.0000    692.5009      5.1880    140.8963
  1492.0000      0.0000    686.6651      5.0626    140.4610
  1492.2500      0.0000    679.2172      5.0101    134.7256
  1492.5000      0.0000    675.1529      5.1170    126.9599
  1492.7500      0.0000    674.6288      5.4152    120.2951
  1493.0000      0.0000    676.5073      5.8749    116.0370
  1493.2500      0.0000    684.0185      6.4498    114.2989
  1493.5000      0.0000    700.8211      7.1266    115.0831
  1493.7500      0.0000    724.8452      7.9527    117.9937
  1494.0000      0.0000    747.4197      8.9426    121.5147
  1494.2500      0.0000    757.9695      9.9510    123.5151
  1494.5000      0.0000    754.6940     10.7823    122.6575
  1494.7500      0.0000    747.4382     11.3920    119.2524
  1495.0000      0.0000    741.5958     11.8527    114.9000
  1495.2500      0.0000    729.7511     12.2068    111.3415
  1495.5000      0.0000    709.6896     12.4205    109.5789
  1495.7500      0.0000    691.6245     12.4390    109.8614
  1496.0000      0.0000    681.1077     12.2481    111.9582
  1496.2500      0.0000    674.0218     11.8316    115.2060
  1496.5000      0.0000    666.7702     11.1053    118.9277
  1496.7500      0.0000    659.3253     10.0356    123.2334
  1497.0000      0.0000    655.6237      8.9192    128.9749
  1497.2500      0.0000    664.8470      8.2572    136.5015
  1497.5000      0.0000    691.4955      8.0861    144.6389
  1497.7500      0.0000    725.3218      8.0079    150.9896
  1498.0000      0.0000    750.1682      7.9117    153.3625
  1498.2500      0.0000    758.3763      7.9052    151.4152
  1498.5000     -2.0000    754.9417      7.9031    147.2715
  1498.7500     -2.0000    751.2821      7.7503    144.3436
  1499.0000      2.0000    751.5464      7.4231    145.0303
  1499.2500      0.0000    748.6487      6.9913    149.2180
  1499.5000      0.0000    736.9744      6.5273    154.9380
  1499.7500      0.0000    721.5847      6.1330    160.1851
  1500.0000      0.0000    714.4671      5.8862    163.7143
  1500.2500      0.0000    722.5408      5.6436    164.4649
  1500.5000      0.0000    744.7515      5.2049    161.3510
  1500.7500      0.0000    780.3354      4.6597    154.0746
  1501.0000      0.0000    820.8451      4.2268    143.6180
  1501.2500      0.0000    841.2796      3.9665    131.6628
  1501.5000      0.0000    828.5856      3.8372    120.0070
  1501.7500      0.0000    801.6017      3.8352    110.6474
  1502.0000      0.0000    779.6091      4.0188    105.6612
  1502.2500      0.0000    761.6231      4.4448    106.2372
  1502.5000      0.0000    745.2767      5.1086    111.5815
  1502.7500      0.0000    737.6239      5.9478    118.9170
  1503.0000      0.0000    741.6298      6.8648    125.0065
  1503.2500      0.0000    749.9889      7.7317    128.1962
  1503.5000      0.0000    758.6075      8.4069    129.0973
  1503.7500      0.0000    768.5346      8.8349    129.2926
  1504.0000      0.0000    773.9819      9.1420    129.6806
  1504.2500      0.0000    766.2397      9.4972    129.9371
  1504.5000      0.0000    745.3130      9.8911    128.9484
  1504.7500      0.0000    723.0001     10.1682    125.8700
  1505.0000      0.0000    715.6228     10.2027    121.3255
  1505.2500      0.0000    729.0422      9.9612    117.2769
  1505.5000      0.0000    752.1500      9.4819    115.3027
  1505.7500      0.0000    768.6058      8.8763    115.3647
  1506.0000      0.0000    772.4762      8.3140    116.4475
  1506.2500      0.0000    766.2474      7.9229    117.9034
  1506.5000      0.0000    752.3176      7.7102    119.6904
  1506.7500      0.0000    736.9503      7.6249    121.5189
  1507.0000      0.0000    729.0931      7.6446    122.4586
  1507.2500      0.0000    731.0214      7.7714    121.7676
