~Version Information
VERS.                      2.0: CWLS Log ASCII Standard - VERSION 2.0
WRAP.                       NO: One line per depth step
~Well Information Block
STRT.FT               520.0000: 
STOP.FT              1373.0000: 
STEP.FT                 0.1000: 
NULL.                -999.2500: 
COMP.          Pioneer Natural Resources: COMPANY
WELL.            Gamma 13-3 Tr: WELL
FLD.           Purgatoire River: FIELD
LOC.           2127' FSL & 738' FWL: LOCATION
STAT.                 Colorado: State
CNTY.               Las Animas: COUNTY
CTRY.                      USA: Country
SECT.                        3: Section
TOWN.                       33S: Township
RANG.                       67W: Range
SRVC.                Patterson: SERVICE COMPANY
DATE.          Mon Sep 19 09:58:04 2005: LOG DATE
API.           05 071 08524 00: API
~Curve Information Block
DEPT.FT            0 000 00 00: Depth
DPOR.pu                       : CDL Density Porosity
GR.GAPI                       : Gamma Ray
NPOR.pu                       : Neutron Porosity
RHOB.g/cc                     : CDL Bulk Density
RHOC.g/cc                     : CDL Density Correction
DCAL.in                       : CDL Caliper
~Parameter Information Block
~A  Depth       DPOR         GR         NPOR        RHOB        RHOC        DCAL    
# ...
  1134.4000     14.8998    130.5341     27.6582      2.4042     -0.0201      8.1782
  1134.5000     16.3436    129.0637     28.0841      2.3803     -0.0333      8.1779
  1134.6000     16.2823    128.9531     28.2519      2.3813     -0.0600      8.1779
  1134.7000     15.5341    129.9582     28.4302      2.3937     -0.0156      8.1779
  1134.8000     14.8495    130.4520     28.1549      2.4050      0.0019      8.1681
  1134.9000     14.0684    129.3884     27.1311      2.4179     -0.0005      8.1681
  1135.0000     13.0963    126.5980     26.5777      2.4339      0.0514      8.1578
  1135.1000     12.3457    124.1576     27.3731      2.4463      0.0536      8.1578
  1135.2000     11.8299    122.6590     28.5501      2.4548      0.0596      8.1578
  1135.3000     11.3919    122.0613     28.8538      2.4620      0.0466      8.1467
  1135.4000     11.0632    123.2577     28.3013      2.4675      0.0557      8.1467
  1135.5000     10.7206    124.1406     27.7967      2.4731      0.0436      8.1228
  1135.6000     10.1976    121.7641     27.7199      2.4817      0.0521      8.1228
  1135.7000      9.6180    118.4301     27.3755      2.4913      0.0626      8.1228
  1135.8000      8.8175    120.9475     26.3691      2.5045      0.0642      8.0792
  1135.9000      7.4448    126.5885     25.2224      2.5272      0.0674      8.0792
  1136.0000      6.0025    124.7924     24.4711      2.5510      0.1251      8.0414
  1136.1000      4.9122    116.3767     23.9117      2.5689      0.0549      8.0414
  1136.2000      3.8451    109.2686     22.7737      2.5866      0.1066      8.0414
  1136.3000      3.2016    106.0538     21.3171      2.5972      0.0891      8.0289
  1136.4000      3.3790    107.2605     20.8071      2.5942      0.0466      8.0289
  1136.5000      3.6292    112.0795     21.4445      2.5901      0.0215      8.0321
  1136.6000      3.3495    113.9755     22.2297      2.5947      0.0936      8.0321
  1136.7000      2.9830    107.3466     22.8293      2.6008      0.1041      8.0321
  1136.8000      2.9951     98.9078     23.5864      2.6006      0.0913      8.0369
  1136.9000      3.5626     98.1157     24.3291      2.5912      0.0611      8.0369
  1137.0000      5.0808    101.3760     25.1287      2.5662      0.0594      8.0346
  1137.1000      7.6393    102.6314     26.2829      2.5240      0.0189      8.0346
  1137.2000     10.9994    103.0796     27.1216      2.4685      0.0358      8.0346
  1137.3000     14.5762    106.0325     27.2780      2.4095      0.0022      8.0333
  1137.4000     17.4633    112.2114     27.4128      2.3619     -0.0063      8.0333
  1137.5000     19.7248    119.6856     27.4692      2.3245     -0.0194      8.0417
  1137.6000     22.7378    124.8221     26.7473      2.2748     -0.0200      8.0417
  1137.7000     27.3420    125.7398     25.7285      2.1989     -0.0443      8.0417
  1137.8000     32.8098    125.5030     25.8844      2.1086     -0.0954      8.0527
  1137.9000     38.8140    124.7737     27.3102      2.0096     -0.0084      8.0527
  1138.0000     45.5871    120.1050     28.4110      1.8978     -0.0916      8.0620
  1138.1000     52.0239    111.8104     28.6697      1.7916     -0.0833      8.0620
  1138.2000     57.4543    103.6448     29.1667      1.7020     -0.1209      8.0620
  1138.3000     62.5840     96.9828     30.2331      1.6174     -0.0565      8.0665
  1138.4000     67.4475     92.2713     30.9848      1.5371     -0.0876      8.0665
  1138.5000     71.1161     88.9214     31.1254      1.4766     -0.0624      8.0745
  1138.6000     73.6171     84.6577     31.2487      1.4353     -0.0642      8.0745
  1138.7000     76.0190     79.6420     31.3547      1.3957      0.0234      8.0745
  1138.8000     78.6104     75.1717     31.3076      1.3529      0.0040      8.1184
  1138.9000     80.2033     70.3293     31.4672      1.3266     -0.0292      8.1184
  1139.0000     80.0068     65.9033     31.7827      1.3299      0.0237      8.2098
  1139.1000     78.9641     62.9317     31.8919      1.3471      0.0557      8.2098
  1139.2000     77.9557     61.2660     31.9174      1.3637      0.0273      8.2098
  1139.3000     76.0844     61.7726     32.3197      1.3946      0.0179      8.2781
  1139.4000     71.9551     64.6723     33.1048      1.4627      0.0521      8.2781
  1139.5000     65.7528     70.3046     33.5777      1.5651      0.0636      8.2643
  1139.6000     58.9753     77.0655     33.8246      1.6769      0.1307      8.2643
  1139.7000     52.1698     83.3242     34.1681      1.7892      0.1165      8.2643
  1139.8000     44.8732     89.8013     33.8410      1.9096      0.1775      8.2218
  1139.9000     38.1035     95.9442     32.5293      2.0213      0.2005      8.2218
  1140.0000     33.3493    100.7498     31.4257      2.0997      0.2128      8.2130
  1140.1000     29.7803    107.0201     31.5940      2.1586      0.1288      8.2130
  1140.2000     25.7551    117.2603     32.5059      2.2250      0.1123      8.2130
  1140.3000     21.8969    125.7162     32.7395      2.2887      0.1303      8.2421
  1140.4000     19.6582    126.4547     31.7814      2.3256      0.0713      8.2421
  1140.5000     18.8579    123.4395     30.4957      2.3388      0.0962      8.2387
  1140.6000     18.4697    124.3800     29.7025      2.3452      0.0514      8.2387
  1140.7000     17.5473    130.6934     29.4089      2.3605      0.0512      8.2387
  1140.8000     15.5562    135.0821     29.3412      2.3933      0.0770      8.1738
  1140.9000     12.7958    132.1008     29.2830      2.4389      0.1462      8.1738
  1141.0000     10.1217    126.8347     29.2310      2.4830      0.0957      8.1238
  1141.1000      8.4280    125.4963     29.0325      2.5109      0.1413      8.1238
  1141.2000      8.3687    128.9552     28.5634      2.5119      0.1009      8.1238
  1141.3000      9.8253    135.5061     28.1496      2.4879      0.0730      8.0958
  1141.4000     11.8215    141.5987     28.0506      2.4549     -0.0141      8.0958
  1141.5000     13.3766    142.9485     28.1973      2.4293     -0.0058      8.0756
  1141.6000     14.6215    141.5867     28.3128      2.4087      0.0018      8.0756
  1141.7000     16.0930    145.4540     28.4250      2.3845     -0.0154      8.0756
  1141.8000     17.7109    153.6463     28.7342      2.3578     -0.0249      8.0786
  1141.9000     18.8754    157.0265     29.0072      2.3386     -0.0191      8.0786
  1142.0000     19.0846    155.4956     28.9255      2.3351     -0.0006      8.1023
  1142.1000     18.5096    153.8274     28.7610      2.3446      0.0414      8.1023
  1142.2000     18.1068    150.6020     29.1360      2.3512      0.0405      8.1023
  1142.3000     18.7911    145.4923     29.8277      2.3399      0.0303      8.1275
  1142.4000     20.2732    142.2383     29.8705      2.3155      0.0512      8.1275
  1142.5000     21.6741    140.4357     29.0728      2.2924      0.0442      8.1414
  1142.6000     22.5918    137.9305     28.3008      2.2772      0.0438      8.1414
  1142.7000     23.1116    136.8870     28.0415      2.2687      0.0225      8.1414
  1142.8000     23.9449    139.7074     28.2207      2.2549      0.0162      8.1372
  1142.9000     26.6937    144.1703     29.0044      2.2096      0.0327      8.1372
  1143.0000     32.0946    143.3604     30.2319      2.1204     -0.0083      8.1179
  1143.1000     37.9413    135.6111     31.0171      2.0240     -0.0723      8.1179
  1143.2000     42.2232    125.9192     31.0999      1.9533      0.0048      8.1179
  1143.3000     46.7254    115.7130     31.2515      1.8790      0.0629      8.0977
  1143.4000     53.2149    105.4934     31.5034      1.7720     -0.0173      8.0977
  1143.5000     59.9689     98.4366     31.3257      1.6605     -0.0814      8.0845
  1143.6000     65.0850     93.8272     31.1646      1.5761     -0.0821      8.0845
  1143.7000     69.4009     89.5622     31.8363      1.5049     -0.0412      8.0845
  1143.8000     73.9981     87.5597     33.3608      1.4290     -0.0603      8.0913
  1143.9000     77.4012     85.8733     34.7946      1.3729     -0.0940      8.0913
