~Version Information
VERS.                      2.0: CWLS Log ASCII Standard - VERSION 2.0
WRAP.                       NO: One line per depth step
~Well Information Block
STRT.FT               673.2000: 
STOP.FT              1510.5000: 
STEP.FT                 0.1000: 
NULL.                -999.2500: 
COMP.          Pioneer Natural Resources: COMPANY
WELL.          Hammerhead 24-24 Tr: WELL
FLD.           Purgatoire River: FIELD
LOC.           953' FSL & 1922' FWL: LOCATION
PROV.                 Colorado: PROVINCE
CNTY.               Las Animas: COUNTRY
SRVC.                Patterson: SERVICE COMPANY
DATE.          Mon Jan 30 07:27:57 2006: LOG DATE
UWI.           05 071 08669 00: UNIQUE WELL ID
~Curve Information Block
DEPT.FT            0 000 00 00: Depth
DCAL.in                       : CDL Caliper
RHOB.g/cc                     : CDL Bulk Density
RHOC.g/cc                     : CDL Density Correction
DPOR.pu                       : CDL Density Porosity
GR.GAPI                       : Gamma Ray
~Parameter Information Block
~A  Depth       DCAL        RHOB        RHOC        DPOR         GR     
# ...
  1009.2000      7.8807      2.6258      0.1349      1.4689    133.1641
  1009.3000      7.8784      2.6254      0.1007      1.4886    125.1448
  1009.4000      7.8784      2.6151      0.1347      2.1159    111.7455
  1009.5000      7.8756      2.6009      0.1440      2.9748    103.3355
  1009.6000      7.8756      2.5765      0.1443      4.4517    103.7234
  1009.7000      7.8756      2.5415      0.0613      6.5777    108.5316
  1009.8000      7.8738      2.5092     -0.0007      8.5355    110.5979
  1009.9000      7.8738      2.4875      0.0188      9.8496    104.1677
  1010.0000      7.8720      2.4734     -0.0795     10.7040     95.4862
  1010.1000      7.8720      2.4777     -0.1186     10.4396     96.1384
  1010.2000      7.8720      2.5049      0.0372      8.7926    102.2585
  1010.3000      7.8668      2.5268      0.1319      7.4658    103.0776
  1010.4000      7.8668      2.5195      0.0907      7.9074     98.1759
  1010.5000      7.8547      2.4935      0.1180      9.4877     92.9174
  1010.6000      7.8547      2.4800      0.0828     10.3007     88.9733
  1010.7000      7.8547      2.5037      0.0993      8.8677     85.0247
  1010.8000      7.8427      2.5523      0.1671      5.9229     82.0117
  1010.9000      7.8427      2.5958      0.1844      3.2827     84.4926
  1011.0000      7.8484      2.6241      0.2290      1.5713     92.3195
  1011.1000      7.8484      2.6390      0.2058      0.6689     98.2424
  1011.2000      7.8484      2.6450      0.2338      0.3042     99.3274
  1011.3000      7.8754      2.6521      0.2014     -0.1262     99.9377
  1011.4000      7.8754      2.6640      0.2030     -0.8504    103.1879
  1011.5000      7.9107      2.6641      0.2168     -0.8522    109.3941
  1011.6000      7.9107      2.6427      0.1072      0.4397    118.0811
  1011.7000      7.9107      2.6171      0.0789      1.9959    128.1416
  1011.8000      7.9314      2.5947      0.1144      3.3512    134.5059
  1011.9000      7.9314      2.5630      0.1009      5.2753    133.2662
  1012.0000      7.9358      2.5232      0.0313      7.6856    130.1360
  1012.1000      7.9358      2.4973      0.0271      9.2566    128.3235
  1012.2000      7.9358      2.4960      0.0585      9.3312    125.0856
  1012.3000      7.9355      2.5051      0.0680      8.7797    124.6928
  1012.4000      7.9355      2.5091      0.0452      8.5420    132.8163
  1012.5000      7.9357      2.5044      0.0675      8.8251    145.9035
  1012.6000      7.9357      2.4932     -0.0106      9.5046    156.3698
  1012.7000      7.9357      2.4831      0.0148     10.1135    158.0171
  1012.8000      7.9366      2.4796      0.0146     10.3258    150.5053
  1012.9000      7.9366      2.4894      0.0021      9.7358    140.9470
  1013.0000      7.9377      2.5146      0.0564      8.2053    136.8531
  1013.1000      7.9377      2.5440      0.0702      6.4243    139.4440
  1013.2000      7.9377      2.5666      0.0899      5.0571    144.7221
  1013.3000      7.9385      2.5784      0.0895      4.3405    149.6287
  1013.4000      7.9385      2.5830      0.0684      4.0587    153.5345
  1013.5000      7.9381      2.5817      0.0805      4.1371    153.8444
  1013.6000      7.9381      2.5691      0.0855      4.9027    149.4170
  1013.7000      7.9381      2.5509      0.0253      6.0035    144.9126
  1013.8000      7.9372      2.5317      0.0798      7.1717    143.6023
  1013.9000      7.9372      2.5071      0.0010      8.6629    143.6330
  1014.0000      7.9366      2.4927     -0.0296      9.5309    145.2001
  1014.1000      7.9366      2.5021     -0.0086      8.9644    148.2283
  1014.2000      7.9366      2.5211      0.0345      7.8097    147.7625
  1014.3000      7.9362      2.5328      0.0341      7.1046    143.5814
  1014.4000      7.9362      2.5308      0.0679      7.2235    140.3610
  1014.5000      7.9362      2.5169      0.0232      8.0662    140.0681
  1014.6000      7.9362      2.5039      0.0168      8.8567    137.4996
  1014.7000      7.9362      2.4986      0.0195      9.1752    129.5498
  1014.8000      7.9372      2.4954      0.0461      9.3688    122.4795
  1014.9000      7.9372      2.5023      0.0364      8.9507    120.5758
  1015.0000      7.9386      2.5420      0.0365      6.5442    122.8126
  1015.1000      7.9386      2.6095      0.1198      2.4541    125.8838
  1015.2000      7.9386      2.6627      0.1516     -0.7719    125.4932
  1015.3000      7.9387      2.6781      0.1004     -1.7019    121.9787
  1015.4000      7.9387      2.6745      0.1553     -1.4820    120.8264
  1015.5000      7.9387      2.6750      0.1664     -1.5158    126.3672
  1015.6000      7.9387      2.6822      0.1602     -1.9542    135.5507
  1015.7000      7.9387      2.6851      0.1462     -2.1301    140.2207
  1015.8000      7.9385      2.6748      0.1069     -1.5031    136.3706
  1015.9000      7.9385      2.6631      0.0200     -0.7968    128.7574
  1016.0000      7.9372      2.6704      0.0327     -1.2372    124.2828
  1016.1000      7.9372      2.6811      0.0755     -1.8846    123.6831
  1016.2000      7.9372      2.6682      0.0684     -1.1005    124.8801
  1016.3000      7.9381      2.6376      0.1103      0.7503    127.7240
  1016.4000      7.9381      2.6041      0.0722      2.7838    128.5933
  1016.5000      7.9399      2.5715      0.0529      4.7596    125.1025
  1016.6000      7.9399      2.5385      0.0262      6.7596    120.6978
  1016.7000      7.9399      2.5120      0.0240      8.3634    116.2522
  1016.8000      7.9380      2.5153      0.0062      8.1635    112.0551
  1016.9000      7.9380      2.5705     -0.0014      4.8153    106.5141
  1017.0000      7.9352      2.6731      0.0659     -1.3995     99.0753
  1017.1000      7.9352      2.7877      0.1546     -8.3463     95.9805
  1017.2000      7.9352      2.8771      0.1818    -13.7663     97.8896
  1017.3000      7.9336      2.9327      0.1857    -17.1360     98.0359
  1017.4000      7.9336      2.9617      0.1885    -18.8914     94.0705
  1017.5000      7.9326      2.9594      0.1714    -18.7540     91.2821
  1017.6000      7.9326      2.9219      0.1011    -16.4790     95.1543
  1017.7000      7.9326      2.8618      0.0605    -12.8373    102.0696
  1017.8000      7.9340      2.7916      0.0211     -8.5807    107.4490
  1017.9000      7.9340      2.7212     -0.0219     -4.3129    112.1524
  1018.0000      7.9370      2.6649     -0.0270     -0.9038    114.2377
  1018.1000      7.9370      2.6312     -0.0050      1.1375    111.4892
  1018.2000      7.9370      2.6198      0.0255      1.8319    109.1983
  1018.3000      7.9377      2.6175      0.0668      1.9711    113.0358
  1018.4000      7.9377      2.6049      0.0589      2.7305    119.5802
  1018.5000      7.9371      2.5827      0.0374      4.0793    122.3377
  1018.6000      7.9371      2.5677      0.0167      4.9873    120.7591
  1018.7000      7.9371      2.5676      0.0110      4.9928    118.3778
  1018.8000      7.9370      2.5760      0.0240      4.4848    118.2774
  1018.9000      7.9370      2.5760      0.0857      4.4848    121.7582
  1019.0000      7.9376      2.5575      0.0339      5.6050    125.3544
  1019.1000      7.9376      2.5334      0.0077      7.0680    124.6527
  1019.2000      7.9376      2.5136      0.0267      8.2675    124.4977
  1019.3000      7.9416      2.5009     -0.0165      9.0352    127.4760
  1019.4000      7.9416      2.5058      0.0392      8.7364    127.0376
  1019.5000      7.9452      2.5313      0.0278      7.1943    119.3617
  1019.6000      7.9452      2.5644      0.0792      5.1855    110.0135
  1019.7000      7.9452      2.5882      0.0803      3.7433    106.0591
  1019.8000      7.9420      2.5991      0.0951      3.0851    107.1979
  1019.9000      7.9420      2.6061      0.1087      2.6594    107.3051
  1020.0000      7.9381      2.6183      0.1017      1.9192    100.5700
  1020.1000      7.9381      2.6412      0.1187      0.5311     91.1812
  1020.2000      7.9381      2.6758      0.0703     -1.5661     87.1793
  1020.3000      7.9366      2.7227      0.0736     -4.4088     88.0227
