~Version Information
VERS.                      2.0: CWLS Log ASCII Standard - VERSION 2.0
WRAP.                       NO: One line per depth step
~Well Information Block
STRT.FT                -7.2500: 
STOP.FT              1334.7500: 
STEP.FT                 0.2500: 
NULL.                -999.2500: 
COMP.          Pioneer Natural Resources: COMPANY
WELL.          Buffet 41-36 Tr: WELL
FLD.           Purgatorie River: FIELD
LOC.           119' FNL & 271' FEL--: LOCATION
PROV.                       CO: PROVINCE
CNTY.               Las Animas: COUNTRY
SRVC.          Patterson Wireline: SERVICE COMPANY
DATE.          Tue Jan 03 09:43:31 2006: LOG DATE
UWI.           05 071 08627 00: UNIQUE WELL ID
~Curve Information Block
DEPT.FT            0 000 00 00: Depth
CCL.                          : Casing Collar Locator
TT3.usec                      : CBL 3' Travel Time
AMP3.mV                       : CBL 3' Amplitude
GR.GAPI                       : Gamma Ray
~Parameter Information Block
~A  Depth       CCL         TT3         AMP3         GR     
# ...
   964.2500      0.0000    749.7108      6.3598    102.6352
   964.5000      0.0000    762.3615      5.9217    101.9343
   964.7500      0.0000    782.5974      5.4965    101.2162
   965.0000      0.0000    805.7209      5.2487     99.7746
   965.2500      0.0000    825.5974      5.2228     98.3510
   965.5000      2.0000    838.9057      5.3238     98.3315
   965.7500     -2.0000    847.8034      5.4237    100.7048
   966.0000      0.0000    858.6303      5.4625    105.7493
   966.2500      0.0000    873.1180      5.4715    112.9540
   966.5000      0.0000    880.9893      5.5340    120.9678
   966.7500      0.0000    867.9667      5.7091    128.2920
   967.0000      0.0000    832.8220      5.9685    134.2923
   967.2500      0.0000    791.4299      6.2145    139.1476
   967.5000      0.0000    762.6016      6.3740    142.9016
   967.7500      0.0000    753.6671      6.4574    145.0260
   968.0000      0.0000    759.8733      6.5200    144.9984
   968.2500      0.0000    772.2689      6.5924    143.1406
   968.5000      0.0000    783.6795      6.6625    140.7249
   968.7500      0.0000    790.6780      6.7016    139.0454
   969.0000      0.0000    793.5811      6.6910    138.4382
   969.2500      0.0000    794.8896      6.6302    138.2679
   969.5000      0.0000    796.6981      6.5356    137.5750
   969.7500      0.0000    799.1213      6.4383    135.7571
   970.0000      0.0000    800.6695      6.3736    133.1813
   970.2500      0.0000    799.2482      6.3639    131.1065
   970.5000      0.0000    792.7116      6.4100    130.5277
   970.7500      0.0000    780.0352      6.4969    131.1858
   971.0000      0.0000    763.6058      6.6031    131.8969
   971.2500      0.0000    749.8301      6.7059    131.5184
   971.5000      0.0000    744.9951      6.7830    129.5343
   971.7500      0.0000    749.1845      6.8168    126.3345
   972.0000      0.0000    754.8948      6.8008    123.2201
   972.2500      0.0000    751.8964      6.7461    121.5801
   972.5000      0.0000    732.8851      6.6826    121.5481
   972.7500      0.0000    695.2891      6.6495    121.7439
   973.0000      0.0000    640.5163      6.6763    120.7990
   973.2500      0.0000    574.2724      6.7636    119.0702
   973.5000      0.0000    507.2508      6.8813    118.5810
   973.7500      0.0000    451.9908      6.9867    121.1593
   974.0000      0.0000    416.5747      7.0489    126.4866
   974.2500      0.0000    401.8032      7.0608    131.8571
   974.5000      0.0000    404.0551      7.0317    134.1352
   974.7500      0.0000    418.6202      6.9738    132.1430
   975.0000      0.0000    440.5851      6.8926    127.0731
   975.2500      0.0000    466.5583      6.7896    120.9947
   975.5000      0.0000    497.5946      6.6701    115.5432
   975.7500      0.0000    537.2761      6.5446    111.6324
   976.0000      0.0000    584.7137      6.4224    109.5261
   976.2500      0.0000    632.3036      6.3049    109.2033
   976.5000      0.0000    671.8090      6.1895    111.0563
   976.7500      0.0000    699.9108      6.0791    116.0152
   977.0000      0.0000    717.2125      5.9888    124.3593
   977.2500      0.0000    725.2748      5.9443    134.3261
   977.5000      0.0000    726.4116      5.9700    142.4580
   977.7500      0.0000    724.7236      6.0703    146.0828
   978.0000      0.0000    724.9244      6.2197    145.7218
   978.2500      0.0000    728.6513      6.3723    144.6824
   978.5000      0.0000    732.1634      6.4856    145.9447
   978.7500      0.0000    729.7360      6.5389    149.4539
   979.0000      0.0000    720.1105      6.5360    152.4291
   979.2500      0.0000    708.3264      6.4949    152.0780
   979.5000      0.0000    701.1344      6.4372    147.9478
   979.7500      0.0000    701.5745      6.3830    142.0026
   980.0000      0.0000    707.2047      6.3508    136.8777
   980.2500      0.0000    711.9167      6.3534    133.9502
   980.5000      0.0000    709.5498      6.3900    132.5403
   980.7500      0.0000    696.5841      6.4408    130.7760
   981.0000      0.0000    671.9945      6.4767    127.3432
   981.2500      0.0000    636.8134      6.4786    122.3367
   981.5000      0.0000    597.2332      6.4486    116.4869
   981.7500      0.0000    567.6202      6.4048    110.1611
   982.0000      0.0000    564.8312      6.3688    103.5696
   982.2500      0.0000    594.7009      6.3545     97.6164
   982.5000      0.0000    644.6942      6.3630     93.8655
   982.7500      0.0000    692.6971      6.3862     93.3707
   983.0000      0.0000    723.4092      6.4141     95.6395
   983.2500      0.0000    736.0157      6.4398     98.7746
   983.5000      0.0000    738.9480      6.4588    100.6890
   983.7500      0.0000    740.7298      6.4693    100.5194
   984.0000      0.0000    745.1873      6.4725     99.1833
   984.2500      0.0000    751.7913      6.4721     98.4736
   984.5000      0.0000    758.2556      6.4716     99.4984
   984.7500      0.0000    762.8121      6.4731    102.0424
   985.0000      0.0000    764.7623      6.4760    105.2237
   985.2500      0.0000    763.1800      6.4781    108.2762
   985.5000      0.0000    755.0656      6.4761    110.6387
   985.7500      0.0000    735.2158      6.4671    111.9020
   986.0000      0.0000    700.3293      6.4499    112.1368
   986.2500      0.0000    655.9154      6.4282    112.0732
   986.5000      0.0000    617.6685      6.4098    112.7019
   986.7500      0.0000    600.9919      6.4022    114.7491
   987.0000      0.0000    607.2331      6.4062    118.4220
   987.2500      0.0000    623.0430      6.4163    123.3541
   987.5000      0.0000    634.4022      6.4255    128.6057
   987.7500      0.0000    639.2175      6.4300    132.7693
   988.0000      0.0000    645.7640      6.4283    134.4748
   988.2500      0.0000    661.0588      6.4170    133.3569
   988.5000      0.0000    682.5604      6.3915    130.6482
   988.7500      0.0000    700.7288      6.3556    128.4676
   989.0000      0.0000    707.8033      6.3263    128.4646
   989.2500      0.0000    703.2303      6.3219    131.0071
   989.5000      0.0000    691.7979      6.3457    135.0752
   989.7500      0.0000    678.6317      6.3876    138.7398
   990.0000      0.0000    666.8337      6.4347    140.3446
   990.2500      0.0000    658.4332      6.4747    139.7690
   990.5000      0.0000    655.2150      6.4930    138.4698
   990.7500      0.0000    657.6976      6.4798    138.1520
   991.0000      0.0000    664.0563      6.4407    139.4365
   991.2500      0.0000    670.8690      6.3948    141.5745
   991.5000      0.0000    674.6849      6.3613    143.0210
   991.7500      0.0000    672.5099      6.3487    142.3832
   992.0000      0.0000    661.5523      6.3540    139.2947
   992.2500      0.0000    640.8705      6.3661    134.6756
   992.5000      0.0000    615.2617      6.3731    130.0779
   992.7500      0.0000    596.1096      6.3707    126.4762
   993.0000      0.0000    594.3285      6.3620    123.3815
   993.2500      0.0000    610.7883      6.3490    119.0368
   993.5000      0.0000    635.5483      6.3297    111.9788
   993.7500      0.0000    656.9739      6.3044    102.9936
   994.0000      0.0000    669.8881      6.2804     95.2685
   994.2500      0.0000    675.6022      6.2658     92.0601
   994.5000      0.0000    677.4238      6.2618     94.2067
   994.7500      0.0000    677.4326      6.2664     99.8980
   995.0000      0.0000    675.8212      6.2804    106.4857
   995.2500      0.0000    671.4454      6.3015    112.4162
   995.5000      0.0000    663.1433      6.3094    117.5953
   995.7500      0.0000    651.8725      6.2614    121.9898
   996.0000      0.0000    641.9695      6.1105    124.3268
   996.2500      0.0000    638.9119      5.8423    123.0225
   996.5000      0.0000    644.6425      5.5003    118.3608
   996.7500      0.0000    655.8750      5.1698    112.5957
   997.0000      0.0000    667.6350      4.9234    107.4515
   997.2500      0.0000    677.3929      4.7799    102.3177
   997.5000      0.0000    685.2807      4.7121     95.4311
