~Version Information
VERS.                      2.0: CWLS Log ASCII Standard - VERSION 2.0
WRAP.                       NO: One line per depth step
~Well Information Block
STRT.FT                -8.0000: 
STOP.FT              1060.7500: 
STEP.FT                 0.2500: 
NULL.                -999.2500: 
COMP.          Pioneer Natural Resources: COMPANY
WELL.          Pavillion 44-25: WELL
FLD.           Purgatorie River: FIELD
LOC.           719' FSL & 650' FEL--: LOCATION
PROV.                       CO: PROVINCE
CNTY.               Las Animas: COUNTRY
SRVC.          Patterson Wireline: SERVICE COMPANY
DATE.          Mon Dec 19 11:59:26 2005: LOG DATE
UWI.           05 071 08624 00: UNIQUE WELL ID
~Curve Information Block
DEPT.FT            0 000 00 00: Depth
CCL.                          : Casing Collar Locator
TT3.usec                      : CBL 3' Travel Time
AMP3.mV                       : CBL 3' Amplitude
GR.GAPI                       : Gamma Ray
~Parameter Information Block
~A  Depth       CCL         TT3         AMP3         GR     
# ...
   963.5000      0.0000    708.4146      5.5477     75.9006
   963.7500      0.0000    708.2365      5.5608     75.5003
   964.0000      0.0000    707.6100      5.5823     74.1645
   964.2500      0.0000    706.1583      5.6062     71.7567
   964.5000      0.0000    703.7146      5.6198     69.5546
   964.7500      0.0000    700.6995      5.6145     69.1271
   965.0000      0.0000    698.1226      5.5917     71.2840
   965.2500      0.0000    696.9882      5.5619     76.0136
   965.5000      0.0000    697.4916      5.5370     82.7954
   965.7500      0.0000    698.7361      5.5229     90.3515
   966.0000      0.0000    699.3389      5.5182     96.3714
   966.2500      0.0000    698.5358      5.5176     98.4713
   966.5000      0.0000    696.7358      5.5147     95.9550
   966.7500      0.0000    695.0138      5.5024     90.3112
   967.0000      0.0000    694.2917      5.4754     83.8163
   967.2500      0.0000    695.0394      5.4338     78.1223
   967.5000      0.0000    697.2936      5.3842     74.3090
   967.7500      0.0000    700.5750      5.3359     73.3528
   968.0000      0.0000    703.9308      5.2962     75.5398
   968.2500      0.0000    706.3943      5.2689     79.5999
   968.5000      0.0000    707.2021      5.2543     83.2893
   968.7500      0.0000    705.0457      5.2517     85.0472
   969.0000      0.0000    696.5725      5.2607     84.7893
   969.2500      0.0000    675.8544      5.2812     83.2765
   969.5000      0.0000    637.4571      5.3103     81.3073
   969.7500      0.0000    582.9507      5.3423     79.5300
   970.0000      0.0000    525.0941      5.3745     78.4315
   970.2500      0.0000    482.6241      5.4111     78.2600
   970.5000      0.0000    467.7101      5.4595     79.1303
   970.7500      0.0000    477.2457      5.5203     81.0332
   971.0000      0.0000    496.1427      5.5866     83.5146
   971.2500      0.0000    509.5577      5.6495     85.4868
   971.5000      0.0000    513.9960      5.7041     85.6182
   971.7500      0.0000    519.0030      5.7487     83.0575
   972.0000      0.0000    537.9461      5.7833     77.9219
   972.2500      0.0000    575.1209      5.8112     71.3459
   972.5000      0.0000    621.3445      5.8367     65.2409
   972.7500      0.0000    662.2574      5.8596     61.7696
   973.0000      0.0000    689.4174      5.8703     62.3160
   973.2500      0.0000    703.3271      5.8549     66.4323
   973.5000      0.0000    708.9641      5.8100     71.9610
   973.7500      0.0000    710.8499      5.7507     76.6863
   974.0000      0.0000    711.4246      5.7052     79.8794
   974.2500      0.0000    711.4162      5.6974     81.9478
   974.5000      0.0000    710.4464      5.7332     83.0215
   974.7500      0.0000    707.2316      5.7980     82.7124
   975.0000      0.0000    700.2375      5.8666     81.2393
   975.2500      0.0000    689.5993      5.9155     79.9408
   975.5000      0.0000    678.9916      5.9293     80.2136
   975.7500      0.0000    674.1907      5.9035     82.1496
   976.0000      0.0000    678.1512      5.8466     84.4791
   976.2500      0.0000    687.9938      5.7795     85.7738
   976.5000      0.0000    697.5579      5.7281     85.5596
   976.7500      0.0000    701.5573      5.7132     84.3531
   977.0000      0.0000    695.9510      5.7413     82.8428
   977.2500      0.0000    675.8694      5.8026     81.3128
   977.5000      0.0000    636.6491      5.8769     79.9957
   977.7500      0.0000    579.3613      5.9416     79.6776
   978.0000      0.0000    514.5865      5.9802     81.4443
   978.2500      0.0000    457.9052      5.9869     85.6287
   978.5000      0.0000    420.5038      5.9693     91.0955
   978.7500      0.0000    405.0076      5.9442     95.6762
   979.0000      0.0000    409.5175      5.9285     97.4099
   979.2500      0.0000    432.5927      5.9290     95.6357
   979.5000      0.0000    472.9248      5.9401     91.3018
   979.7500      0.0000    525.6704      5.9513     86.4800
   980.0000      0.0000    581.2465      5.9581     83.4307
   980.2500      0.0000    628.7249      5.9646     83.5627
   980.5000      0.0000    660.9828      5.9777     86.7241
   980.7500      0.0000    677.5425      6.0023     91.3320
   981.0000      0.0000    683.1979      6.0406     95.5365
   981.2500      0.0000    683.9960      6.0925     98.6186
   981.5000      0.0000    683.9197      6.1539    101.2991
   981.7500      0.0000    684.1650      6.2174    104.5183
   982.0000      0.0000    683.8386      6.2747    108.1040
   982.2500      0.0000    680.0331      6.3200    110.8917
   982.5000      0.0000    668.1102      6.3455    112.1043
   982.7500      0.0000    644.8439      6.3330    112.4402
   983.0000      0.0000    613.3989      6.2586    113.6028
   983.2500      0.0000    584.6531      6.1178    116.4516
   983.5000      0.0000    571.3203      5.9319    119.7369
   983.7500      0.0000    579.0012      5.7124    121.2616
   984.0000      0.0000    601.7642      5.4394    120.1516
   984.2500      0.0000    625.7080      5.1134    117.2698
   984.5000      0.0000    637.6440      4.8127    113.7045
   984.7500      0.0000    632.6797      4.6462    109.7968
   985.0000      0.0000    615.2712      4.6489    105.6317
   985.2500      0.0000    594.1688      4.7514    101.5683
   985.5000      2.0000    577.9968      4.8401     97.9919
   985.7500      0.0000    574.3793      4.8287     95.0409
   986.0000      0.0000    587.0864      4.6995     92.7713
   986.2500      0.0000    610.0045      4.5162     91.1046
   986.5000      0.0000    626.9799      4.3904     89.4873
   986.7500      0.0000    621.5335      4.4074     87.1391
   987.0000      0.0000    588.4177      4.5846     83.9976
   987.2500      0.0000    537.5703      4.8957     80.9866
   987.5000      0.0000    487.7346      5.3028     78.9148
   987.7500      0.0000    455.2541      5.7527     77.3838
   988.0000      0.0000    447.1829      6.1684     75.2541
   988.2500      0.0000    461.7910      6.4742     72.0890
   988.5000      0.0000    491.0613      6.6352     68.7024
   988.7500      0.0000    521.9865      6.6695     66.2984
   989.0000      0.0000    540.2674      6.6292     65.4172
   989.2500      0.0000    538.5764      6.5710     65.7586
   989.5000      0.0000    522.9574      6.5350     66.7428
   989.7500      0.0000    508.1619      6.5356     67.9736
   990.0000      0.0000    503.4573      6.5645     69.2058
   990.2500      0.0000    503.5825      6.6040     70.4176
   990.5000      0.0000    496.1505      6.6396     72.3573
   990.7500      0.0000    477.2331      6.6644     76.5276
   991.0000      0.0000    456.7939      6.6769     83.8327
   991.2500      0.0000    449.0670      6.6778     93.1491
   991.5000      0.0000    460.3462      6.6686    101.6885
   991.7500      0.0000    485.8189      6.6520    106.8948
   992.0000      0.0000    514.4465      6.6315    107.9393
   992.2500      0.0000    535.1586      6.6088    105.7095
   992.5000      0.0000    540.8989      6.5800    101.9071
   992.7500      0.0000    531.4265      6.5380     98.2347
   993.0000      0.0000    515.0227      6.4795     95.9052
   993.2500      0.0000    505.7804      6.4100     95.3278
   993.5000      0.0000    514.7831      6.3412     96.0673
   993.7500      0.0000    541.1107      6.2868     97.1857
   994.0000      0.0000    571.6614      6.2563     97.7114
   994.2500      0.0000    590.6890      6.2499     96.9783
   994.5000      0.0000    590.3612      6.2554     94.8999
   994.7500      0.0000    574.1638      6.2553     92.1007
   995.0000      0.0000    552.8622      6.2411     89.5618
   995.2500      0.0000    537.6955      6.2223     87.9403
   995.5000      0.0000    534.2957      6.2168     87.4119
   995.7500      0.0000    539.6525      6.2340     88.0496
   996.0000      0.0000    544.5695      6.2656     89.8476
   996.2500      0.0000    541.4533      6.2944     92.2142
   996.5000      0.0000    531.1992      6.3096     93.9655
   996.7500      0.0000    521.7238      6.3133     94.2726
