~Version Information
VERS.                      2.0: CWLS Log ASCII Standard - VERSION 2.0
WRAP.                       NO: One line per depth step
~Well Information Block
STRT.FT                -8.5000: 
STOP.FT              2591.0000: 
STEP.FT                 0.2500: 
NULL.                -999.2500: 
COMP.          Pioneer Natural Resources: COMPANY
WELL.             Aviator 12-4: WELL
FLD.           Purgatorie River: FIELD
LOC.           1969' FNL & 732' FWL--: LOCATION
CNTY.               Las Animas: COUNTY
SRVC.          Patterson Wireline: SERVICE COMPANY
DATE.          Wed Apr 19 09:09:26 2006: LOG DATE
UWI.           05 071 08714 00: UNIQUE WELL ID
STAT.                       CO: STATE
~Curve Information Block
DEPT.FT            0 000 00 00: Depth
CCL.                          : Casing Collar Locator
TT3.usec                      : CBL 3' Travel Time
AMP3.mV                       : CBL 3' Amplitude
GR.GAPI                       : Gamma Ray
~Parameter Information Block
~A  Depth       CCL         TT3         AMP3         GR     
# ...
  2571.0000      0.0000    444.2173      9.3082     67.5536
  2571.2500      0.0000    487.0721      9.1446     64.4572
  2571.5000      0.0000    525.0143      8.9343     58.7811
  2571.7500      0.0000    543.4501      8.6884     52.2150
  2572.0000      0.0000    536.2032      8.4314     47.1792
  2572.2500      0.0000    508.1484      8.1929     45.3341
  2572.5000      0.0000    470.3986      7.9972     46.6172
  2572.7500      0.0000    434.5132      7.8579     49.6405
  2573.0000      0.0000    408.1618      7.7852     52.9380
  2573.2500      0.0000    392.8826      7.7938     55.9659
  2573.5000      0.0000    385.3119      7.8993     59.0979
  2573.7500      0.0000    380.6175      8.1080     62.7207
  2574.0000      0.0000    375.2288      8.4114     66.4460
  2574.2500      0.0000    367.8811      8.7834     69.1584
  2574.5000      0.0000    359.4554      9.1760     69.6617
  2574.7500      0.0000    351.8687      9.5300     67.4929
  2575.0000      0.0000    346.5266      9.8112     63.5638
  2575.2500      0.0000    343.6052     10.0439     59.8380
  2575.5000      0.0000    342.4263     10.3017     57.9261
  2575.7500      0.0000    342.1979     10.6530     57.9470
  2576.0000      0.0000    342.3686     11.1152     58.7176
  2576.2500      0.0000    342.5977     11.6624     58.6462
  2576.5000      0.0000    342.6674     12.2665     56.3123
  2576.7500      0.0000    342.4780     12.9116     50.8036
  2577.0000      0.0000    342.0605     13.5647     42.1102
  2577.2500      0.0000    341.5368     14.1450     31.3287
  2577.5000      0.0000    341.0409     14.5406     20.3917
  2577.7500      0.0000    340.6761     14.6632     11.3080
  2578.0000      0.0000    340.5806     14.4931      5.2137
  2578.2500      0.0000    341.1079     14.0861      1.9593
  2578.5000      0.0000    343.3045     13.5471      0.5916
  2578.7500      0.0000    349.7795     12.9875      0.1415
  2579.0000      0.0000    365.3654     12.4875      0.0265
  2579.2500      0.0000    395.6906     12.0837      0.0037
  2579.5000      0.0000    441.5685     11.7824      0.0000
  2579.7500      0.0000    491.8744     11.5830   -999.2500
  2580.0000      0.0000    525.0222     11.4887   -999.2500
  2580.2500      0.0000    525.2344     11.4938   -999.2500
  2580.5000      0.0000    500.8603     11.5603   -999.2500
  2580.7500      0.0000    482.8282     11.6194   -999.2500
  2581.0000      0.0000    501.0942     11.6041   -999.2500
  2581.2500      0.0000    560.5527     11.4711   -999.2500
  2581.5000      0.0000    636.2055     11.1778   -999.2500
  2581.7500      0.0000    687.8370     10.6319   -999.2500
  2582.0000      0.0000    680.8546      9.6780   -999.2500
  2582.2500      0.0000    601.7062      8.1843   -999.2500
  2582.5000      0.0000    464.5585      6.2093   -999.2500
  2582.7500      0.0000    306.5801      4.0856   -999.2500
  2583.0000      0.0000    169.3961      2.2658   -999.2500
  2583.2500      0.0000     76.9893      1.0361   -999.2500
  2583.5000      0.0000     28.3813      0.3844   -999.2500
  2583.7500      0.0000      8.3923      0.1144   -999.2500
  2584.0000      0.0000      1.9722      0.0270   -999.2500
  2584.2500      0.0000      0.3621      0.0050   -999.2500
  2584.5000      0.0000      0.0473      0.0007   -999.2500
  2584.7500      0.0000   -999.2500   -999.2500   -999.2500
  2585.0000      0.0000   -999.2500   -999.2500   -999.2500
  2585.2500      0.0000   -999.2500   -999.2500   -999.2500
  2585.5000      0.0000   -999.2500   -999.2500   -999.2500
  2585.7500      0.0000   -999.2500   -999.2500   -999.2500
  2586.0000      0.0000   -999.2500   -999.2500   -999.2500
  2586.2500      0.0000   -999.2500   -999.2500   -999.2500
  2586.5000      0.0000   -999.2500   -999.2500   -999.2500
  2586.7500      0.0000   -999.2500   -999.2500   -999.2500
  2587.0000      0.0000   -999.2500   -999.2500   -999.2500
  2587.2500      0.0000   -999.2500   -999.2500   -999.2500
  2587.5000      0.0000   -999.2500   -999.2500   -999.2500
  2587.7500      0.0000   -999.2500   -999.2500   -999.2500
  2588.0000      0.0000   -999.2500   -999.2500   -999.2500
  2588.2500      0.0000   -999.2500   -999.2500   -999.2500
  2588.5000      0.0000   -999.2500   -999.2500   -999.2500
  2588.7500      0.0000   -999.2500   -999.2500   -999.2500
  2589.0000      0.0000   -999.2500   -999.2500   -999.2500
  2589.2500      0.0000   -999.2500   -999.2500   -999.2500
  2589.5000      0.0000   -999.2500   -999.2500   -999.2500
  2589.7500      0.0000   -999.2500   -999.2500   -999.2500
  2590.0000      0.0000   -999.2500   -999.2500   -999.2500
  2590.2500      0.0000   -999.2500   -999.2500   -999.2500
  2590.5000      0.0000   -999.2500   -999.2500   -999.2500
  2590.7500   -999.2500   -999.2500   -999.2500   -999.2500
  2591.0000   -999.2500   -999.2500   -999.2500   -999.2500
