~Version Information
VERS.                      2.0: CWLS Log ASCII Standard - VERSION 2.0
WRAP.                       NO: One line per depth step
~Well Information Block
STRT.FT                -3.2500: 
STOP.FT               989.2500: 
STEP.FT                 0.2500: 
NULL.                -999.2500: 
COMP.          Pioneer Natural Resources: COMPANY
WELL.                Doc 34-30: WELL
FLD.           Purgatoire River: FIELD
LOC.           454' FSL & 1386' FEL: LOCATION
CNTY.               Las Animas: COUNTY
SRVC.                         : SERVICE COMPANY
DATE.          Wed Mar 08 14:28:55 2006: LOG DATE
UWI.           05 071 08694 00: UNIQUE WELL ID
STAT.                       CO: STATE
~Curve Information Block
DEPT.FT            0 000 00 00: Depth
GR.GAPI                       : Gamma Ray
CCL.                          : Casing Collar Locator
TT3.usec                      : CBL 3' Travel Time
AMP3.mV                       : CBL 3' Amplitude
~Parameter Information Block
~A  Depth        GR         CCL         TT3         AMP3    
# ...
   834.2500     88.2419      0.0000    399.4481      5.6241
   834.5000     87.2811      0.0000    396.8861      5.5753
   834.7500     86.0593      0.0000    399.0320      5.5352
   835.0000     85.0610      0.0000    405.0325      5.5042
   835.2500     84.6863      0.0000    416.7989      5.4814
   835.5000     85.3451      0.0000    439.3215      5.4655
   835.7500     87.0118      0.0000    477.9330      5.4513
   836.0000     88.9147      0.0000    532.1945      5.4307
   836.2500     90.4680      0.0000    592.4627      5.3941
   836.5000     92.3965      0.0000    644.7648      5.3292
   836.7500     95.9360      0.0000    679.9873      5.2312
   837.0000    100.7816      0.0000    698.2610      5.1284
   837.2500    104.8055      0.0000    706.4203      5.0890
   837.5000    106.1888      0.0000    713.2881      5.1792
   837.7500    105.1157      0.0000    725.5052      5.4112
   838.0000    103.0357      0.0000    743.6346      5.7538
   838.2500    100.8686      0.0000    761.2933      6.1875
   838.5000     98.2655      0.0000    770.5876      6.7093
   838.7500     94.3074      0.0000    769.3019      7.2744
   839.0000     88.6401      0.0000    761.5396      7.7672
   839.2500     81.9481      0.0000    752.3546      8.0568
   839.5000     75.4433      0.0000    745.4777      8.0815
   839.7500     69.9705      0.0000    746.1116      7.8906
   840.0000     65.5140      0.0000    761.0558      7.6252
   840.2500     61.4400      0.0000    792.7086      7.4355
   840.5000     57.2043      0.0000    834.7421      7.3710
   840.7500     52.9634      0.0000    875.8079      7.3465
   841.0000     49.6311      0.0000    906.7327      7.2382
   841.2500     48.2964      0.0000    923.4764      6.9874
   841.5000     49.4224      0.0000    925.6829      6.5933
   841.7500     52.4712      0.0000    915.9708      6.0595
   842.0000     56.3296      0.0000    899.6812      5.4103
   842.2500     60.2138      0.0000    880.1588      4.7415
   842.5000     64.1249      0.0000    854.1793      4.2009
   842.7500     68.3423      0.0000    817.9612      3.8996
   843.0000     72.5891      0.0000    777.3752      3.8550
   843.2500     75.8037      0.0000    745.4468      4.0097
   843.5000     76.7023      0.0000    728.9922      4.2746
   843.7500     74.6574      0.0000    721.9739      4.5521
   844.0000     70.2980      0.0000    711.8048      4.7589
   844.2500     65.3135     -2.0000    688.0468      4.8582
   844.5000     61.4500      0.0000    645.9695      4.8694
   844.7500     59.4573      0.0000    587.6492      4.8527
   845.0000     58.8511      0.0000    522.5398      4.8839
   845.2500     58.5358      0.0000    463.7057      5.0057
   845.5000     57.6760      0.0000    420.2209      5.1745
   845.7500     56.2633      0.0000    392.9053      5.2839
   846.0000     55.0708      0.0000    376.9893      5.2842
   846.2500     54.9103      0.0000    367.3492      5.2443
   846.5000     55.7427      0.0000    361.1964      5.2618
   846.7500     56.6655      0.0000    357.6461      5.3490
   847.0000     57.0224      0.0000    356.2836      5.4449
   847.2500     57.3091      0.0000    356.4478      5.5037
   847.5000     58.6140      0.0000    357.3143      5.5335
   847.7500     61.2994      0.0000    358.1952      5.5656
   848.0000     64.6241      0.0000    358.6646      5.6161
   848.2500     67.3962      0.0000    358.5699      5.6789
   848.5000     68.4952      0.0000    357.9945      5.7366
   848.7500     67.1188      0.0000    357.1619      5.7733
   849.0000     63.4308      0.0000    356.3316      5.7793
   849.2500     59.1243      0.0000    355.7789      5.7528
   849.5000     56.6219      0.0000    356.1114      5.7003
   849.7500     57.1611      0.0000    359.1147      5.6332
   850.0000     59.7474      0.0000    368.9461      5.5618
   850.2500     62.1683      0.0000    392.2559      5.4949
   850.5000     62.8556      0.0000    434.9925      5.4525
   850.7500     61.6034      0.0000    496.3017      5.4714
   851.0000     59.0259      0.0000    565.1991      5.5811
   851.2500     56.0620      0.0000    625.6183      5.7688
   851.5000     53.9281      0.0000    666.6591      5.9813
   851.7500     53.9031      0.0000    688.4213      6.1683
   852.0000     56.8485      0.0000    698.9633      6.3165
   852.2500     62.7851      0.0000    706.8361      6.4395
   852.5000     70.6225      0.0000    715.8477      6.5410
   852.7500     78.3515      0.0000    724.9329      6.5926
   853.0000     83.9599      0.0000    731.3837      6.5472
   853.2500     86.3891      0.0000    733.5110      6.3831
   853.5000     85.6791      0.0000    730.8336      6.1385
   853.7500     82.4326      0.0000    723.5278      5.8930
   854.0000     77.4476      0.0000    712.9142      5.7056
   854.2500     71.9672      0.0000    701.7743      5.5774
   854.5000     67.9038      0.0000    692.9501      5.4768
   854.7500     67.0682      0.0000    687.4848      5.3871
   855.0000     69.7974      0.0000    684.5056      5.3237
   855.2500     74.5615      0.0000    682.8469      5.3176
   855.5000     79.0904      0.0000    682.4375      5.3882
   855.7500     81.7268      0.0000    684.2051      5.5251
   856.0000     81.7497      0.0000    689.0942      5.6943
   856.2500     79.0426      0.0000    697.1305      5.8663
   856.5000     74.1387      0.0000    706.9767      6.0357
   856.7500     68.6231      0.0000    716.5350      6.2086
   857.0000     64.8130      0.0000    724.2773      6.3736
   857.2500     64.3946      0.0000    729.5728      6.4943
   857.5000     67.2017      0.0000    731.7423      6.5209
   857.7500     71.3247      0.0000    729.9380      6.4058
   858.0000     74.4262      0.0000    724.3653      6.1255
   858.2500     75.0571      0.0000    716.7886      5.7161
   858.5000     73.0400      0.0000    709.6183      5.2868
   858.7500     69.0437      0.0000    705.2009      4.9794
   859.0000     64.0421      0.0000    705.8851      4.8963
   859.2500     58.9917      0.0000    713.6060      5.0512
   859.5000     54.6546      0.0000    728.3550      5.3720
   859.7500     51.4331      0.0000    746.7407      5.7450
   860.0000     49.2763      0.0000    762.7422      6.0704
   860.2500     47.9897      0.0000    771.2949      6.2891
   860.5000     47.9185      0.0000    771.7257      6.3758
   860.7500     50.0988      0.0000    767.2625      6.3291
   861.0000     55.2446      0.0000    761.3616      6.1754
   861.2500     62.6520      0.0000    755.1157      5.9684
   861.5000     70.4498      0.0000    747.7690      5.7697
   861.7500     76.7355      0.0000    738.7601      5.6243
   862.0000     80.2862      0.0000    728.7628      5.5458
   862.2500     80.8129      0.0000    718.7513      5.5155
   862.5000     79.2041      0.0000    708.1705      5.4967
   862.7500     77.2376      0.0000    694.8376      5.4593
   863.0000     76.4871      0.0000    677.9860      5.3968
   863.2500     77.4141      0.0000    661.5970      5.3231
   863.5000     79.5584      0.0000    652.7380      5.2594
   863.7500     82.2873      0.0000    655.0279      5.2212
   864.0000     85.0368      0.0000    665.1583      5.2114
   864.2500     87.1055      0.0000    677.0322      5.2250
   864.5000     87.8529      0.0000    687.2992      5.2636
   864.7500     87.1362      0.0000    695.6981      5.3414
   865.0000     85.0558      0.0000    702.4767      5.4722
   865.2500     81.3516      0.0000    707.5732      5.6510
   865.5000     75.7327      0.0000    711.5196      5.8502
   865.7500     68.9443      0.0000    715.8046      6.0297
   866.0000     62.9557      0.0000    721.9936      6.1506
   866.2500     59.8611      0.0000    730.4022      6.1882
   866.5000     60.7714      0.0000    739.4623      6.1374
   866.7500     65.6249      0.0000    746.5775      6.0076
   867.0000     73.4943      0.0000    749.7780      5.8171
   867.2500     82.7328      0.0000    748.7136      5.5975
   867.5000     91.1692      0.0000    744.4122      5.3998
