~Version Information
VERS.                      2.0: CWLS Log ASCII Standard - VERSION 2.0
WRAP.                       NO: One line per depth step
~Well Information Block
STRT.FT               875.0000: 
STOP.FT              2053.0000: 
STEP.FT                 0.1000: 
NULL.                -999.2500: 
COMP.          Pioneer Natural Resources: COMPANY
WELL.          Woodstock 43-19: WELL
FLD.           Purgatoire River: FIELD
LOC.           2195' FSL & 250' FEL: LOCATION
CNTY.               Las Animas: COUNTY
SRVC.                Patterson: SERVICE COMPANY
DATE.          Thu Feb 02 12:45:04 2006: LOG DATE
UWI.           05 071 08677 00: UNIQUE WELL ID
STAT.                 Colorado: STATE
~Curve Information Block
DEPT.FT            0 000 00 00: Depth
DCAL.in                       : CDL Caliper
RHOB.g/cc                     : CDL Bulk Density
RHOC.g/cc                     : CDL Density Correction
DPOR.pu                       : CDL Density Porosity
GR.GAPI                       : Gamma Ray
NPOR.pu                       : Neutron Porosity
~Parameter Information Block
~A  Depth       DCAL        RHOB        RHOC        DPOR         GR         NPOR    
# ...
  1412.6000      7.8814      2.8349     -0.0872    -11.2054     85.1350     25.0460
  1412.7000      7.8814      2.7481     -0.0752     -5.9433     87.7586     24.8159
  1412.8000      7.8729      2.6722     -0.0412     -1.3460     93.1951     24.6349
  1412.9000      7.8729      2.6025     -0.1042      2.8807     98.8734     24.9056
  1413.0000      7.9019      2.5583     -0.1137      5.5602    100.6854     25.5138
  1413.1000      7.9019      2.5534      0.0375      5.8541    103.4239     25.9104
  1413.2000      7.9019      2.5699      0.0441      4.8560    111.0080     26.2682
  1413.3000      7.9053      2.5865      0.1228      3.8504    117.5181     26.7122
  1413.4000      7.9053      2.5951      0.0913      3.3261    119.8823     26.4497
  1413.5000      7.9376      2.5904      0.1689      3.6123    121.3135     25.7938
  1413.6000      7.9376      2.5756      0.0520      4.5085    119.6312     26.0643
  1413.7000      7.9376      2.5660      0.0775      5.0925    112.6139     26.7053
  1413.8000      7.9627      2.5604      0.0930      5.4330    107.8083     26.3334
  1413.9000      7.9627      2.5526      0.0451      5.9036    109.9739     25.2375
  1414.0000      7.9739      2.5469      0.0545      6.2499    115.5338     24.8009
  1414.1000      7.9739      2.5399      0.0917      6.6700    119.6259     25.0957
  1414.2000      7.9739      2.5236      0.1164      7.6607    117.7785     25.1621
  1414.3000      8.0326      2.4968      0.0601      9.2832    109.0320     24.9199
  1414.4000      8.0326      2.4698      0.0213     10.9214    100.3853     25.0043
  1414.5000      7.9547      2.4585      0.0028     11.6054     98.8350     25.2483
  1414.6000      7.9547      2.4684      0.0383     11.0031    103.7194     24.9584
  1414.7000      7.9547      2.4948      0.0382      9.4076    112.0485     24.6269
  1414.8000      7.9734      2.5300      0.1099      7.2718    121.3031     25.0028
  1414.9000      7.9734      2.5572      0.2004      5.6244    126.9618     25.8116
  1415.0000      7.9528      2.5623      0.1842      5.3169    126.2777     26.4390
  1415.1000      7.9528      2.5523      0.1520      5.9212    122.6520     26.8565
  1415.2000      7.9528      2.5327      0.1853      7.1104    122.2935     27.5930
  1415.3000      7.9276      2.4991      0.1034      9.1452    126.8158     29.1408
  1415.4000      7.9276      2.4640      0.0939     11.2743    130.5966     31.2628
  1415.5000      7.9262      2.4407      0.1318     12.6867    129.5144     32.7453
  1415.6000      7.9262      2.4236      0.1275     13.7197    127.8149     32.6793
  1415.7000      7.9262      2.4113      0.0666     14.4675    129.9112     31.6208
  1415.8000      7.9568      2.4079      0.1150     14.6754    134.4350     30.4387
  1415.9000      7.9568      2.4125      0.0415     14.3940    138.2489     29.2426
  1416.0000      8.0677      2.4251      0.1401     13.6288    140.5851     27.9710
  1416.1000      8.0677      2.4370      0.1595     12.9078    142.6947     27.1643
  1416.2000      8.0677      2.4378      0.1356     12.8626    145.0964     27.4311
  1416.3000      8.1769      2.4229      0.1428     13.7631    146.4012     28.3721
  1416.4000      8.1769      2.3971      0.0754     15.3267    146.0083     28.9630
  1416.5000      8.2263      2.3828     -0.0174     16.1944    147.1665     28.7291
  1416.6000      8.2263      2.3911      0.0515     15.6921    149.7203     27.7546
  1416.7000      8.2263      2.4038      0.0874     14.9241    146.9632     26.5076
  1416.8000      8.2636      2.4115      0.0518     14.4555    138.1875     25.9841
  1416.9000      8.2636      2.4263      0.0646     13.5559    128.4950     26.4730
  1417.0000      8.1864      2.4530      0.0987     11.9410    118.7817     27.2770
  1417.1000      8.1864      2.4854      0.0326      9.9746    109.1467     27.8723
  1417.2000      8.1864      2.5143      0.0623      8.2273    103.6910     27.8109
  1417.3000      8.1354      2.5283      0.0865      7.3761    106.1937     26.8612
  1417.4000      8.1354      2.5235      0.1010      7.6687    111.7018     25.6486
  1417.5000      8.0208      2.5091      0.0938      8.5395    114.0139     25.0276
  1417.6000      8.0208      2.5078      0.0455      8.6170    114.8881     25.3319
  1417.7000      8.0208      2.5305      0.0903      7.2430    114.2841     26.2548
  1417.8000      8.0082      2.5527      0.1343      5.8953    110.9194     26.9064
  1417.9000      8.0082      2.5502      0.1044      6.0464    107.9185     26.6842
  1418.0000      8.0425      2.5386      0.0790      6.7508    106.8375     26.0201
  1418.1000      8.0425      2.5457      0.0834      6.3205    107.2395     25.3296
  1418.2000      8.0425      2.5724      0.0902      4.7029    108.4034     24.5840
  1418.3000      8.1283      2.6005      0.1039      2.9989    107.9305     23.6263
  1418.4000      8.1283      2.6192      0.0644      1.8656    104.2849     22.7426
  1418.5000      8.0280      2.6238      0.1325      1.5860     99.6597     22.7355
  1418.6000      8.0280      2.6075      0.1052      2.5736     97.7882     23.5067
  1418.7000      8.0280      2.5754      0.1070      4.5240     97.6187     24.1001
  1418.8000      7.9599      2.5392      0.0772      6.7127     94.0546     24.2760
  1418.9000      7.9599      2.5061      0.0252      8.7229     88.2216     24.6200
  1419.0000      7.9518      2.4902     -0.0748      9.6835     83.5224     25.4216
  1419.1000      7.9518      2.4998      0.0194      9.1025     78.9507     26.0548
  1419.2000      7.9518      2.5113      0.0134      8.4060     77.0955     25.8946
  1419.3000      7.9570      2.5012      0.0106      9.0193     81.6411     24.9321
  1419.4000      7.9570      2.4754     -0.0140     10.5829     90.0048     23.6020
  1419.5000      7.9466      2.4554      0.0117     11.7944     95.9347     22.8418
  1419.6000      7.9466      2.4540     -0.0126     11.8773     94.2195     23.1699
  1419.7000      7.9466      2.4682     -0.0062     11.0161     89.7712     23.5882
  1419.8000      7.9478      2.4927     -0.0135      9.5329     91.0565     22.9954
  1419.9000      7.9478      2.5219      0.0119      7.7649     95.2100     21.8521
  1420.0000      7.9478      2.5360      0.0454      6.9109     98.5834     21.2926
  1420.1000      7.9478      2.5275     -0.0012      7.4242    103.8193     21.5885
  1420.2000      7.9478      2.5236     -0.0433      7.6592    109.6002     22.2639
  1420.3000      8.0359      2.5439      0.0180      6.4331    111.1379     23.0684
  1420.4000      8.0359      2.5702      0.0819      4.8342    107.3880     23.6586
  1420.5000      8.0777      2.5767      0.0553      4.4445    100.8270     23.4612
  1420.6000      8.0777      2.5583      0.0643      5.5577     96.2612     22.9757
  1420.7000      8.0777      2.5327     -0.0277      7.1069     94.5379     23.0660
  1420.8000      7.9595      2.5289     -0.0117      7.3390     90.1364     23.2945
  1420.9000      7.9595      2.5510      0.0322      6.0024     83.3297     23.1700
  1421.0000      8.0100      2.5709      0.0322      4.7968     77.8536     22.7522
  1421.1000      8.0100      2.5691      0.0782      4.9017     73.8126     21.9521
  1421.2000      8.0100      2.5551     -0.0004      5.7503     71.2169     21.4160
  1421.3000      8.0299      2.5437     -0.0114      6.4418     69.9140     21.7366
  1421.4000      8.0299      2.5350     -0.0006      6.9724     67.6690     22.4049
  1421.5000      8.0692      2.5194      0.0290      7.9146     64.1129     22.9023
  1421.6000      8.0692      2.4944     -0.0081      9.4327     58.7830     23.4269
  1421.7000      8.0692      2.4691      0.0117     10.9634     52.0128     24.3934
  1421.8000      7.9904      2.4530     -0.0116     11.9368     46.1588     25.0563
  1421.9000      7.9904      2.4488     -0.0189     12.1918     42.7619     24.6103
  1422.0000      7.9623      2.4559     -0.0288     11.7657     41.4420     24.1763
  1422.1000      7.9623      2.4717     -0.0119     10.8059     40.8011     24.4514
