~Version Information
VERS.                      2.0: CWLS Log ASCII Standard - VERSION 2.0
WRAP.                       NO: One line per depth step
~Well Information Block
STRT.FT                -8.2500: 
STOP.FT              2119.7500: 
STEP.FT                 0.2500: 
NULL.                -999.2500: 
COMP.          Pioneer Natural Resources: COMPANY
WELL.          Hemisphere 32-24: WELL
FLD.           Purgatorie River: FIELD
LOC.           1850' FNL & 2284' FEL--: LOCATION
PROV.                       CO: PROVINCE
CNTY.               Las Animas: COUNTRY
SRVC.          Patterson Wireline: SERVICE COMPANY
DATE.          Sat Aug 27 08:06:42 2005: LOG DATE
UWI.           05 071 08440 00: UNIQUE WELL ID
~Curve Information Block
DEPT.FT            0 000 00 00: Depth
CCL.                          : Casing Collar Locator
TT3.usec                      : CBL 3' Travel Time
AMP3.mV                       : CBL 3' Amplitude
GR.GAPI                       : Gamma Ray
~Parameter Information Block
~A  Depth       CCL         TT3         AMP3         GR     
# ...
   829.2500      0.0000    755.7883      6.2452    127.3021
   829.5000      0.0000    753.2634      6.1457    123.3872
   829.7500      0.0000    749.8870      6.0717    118.4943
   830.0000      0.0000    745.6664      6.0238    113.4225
   830.2500      0.0000    738.3745      5.9889    109.0669
   830.5000      0.0000    726.0756      5.9486    106.9220
   830.7500      0.0000    709.9513      5.8942    108.4391
   831.0000      0.0000    694.1046      5.8331    113.1640
   831.2500      0.0000    682.4246      5.7804    118.3527
   831.5000      0.0000    676.0903      5.7466    121.4256
   831.7500      0.0000    674.0173      5.7346    122.4829
   832.0000      0.0000    674.8072      5.7446    123.5574
   832.2500      0.0000    677.7646      5.7746    125.9105
   832.5000      0.0000    682.3978      5.8171    129.2204
   832.7500      0.0000    687.6231      5.8595    132.9681
   833.0000      0.0000    692.3065      5.8934    137.1217
   833.2500      0.0000    696.7704      5.9222    141.3784
   833.5000      0.0000    702.5198      5.9576    144.7661
   833.7500      0.0000    709.2966      6.0095    146.3939
   834.0000      0.0000    713.5268      6.0751    146.2965
   834.2500      0.0000    711.6274      6.1392    145.4018
   834.5000      0.0000    704.7604      6.1862    144.6981
   834.7500      0.0000    698.9959      6.2153    144.2667
   835.0000      0.0000    700.5314      6.2405    143.1123
   835.2500      0.0000    710.8677      6.2736    140.2421
   835.5000      0.0000    725.8918      6.3136    135.9431
   835.7500      0.0000    739.1605      6.3568    131.6346
   836.0000      0.0000    746.6157      6.4090    128.4151
   836.2500      0.0000    748.7578      6.4821    126.3218
   836.5000      0.0000    749.0212      6.5786    125.2199
   836.7500      0.0000    750.8663      6.6844    125.5166
   837.0000      0.0000    756.1318      6.7767    127.3687
   837.2500      0.0000    764.6447      6.8391    129.9329
   837.5000      0.0000    774.4579      6.8692    132.0855
   837.7500      0.0000    782.8338      6.8714    133.3523
   838.0000      0.0000    787.5825      6.8442    133.6369
   838.2500      0.0000    787.7299      6.7794    132.7625
   838.5000      0.0000    783.4925      6.6733    131.1524
   838.7500      0.0000    776.3490      6.5362    130.5032
   839.0000      0.0000    768.9278      6.3874    132.6817
   839.2500      0.0000    763.5092      6.2417    137.6461
   839.5000      0.0000    759.7764      6.1052    142.8604
   839.7500      0.0000    754.5735      5.9839    145.1020
   840.0000      0.0000    744.7621      5.8931    142.9099
   840.2500      0.0000    730.2215      5.8515    137.3750
   840.5000      0.0000    713.8084      5.8663    130.9032
   840.7500      0.0000    699.1594      5.9240    125.4261
   841.0000      0.0000    689.1213      5.9953    121.6936
   841.2500      0.0000    685.2700      6.0497    119.8651
   841.5000      0.0000    687.3146      6.0715    120.1604
   841.7500      0.0000    692.4094      6.0643    122.4357
   842.0000      0.0000    696.0356      6.0442    125.4580
   842.2500      0.0000    695.0903      6.0258    127.4547
   842.5000      0.0000    690.3415      6.0150    127.5824
   842.7500      0.0000    685.1671      6.0106    126.2828
   843.0000      0.0000    682.4027      6.0112    124.0764
   843.2500      0.0000    683.2361      6.0173    120.7449
   843.5000      0.0000    687.8411      6.0261    115.9462
   843.7500      0.0000    695.1221      6.0246    109.9337
   844.0000      0.0000    702.1466      5.9954    103.3503
   844.2500      0.0000    705.2352      5.9319     97.0048
   844.5000      0.0000    702.3652      5.8472     92.3587
   844.7500      0.0000    694.7400      5.7668     91.3719
   845.0000      0.0000    685.8842      5.7118     94.8390
   845.2500      0.0000    678.9719      5.6906    101.1970
   845.5000      0.0000    675.0195      5.7028    107.6575
   845.7500      0.0000    673.3519      5.7478    112.1916
   846.0000      0.0000    673.1899      5.8236    114.1713
   846.2500      0.0000    674.7416      5.9158    113.7621
   846.5000      0.0000    679.2729      5.9956    111.2465
   846.7500      0.0000    688.2657      6.0357    106.8926
   847.0000      0.0000    702.0875      6.0297    101.3571
   847.2500      0.0000    719.3793      5.9955     96.0825
   847.5000      0.0000    737.8341      5.9613     92.7439
   847.7500      0.0000    755.2220      5.9505     91.8335
   848.0000      0.0000    769.4103      5.9745     91.8013
   848.2500      0.0000    778.4365      6.0325     89.8717
   848.5000      0.0000    781.4950      6.1138     84.0709
   848.7500      0.0000    779.3110      6.2005     74.8031
   849.0000      0.0000    773.0049      6.2735     64.6547
   849.2500      0.0000    763.6119      6.3235     56.6204
   849.5000      0.0000    753.0152      6.3612     52.2967
   849.7500      0.0000    743.7242      6.4177     51.4119
   850.0000      0.0000    737.0711      6.5253     52.7383
   850.2500      0.0000    733.2619      6.6939     55.2611
   850.5000      0.0000    733.7967      6.9051     58.6464
   850.7500      0.0000    741.3126      7.1253     63.1359
   851.0000      0.0000    755.1628      7.3194     69.2964
   851.2500      0.0000    768.8500      7.4545     77.5481
   851.5000      0.0000    774.1739      7.5103     87.5292
   851.7500      0.0000    767.5129      7.5024     98.0978
   852.0000      0.0000    751.3097      7.4893    108.1513
   852.2500      0.0000    731.3314      7.5250    117.1927
   852.5000      0.0000    714.5093      7.5752    124.9397
   852.7500      0.0000    707.9741      7.4994    130.8794
   853.0000      0.0000    716.1399      7.1729    134.5586
   853.2500      0.0000    736.8286      6.6376    135.8625
   853.5000      0.0000    761.5678      6.0857    134.5721
   853.7500      0.0000    781.2835      5.6869    130.1544
   854.0000     -2.0000    792.0061      5.4700    122.6947
   854.2500      0.0000    795.4960      5.3664    113.8370
   854.5000      0.0000    795.3596      5.3166    106.1947
   854.7500      0.0000    792.7858      5.3253    101.6788
   855.0000      0.0000    785.3422      5.4384    100.5016
   855.2500      0.0000    769.6151      5.6708    101.6007
   855.5000      0.0000    745.7808      5.9450    103.6549
   855.7500      0.0000    719.6510      6.1272    105.6830
   856.0000      0.0000    699.3819      6.1492    107.0921
   856.2500      0.0000    689.6641      6.0703    107.7671
   856.5000      0.0000    688.8967      6.0014    108.2880
   856.7500      0.0000    691.2454      5.9997    109.6207
   857.0000      0.0000    691.1806      6.0564    112.2299
   857.2500      0.0000    686.9365      6.1437    115.7018
   857.5000      0.0000    680.5009      6.2409    119.4068
   857.7500      0.0000    674.8013      6.3316    123.3171
   858.0000      0.0000    671.2502      6.4047    127.8429
   858.2500      0.0000    669.5820      6.4618    132.8388
   858.5000      0.0000    668.9782      6.5178    137.0981
   858.7500      0.0000    668.8061      6.5867    139.0533
   859.0000      0.0000    668.6354      6.6665    137.7001
   859.2500      0.0000    668.0970      6.7370    132.7034
   859.5000      0.0000    667.0342      6.7735    124.4122
   859.7500      0.0000    665.7937      6.7656    114.4587
   860.0000      0.0000    665.1097      6.7240    105.5822
   860.2500      0.0000    665.4548      6.6694     99.9010
   860.5000      0.0000    666.5800      6.6142     97.5426
   860.7500      0.0000    667.7983      6.5554     97.2073
   861.0000      0.0000    668.4688      6.4822     97.4634
   861.2500      0.0000    667.9926      6.3921     97.2086
   861.5000      0.0000    665.4624      6.2954     95.7681
   861.7500      0.0000    659.8846      6.2062     93.4918
   862.0000      0.0000    651.5525      6.1318     92.0442
   862.2500      0.0000    643.4077      6.0740     93.2423
   862.5000      0.0000    639.8805      6.0333     97.2929
