~Version Information
VERS.                      2.0: CWLS Log ASCII Standard - VERSION 2.0
WRAP.                       NO: One line per depth step
~Well Information Block
STRT.FT               260.0000: 
STOP.FT              1230.0000: 
STEP.FT                 0.2500: 
NULL.                -999.2500: 
COMP.          Pioneer Natural Resources: COMPANY
WELL.             Mahalo 12-20: WELL
FLD.           Purgatoire River: FIELD
LOC.           1689' FNL & 479' FWL: LOCATION
CNTY.               Las Animas: COUNTY
SRVC.                Patterson: SERVICE COMPANY
DATE.          Thu Feb 23 20:25:01 2006: LOG DATE
UWI.           05 071 08700 00: UNIQUE WELL ID
STAT.                 Colorado: STATE
~Curve Information Block
DEPT.FT            0 000 00 00: Depth
SN.Ohm-m                      : IEL Short Normal
SP.mV                         : IEL Spontaneous Potential
DIR.Ohm-m                     : IEL Induction Resistivity
GR.GAPI                       : Gamma Ray
~Parameter Information Block
~A  Depth        SN          SP         DIR          GR     
# ...
   829.5000     15.8024     51.2881     13.7173    115.6431
   829.7500     15.4618     51.2845     13.5485    121.2977
   830.0000     14.9782     51.2692     13.3881    129.6629
   830.2500     14.4746     51.2428     13.2669    134.7162
   830.5000     13.9873     51.2168     13.1882    141.0470
   830.7500     13.5188     51.2087     13.1210    144.4407
   831.0000     13.1289     51.2352     13.0161    148.4994
   831.2500     12.8454     51.3078     12.8399    150.4799
   831.5000     12.5661     51.4300     12.5976    152.1498
   831.7500     12.1926     51.5948     12.3245    152.4226
   832.0000     11.8049     51.7843     12.0570    151.5831
   832.2500     11.5648     51.9733     11.8112    149.8461
   832.5000     11.5135     52.1361     11.5830    144.6111
   832.7500     11.5619     52.2550     11.3618    139.2939
   833.0000     11.6081     52.3249     11.1427    129.8437
   833.2500     11.6247     52.3535     10.9297    123.9017
   833.5000     11.6576     52.3544     10.7312    117.6713
   833.7500     11.7198     52.3388     10.5545    116.0054
   834.0000     11.7351     52.3116     10.4024    117.5730
   834.2500     11.6343     52.2712     10.2717    121.0856
   834.5000     11.4297     52.2120     10.1533    128.4703
   834.7500     11.1728     52.1283     10.0326    133.3732
   835.0000     10.9092     52.0199      9.8942    139.0374
   835.2500     10.6667     51.8945      9.7277    141.8123
   835.5000     10.4342     51.7634      9.5333    145.7110
   835.7500     10.1950     51.6329      9.3232    148.4900
   836.0000     10.0010     51.4999      9.1151    152.0071
   836.2500      9.9305     51.3560      8.9251    152.8501
   836.5000      9.9675     51.1948      8.7637    150.8080
   836.7500     10.0008     51.0169      8.6365    147.7848
   837.0000      9.9607     50.8317      8.5490    142.9798
   837.2500      9.8887     50.6564      8.5075    140.4501
   837.5000      9.8603     50.5130      8.5176    137.2386
   837.7500      9.9223     50.4229      8.5805    134.7696
   838.0000     10.0673     50.3975      8.6921    130.2188
   838.2500     10.2344     50.4301      8.8453    126.9226
   838.5000     10.4022     50.4966      9.0335    121.8170
   838.7500     10.6223     50.5648      9.2526    118.0752
   839.0000     10.9331     50.6091      9.5019    111.8593
   839.2500     11.3051     50.6163      9.7828    107.7487
   839.5000     11.6382     50.5855     10.0989    102.5364
   839.7500     11.8543     50.5273     10.4565     99.8391
   840.0000     12.0390     50.4668     10.8647     96.7296
   840.2500     12.3852     50.4400     11.3313     95.1982
   840.5000     12.9736     50.4771     11.8565     93.6359
   840.7500     13.6782     50.5839     12.4274     92.8827
   841.0000     14.2916     50.7348     13.0207     91.7254
   841.2500     14.7473     50.8867     13.6130     90.8626
   841.5000     15.1305     50.9999     14.1937     89.8157
   841.7500     15.4594     51.0559     14.7691     89.6087
   842.0000     15.6515     51.0604     15.3566     90.2472
   842.2500     15.7278     51.0362     15.9703     91.0807
   842.5000     15.8438     51.0086     16.6092     92.0454
   842.7500     16.0833     50.9946     17.2549     91.8607
   843.0000     16.4048     50.9980     17.8839     89.6468
   843.2500     16.8139     51.0127     18.4838     87.0383
   843.5000     17.3883     51.0291     19.0597     82.6771
   843.7500     18.1361     51.0413     19.6261     80.2349
   844.0000     18.9586     51.0509     20.1954     77.4445
   844.2500     19.7488     51.0649     20.7728     75.6086
   844.5000     20.5126     51.0891     21.3570     72.1560
   844.7500     21.3519     51.1226     21.9368     69.6857
   845.0000     22.2954     51.1579     22.4800     67.0674
   845.2500     23.2184     51.1812     22.9250     66.6151
   845.5000     23.9167     51.1742     23.1895     67.5768
   845.7500     24.2408     51.1238     23.2008     68.4636
   846.0000     24.2246     51.0370     22.9340     68.7684
   846.2500     24.0199     50.9453     22.4199     68.3373
   846.5000     23.6903     50.8898     21.7198     68.6006
   846.7500     23.1479     50.8970     20.8932     70.7455
   847.0000     22.2827     50.9678     19.9860     77.9982
   847.2500     21.1413     51.0805     19.0347     85.1312
   847.5000     19.9045     51.2008     18.0688     97.5349
   847.7500     18.6857     51.2943     17.1081    105.7804
   848.0000     17.5170     51.3387     16.1630    116.4276
   848.2500     16.4894     51.3323     15.2432    121.8137
   848.5000     15.7141     51.2938     14.3661    127.4577
   848.7500     15.1479     51.2514     13.5568    130.2566
   849.0000     14.6091     51.2309     12.8393    134.3371
   849.2500     14.0229     51.2480     12.2272    137.4413
   849.5000     13.4644     51.3082     11.7207    142.5727
   849.7500     12.9794     51.4105     11.3112    145.7631
   850.0000     12.5468     51.5459     10.9871    148.8766
   850.2500     12.1454     51.6939     10.7381    149.3174
   850.5000     11.8083     51.8256     10.5547    147.8988
   850.7500     11.6425     51.9175     10.4273    146.5180
   851.0000     11.6744     51.9628     10.3448    145.5987
   851.2500     11.7551     51.9726     10.2972    146.1192
   851.5000     11.7903     51.9685     10.2798    147.5267
   851.7500     11.8618     51.9709     10.2976    147.8880
   852.0000     12.0352     51.9932     10.3678    147.0089
   852.2500     12.2862     52.0404     10.5159    146.0380
   852.5000     12.6102     52.1117     10.7662    144.9676
   852.7500     13.0083     52.2005     11.1309    144.1946
   853.0000     13.4130     52.2945     11.6040    141.1262
   853.2500     13.7957     52.3781     12.1660    136.9182
   853.5000     14.2442     52.4385     12.7949    127.5530
   853.7500     14.7884     52.4696     13.4768    120.3384
   854.0000     15.3487     52.4710     14.2073    110.0806
   854.2500     15.9583     52.4440     14.9832    104.1130
   854.5000     16.7427     52.3911     15.7960     96.0443
   854.7500     17.6883     52.3196     16.6327     90.8870
   855.0000     18.7227     52.2441     17.4825     83.6786
   855.2500     19.8546     52.1833     18.3411     79.8033
   855.5000     21.0682     52.1557     19.2067     76.2796
   855.7500     22.2728     52.1755     20.0690     75.4411
   856.0000     23.3691     52.2498     20.9005     75.5134
   856.2500     24.2861     52.3735     21.6571     75.8383
   856.5000     25.0086     52.5273     22.2912     76.3640
   856.7500     25.5360     52.6826     22.7723     76.9387
   857.0000     25.8095     52.8132     23.1012     78.7183
   857.2500     25.7974     52.9072     23.3050     80.6308
   857.5000     25.5834     52.9707     23.4191     84.0193
   857.7500     25.2961     53.0236     23.4677     86.0651
   858.0000     25.0535     53.0882     23.4586     88.2862
   858.2500     24.9028     53.1805     23.3868     89.2526
   858.5000     24.7728     53.3038     23.2438     89.9819
   858.7500     24.5534     53.4478     23.0245     89.8001
   859.0000     24.2175     53.5908     22.7282     88.4445
   859.2500     23.8839     53.7057     22.3514     87.2213
   859.5000     23.7024     53.7668     21.8777     85.7435
   859.7500     23.6539     53.7591     21.2850     84.9922
   860.0000     23.5929     53.6860     20.5723     83.4689
   860.2500     23.4496     53.5697     19.7877     81.9700
   860.5000     23.2423     53.4411     19.0181     79.7788
   860.7500     22.9320     53.3260     18.3400     79.2133
   861.0000     22.3882     53.2350     17.7690     80.8680
   861.2500     21.5411     53.1612     17.2465     83.9264
   861.5000     20.5016     53.0871     16.6754     91.4321
   861.7500     19.4187     52.9970     15.9866     98.0606
   862.0000     18.3200     52.8899     15.1885    109.1851
   862.2500     17.2152     52.7826     14.3575    116.5028
   862.5000     16.1899     52.6977     13.5856    126.4706
   862.7500     15.3262     52.6417     12.9393    132.3423
