~Version Information
VERS.                      2.0: CWLS Log ASCII Standard - VERSION 2.0
WRAP.                       NO: One line per depth step
~Well Information Block
STRT.FT               800.0000: 
STOP.FT              3500.0000: 
STEP.FT                 0.2500: 
NULL.                -999.2500: 
COMP.          Pioneer Natural Resources: COMPANY
WELL.          Cordillera 34-7: WELL
FLD.           Purgatoire River: FIELD
LOC.           598' FSL & 1770' FEL--: LOCATION
PROV.                 Colorado: PROVINCE
CNTY.               Las Animas: COUNTRY
SRVC.                Patterson: SERVICE COMPANY
DATE.          Thu Oct 27 20:08:30 2005: LOG DATE
UWI.           05 071 08552 00: UNIQUE WELL ID
~Curve Information Block
DEPT.FT            0 000 00 00: Depth
SN.Ohm-m                      : IEL Short Normal
SP.mV                         : IEL Spontaneous Potential
DIR.Ohm-m                     : IEL Induction Resistivity
GR.GAPI                       : Gamma Ray
~Parameter Information Block
~A  Depth        SN          SP         DIR          GR     
# ...
  2039.5000     40.7218    179.5377     23.7479     70.4486
  2039.7500     37.4755    178.6020     22.9366     73.5811
  2040.0000     34.3944    177.3379     22.0850     80.1265
  2040.2500     31.5292    175.9631     21.2032     85.4507
  2040.5000     28.8346    174.7468     20.3089     93.1369
  2040.7500     26.3307    173.8804     19.4225     96.8813
  2041.0000     24.1352    173.3904     18.5659     99.9646
  2041.2500     22.3410    173.1796     17.7591    101.2616
  2041.5000     20.9173    173.1408     17.0169    104.1194
  2041.7500     19.7354    173.2229     16.3454    106.9497
  2042.0000     18.6654    173.4091     15.7426    111.3541
  2042.2500     17.6481    173.6625     15.2037    113.5657
  2042.5000     16.6938    173.9047     14.7253    115.7323
  2042.7500     15.8375    174.0415     14.3070    117.0278
  2043.0000     15.1026    174.0079     13.9500    119.4718
  2043.2500     14.4863    173.7992     13.6530    121.2245
  2043.5000     13.9663    173.4613     13.4084    123.4595
  2043.7500     13.5288    173.0475     13.2010    124.9180
  2044.0000     13.1882    172.5871     13.0094    128.1196
  2044.2500     12.9691    172.1074     12.8130    131.0408
  2044.5000     12.8693    171.6710     12.5987    135.2004
  2044.7500     12.8421    171.3515     12.3649    136.7041
  2045.0000     12.8210    171.1608     12.1202    136.2016
  2045.2500     12.7566    171.0236     11.8778    134.5244
  2045.5000     12.6318    170.8399     11.6506    132.2124
  2045.7500     12.4626    170.5741     11.4485    132.2818
  2046.0000     12.2840    170.2970     11.2780    136.0383
  2046.2500     12.1099    170.1553     11.1423    140.4058
  2046.5000     11.9193    170.2813     11.0419    147.1515
  2046.7500     11.7122    170.6886     10.9761    150.2719
  2047.0000     11.5466    171.2292     10.9448    151.5881
  2047.2500     11.4864    171.6794     10.9503    150.1769
  2047.5000     11.5399    171.9006     10.9982    145.3639
  2047.7500     11.6709    171.9155     11.0961    141.3100
  2048.0000     11.8408    171.8323     11.2512    136.2120
  2048.2500     12.0255    171.7286     11.4667    134.4660
  2048.5000     12.2310    171.6203     11.7405    134.4990
  2048.7500     12.5182    171.5015     12.0664    135.6020
  2049.0000     12.9820    171.3831     12.4376    136.8452
  2049.2500     13.6893    171.3004     12.8496    135.8527
  2049.5000     14.6718    171.2972     13.3012    129.2967
  2049.7500     15.9794    171.3949     13.7932    121.2262
  2050.0000     17.7170    171.5706     14.3262    105.4260
  2050.2500     20.0317    171.7803     14.9007     94.4336
  2050.5000     22.9673    172.0174     15.5189     80.8823
  2050.7500     26.1730    172.3392     16.1832     75.3109
  2051.0000     28.8621    172.8136     16.8898     72.5150
  2051.2500     30.3073    173.4303     17.6205     73.2406
  2051.5000     30.3645    174.0772     18.3396     75.8463
  2051.7500     29.4435    174.6115     19.0004     78.1667
  2052.0000     28.0907    174.9561     19.5570     83.5216
  2052.2500     26.6787    175.1385     19.9772     88.8549
  2052.5000     25.3977    175.2625     20.2488     98.7354
  2052.7500     24.3849    175.4439     20.3796    105.3209
  2053.0000     23.7689    175.7515     20.3925    112.9632
  2053.2500     23.6080    176.1792     20.3192    115.8726
  2053.5000     23.8400    176.6651     20.1990    117.2920
  2053.7500     24.3110    177.1339     20.0778    117.0525
  2054.0000     24.8492    177.5263     20.0014    116.1646
  2054.2500     25.3322    177.8050     20.0029    115.5546
  2054.5000     25.7152    177.9529     20.0936    114.5921
  2054.7500     26.0101    177.9762     20.2640    113.7537
  2055.0000     26.2577    177.9092     20.4916    111.6931
  2055.2500     26.5194    177.8126     20.7465    109.3330
  2055.5000     26.8513    177.7581     20.9901    103.8963
  2055.7500     27.2606    177.7954     21.1701     99.5307
  2056.0000     27.6960    177.9249     21.2257     94.0018
  2056.2500     28.0735    178.1127     21.1065     92.0276
  2056.5000     28.3131    178.3305     20.7981     91.3290
  2056.7500     28.3558    178.5661     20.3326     91.1326
  2057.0000     28.1348    178.7879     19.7726     89.5422
  2057.2500     27.5411    178.9252     19.1825     87.9058
  2057.5000     26.4698    178.9095     18.6099     86.7269
  2057.7500     24.9329    178.7409     18.0845     87.8330
  2058.0000     23.1052    178.5076     17.6250     92.6722
  2058.2500     21.2336    178.3296     17.2438     97.7173
  2058.5000     19.5099    178.2707     16.9444    107.1689
  2058.7500     18.0386    178.2958     16.7183    113.9079
  2059.0000     16.8802    178.3041     16.5471    123.0196
  2059.2500     16.0855    178.1926     16.4101    127.9453
  2059.5000     15.6902    177.8995     16.2943    134.0216
  2059.7500     15.6794    177.4237     16.1992    137.5974
  2060.0000     15.9751    176.8342     16.1342    142.0471
  2060.2500     16.4765    176.2500     16.1118    143.7695
  2060.5000     17.1115    175.7849     16.1426    143.3343
  2060.7500     17.8470    175.4960     16.2336    140.6841
  2061.0000     18.6644    175.3792     16.3887    133.3270
  2061.2500     19.5290    175.3947     16.6087    126.7981
  2061.5000     20.3801    175.4838     16.8910    116.7315
  2061.7500     21.1429    175.5804     17.2310    111.4581
  2062.0000     21.7487    175.6301     17.6232    107.7186
  2062.2500     22.1531    175.6109     18.0619    108.0960
  2062.5000     22.3447    175.5328     18.5391    111.5365
  2062.7500     22.3454    175.4090     19.0407    114.7356
  2063.0000     22.2080    175.2220     19.5439    119.6578
  2063.2500     22.0152    174.9316     20.0193    122.4693
  2063.5000     21.8632    174.5329     20.4380    125.1253
  2063.7500     21.8358    174.0983     20.7815    125.6276
  2064.0000     21.9944    173.7444     21.0487    124.7299
  2064.2500     22.3739    173.5595     21.2553    123.2967
  2064.5000     22.9617    173.5562     21.4261    120.0207
  2064.7500     23.6733    173.6603     21.5859    116.9859
  2065.0000     24.3803    173.7254     21.7538    111.4031
  2065.2500     24.9934    173.5816     21.9435    107.6736
  2065.5000     25.5054    173.1063     22.1666    103.4714
  2065.7500     25.9656    172.2728     22.4340    101.7964
  2066.0000     26.4230    171.1500     22.7505     99.9512
  2066.2500     26.8905    169.8763     23.1083     98.3924
  2066.5000     27.3558    168.6382     23.4837     95.0746
  2066.7500     27.8161    167.6588     23.8427     92.5417
  2067.0000     28.2907    167.1783     24.1538     89.4756
  2067.2500     28.7926    167.3893     24.3996     88.5019
  2067.5000     29.2999    168.2978     24.5836     88.4601
  2067.7500     29.7677    169.6155     24.7260     88.6055
  2068.0000     30.1546    170.8802     24.8540     87.9346
  2068.2500     30.4241    171.7846     24.9908     86.9512
  2068.5000     30.5509    172.3659     25.1508     85.7468
  2068.7500     30.5555    172.8141     25.3400     85.6720
  2069.0000     30.5062    173.1441     25.5584     86.6432
  2069.2500     30.4716    173.1426     25.8036     87.4687
  2069.5000     30.4904    172.6128     26.0721     87.6867
  2069.7500     30.5784    171.5943     26.3601     86.6548
  2070.0000     30.7353    170.3437     26.6623     83.6995
  2070.2500     30.9708    169.1559     26.9723     81.6778
  2070.5000     31.3302    168.2088     27.2840     80.1683
  2070.7500     31.8540    167.5263     27.5943     80.4847
  2071.0000     32.5120    167.0439     27.8996     81.8282
  2071.2500     33.2215    166.7029     28.1925     81.9413
  2071.5000     33.9248    166.4949     28.4633     78.8178
  2071.7500     34.6156    166.4289     28.7099     74.2945
  2072.0000     35.3121    166.4585     28.9476     65.4438
  2072.2500     36.0342    166.4510     29.2073     59.6135
  2072.5000     36.7847    166.2461     29.5186     52.9860
  2072.7500     37.5266    165.7697     29.8890     50.6330
