~Version Information
VERS.                      2.0: CWLS Log ASCII Standard - VERSION 2.0
WRAP.                       NO: One line per depth step
~Well Information Block
STRT.FT               800.0000: 
STOP.FT              3500.0000: 
STEP.FT                 0.1000: 
NULL.                -999.2500: 
COMP.          Pioneer Natural Resources: COMPANY
WELL.          Cordillera 34-7: WELL
FLD.           Purgatoire River: FIELD
LOC.           598' FSL & 1770' FEL--: LOCATION
PROV.                 Colorado: PROVINCE
CNTY.               Las Animas: COUNTRY
SRVC.                Patterson: SERVICE COMPANY
DATE.          Fri Oct 28 07:22:44 2005: LOG DATE
UWI.           05 071 08552 00: UNIQUE WELL ID
~Curve Information Block
DEPT.FT            0 000 00 00: Depth
DCAL.in                       : CDL Caliper
RHOB.g/cc                     : CDL Bulk Density
RHOC.g/cc                     : CDL Density Correction
DPOR.pu                       : CDL Density Porosity
NPOR.pu                       : Neutron Porosity
GR.GAPI                       : Gamma Ray
~Parameter Information Block
~A  Depth       DCAL        RHOB        RHOC        DPOR        NPOR         GR     
# ...
  3468.8000      7.8191      2.5420      0.0444      6.5428     18.9078   -999.2500
  3468.9000      7.8191      2.5249      0.0262      7.5811     17.8485   -999.2500
  3469.0000      7.8111      2.5253      0.0507      7.5557     16.9233   -999.2500
  3469.1000      7.8111      2.5336      0.0751      7.0554     16.3123   -999.2500
  3469.2000      7.8111      2.5351      0.0297      6.9655     16.0493   -999.2500
  3469.3000      7.8068      2.5345      0.0648      6.9983     16.2690   -999.2500
  3469.4000      7.8068      2.5359      0.0959      6.9136     16.6686   -999.2500
  3469.5000      7.8050      2.5378      0.0193      6.8029     16.7330   -999.2500
  3469.6000      7.8050      2.5424      0.0822      6.5187     16.5178   -999.2500
  3469.7000      7.8050      2.5474      0.0752      6.2181     16.5344   -999.2500
  3469.8000      7.8069      2.5505      0.0773      6.0275     17.1515   -999.2500
  3469.9000      7.8069      2.5514      0.0825      5.9744     18.1948   -999.2500
  3470.0000      7.8102      2.5487      0.0760      6.1403     18.8897   -999.2500
  3470.1000      7.8102      2.5383      0.0935      6.7697     19.1128   -999.2500
  3470.2000      7.8102      2.5170      0.0499      8.0626     19.3759   -999.2500
  3470.3000      7.8106      2.5021      0.0174      8.9620     19.9094   -999.2500
  3470.4000      7.8106      2.5141      0.0522      8.2336     20.4852   -999.2500
  3470.5000      7.8081      2.5413      0.0845      6.5878     20.5628   -999.2500
  3470.6000      7.8081      2.5585      0.0990      5.5464     20.3074   -999.2500
  3470.7000      7.8081      2.5584      0.0957      5.5529     20.2949   -999.2500
  3470.8000      7.8056      2.5492      0.0772      6.1116     20.4700   -999.2500
  3470.9000      7.8056      2.5419      0.0602      6.5540     20.5236   -999.2500
  3471.0000      7.8055      2.5467      0.0075      6.2626     20.5435   -999.2500
  3471.1000      7.8055      2.5627      0.0475      5.2923     21.3003   -999.2500
  3471.2000      7.8055      2.5699      0.0950      4.8575     24.5056   -999.2500
  3471.3000      7.8070      2.5604      0.0450      5.4309     32.1443   -999.2500
  3471.4000      7.8070      2.5498      0.0727      6.0708     42.1759   -999.2500
  3471.5000      7.8098      2.5483      0.0505      6.1656     48.8800   -999.2500
  3471.6000      7.8098      2.5531      0.0637      5.8708     51.2470   -999.2500
  3471.7000      7.8098      2.5530      0.0826      5.8791     51.7075   -999.2500
  3471.8000      7.8145      2.5419      0.0471      6.5541     51.7560   -999.2500
  3471.9000      7.8145      2.5302      0.0630      7.2620     51.7587   -999.2500
  3472.0000      7.8187      2.5240      0.0707      7.6365   -999.2500   -999.2500
  3472.1000      7.8187      2.5235      0.0411      7.6649   -999.2500   -999.2500
  3472.2000      7.8187      2.5339      0.0791      7.0345   -999.2500   -999.2500
  3472.3000      7.8209      2.5544      0.0601      5.7950   -999.2500   -999.2500
  3472.4000      7.8209      2.5732      0.1023      4.6556   -999.2500   -999.2500
  3472.5000      7.8212      2.5748      0.1219      4.5550   -999.2500   -999.2500
  3472.6000      7.8212      2.5562      0.0914      5.6857   -999.2500   -999.2500
  3472.7000      7.8212      2.5357      0.0502      6.9280   -999.2500   -999.2500
  3472.8000      7.8184      2.5291      0.0628      7.3252   -999.2500   -999.2500
  3472.9000      7.8184      2.5319      0.0773      7.1566   -999.2500   -999.2500
  3473.0000      7.8126      2.5350      0.0981      6.9720   -999.2500   -999.2500
  3473.1000      7.8126      2.5357      0.0560      6.9280   -999.2500   -999.2500
  3473.2000      7.8126      2.5364      0.0561      6.8854   -999.2500   -999.2500
  3473.3000      7.8094      2.5397      0.0173      6.6827   -999.2500   -999.2500
  3473.4000      7.8094      2.5468      0.0641      6.2553   -999.2500   -999.2500
  3473.5000      7.8094      2.5539      0.0753      5.8222   -999.2500   -999.2500
  3473.6000      7.8094      2.5564      0.0679      5.6723   -999.2500   -999.2500
  3473.7000      7.8094      2.5580      0.0612      5.5778   -999.2500   -999.2500
  3473.8000      7.8101      2.5665      0.0756      5.0605   -999.2500   -999.2500
  3473.9000      7.8101      2.5771      0.0705      4.4173   -999.2500   -999.2500
  3474.0000      7.8133      2.5814      0.0661      4.1605   -999.2500   -999.2500
  3474.1000      7.8133      2.5835      0.0632      4.0331   -999.2500   -999.2500
  3474.2000      7.8133      2.5893      0.0827      3.6766   -999.2500   -999.2500
  3474.3000      7.8200      2.5964      0.0767      3.2477   -999.2500   -999.2500
  3474.4000      7.8200      2.6020      0.0690      2.9105   -999.2500   -999.2500
  3474.5000      7.8260      2.6097      0.0684      2.4406   -999.2500   -999.2500
  3474.6000      7.8260      2.6184      0.0695      1.9145   -999.2500   -999.2500
  3474.7000      7.8260      2.6195      0.0618      1.8472   -999.2500   -999.2500
  3474.8000      7.8315      2.6095      0.0768      2.4545   -999.2500   -999.2500
  3474.9000      7.8315      2.5952      0.0592      3.3227   -999.2500   -999.2500
  3475.0000      7.8348      2.5937      0.0390      3.4136   -999.2500   -999.2500
  3475.1000      7.8348      2.6098      0.0890      2.4351   -999.2500   -999.2500
  3475.2000      7.8348      2.6196      0.1211      1.8425   -999.2500   -999.2500
  3475.3000      7.8348      2.6079      0.0373      2.5489   -999.2500   -999.2500
  3475.4000      7.8348      2.5898      0.0504      3.6459   -999.2500   -999.2500
  3475.5000      7.8316      2.5768      0.0432      4.4353   -999.2500   -999.2500
  3475.6000      7.8316      2.5671      0.0532      5.0266   -999.2500   -999.2500
  3475.7000      7.8316      2.5616      0.0285      5.3575   -999.2500   -999.2500
  3475.8000      7.8234      2.5601      0.0528      5.4509   -999.2500   -999.2500
  3475.9000      7.8234      2.5578      0.0298      5.5884   -999.2500   -999.2500
  3476.0000      7.8055      2.5597      0.0425      5.4736   -999.2500   -999.2500
  3476.1000      7.8055      2.5698      0.0426      4.8583   -999.2500   -999.2500
  3476.2000      7.8055      2.5807      0.0545      4.2004   -999.2500   -999.2500
  3476.3000      7.7854      2.5841      0.0860      3.9932   -999.2500   -999.2500
  3476.4000      7.7854      2.5766      0.0658      4.4505   -999.2500   -999.2500
  3476.5000      7.7720      2.5623      0.0424      5.3138   -999.2500   -999.2500
  3476.6000      7.7720      2.5504      0.0383      6.0353   -999.2500   -999.2500
  3476.7000      7.7720      2.5423      0.0547      6.5282   -999.2500   -999.2500
  3476.8000      7.7572      2.5298      0.0332      7.2835   -999.2500   -999.2500
  3476.9000      7.7572      2.5140      0.0114      8.2416   -999.2500   -999.2500
  3477.0000      7.7345      2.5058      0.0412      8.7378   -999.2500   -999.2500
  3477.1000      7.7345      2.5034      0.0585      8.8824   -999.2500   -999.2500
  3477.2000      7.7345      2.5021      0.0453      8.9640   -999.2500   -999.2500
  3477.3000      7.7090      2.5053      0.0836      8.7705   -999.2500   -999.2500
  3477.4000      7.7090      2.5150      0.0668      8.1818   -999.2500   -999.2500
  3477.5000      7.6945      2.5372      0.0672      6.8343   -999.2500   -999.2500
  3477.6000      7.6945      2.5719      0.0958      4.7330   -999.2500   -999.2500
  3477.7000      7.6945      2.6003      0.1392      3.0125   -999.2500   -999.2500
  3477.8000      7.6950      2.6026      0.1266      2.8740   -999.2500   -999.2500
  3477.9000      7.6950      2.5842      0.1042      3.9898   -999.2500   -999.2500
  3478.0000      7.7073      2.5708      0.0559      4.7992   -999.2500   -999.2500
  3478.1000      7.7073      2.5749      0.0835      4.5542   -999.2500   -999.2500
  3478.2000      7.7073      2.5863      0.0759      3.8596   -999.2500   -999.2500
  3478.3000      7.7293      2.5955      0.0789      3.3024   -999.2500   -999.2500
