~Version Information
VERS.                      2.0: CWLS Log ASCII Standard - VERSION 2.0
WRAP.                       NO: One line per depth step
~Well Information Block
STRT.FT               860.0000: 
STOP.FT              2362.5000: 
STEP.FT                 0.2500: 
NULL.                -999.2500: 
COMP.          Pioneer Natural Resources: COMPANY
WELL.            Cayenne 23-23: WELL
FLD.           Purgatoire River: FIELD
LOC.           2555' FSL & 2386' FWL: LOCATION
PROV.                 Colorado: PROVINCE
CNTY.               Las Animas: COUNTRY
SRVC.                Patterson: SERVICE COMPANY
DATE.          Wed Aug 17 06:47:40 2005: LOG DATE
UWI.           05 071 08476 00: UNIQUE WELL ID
~Curve Information Block
DEPT.FT            0 000 00 00: Depth
SN.Ohm-m                      : IEL Short Normal
SP.mV                         : IEL Spontaneous Potential
DIR.Ohm-m                     : IEL Induction Resistivity
GR.GAPI                       : Gamma Ray
~Parameter Information Block
~A  Depth        SN          SP         DIR          GR     
# ...
  2133.0000     14.2928    114.3442     15.3578     92.0875
  2133.2500     14.4717    114.2309     15.3625     91.0584
  2133.5000     14.8221    114.1959     15.4247     89.6319
  2133.7500     15.3495    114.2177     15.5563     89.5420
  2134.0000     15.9615    114.2667     15.7538     91.5108
  2134.2500     16.5248    114.3088     16.0000     94.1479
  2134.5000     16.9609    114.3059     16.2702     99.3830
  2134.7500     17.2871    114.2189     16.5342    103.1962
  2135.0000     17.5491    114.0150     16.7566    108.2493
  2135.2500     17.7243    113.6813     16.9044    110.4278
  2135.5000     17.7441    113.2326     16.9655    111.2231
  2135.7500     17.6012    112.7021     16.9610    110.3825
  2136.0000     17.4024    112.1149     16.9364    108.3023
  2136.2500     17.2899    111.4674     16.9364    106.9235
  2136.5000     17.2991    110.7275     16.9838    104.9790
  2136.7500     17.3632    109.8509     17.0771    103.6809
  2137.0000     17.4326    108.7961     17.2033    101.9824
  2137.2500     17.5036    107.5355     17.3527    101.1204
  2137.5000     17.5839    106.0680     17.5227     99.5344
  2137.7500     17.6837    104.4346     17.7131     97.6034
  2138.0000     17.8240    102.7316     17.9197     93.1118
  2138.2500     18.0255    101.1026     18.1323     89.6605
  2138.5000     18.2786     99.6985     18.3375     85.2843
  2138.7500     18.5341     98.6156     18.5224     83.4566
  2139.0000     18.6960     97.8474     18.6786     82.4284
  2139.2500     18.6671     97.2894     18.8048     82.5989
  2139.5000     18.4720     96.7988     18.9032     83.7670
  2139.7500     18.2335     96.2780     18.9750     85.2614
  2140.0000     18.0213     95.7260     19.0167     88.8511
  2140.2500     17.8901     95.2257     19.0208     91.8427
  2140.5000     17.9196     94.8851     18.9781     95.8679
  2140.7500     18.0392     94.7730     18.8779     97.6418
  2141.0000     18.0294     94.8768     18.7126     99.3158
  2141.2500     17.7875     95.1002     18.4862    100.5505
  2141.5000     17.4298     95.3102     18.2176    103.3183
  2141.7500     17.1131     95.4097     17.9326    105.3815
  2142.0000     16.8771     95.3854     17.6510    107.2269
  2142.2500     16.7065     95.2986     17.3814    106.9254
  2142.5000     16.6169     95.2297     17.1226    104.5124
  2142.7500     16.5998     95.2220     16.8687    102.5853
  2143.0000     16.6221     95.2668     16.6149    100.7459
  2143.2500     16.7332     95.3279     16.3640    100.4180
  2143.5000     17.0008     95.3800     16.1294    101.0132
  2143.7500     17.3374     95.4365     15.9335    102.1908
  2144.0000     17.5506     95.5378     15.7994    105.2806
  2144.2500     17.5290     95.6973     15.7422    107.7543
  2144.5000     17.3043     95.8647     15.7645    110.3088
  2144.7500     16.9825     95.9563     15.8588    110.2721
  2145.0000     16.6382     95.9242     16.0118    107.0970
  2145.2500     16.2930     95.7895     16.2115    103.3351
  2145.5000     15.9960     95.6201     16.4507     96.7361
  2145.7500     15.8872     95.4881     16.7279     92.5685
  2146.0000     16.1186     95.4435     17.0454     87.2192
  2146.2500     16.7250     95.5146     17.4025     83.9640
  2146.5000     17.6508     95.7251     17.7902     78.8412
  2146.7500     18.8352     96.1079     18.1891     75.2040
  2147.0000     20.2081     96.7016     18.5783     69.8882
  2147.2500     21.6675     97.5379     18.9466     66.7159
  2147.5000     23.1013     98.6333     19.2916     62.6739
  2147.7500     24.4249     99.9796     19.5993     60.5065
  2148.0000     25.5583    101.5312     19.8244     58.4914
  2148.2500     26.3484    103.2090     19.8975     58.4292
  2148.5000     26.6006    104.9253     19.7644     60.7735
  2148.7500     26.2260    106.5998     19.4245     63.8104
  2149.0000     25.2904    108.1423     18.9338     69.6947
  2149.2500     23.8564    109.4323     18.3703     73.9720
  2149.5000     21.9230    110.3461     17.7942     80.4369
  2149.7500     19.6698    110.8250     17.2310     84.7881
  2150.0000     17.5709    110.9179     16.6784     91.8098
  2150.2500     16.1295    110.7570     16.1253     97.1250
  2150.5000     15.5759    110.4914     15.5647    105.8166
  2150.7500     15.7858    110.2311     14.9970    111.1639
  2151.0000     16.3822    110.0311     14.4287    116.2372
  2151.2500     16.9460    109.9055     13.8728    116.8296
  2151.5000     17.2355    109.8437     13.3499    114.0326
  2151.7500     17.2619    109.8182     12.8853    110.9205
  2152.0000     17.1724    109.7908     12.5039    106.7324
  2152.2500     17.0749    109.7212     12.2250    105.1749
  2152.5000     16.9936    109.5734     12.0591    105.0789
  2152.7500     16.9076    109.3193     12.0061    106.2410
  2153.0000     16.7687    108.9530     12.0540    109.0824
  2153.2500     16.5785    108.5117     12.1767    111.2568
  2153.5000     16.4258    108.0828     12.3349    114.1476
  2153.7500     16.3668    107.7786     12.4809    115.5067
  2154.0000     16.3332    107.6927     12.5714    116.9622
  2154.2500     16.1708    107.8607     12.5812    118.1302
  2154.5000     15.7232    108.2407     12.5091    120.7777
  2154.7500     14.9431    108.7240     12.3729    122.8454
  2155.0000     13.9630    109.1855     12.1981    125.4254
  2155.2500     12.9720    109.5634     12.0088    126.4458
  2155.5000     12.0871    109.9051     11.8215    126.6570
  2155.7500     11.4537    110.3119     11.6443    125.7269
  2156.0000     11.2890    110.8222     11.4790    122.4161
  2156.2500     11.6345    111.3547     11.3252    118.9360
  2156.5000     12.2019    111.7669     11.1851    112.4263
  2156.7500     12.6383    111.9526     11.0613    108.0151
  2157.0000     12.8621    111.8860     10.9525    103.0901
  2157.2500     12.9824    111.6035     10.8493    101.8284
  2157.5000     13.0409    111.1621     10.7376    103.4387
  2157.7500     13.0215    110.6123     10.6077    106.3485
  2158.0000     12.9291    109.9907     10.4618    111.6560
  2158.2500     12.7535    109.3232     10.3131    114.7270
  2158.5000     12.4963    108.6244     10.1762    117.7199
  2158.7500     12.2158    107.8991     10.0585    118.8494
  2159.0000     11.9935    107.1539      9.9576    120.1883
  2159.2500     11.8786    106.4133      9.8658    121.0906
  2159.5000     11.8655    105.7258      9.7777    121.7322
  2159.7500     11.9537    105.1526      9.6952    120.9503
  2160.0000     12.1628    104.7476      9.6284    117.5377
  2160.2500     12.4322    104.5475      9.5919    114.4113
  2160.5000     12.6176    104.5728      9.5990    110.3168
  2160.7500     12.6272    104.8175      9.6574    108.7766
  2161.0000     12.4988    105.2140      9.7685    108.5905
  2161.2500     12.3362    105.6058      9.9292    109.7613
  2161.5000     12.2070    105.7823     10.1322    112.9839
  2161.7500     12.1447    105.5769     10.3662    115.5902
  2162.0000     12.2022    104.9526     10.6139    119.2118
  2162.2500     12.3984    104.0014     10.8534    121.1337
  2162.5000     12.6651    102.8662     11.0651    122.9450
  2162.7500     12.9207    101.6573     11.2399    122.9947
  2163.0000     13.1243    100.4195     11.3822    120.4032
  2163.2500     13.2381     99.1507     11.5073    116.7620
  2163.5000     13.2782     97.8364     11.6399    109.3375
  2163.7500     13.4172     96.4763     11.8147    104.0441
  2164.0000     13.8430     95.1144     12.0758     97.1621
  2164.2500     14.5406     93.8733     12.4646     93.7697
  2164.5000     15.3834     92.9518     13.0012     90.2014
  2164.7500     16.3024     92.5529     13.6704     88.0410
  2165.0000     17.2321     92.7913     14.4222     83.3994
  2165.2500     18.0318     93.6639     15.1923     78.8611
  2165.5000     18.5901     95.0947     15.9318     70.7717
  2165.7500     18.9553     96.9692     16.6254     65.8491
  2166.0000     19.3349     99.1137     17.2862     61.5492
  2166.2500     19.9955    101.2723     17.9302     61.5462
