~Version Information
VERS.                      2.0: CWLS Log ASCII Standard - VERSION 2.0
WRAP.                       NO: One line per depth step
~Well Information Block
STRT.FT               845.0000: 
STOP.FT              2102.0000: 
STEP.FT                 0.1000: 
NULL.                -999.2500: 
COMP.          Petrogulf Corporation: COMPANY
WELL.               YWAM 7-32R: WELL
FLD.           Purgatorie River: FIELD
LOC.           2355' FNL & 2376' FEL: LOCATION
PROV.                 Colorado: PROVINCE
CNTY.               Las Animas: COUNTRY
SRVC.                Patterson: SERVICE COMPANY
DATE.          Fri Sep 30 11:07:31 2005: LOG DATE
UWI.                          : UNIQUE WELL ID
~Curve Information Block
DEPT.FT            0 000 00 00: Depth
DCAL.in                       : CDL Caliper
RHOB.g/cc                     : CDL Bulk Density
RHOC.g/cc                     : CDL Density Correction
DPOR.pu                       : CDL Density Porosity
GR.GAPI                       : Gamma Ray
NPOR.pu                       : Neutron Porosity
~Parameter Information Block
~A  Depth       DCAL        RHOB        RHOC        DPOR         GR         NPOR    
# ...
  1584.2000      8.1234      2.5856      0.1061      3.9037    153.1338     28.1197
  1584.3000      8.1289      2.6125      0.1301      2.2748    148.8773     27.7972
  1584.4000      8.1289      2.6226      0.1127      1.6615    144.5605     27.1189
  1584.5000      7.9966      2.6181      0.0777      1.9356    140.4187     26.3782
  1584.6000      7.9966      2.6101      0.0890      2.4198    136.1431     25.7165
  1584.7000      7.9966      2.5999      0.0709      3.0393    132.6884     25.1439
  1584.8000      7.9641      2.5868      0.0708      3.8310    130.4490     24.5086
  1584.9000      7.9641      2.5804     -0.0062      4.2187    128.4675     24.0420
  1585.0000      7.9701      2.5820      0.0418      4.1227    127.0544     24.1316
  1585.1000      7.9701      2.5766      0.0284      4.4481    127.8375     24.4706
  1585.2000      7.9701      2.5640      0.0012      5.2144    130.2322     24.7321
  1585.3000      7.9520      2.5578      0.0335      5.5852    131.4905     24.8166
  1585.4000      7.9520      2.5624      0.0074      5.3096    131.2477     24.6869
  1585.5000      7.9352      2.5698      0.0199      4.8624    132.6377     24.5084
  1585.6000      7.9352      2.5675      0.0556      5.0003    137.6597     24.1737
  1585.7000      7.9352      2.5521      0.0317      5.9331    142.9019     23.7652
  1585.8000      7.9608      2.5363     -0.0007      6.8910    144.6698     23.8104
  1585.9000      7.9608      2.5319      0.0048      7.1563    143.2233     24.2068
  1586.0000      8.0249      2.5363      0.0324      6.8926    140.3691     24.2759
  1586.1000      8.0249      2.5378      0.0587      6.8016    139.7709     23.9561
  1586.2000      8.0249      2.5294      0.0002      7.3095    143.1939     23.8499
  1586.3000      8.0432      2.5173      0.0565      8.0426    147.4431     24.2621
  1586.4000      8.0432      2.5114     -0.0224      8.4004    149.6300     24.7610
  1586.5000      8.0151      2.5171      0.0382      8.0550    149.3705     24.7856
  1586.6000      8.0151      2.5332      0.0146      7.0780    147.3265     24.4224
  1586.7000      8.0151      2.5546      0.0777      5.7803    144.0460     23.9757
  1586.8000      8.0157      2.5724      0.1130      4.7013    141.0454     23.5713
  1586.9000      8.0157      2.5852      0.0935      3.9293    139.2243     23.6021
  1587.0000      7.9609      2.5979      0.1419      3.1571    135.9548     24.1538
  1587.1000      7.9609      2.6032      0.1149      2.8357    132.4021     24.5563
  1587.2000      7.9609      2.5873      0.0856      3.7990    135.3596     24.1914
  1587.3000      7.9247      2.5493      0.0554      6.1021    144.4404     23.1687
  1587.4000      7.9247      2.5065      0.0149      8.6955    149.7894     22.2740
  1587.5000      7.9732      2.4840     -0.0436     10.0624    145.1988     22.1519
  1587.6000      7.9732      2.4873      0.0225      9.8578    135.8455     22.5395
  1587.7000      7.9732      2.4996      0.0035      9.1160    130.3567     22.5796
  1587.8000      8.0264      2.5099      0.0383      8.4920    128.4135     22.0584
  1587.9000      8.0264      2.5203     -0.0008      7.8618    125.1229     21.5186
  1588.0000      8.0713      2.5319      0.0218      7.1584    123.1034     21.2335
  1588.1000      8.0713      2.5427      0.0437      6.5026    124.2890     21.1371
  1588.2000      8.0713      2.5588      0.0288      5.5297    123.2019     21.2255
  1588.3000      8.1157      2.5831      0.0848      4.0554    118.1671     21.5449
  1588.4000      8.1157      2.6010      0.0927      2.9697    114.8630     21.8970
  1588.5000      8.0652      2.6083      0.0693      2.5301    116.7014     22.0319
  1588.6000      8.0652      2.6224      0.1029      1.6749    120.1784     22.0082
  1588.7000      8.0652      2.6496      0.1301      0.0234    121.8384     22.0217
  1588.8000      7.9009      2.6762      0.1587     -1.5887    120.9682     22.1210
  1588.9000      7.9009      2.6884      0.1410     -2.3250    118.2750     22.1990
  1589.0000      7.7659      2.6823      0.1696     -1.9588    116.1889     21.9925
  1589.1000      7.7659      2.6653      0.1259     -0.9266    117.1132     21.4769
  1589.2000      7.7659      2.6499      0.1379      0.0031    120.4709     21.2614
  1589.3000      7.7294      2.6388      0.1221      0.6765    122.6947     21.6682
  1589.4000      7.7294      2.6224      0.1254      1.6735    121.8732     22.3076
  1589.5000      7.7399      2.5895      0.1029      3.6659    122.2966     22.8911
  1589.6000      7.7399      2.5507      0.0178      6.0197    127.7642     23.4110
  1589.7000      7.7399      2.5350      0.0216      6.9709    133.1578     23.7894
  1589.8000      7.7817      2.5444      0.0551      6.4024    133.3861     24.1001
  1589.9000      7.7817      2.5564      0.0651      5.6723    132.0945     24.4927
  1590.0000      7.8659      2.5650      0.0395      5.1489    135.0174     24.7850
  1590.1000      7.8659      2.5831      0.0266      4.0572    139.9471     24.6768
  1590.2000      7.8659      2.6143      0.0537      2.1623    139.9412     24.2865
  1590.3000      7.9545      2.6406      0.1201      0.5687    134.1178     24.0121
  1590.4000      7.9545      2.6455      0.1149      0.2712    127.2883     23.8689
  1590.5000      7.7254      2.6382      0.0594      0.7147    120.1658     23.7486
  1590.6000      7.7254      2.6343      0.0675      0.9543    112.5160     23.7929
  1590.7000      7.7254      2.6273      0.1193      1.3738    106.8247     24.0011
  1590.8000      7.6746      2.6085      0.0424      2.5135    103.9418     24.1944
  1590.9000      7.6746      2.5911      0.0633      3.5720    103.0869     24.0523
  1591.0000      7.7467      2.5858      0.0158      3.8906    101.1417     23.2072
  1591.1000      7.7467      2.5877      0.0621      3.7784     96.2027     21.9718
  1591.2000      7.7467      2.5866      0.0325      3.8454     90.7066     20.8964
  1591.3000      7.8115      2.5829      0.0321      4.0671     86.3336     20.0108
  1591.4000      7.8115      2.5833      0.0370      4.0428     82.4467     19.2460
  1591.5000      7.8981      2.5831      0.0218      4.0531     78.9739     18.7924
  1591.6000      7.8981      2.5736      0.0002      4.6279     76.9736     18.9728
  1591.7000      7.8981      2.5575      0.0176      5.6049     79.2684     19.8659
  1591.8000      7.8661      2.5430      0.0255      6.4858     85.4191     20.9917
  1591.9000      7.8661      2.5339     -0.0173      7.0357     89.1599     21.7303
  1592.0000      7.8209      2.5288      0.0161      7.3463     88.1453     21.9730
  1592.1000      7.8209      2.5248     -0.0226      7.5849     86.8368     21.9095
  1592.2000      7.8209      2.5262     -0.0296      7.5014     87.1407     21.6133
  1592.3000      7.8154      2.5330     -0.0149      7.0923     85.4347     21.1600
  1592.4000      7.8154      2.5350      0.0042      6.9714     81.2853     20.6874
  1592.5000      7.8351      2.5284      0.0117      7.3703     79.5512     20.5932
  1592.6000      7.8351      2.5223      0.0060      7.7407     82.5825     21.1026
  1592.7000      7.8351      2.5295     -0.0191      7.3007     88.5835     21.5933
  1592.8000      7.8470      2.5532      0.0013      5.8672     94.3169     21.5735
  1592.9000      7.8470      2.5749      0.0689      4.5526     96.8918     21.4233
  1593.0000      7.8321      2.5766      0.0603      4.4495     96.3516     21.4582
  1593.1000      7.8321      2.5687      0.0217      4.9245     96.7381     21.4113
  1593.2000      7.8321      2.5698      0.0261      4.8629    100.4482     21.2144
  1593.3000      7.8490      2.5781      0.0420      4.3579    104.4732     21.2886
  1593.4000      7.8490      2.5828      0.0931      4.0700    106.1115     21.5574
  1593.5000      7.8814      2.5793      0.0527      4.2823    106.4821     21.6382
  1593.6000      7.8814      2.5739      0.0656      4.6143    108.3585     21.6287
  1593.7000      7.8814      2.5780      0.0059      4.3647    111.5119     21.7458
