~Version Information
VERS.                      2.0: CWLS Log ASCII Standard - VERSION 2.0
WRAP.                       NO: One line per depth step
~Well Information Block
STRT.FT                -0.5000: 
STOP.FT              1417.0000: 
STEP.FT                 0.2500: 
NULL.                -999.2500: 
COMP.          Pioneer Natural Resources: COMPANY
WELL.              Darren 11-7: WELL
FLD.           Purgatoire River: FIELD
LOC.           230' FNL & 596' FWL: LOCATION
CNTY.               Las Animas: COUNTY
SRVC.                Patterson: SERVICE COMPANY
DATE.          Thu Mar 30 10:43:52 2006: LOG DATE
UWI.           05 071 08720 00: UNIQUE WELL ID
STAT.                 Colorado: STATE
~Curve Information Block
DEPT.FT            0 000 00 00: Depth
GR.GAPI                       : Gamma Ray
CCL.                          : Casing Collar Locator
TT3.usec                      : CBL 3' Travel Time
AMP3.mV                       : CBL 3' Amplitude
~Parameter Information Block
~A  Depth        GR         CCL         TT3         AMP3    
# ...
   736.5000    113.4178      0.0000    701.3079      5.0463
   736.7500    118.5659      0.0000    695.3997      4.9707
   737.0000    124.3555      0.0000    691.1210      4.9248
   737.2500    129.4166      0.0000    690.0316      4.9171
   737.5000    132.4139      0.0000    692.7281      4.9360
   737.7500    132.9584      0.0000    698.2257      4.9639
   738.0000    131.9367      0.0000    704.3351      4.9925
   738.2500    131.2080      0.0000    709.0504      5.0241
   738.5000    132.8307      0.0000    711.5731      5.0632
   738.7500    137.6607      0.0000    712.0674      5.1076
   739.0000    144.2750      0.0000    710.7046      5.1468
   739.2500    149.9256      0.0000    707.0212      5.1704
   739.5000    152.9230      0.0000    700.1836      5.1773
   739.7500    153.7132      0.0000    690.1563      5.1780
   740.0000    153.7891      0.0000    678.8862      5.1862
   740.2500    154.1800      0.0000    670.1183      5.2067
   740.5000    155.0163      0.0000    667.4943      5.2322
   740.7500    155.8592      0.0000    672.2944      5.2479
   741.0000    156.0110      0.0000    682.6631      5.2404
   741.2500    154.8273      0.0000    694.9155      5.2054
   741.5000    152.4124      0.0000    705.8442      5.1509
   741.7500    150.0428      0.0000    714.1783      5.0915
   742.0000    149.2303      0.0000    720.1637      5.0390
   742.2500    150.1080      0.0000    724.0778      4.9954
   742.5000    151.2335      0.0000    725.5188      4.9556
   742.7500    151.1339      0.0000    724.0916      4.9131
   743.0000    149.7036      0.0000    720.0815      4.8650
   743.2500    148.1345      0.0000    713.9744      4.8154
   743.5000    147.7462      0.0000    705.7418      4.7725
   743.7500    148.6851      0.0000    695.1243      4.7401
   744.0000    149.6003      0.0000    682.3588      4.7143
   744.2500    148.8700      0.0000    668.1818      4.6925
   744.5000    146.3248      0.0000    653.4974      4.6815
   744.7500    143.5566      0.0000    639.6532      4.6893
   745.0000    142.5528      0.0000    628.9266      4.7118
   745.2500    144.1996      0.0000    623.9995      4.7305
   745.5000    147.8234      0.0000    626.4084      4.7262
   745.7500    151.6219      0.0000    635.3851      4.6933
   746.0000    153.4250      0.0000    648.4195      4.6419
   746.2500    151.4952      0.0000    663.0300      4.5878
   746.5000    145.1096      0.0000    677.6543      4.5390
   746.7500    134.5749      0.0000    690.9703      4.4905
   747.0000    120.9278      0.0000    701.4567      4.4286
   747.2500    105.7929      0.0000    708.2191      4.3443
   747.5000     91.2726      0.0000    711.6536      4.2481
   747.7500     79.5502      0.0000    712.8752      4.1742
   748.0000     72.2808      0.0000    712.8010      4.1627
   748.2500     70.0756      0.0000    711.8622      4.2289
   748.5000     72.3935      0.0000    710.1935      4.3470
   748.7500     77.9912      0.0000    707.8413      4.4621
   749.0000     85.5023      0.0000    705.0515      4.5220
   749.2500     93.5012      0.0000    702.5237      4.5015
   749.5000    100.2920      0.0000    701.0479      4.4069
   749.7500    104.4039      0.0000    700.5969      4.2666
   750.0000    105.8169      0.0000    700.1567      4.1211
   750.2500    106.4188      0.0000    698.9263      4.0126
   750.5000    108.6417      0.0000    697.4426      3.9705
   750.7500    113.3553      0.0000    697.1572      3.9976
   751.0000    119.2238      0.0000    699.0590      4.0701
   751.2500    124.2710      0.0000    702.8480      4.1549
   751.5000    127.9514      0.0000    707.2269      4.2289
   751.7500    131.4412      0.0000    710.8362      4.2872
   752.0000    135.9042      0.0000    713.0096      4.3371
   752.2500    140.8703      0.0000    713.8711      4.3878
   752.5000    144.7058      0.0000    713.9065      4.4405
   752.7500    146.5394      0.0000    713.4211      4.4864
   753.0000    147.1188      0.0000    712.1321      4.5125
   753.2500    147.5625      0.0000    709.1326      4.5102
   753.5000    147.9024      0.0000    703.4583      4.4795
   753.7500    147.5353      0.0000    695.0924      4.4288
   754.0000    146.8955      0.0000    685.4539      4.3711
   754.2500    147.8601      0.0000    676.5114      4.3177
   754.5000    152.0894      0.0000    669.0544      4.2729
   754.7500    159.1472      0.0000    661.7327      4.2345
   755.0000    166.4723      0.0000    651.8135      4.1989
   755.2500    171.2270      0.0000    637.1390      4.1646
   755.5000    172.0506      0.0000    617.9026      4.1330
   755.7500    169.2708      0.0000    597.0134      4.1070
   756.0000    164.1749      0.0000    578.8477      4.0884
   756.2500    158.4782      0.0000    567.2109      4.0782
   756.5000    154.0049      0.0000    563.4999      4.0782
   756.7500    152.1836      0.0000    566.0283      4.0905
   757.0000    153.3913      0.0000    571.1953      4.1129
   757.2500    156.5883      0.0000    575.6783      4.1366
   757.5000    159.8785      0.0000    577.6628      4.1520
   757.7500    161.8743      0.0000    576.4601      4.1566
   758.0000    162.4242      0.0000    571.8792      4.1564
   758.2500    161.8679      0.0000    564.5425      4.1588
   758.5000    160.1290      0.0000    556.5876      4.1652
   758.7500    157.0648      0.0000    551.6132      4.1725
   759.0000    153.2387      0.0000    553.7684      4.1790
   759.2500    149.5795      0.0000    566.3699      4.1851
   759.5000    146.4335      0.0000    589.9411      4.1889
   759.7500    143.5732      0.0000    620.5114      4.1854
   760.0000    140.7674      0.0000    650.6630      4.1748
   760.2500    137.6638      0.0000    673.7917      4.1663
   760.5000    133.6896      0.0000    687.7634      4.1693
   760.7500    128.9837      0.0000    694.5333      4.1805
   761.0000    124.9998      0.0000    697.2401      4.1818
   761.2500    123.3919      0.0000    698.0486      4.1522
   761.5000    124.4237      0.0000    697.6439      4.0818
   761.7500    126.6112      0.0000    695.9622      3.9789
   762.0000    127.6679      0.0000    693.6983      3.8666
   762.2500    125.9809      0.0000    693.0906      3.7718
   762.5000    121.5826      0.0000    696.7250      3.7113
   762.7500    115.6689      0.0000    705.5870      3.6860
   763.0000    109.2764      0.0000    718.4466      3.6865
   763.2500    102.7982      0.0000    732.6356      3.7024
   763.5000     96.5445      0.0000    745.2072      3.7227
   763.7500     90.9502      0.0000    754.3453      3.7326
   764.0000     86.0172      0.0000    760.5509      3.7156
   764.2500     81.1195      0.0000    765.6887      3.6641
   764.5000     75.7574      0.0000    770.1074      3.5854
   764.7500     70.3158      0.0000    771.5988      3.5016
   765.0000     65.8459      0.0000    767.9808      3.4404
   765.2500     63.1948      0.0000    760.0368      3.4238
   765.5000     62.4658      0.0000    751.7048      3.4589
   765.7500     63.1818      0.0000    748.0396      3.5370
   766.0000     64.7791      0.0000    752.2847      3.6393
   766.2500     66.9326      0.0000    763.2351      3.7465
   766.5000     69.5334      0.0000    775.3875      3.8459
   766.7500     72.5244      0.0000    782.5300      3.9315
   767.0000     75.8913      0.0000    781.3312      3.9996
   767.2500     79.6349      0.0000    772.0698      4.0490
   767.5000     83.4919      0.0000    757.5026      4.0865
   767.7500     86.8535      0.0000    741.5671      4.1259
   768.0000     89.2440      0.0000    727.9783      4.1787
   768.2500     90.6669      0.0000    718.7481      4.2450
   768.5000     91.2470      0.0000    713.6288      4.3132
   768.7500     90.9269      0.0000    710.9496      4.3663
   769.0000     89.8331      0.0000    709.1023      4.3900
   769.2500     88.4713      0.0000    707.5798      4.3808
   769.5000     87.1294      0.0000    706.8560      4.3466
   769.7500     85.3812      0.0000    707.3779      4.3005
