~Version Information
VERS.                      2.0: CWLS Log ASCII Standard - VERSION 2.0
WRAP.                       NO: One line per depth step
~Well Information Block
STRT.FT                -6.7500: 
STOP.FT              1250.5000: 
STEP.FT                 0.2500: 
NULL.                -999.2500: 
COMP.          Pioneer Natural Resources: COMPANY
WELL.          Irish Eyes 33-21: WELL
FLD.           Purgatorie River: FIELD
LOC.           1379' FSL & 2544' FEL--: LOCATION
PROV.                       CO: PROVINCE
CNTY.               Las Animas: COUNTRY
SRVC.          Patterson Wireline: SERVICE COMPANY
DATE.          Mon Jan 23 11:57:23 2006: LOG DATE
UWI.           05 071 08658 00: UNIQUE WELL ID
~Curve Information Block
DEPT.FT            0 000 00 00: Depth
CCL.                          : Casing Collar Locator
TT3.usec                      : CBL 3' Travel Time
AMP3.mV                       : CBL 3' Amplitude
GR.GAPI                       : Gamma Ray
~Parameter Information Block
~A  Depth       CCL         TT3         AMP3         GR     
# ...
   395.2500      0.0000    402.3643     21.7979    121.1552
   395.5000      0.0000    425.9143     22.3601    124.1569
   395.7500      0.0000    432.9933     23.5305    124.9150
   396.0000      0.0000    417.4631     24.8841    122.7122
   396.2500      0.0000    386.9900     25.9581    117.4640
   396.5000      0.0000    356.0662     26.6152    109.3971
   396.7500      0.0000    334.7651     26.9690     99.5231
   397.0000      0.0000    325.1747     27.0865     90.2541
   397.2500      0.0000    324.5413     26.9401     84.3730
   397.5000      0.0000    328.7071     26.5652     82.7173
   397.7500      0.0000    333.9393     26.1102     83.2692
   398.0000      0.0000    337.9607     25.7319     82.8900
   398.2500      0.0000    340.1931     25.5050     79.8028
   398.5000      0.0000    341.0413     25.4288     74.3570
   398.7500      0.0000    341.0396     25.4734     68.0316
   399.0000      0.0000    340.3721     25.6165     62.3903
   399.2500      0.0000    338.9185     25.8512     58.7391
   399.5000      0.0000    336.6169     26.1744     57.7987
   399.7500      0.0000    333.7418     26.5719     59.3703
   400.0000      0.0000    330.6375     27.0254     62.8665
   400.2500      0.0000    327.1570     27.5373     68.4660
   400.5000      0.0000    322.8046     28.1297     77.3631
   400.7500      0.0000    317.6546     28.7985     90.5467
   401.0000      0.0000    312.7050     29.4787    107.4231
   401.2500      0.0000    309.0471     30.0749    125.6986
   401.5000      0.0000    306.9791     30.5307    142.3471
   401.7500      0.0000    306.0567     30.8595    154.6475
   402.0000      0.0000    305.6915     31.1167    160.8691
   402.2500      0.0000    305.5312     31.3512    160.7628
   402.5000      0.0000    305.4559     31.5757    155.7451
   402.7500      0.0000    305.4421     31.7752    148.3610
   403.0000      0.0000    305.4727     31.9434    141.1413
   403.2500      0.0000    305.5241     32.1047    135.6606
   403.5000      0.0000    305.5833     32.2934    132.4724
   403.7500      0.0000    305.6479     32.5169    131.5663
   404.0000      0.0000    305.7058     32.7545    132.5177
   404.2500      0.0000    305.7246     32.9903    134.2537
   404.5000      0.0000    305.6683     33.2348    135.2168
   404.7500      0.0000    305.5284     33.5155    134.2186
   405.0000      0.0000    305.3342     33.8553    131.2570
   405.2500      0.0000    305.1338     34.2604    127.5226
   405.5000      0.0000    304.9641     34.7197    124.6361
   405.7500      0.0000    304.8329     35.2178    123.4766
   406.0000      0.0000    304.7234     35.7541    123.3818
   406.2500      0.0000    304.6131     36.3396    122.7288
   406.5000      0.0000    304.4915     36.9714    120.7707
   406.7500      0.0000    304.3643     37.6162    118.8264
   407.0000      0.0000    304.2442     38.2305    119.1367
   407.2500      0.0000    304.1367     38.7968    122.2197
   407.5000      0.0000    304.0366     39.3358    125.7571
   407.7500      0.0000    303.9361     39.8819    126.6410
   408.0000      0.0000    303.8348     40.4467    124.0697
   408.2500      0.0000    303.7409     41.0019    120.2007
   408.5000      0.0000    303.6627     41.5011    117.8382
   408.7500      0.0000    303.5986     41.9169    118.0107
   409.0000      0.0000    303.5397     42.2444    119.8354
   409.2500      0.0000    303.4846     42.4598    121.8803
   409.5000      0.0000    303.4526     42.4866    123.2059
   409.7500      0.0000    303.4766     42.2228    123.7192
   410.0000      0.0000    303.5806     41.6099    124.2378
   410.2500      0.0000    303.7644     40.6763    125.8905
   410.5000      0.0000    304.0057     39.5245    128.6471
   410.7500      0.0000    304.2715     38.2868    130.3366
   411.0000      0.0000    304.5258     37.0888    127.9207
   411.2500      0.0000    304.7346     36.0285    120.2203
   411.5000      0.0000    304.8764     35.1574    108.9200
   411.7500      0.0000    304.9572     34.4607     96.6597
   412.0000      0.0000    305.0184     33.8641     84.9165
   412.2500      0.0000    305.1200     33.2850     74.1031
   412.5000      0.0000    305.3033     32.6987     64.7540
   412.7500      0.0000    305.5524     32.1610     57.7512
   413.0000      0.0000    305.7838     31.7767     53.7497
   413.2500      0.0000    305.8777     31.6567     52.9067
   413.5000      0.0000    305.7409     31.9028     54.9781
   413.7500      0.0000    305.3587     32.6052     59.4189
   414.0000      0.0000    304.7939     33.8227     65.6628
   414.2500      0.0000    304.1108     35.5532     73.3156
   414.5000      0.0000    303.2442     37.7194     81.7690
   414.7500      0.0000    301.8548     40.1792     89.9235
   415.0000      0.0000    299.3006     42.7572     96.8952
   415.2500      0.0000    294.9467     45.2809    102.7923
   415.5000      0.0000    288.8051     47.5896    108.2778
   415.7500      0.0000    281.9237     49.5148    113.5856
   416.0000      0.0000    275.9008     50.8905    118.3512
   416.2500      0.0000    271.8746     51.6276    122.1952
   416.5000      0.0000    270.0579     51.7730    125.2444
   416.7500      0.0000    270.2035     51.4712    128.2633
   417.0000      0.0000    272.2722     50.8623    132.3721
   417.2500      0.0000    276.4528     50.0233    138.3145
   417.5000      0.0000    282.5182     48.9935    145.6368
   417.7500      0.0000    289.3507     47.8295    152.5038
   418.0000      0.0000    295.3753     46.6182    156.5549
   418.2500      0.0000    299.5473     45.4449    156.2891
   418.5000      0.0000    301.8403     44.3612    151.8128
   418.7500      0.0000    302.8717     43.3852    144.2502
   419.0000      0.0000    303.2815     42.5168    134.6190
   419.2500      0.0000    303.4431     41.7446    123.6432
   419.5000      0.0000    303.5050     41.0426    112.5179
   419.7500      0.0000    303.5144     40.3754    102.9630
   420.0000      0.0000    303.4913     39.7163     95.9057
   420.2500      0.0000    303.4514     39.0663     90.5560
   420.5000      0.0000    303.4056     38.4444     85.6414
   420.7500      0.0000    303.3662     37.8508     81.5354
   421.0000      0.0000    303.3504     37.2478     80.3347
   421.2500      0.0000    303.3727     36.5863     83.4608
   421.5000      0.0000    303.4321     35.8489     89.6192
   421.7500      0.0000    303.5097     35.0596     95.4539
   422.0000      0.0000    303.5837     34.2576     98.1864
   422.2500      0.0000    303.6480     33.4676     97.6310
   422.5000      0.0000    303.7160     32.6890     95.7877
   422.7500      0.0000    303.8084     31.9080     94.7417
   423.0000      0.0000    303.9368     31.1182     95.2495
   423.2500      0.0000    304.0988     30.3313     97.2217
   423.5000      0.0000    304.2901     29.5699    100.7870
   423.7500      0.0000    304.5161     28.8550    106.2896
   424.0000      0.0000    304.7842     28.2056    113.5310
   424.2500      0.0000    305.0847     27.6438    121.4899
   424.5000      0.0000    305.3931     27.1854    128.7517
   424.7500      0.0000    305.6979     26.8209    133.9581
   425.0000      0.0000    306.0190     26.5124    136.0403
   425.2500      0.0000    306.3794     26.2235    134.5952
   425.5000      0.0000    306.7513     25.9525    130.3067
   425.7500      0.0000    307.0531     25.7337    124.8226
   426.0000      0.0000    307.2509     25.6006    119.9048
   426.2500      0.0000    307.5232     25.5437    116.3812
   426.5000      0.0000    308.3819     25.5041    113.6770
   426.7500      0.0000    310.6074     25.4093    110.3295
   427.0000      0.0000    314.8504     25.2174    105.0442
   427.2500      0.0000    321.0010     24.9362     97.3997
   427.5000      0.0000    327.9013     24.6046     87.8702
   427.7500      0.0000    333.9268     24.2604     77.4870
   428.0000      0.0000    338.0233     23.9228     67.4089
   428.2500      0.0000    340.1857     23.6017     58.5469
   428.5000      0.0000    341.0673     23.3137     51.4876
