~Version Information
VERS.                      2.0: CWLS Log ASCII Standard - VERSION 2.0
WRAP.                       NO: One line per depth step
~Well Information Block
STRT.FT               555.0000: 
STOP.FT              2283.0000: 
STEP.FT                 0.2500: 
NULL.                -999.2500: 
COMP.          Pioneer Natural Resources: COMPANY
WELL.          Roadster 41-33 Kv: WELL
FLD.           Purgatoire River: FIELD
LOC.           903' FNL & 248' FEL: LOCATION
PROV.                 Colorado: PROVINCE
CNTY.               Las Animas: COUNTRY
SRVC.                Patterson: SERVICE COMPANY
DATE.          Wed Dec 14 23:52:42 2005: LOG DATE
UWI.           05 071 08615 00: UNIQUE WELL ID
~Curve Information Block
DEPT.FT            0 000 00 00: Depth
SN.Ohm-m                      : IEL Short Normal
SP.mV                         : IEL Spontaneous Potential
DIR.Ohm-m                     : IEL Induction Resistivity
GR.GAPI                       : Gamma Ray
~Parameter Information Block
~A  Depth        SN          SP         DIR          GR     
# ...
  1593.5000     16.8372     35.8218     15.4378    126.4599
  1593.7500     16.4824     35.9333     15.3008    129.9346
  1594.0000     16.0375     36.0148     14.9712    129.6535
  1594.2500     15.5791     36.0837     14.4941    127.3309
  1594.5000     15.2119     36.1577     13.9248    124.1311
  1594.7500     14.9486     36.2432     13.3139    123.6169
  1595.0000     14.6842     36.3316     12.7006    125.8353
  1595.2500     14.2993     36.4058     12.1124    128.9529
  1595.5000     13.7513     36.4515     11.5661    135.2682
  1595.7500     13.0731     36.4638     11.0712    140.0427
  1596.0000     12.3404     36.4454     10.6297    146.9489
  1596.2500     11.6451     36.4019     10.2350    150.8197
  1596.5000     11.0487     36.3357      9.8719    154.8567
  1596.7500     10.5493     36.2412      9.5234    156.0150
  1597.0000     10.1235     36.1056      9.1795    154.9951
  1597.2500      9.7727     35.9215      8.8428    152.6998
  1597.5000      9.4950     35.6971      8.5251    148.4751
  1597.7500      9.2659     35.4543      8.2405    146.4566
  1598.0000      9.0758     35.2181      7.9994    146.0565
  1598.2500      8.9348     35.0080      7.8070    147.3390
  1598.5000      8.8162     34.8373      7.6633    149.9236
  1598.7500      8.6685     34.7126      7.5645    151.2965
  1599.0000      8.5088     34.6327      7.5029    153.2066
  1599.2500      8.4068     34.5868      7.4681    155.3979
  1599.5000      8.3675     34.5599      7.4473    161.0664
  1599.7500      8.3248     34.5427      7.4285    165.6173
  1600.0000      8.2337     34.5392      7.4039    170.4334
  1600.2500      8.1033     34.5652      7.3731    170.8801
  1600.5000      7.9656     34.6373      7.3416    167.7428
  1600.7500      7.8554     34.7609      7.3181    164.6543
  1601.0000      7.7997     34.9242      7.3100    161.2176
  1601.2500      7.8096     35.1007      7.3231    160.4226
  1601.5000      7.8845     35.2577      7.3605    161.2453
  1601.7500      7.9967     35.3651      7.4218    162.6535
  1602.0000      8.0864     35.4056      7.4999    165.0164
  1602.2500      8.1120     35.3813      7.5791    166.0582
  1602.5000      8.0892     35.3135      7.6400    165.9480
  1602.7500      8.0732     35.2327      7.6683    164.7930
  1603.0000      8.1152     35.1629      7.6624    162.3337
  1603.2500      8.2212     35.1113      7.6317    160.8450
  1603.5000      8.3549     35.0697      7.5879    159.5654
  1603.7500      8.4693     35.0241      7.5391    159.3693
  1604.0000      8.5218     34.9646      7.4887    159.1306
  1604.2500      8.5021     34.8908      7.4382    158.0517
  1604.5000      8.4541     34.8114      7.3898    153.7094
  1604.7500      8.4291     34.7364      7.3460    148.9100
  1605.0000      8.4347     34.6676      7.3096    140.1668
  1605.2500      8.4545     34.5938      7.2818    134.7253
  1605.5000      8.4890     34.4969      7.2627    129.7471
  1605.7500      8.5536     34.3645      7.2515    129.3694
  1606.0000      8.6522     34.2004      7.2469    132.2540
  1606.2500      8.7639     34.0242      7.2479    134.8326
  1606.5000      8.8549     33.8622      7.2539    137.2302
  1606.7500      8.9052     33.7353      7.2650    137.6217
  1607.0000      8.9232     33.6535      7.2810    137.6929
  1607.2500      8.9377     33.6174      7.3013    138.1031
  1607.5000      8.9774     33.6234      7.3243    139.2806
  1607.7500      9.0371     33.6676      7.3474    140.0457
  1608.0000      9.0730     33.7504      7.3682    140.7032
  1608.2500      9.0305     33.8789      7.3853    140.7747
  1608.5000      8.8435     34.0661      7.4002    140.4632
  1608.7500      8.4380     34.3240      7.4173    140.1846
  1609.0000      7.8202     34.6563      7.4436    140.3130
  1609.2500      7.1447     35.0500      7.4873    141.2455
  1609.5000      6.6500     35.4723      7.5553    144.6122
  1609.7500      6.5320     35.8767      7.6527    148.2493
  1610.0000      6.8527     36.2162      7.7809    155.0554
  1610.2500      7.5240     36.4589      7.9386    159.6392
  1610.5000      8.3786     36.5972      8.1214    164.9004
  1610.7500      9.2478     36.6473      8.3232    166.5105
  1611.0000      9.9965     36.6381      8.5363    165.5404
  1611.2500     10.5608     36.5979      8.7540    163.0799
  1611.5000     10.9712     36.5476      8.9736    158.2901
  1611.7500     11.3137     36.4992      9.1999    155.1143
  1612.0000     11.6707     36.4564      9.4449    150.5472
  1612.2500     12.0804     36.4174      9.7241    147.3190
  1612.5000     12.5345     36.3784     10.0481    141.8510
  1612.7500     13.0194     36.3348     10.4150    137.9287
  1613.0000     13.5349     36.2808     10.8058    132.2644
  1613.2500     14.0660     36.2101     11.1861    128.8999
  1613.5000     14.5836     36.1188     11.5142    124.1958
  1613.7500     15.0862     36.0076     11.7515    120.7927
  1614.0000     15.6012     35.8797     11.8723    114.6378
  1614.2500     16.1095     35.7400     11.8702    109.9031
  1614.5000     16.4879     35.5955     11.7577    102.7270
  1614.7500     16.5638     35.4579     11.5599     98.6314
  1615.0000     16.2363     35.3432     11.3049     94.8589
  1615.2500     15.5413     35.2668     11.0153     94.6624
  1615.5000     14.6235     35.2358     10.7051     98.6079
  1615.7500     13.6544     35.2422     10.3817    103.7913
  1616.0000     12.7501     35.2633     10.0495    113.3364
  1616.2500     11.9582     35.2710      9.7143    119.1734
  1616.5000     11.2885     35.2459      9.3837    124.7573
  1616.7500     10.7300     35.1884      9.0663    125.8529
  1617.0000     10.2715     35.1194      8.7684    124.2773
  1617.2500      9.9331     35.0695      8.4943    122.0053
  1617.5000      9.7445     35.0637      8.2474    118.1975
  1617.7500      9.6899     35.1104      8.0324    115.9497
  1618.0000      9.7053     35.1996      7.8563    113.7516
  1618.2500      9.7164     35.3074      7.7268    113.3711
  1618.5000      9.6698     35.4068      7.6500    114.4607
  1618.7500      9.5403     35.4797      7.6288    116.1124
  1619.0000      9.3286     35.5228      7.6617    119.6536
  1619.2500      9.0697     35.5466      7.7432    122.4099
  1619.5000      8.8237     35.5683      7.8654    126.0372
  1619.7500      8.6368     35.6033      8.0194    127.4155
  1620.0000      8.5348     35.6574      8.1967    127.6456
  1620.2500      8.5462     35.7243      8.3903    127.1253
  1620.5000      8.6848     35.7896      8.5955    126.6902
  1620.7500      8.9107     35.8395      8.8108    127.0749
  1621.0000      9.1657     35.8646      9.0381    128.3572
  1621.2500      9.4530     35.8611      9.2826    129.0672
  1621.5000      9.8465     35.8297      9.5528    129.0322
  1621.7500     10.4183     35.7757      9.8587    128.3215
  1622.0000     11.1778     35.7047     10.2112    127.1274
  1622.2500     12.0790     35.6137     10.6196    126.6815
  1622.5000     13.0684     35.4921     11.0917    126.2717
  1622.7500     14.1128     35.3318     11.6336    125.5211
  1623.0000     15.1989     35.1368     12.2502    122.6151
  1623.2500     16.2986     34.9200     12.9460    119.3619
  1623.5000     17.3462     34.6970     13.7243    113.3911
  1623.7500     18.3216     34.4896     14.5872    109.4809
  1624.0000     19.3218     34.3281     15.5335    104.3021
  1624.2500     20.4905     34.2405     16.5567    100.8430
  1624.5000     21.9770     34.2343     17.6430     94.3684
  1624.7500     23.9821     34.2928     18.7732     88.9858
  1625.0000     26.7378     34.3942     19.9314     80.2064
  1625.2500     30.3175     34.5302     21.1132     74.6080
  1625.5000     34.4093     34.7080     22.3264     67.3334
  1625.7500     38.3717     34.9391     23.5747     63.3990
  1626.0000     41.5671     35.2288     24.8290     59.0489
  1626.2500     43.6033     35.5721     26.0037     57.2679
  1626.5000     44.3366     35.9546     26.9590     56.4346
  1626.7500     43.7791     36.3559     27.5410     57.2721
