~Version Information
VERS.                      2.0: CWLS Log ASCII Standard - VERSION 2.0
WRAP.                       NO: One line per depth step
~Well Information Block
STRT.FT                 0.0000: 
STOP.FT               988.7500: 
STEP.FT                 0.2500: 
NULL.                -999.2500: 
COMP.          Pioneer Natural Resources: COMPANY
WELL.             Quartz 13-22: WELL
FLD.           Purgatoire River: FIELD
LOC.           1933' FSL & 675' FWL --------: LOCATION
PROV.                 Colorado: PROVINCE
CNTY.               Las Animas: COUNTRY
SRVC.                         : SERVICE COMPANY
DATE.          Thu Dec 22 09:29:32 2005: LOG DATE
UWI.                          : UNIQUE WELL ID
~Curve Information Block
DEPT.FT            0 000 00 00: Depth
CCL.                          : Casing Collar Locator
TT3.usec                      : CBL 3' Travel Time
AMP3.mV                       : CBL 3' Amplitude
AMP5.mV                       : CBL 5' Amplitude
GR.GAPI                       : Gamma Ray
~Parameter Information Block
~A  Depth       CCL         TT3         AMP3        AMP5         GR     
# ...
   308.0000      0.0000    724.9904     13.2531      2.7291     94.1899
   308.2500      0.0000    724.8240     13.2491      3.0090     95.6112
   308.5000      0.0000    724.7769     13.2148      3.3204     96.4711
   308.7500      0.0000    724.8772     13.1496      3.5260     97.9692
   309.0000      0.0000    725.0765     13.0846      3.5399     99.8256
   309.2500      0.0000    725.2800     13.0600      3.3794    100.6868
   309.5000      0.0000    725.4019     13.0941      3.1499     99.2230
   309.7500      0.0000    725.4132     13.1815      2.9702     95.1131
   310.0000      0.0000    725.3535     13.3134      2.8978     89.3790
   310.2500      0.0000    725.3014     13.4835      2.9136     83.8040
   310.5000      0.0000    725.3295     13.6737      2.9569     79.9671
   310.7500      0.0000    725.4791     13.8470      2.9711     78.7276
   311.0000      0.0000    725.7599     13.9698      2.9450     80.0206
   311.2500      0.0000    726.1518     14.0409      2.9326     82.6061
   311.5000      0.0000    726.5878     14.0921      3.0170     84.5554
   311.7500      0.0000    726.9492     14.1568      3.2398     84.8520
   312.0000      0.0000    727.1178     14.2411      3.5607     84.3642
   312.2500      0.0000    727.0608     14.3237      3.8782     84.7141
   312.5000      0.0000    726.8627     14.3842      4.0946     86.5788
   312.7500      0.0000    726.6675     14.4261      4.1700     89.5620
   313.0000      0.0000    726.5751     14.4672      4.1237     93.0667
   313.2500      0.0000    726.5756     14.5054      3.9869     96.5012
   313.5000      0.0000    726.5738     14.5013      3.7653     99.0013
   313.7500      0.0000    726.4844     14.4046      3.4612     99.7567
   314.0000      0.0000    726.3069     14.2059      3.1300     98.7122
   314.2500      0.0000    726.1058     13.9589      2.8790     96.6881
   314.5000      0.0000    725.9305     13.7451      2.7880     94.8642
   314.7500      0.0000    725.7762     13.6156      2.8388     94.3092
   315.0000      0.0000    725.6074     13.5606      2.9292     95.7688
   315.2500      0.0000    725.3939     13.5292      2.9504     99.3667
   315.5000      0.0000    725.1257     13.4831      2.8621    104.2726
   315.7500      0.0000    724.8231     13.4331      2.7056    108.9097
   316.0000      0.0000    724.5408     13.4198      2.5529    111.7818
   316.2500      0.0000    724.3433     13.4603      2.4480    112.1790
   316.5000      0.0000    724.2697     13.5290      2.4017    110.1092
   316.7500      0.0000    724.3240     13.5908      2.4201    105.8191
   317.0000      0.0000    724.4858     13.6399      2.5177     99.7775
   317.2500      0.0000    724.7204     13.7004      2.7047     92.9147
   317.5000      0.0000    724.9860     13.8000      2.9648     86.2866
   317.7500      0.0000    725.2442     13.9478      3.2429     80.5224
   318.0000      0.0000    725.4725     14.1316      3.4766     75.9547
   318.2500      0.0000    725.6779     14.3334      3.6440     73.0196
   318.5000      0.0000    725.8931     14.5450      3.7509     72.0214
   318.7500      0.0000    726.1664     14.7580      3.7818     72.6158
   319.0000      0.0000    726.6218     14.9448      3.7154     73.8792
   319.2500      0.0000    727.6236     15.0709      3.5877     74.8206
   319.5000      0.0000    729.7997     15.1363      3.4713     74.7690
   319.7500      0.0000    733.5192     15.1907      3.3818     73.6376
   320.0000      0.0000    737.9963     15.2934      3.2634     72.0186
   320.2500      0.0000    741.1598     15.4588      3.0885     70.8306
   320.5000      0.0000    741.0832     15.6427      2.9139     70.7855
   320.7500      0.0000    737.7525     15.7727      2.8081     72.2227
   321.0000      0.0000    733.0610     15.7890      2.7705     75.2268
   321.2500      0.0000    729.0531     15.6737      2.7563     79.6718
   321.5000      0.0000    726.5295     15.4570      2.7450     85.2029
   321.7500      0.0000    725.1927     15.1967      2.7376     91.2939
   322.0000      0.0000    724.5046     14.9430      2.7176     97.2825
   322.2500      0.0000    724.1560     14.7215      2.6660    102.2615
   322.5000      0.0000    724.0283     14.5448      2.6002    105.0023
   322.7500      0.0000    724.0440     14.4210      2.5507    104.3370
   323.0000      0.0000    724.1266     14.3390      2.5132    100.1198
   323.2500      0.0000    724.2292     14.2604      2.4652     94.0164
   323.5000      0.0000    724.3447     14.1424      2.4194     89.0261
   323.7500      0.0000    724.4755     13.9670      2.4154     87.7107
   324.0000      0.0000    724.6012     13.7461      2.4711     90.6389
   324.2500      0.0000    724.6765     13.5106      2.5863     96.4614
   324.5000      0.0000    724.6608     13.2991      2.7777    103.2411
   324.7500      0.0000    724.5588     13.1400      3.0506    109.6056
   325.0000      0.0000    724.4256     13.0357      3.3400    114.9803
   325.2500      0.0000    724.3269     12.9664      3.5420    119.1574
   325.5000      0.0000    724.2900     12.9118      3.6189    121.8727
   325.7500      0.0000    724.2961     12.8650      3.6187    123.0044
   326.0000      0.0000    724.3096     12.8280      3.5713    123.1430
   326.2500      0.0000    724.3039     12.7984      3.4186    123.5056
   326.5000      0.0000    724.2696     12.7654      3.0909    124.9394
   326.7500      0.0000    724.2127     12.7186      2.6307    127.0194
   327.0000      0.0000    724.1508     12.6618      2.2032    128.3176
   327.2500      0.0000    724.1031     12.6138      1.9874    127.6617
   327.5000      0.0000    724.0787     12.5959      2.0713    125.1737
   327.7500      0.0000    724.0749     12.6171      2.4153    122.1370
   328.0000      0.0000    724.0842     12.6699      2.8745    119.8580
   328.2500      0.0000    724.0980     12.7375      3.2612    118.6637
   328.5000      0.0000    724.1049     12.8040      3.4327    118.0083
   328.7500      0.0000    724.0994     12.8583      3.3635    117.4396
   329.0000      0.0000    724.0907     12.8935      3.1612    117.2656
   329.2500      0.0000    724.0911     12.9044      3.0059    118.2003
   329.5000      0.0000    724.0934     12.8888      3.0310    120.4798
   329.7500      0.0000    724.0722     12.8515      3.2165    123.4647
   330.0000      0.0000    724.0156     12.8072      3.3963    126.0637
   330.2500      0.0000    723.9481     12.7716      3.3896    127.4997
   330.5000      0.0000    723.9100     12.7435      3.1417    127.8130
   330.7500      0.0000    723.9175     12.6978      2.7436    127.7398
   331.0000      0.0000    723.9551     12.6061      2.3332    128.1405
   331.2500      0.0000    724.0044     12.4675      2.0018    129.4482
   331.5000      0.0000    724.0620     12.3135      1.7976    131.3710
   331.7500      0.0000    724.1271     12.1803      1.7635    132.8067
   332.0000      0.0000    724.1837     12.0805      1.9111    132.2488
   332.2500      0.0000    724.2044     12.0015      2.1602    128.8377
   332.5000      0.0000    724.1693     11.9274      2.3613    123.1581
   332.7500      0.0000    724.0762     11.8550      2.4119    116.8469
   333.0000      0.0000    723.9389     11.7899      2.3404    111.5092
   333.2500      0.0000    723.7852     11.7290      2.2550    108.1048
   333.5000      0.0000    723.6584     11.6474      2.2199    106.9131
   333.7500      0.0000    723.6086     11.5117      2.2000    107.4438
   334.0000      0.0000    723.7029     11.3129      2.1186    108.3746
   334.2500      0.0000    724.0841     11.0813      1.9460    108.1300
   334.5000      0.0000    725.0809     10.8420      1.7253    105.9685
   334.7500      0.0000    727.2169     10.5503      1.5257    102.5576
   335.0000      0.0000    730.9380     10.1078      1.3881     99.3882
   335.2500      0.0000    736.2112      9.4943      1.3102     97.5178
   335.5000      0.0000    742.4860      8.8755      1.2680     96.7569
   335.7500      0.0000    749.2398      8.5320      1.2444     95.8333
