~Version Information
VERS.                      2.0: CWLS Log ASCII Standard - VERSION 2.0
WRAP.                       NO: One line per depth step
~Well Information Block
STRT.FT               650.0000: 
STOP.FT              2127.7000: 
STEP.FT                 0.1000: 
NULL.                -999.2500: 
COMP.          Pioneer Natural Resources: COMPANY
WELL.          Kennington 41-26: WELL
FLD.           Purgatoire River: FIELD
LOC.           940' FNL & 1008' FEL--: LOCATION
CNTY.               Las Animas: COUNTY
SRVC.                Patterson: SERVICE COMPANY
DATE.          Wed Mar 29 11:30:50 2006: LOG DATE
UWI.           05 071 08679 00: UNIQUE WELL ID
STAT.                 Colorado: STATE
~Curve Information Block
DEPT.FT            0 000 00 00: Depth
DCAL.in                       : CDL Caliper
RHOB.g/cc                     : CDL Bulk Density
RHOC.g/cc                     : CDL Density Correction
DPOR.pu                       : CDL Density Porosity
NPOR.pu                       : Neutron Porosity
GR.GAPI                       : Gamma Ray
~Parameter Information Block
~A  Depth       DCAL        RHOB        RHOC        DPOR        NPOR         GR     
# ...
  1427.6000      7.9643      2.4613      0.0227     11.4350     11.8796     46.3034
  1427.7000      7.9643      2.4635      0.0078     11.3014     12.2077     46.3779
  1427.8000      7.9647      2.4702      0.0591     10.8950     15.1314     45.4191
  1427.9000      7.9647      2.4737      0.0349     10.6818     19.7462     42.7141
  1428.0000      7.9596      2.4744      0.0567     10.6407     23.3463     41.1134
  1428.1000      7.9596      2.4739      0.0619     10.6702     24.7658     43.5366
  1428.2000      7.9596      2.4731      0.0494     10.7202     24.8296     47.4989
  1428.3000      7.9604      2.4774      0.0402     10.4580     24.4025     50.5858
  1428.4000      7.9604      2.4871      0.0593      9.8713     24.0872     51.7105
  1428.5000      7.9684      2.4930      0.0364      9.5169     24.0488     49.3067
  1428.6000      7.9684      2.4900      0.0432      9.6987     23.9772     44.9200
  1428.7000      7.9684      2.4800     -0.0041     10.3047     23.7611     42.3599
  1428.8000      7.9781      2.4659      0.0045     11.1564     23.5913     42.3341
  1428.9000      7.9781      2.4513      0.0217     12.0424     23.5389     42.7503
  1429.0000      7.9885      2.4402      0.0318     12.7147     23.3482     42.1113
  1429.1000      7.9885      2.4333      0.0309     13.1340     23.0502     40.1032
  1429.2000      7.9885      2.4338     -0.0032     13.1052     22.8291     37.6363
  1429.3000      7.9944      2.4424      0.0391     12.5796     22.6217     35.2130
  1429.4000      7.9944      2.4531      0.0389     11.9324     22.5481     33.5294
  1429.5000      7.9951      2.4662      0.0333     11.1401     22.5900     33.7235
  1429.6000      7.9951      2.4741      0.0592     10.6632     22.6489     35.7431
  1429.7000      7.9951      2.4638      0.0406     11.2831     22.9183     38.0156
  1429.8000      7.9925      2.4478      0.0290     12.2540     23.1764     37.5531
  1429.9000      7.9925      2.4492      0.0326     12.1682     22.9905     34.5094
  1430.0000      7.9816      2.4709      0.0266     10.8570     22.6346     32.1364
  1430.1000      7.9816      2.4914      0.0828      9.6120     22.3345     31.7566
  1430.2000      7.9816      2.4895      0.0482      9.7268     21.6068     33.7126
  1430.3000      7.9652      2.4718      0.0148     10.8014     20.4657     38.4925
  1430.4000      7.9652      2.4612      0.0088     11.4430     19.7111     44.7373
  1430.5000      7.9539      2.4665      0.0278     11.1201     19.6553     49.5484
  1430.6000      7.9539      2.4759      0.0683     10.5536     19.9979     50.9536
  1430.7000      7.9539      2.4792      0.0646     10.3528     20.3636     48.5161
  1430.8000      7.9480      2.4819      0.0248     10.1891     20.4573     44.0040
  1430.9000      7.9480      2.4933      0.0475      9.4944     20.2521     40.2064
  1431.0000      7.9439      2.5122      0.0463      8.3538     19.9378     38.1703
  1431.1000      7.9439      2.5254      0.0848      7.5513     19.7784     37.6837
  1431.2000      7.9439      2.5223      0.0715      7.7387     19.8258     38.4427
  1431.3000      7.9401      2.5097      0.0148      8.5009     19.7164     38.9975
  1431.4000      7.9401      2.5041      0.0564      8.8407     19.1741     37.1541
  1431.5000      7.9346      2.5164      0.0385      8.0946     18.4649     33.2858
  1431.6000      7.9346      2.5487      0.0549      6.1367     17.9536     29.9813
  1431.7000      7.9346      2.5853      0.1018      3.9212     17.4972     29.9800
  1431.8000      7.9282      2.6051      0.1027      2.7230     16.9443     34.0629
  1431.9000      7.9282      2.6083      0.0800      2.5300     16.4692     37.7254
  1432.0000      7.9241      2.6045      0.0381      2.7590     16.1313     37.3746
  1432.1000      7.9241      2.5953      0.0534      3.3142     15.9697     37.0803
  1432.2000      7.9241      2.5822      0.0326      4.1068     15.5309     38.5188
  1432.3000      7.9227      2.5709      0.0337      4.7952     13.7806     38.2755
  1432.4000      7.9227      2.5643      0.0127      5.1932     11.2582     37.1477
  1432.5000      7.9210      2.5664      0.0407      5.0680     10.0099     38.7383
  1432.6000      7.9210      2.5809      0.0422      4.1878     11.3266     43.0573
  1432.7000      7.9210      2.6045      0.0433      2.7585     14.9624     46.0922
  1432.8000      7.9214      2.6233      0.0808      1.6187     18.5791     45.3472
  1432.9000      7.9214      2.6229      0.1090      1.6427     20.1482     43.7704
  1433.0000      7.9258      2.6086      0.0351      2.5107     20.2354     43.7153
  1433.1000      7.9258      2.5957      0.0669      3.2888     20.0140     42.7393
  1433.2000      7.9258      2.5849      0.0694      3.9442     19.9082     39.1814
  1433.3000      7.9331      2.5718      0.0440      4.7423     19.7625     34.5404
  1433.4000      7.9331      2.5644      0.0106      5.1869     19.5281     32.6362
  1433.5000      7.9394      2.5720      0.0203      4.7246     19.4854     35.4514
  1433.6000      7.9394      2.5842      0.0564      3.9907     19.5639     39.0888
  1433.7000      7.9394      2.5841      0.0473      3.9923     19.3419     40.4988
  1433.8000      7.9364      2.5777      0.0231      4.3843     18.7905     41.2799
  1433.9000      7.9364      2.5867     -0.0069      3.8375     18.4320     40.9961
  1434.0000      7.9261      2.6198      0.0507      1.8322     18.6916     37.7727
  1434.1000      7.9261      2.6574      0.0797     -0.4509     19.3198     33.8281
  1434.2000      7.9261      2.6701      0.0733     -1.2192     19.9014     32.3582
  1434.3000      7.9197      2.6444      0.0684      0.3395     20.2602     32.7717
  1434.4000      7.9197      2.5956      0.0394      3.2979     20.3101     32.8764
  1434.5000      7.9175      2.5582      0.0304      5.5642     20.2331     33.6520
  1434.6000      7.9175      2.5530      0.0175      5.8799     20.2419     35.4264
  1434.7000      7.9175      2.5752      0.0332      4.5337     20.1384     35.3357
  1434.8000      7.9149      2.6058      0.0662      2.6797     19.8722     33.9407
  1434.9000      7.9149      2.6218      0.0764      1.7099     19.6730     35.1321
  1435.0000      7.9106      2.6111      0.0478      2.3603     19.5406     39.6097
  1435.1000      7.9106      2.5804      0.0329      4.2203     19.3123     44.5451
  1435.2000      7.9106      2.5518     -0.0051      5.9501     19.1227     45.8650
  1435.3000      7.9042      2.5393      0.0362      6.7094     19.2277     43.1339
  1435.4000      7.9042      2.5358      0.0262      6.9217     19.4881     39.6293
  1435.5000      7.8983      2.5322      0.0283      7.1370     19.6800     37.1087
  1435.6000      7.8983      2.5270      0.0243      7.4531     19.7784     37.1396
  1435.7000      7.8983      2.5284      0.0298      7.3699     19.8863     40.3903
  1435.8000      7.8946      2.5376      0.0794      6.8123     20.1355     43.3503
  1435.9000      7.8946      2.5357      0.0781      6.9257     20.2673     42.8151
  1436.0000      7.8892      2.5146      0.0693      8.2072     19.9857     40.3968
  1436.1000      7.8892      2.4885      0.0548      9.7908     19.7169     38.4640
  1436.2000      7.8892      2.4793      0.0169     10.3444     19.9059     36.2033
  1436.3000      7.8808      2.5029      0.0346      8.9160     20.4997     33.3836
  1436.4000      7.8808      2.5432      0.0870      6.4744     21.2578     32.1382
  1436.5000      7.8775      2.5629      0.1294      5.2772     21.8888     32.8856
  1436.6000      7.8775      2.5527      0.1004      5.8952     22.4008     35.1185
  1436.7000      7.8775      2.5363      0.0790      6.8933     22.8247     39.1384
  1436.8000      7.8786      2.5304      0.0819      7.2514     22.8810     41.7401
  1436.9000      7.8786      2.5327      0.0718      7.1115     22.6318     40.5323
  1437.0000      7.8860      2.5365      0.0616      6.8767     22.5093     38.5644
  1437.1000      7.8860      2.5362      0.0638      6.8951     22.6636     38.2229
