~Version Information
 VERS.                                  2.0 : CWLS LAS VERSION
 WRAP.                                   NO : WRAPING MODE
 SWARE .                 MController 2.5.0N : SOFTWARE VERSION
~Well Information
 WELL.                            AMX 13-13 : WELL
 COMP.  Pioneer Natural Resources USA, Inc. : COMPANY
 FLD.                      Purgatoire River : FIELD
 LOC.                      NW/SW 13-32S-68W : LOCATION
 DATE.                          12/18-19/05 : DATE(S) LOGGED
 SRVC.       BLANCO Geological Services LLC : SERVICE COMPANY
 STAT.                                   CO : STATE
 CNTY.                           Las Animas : COUNTY
 CTRY.                                  USA : COUNTRY
 API.                          05-071-08630 : API NUMBER
 STRT.FT                             496.00 : START DEPTH
 STOP.FT                            2875.00 : STOP DEPTH
 STEP.FT                               1.00 : DEPTH INCREMENT
 NULL.                                -9999 : NULL VALUE
~Curve information
 DEPTH.FT                                   :
 ROP.MIN/FT                                 :
 GAS.UNITS                                  :
~ASCII Log data
# ...
      2296.0         0.20        541.4 
      2297.0         0.37        526.7 
      2298.0         0.47        493.9 
      2299.0         0.37        467.6 
      2300.0         0.23        455.8 
      2301.0         0.20        453.0 
      2302.0         0.27        448.6 
      2303.0         0.23        440.0 
      2304.0         0.23        162.3 
      2305.0         0.23        148.9 
      2306.0         3.97       2258.3 
      2307.0         0.70       1048.6 
      2308.0         0.80        795.5 
      2309.0         0.63        590.5 
      2310.0         0.60        537.0 
      2311.0         0.62        495.1 
      2312.0         0.47        483.0 
      2313.0         0.47        489.2 
      2314.0         0.47        485.8 
      2315.0         0.33        469.2 
      2316.0         0.37        459.2 
      2317.0         0.33        450.5 
      2318.0         0.33        449.2 
      2319.0         0.32        448.9 
      2320.0         0.30        448.9 
      2321.0         0.30        451.7 
      2322.0         0.37        452.0 
      2323.0         0.37        446.1 
      2324.0         0.47        462.3 
      2325.0         0.47        501.4 
      2326.0         0.43        518.3 
      2327.0         0.45        523.0 
      2328.0         0.43        528.9 
      2329.0         0.43        575.8 
      2330.0         0.43        657.7 
      2331.0         0.30        702.7 
      2332.0         0.30        708.6 
      2333.0         0.33        683.6 
      2334.0         0.30        592.7 
      2335.0         0.33        505.1 
      2336.0         3.15       2402.3 
      2337.0         0.43       2424.2 
      2338.0         0.48       2321.4 
      2339.0         0.37       1691.4 
      2340.0         0.33       1238.0 
      2341.0         0.30        947.7 
      2342.0         0.33        790.2 
      2343.0         0.40        688.9 
      2344.0         0.40        596.4 
      2345.0         0.40        537.0 
      2346.0         0.33        497.6 
      2347.0         0.38        490.1 
      2348.0         0.27        499.2 
      2349.0         0.33        502.6 
      2350.0         0.33        503.0 
      2351.0         0.33        502.6 
      2352.0         0.33        506.4 
      2353.0         0.33        516.4 
      2354.0         0.33        552.7 
      2355.0         0.33        596.7 
      2356.0         0.23        601.1 
      2357.0         0.27        590.2 
      2358.0         0.25        553.6 
      2359.0         0.23        520.2 
      2360.0         0.23        498.3 
      2361.0         0.27        483.6 
      2362.0         0.23        473.6 
      2363.0         0.23        451.7 
      2364.0         0.20        440.0 
      2365.0         0.33        150.8 
      2366.0         3.48       1205.8 
      2367.0         0.40       1228.6 
      2368.0         0.37       1220.5 
      2369.0         0.30       1113.9 
      2370.0         0.42        980.5 
      2371.0         0.30        771.7 
      2372.0         0.20        673.9 
      2373.0         0.20        637.3 
      2374.0         0.27        613.6 
      2375.0         0.30        588.0 
      2376.0         0.30        566.7 
      2377.0         0.27        553.0 
      2378.0         0.23        556.4 
      2379.0         0.20        569.8 
      2380.0         0.27        585.5 
      2381.0         0.30        586.7 
      2382.0         0.28        578.9 
      2383.0         0.23        562.3 
      2384.0         0.27        550.5 
      2385.0         0.23        534.8 
      2386.0         0.23        517.0 
      2387.0         0.20        515.5 
      2388.0         0.17        523.0 
      2389.0         0.17        529.5 
      2390.0         0.23        540.8 
      2391.0         0.23        543.6 
      2392.0         0.23        543.0 
      2393.0         0.23        535.5 
      2394.0         0.20        504.8 
      2395.0         0.30        468.0 
      2396.0         3.08       1527.3 
      2397.0         0.40       1564.8 
      2398.0         0.42       1562.0 
      2399.0         0.33       1395.8 
      2400.0         0.33       1146.4 
      2401.0         0.17        915.5 
      2402.0         0.20        841.1 
      2403.0         0.43        772.3 
      2404.0         0.63        683.0 
      2405.0         0.33        600.8 
      2406.0         0.27        570.5 
      2407.0         0.20        553.0 
      2408.0         0.17        548.0 
      2409.0         0.15        547.7 
      2410.0         0.17        550.8 
      2411.0         0.20        559.2 
      2412.0         0.17        568.3 
      2413.0         0.13        574.2 
      2414.0         0.27        587.3 
      2415.0         0.20        595.2 
      2416.0         0.23        604.5 
      2417.0         0.17        610.2 
      2418.0         0.23        614.5 
      2419.0         0.20        616.1 
      2420.0         0.20        614.2 
      2421.0         0.23        602.0 
      2422.0         0.27        585.2 
      2423.0         0.33        562.0 
      2424.0         0.32        540.2 
      2425.0         0.33        501.1 
      2426.0         3.65       1402.0 
      2427.0         0.60       1404.8 
      2428.0         0.50       1252.0 
      2429.0         0.40        942.3 
      2430.0         0.37        762.0 
      2431.0         0.50        664.2 
      2432.0         0.28        596.7 
      2433.0         0.23        573.3 
      2434.0         0.20        568.0 
      2435.0         0.20        569.5 
      2436.0         0.27        573.3 
      2437.0         0.27        577.3 
      2438.0         0.27        577.7 
      2439.0         0.27        573.9 
      2440.0         0.27        570.2 
      2441.0         0.23        561.4 
      2442.0         0.23        552.7 
      2443.0         0.20        548.6 
      2444.0         0.30        543.6 
      2445.0         0.27        535.2 
      2446.0         0.25        528.0 
      2447.0         0.20        524.5 
      2448.0         0.20        523.9 
      2449.0         0.23        522.7 
      2450.0         0.23        521.7 
      2451.0         0.23        514.2 
      2452.0         0.23        500.1 
      2453.0         0.20        476.7 
      2454.0         0.20        451.1 
      2455.0         0.17        440.0 
      2456.0         3.15       1456.4 
      2457.0         0.27       1474.2 
      2458.0         0.37       1488.9 
      2459.0         0.33       1473.3 
      2460.0         0.37       1353.3 
      2461.0         0.38       1115.2 
      2462.0         0.37        875.2 
      2463.0         0.37        734.8 
      2464.0         0.27        652.0 
      2465.0         0.27        611.4 
      2466.0         0.27        588.6 
      2467.0         0.23        573.9 
      2468.0         0.30        569.8 
      2469.0         0.23        569.8 
      2470.0         0.27        569.8 
      2471.0         0.27        570.2 
      2472.0         0.35        568.9 
      2473.0         0.33        561.1 
      2474.0         0.27        561.4 
      2475.0         0.27        564.8 
      2476.0         0.30        563.9 
      2477.0         0.27        557.7 
      2478.0         0.30        552.3 
      2479.0         0.30        544.8 
      2480.0         0.30        541.4 
      2481.0         0.30        537.7 
      2482.0         0.27        534.2 
      2483.0         0.23        525.5 
      2484.0         0.35        497.6 
      2485.0         0.30        443.9 
      2486.0         2.92       1202.7 
      2487.0         0.13       1234.2 
      2488.0         0.13       1276.4 
      2489.0         0.13       1323.3 
      2490.0         0.43       1437.0 
      2491.0         0.37       1455.5 
      2492.0         0.33       1433.9 
      2493.0         0.33       1316.7 
      2494.0         0.30       1084.5 
      2495.0         0.27        906.4 
