~Version Information
VERS.                      2.0: CWLS Log ASCII Standard - VERSION 2.0
WRAP.                       NO: One line per depth step
~Well Information Block
STRT.FT               555.0000: 
STOP.FT              2322.2000: 
STEP.FT                 0.1000: 
NULL.                -999.2500: 
COMP.          Pioneer Natural Resources: COMPANY
WELL.          Fittipaldi 21-12: WELL
FLD.           Purgatoire River: FIELD
LOC.           207' FNL & 2110' FWL--: LOCATION
CNTY.               Las Animas: COUNTY
SRVC.                Patterson: SERVICE COMPANY
DATE.          Wed Mar 22 07:11:06 2006: LOG DATE
UWI.           05 071 08492 00: UNIQUE WELL ID
STAT.                 Colorado: STATE
~Curve Information Block
DEPT.FT            0 000 00 00: Depth
DCAL.in                       : CDL Caliper
RHOB.g/cc                     : CDL Bulk Density
RHOC.g/cc                     : CDL Density Correction
DPOR.pu                       : CDL Density Porosity
NPOR.pu                       : Neutron Porosity
GR.GAPI                       : Gamma Ray
~Parameter Information Block
~A  Depth       DCAL        RHOB        RHOC        DPOR        NPOR         GR     
# ...
   900.6000      8.4843      1.4983     -0.0851     69.7976      9.7559     72.7098
   900.7000      8.4843      1.4610     -0.0690     72.0622      8.7629     64.9510
   900.8000      8.4775      1.4379      0.0240     73.4586      7.9267     60.4105
   900.9000      8.4775      1.4053      0.0197     75.4356      7.3130     58.5213
   901.0000      8.4625      1.3594     -0.0322     78.2181      6.9505     58.9208
   901.1000      8.4625      1.3248     -0.0269     80.3124      6.8428     59.4914
   901.2000      8.4625      1.3285     -0.0054     80.0914      6.6777     60.9842
   901.3000      8.4455      1.3802      0.0424     76.9572      6.3098     66.8282
   901.4000      8.4455      1.4692      0.0764     71.5628      6.1188     74.0126
   901.5000      8.4690      1.5816      0.1007     64.7531      6.4056     78.8972
   901.6000      8.4690      1.7169      0.1245     56.5499      7.1493     84.1862
   901.7000      8.4690      1.8648      0.2460     47.5905      8.1129     90.9431
   901.8000      8.5288      1.9938      0.3038     39.7682      9.0073     97.6505
   901.9000      8.5288      2.0918      0.2934     33.8291      9.8679    104.7421
   902.0000      8.5337      2.1769      0.2515     28.6737     10.9043    110.8645
   902.1000      8.5337      2.2650      0.2106     23.3338     12.1819    115.7929
   902.2000      8.5337      2.3495      0.2222     18.2123     13.6989    121.4214
   902.3000      8.4454      2.4143      0.1814     14.2830     15.4943    127.0256
   902.4000      8.4454      2.4560      0.1344     11.7582     17.5587    131.1872
   902.5000      8.3499      2.4719      0.1331     10.7939     19.6603    132.2856
   902.6000      8.3499      2.4484      0.0775     12.2196     21.2601    130.6201
   902.7000      8.3499      2.3916      0.0061     15.6593     22.1778    130.9485
   902.8000      8.3001      2.3358     -0.0561     19.0438     22.6600    135.8313
   902.9000      8.3001      2.3077     -0.0090     20.7475     22.8089    141.0016
   903.0000      8.2767      2.3102      0.0302     20.5935     22.5806    142.0429
   903.1000      8.2767      2.3300      0.0697     19.3967     22.1136    140.0912
   903.2000      8.2767      2.3491      0.0670     18.2378     21.7428    137.9901
   903.3000      8.2652      2.3521      0.0588     18.0544     21.4794    135.4444
   903.4000      8.2652      2.3336      0.0365     19.1733     21.0773    131.9547
   903.5000      8.2635      2.3104      0.0265     20.5814     20.6131    129.4337
   903.6000      8.2635      2.3037      0.0097     20.9907     20.3421    129.3801
   903.7000      8.2635      2.3137      0.0434     20.3834     20.2695    131.6497
   903.8000      8.2607      2.3258      0.0372     19.6462     20.1892    133.6739
   903.9000      8.2607      2.3320     -0.0109     19.2746     20.0226    132.8892
   904.0000      8.2433      2.3305      0.0321     19.3634     19.6870    131.2447
   904.1000      8.2433      2.3212     -0.0056     19.9278     19.2180    132.8530
   904.2000      8.2433      2.3092      0.0305     20.6558     18.8255    138.0302
   904.3000      8.2187      2.2901      0.0502     21.8093     18.4304    143.1188
   904.4000      8.2187      2.2565      0.0122     23.8476     18.0338    147.2454
   904.5000      8.2038      2.2260     -0.0324     25.6943     17.7055    149.6151
   904.6000      8.2038      2.2277     -0.0339     25.5970     17.2596    145.0683
   904.7000      8.2038      2.2625      0.0202     23.4847     16.8682    133.5736
   904.8000      8.1951      2.3027      0.1073     21.0511     16.7634    123.9626
   904.9000      8.1951      2.3317      0.0781     19.2900     16.5785    122.8145
   905.0000      8.1790      2.3555      0.1294     17.8469     15.9713    125.0394
   905.1000      8.1790      2.3741      0.1162     16.7241     15.4369    120.4861
   905.2000      8.1790      2.3893      0.1138     15.7983     15.6438    110.5423
   905.3000      8.1438      2.4141      0.1170     14.2991     16.3677    105.6795
   905.4000      8.1438      2.4432      0.1115     12.5351     17.1431    109.0609
   905.5000      8.0965      2.4517      0.0617     12.0193     18.0604    115.1013
   905.6000      8.0965      2.4356      0.0120     12.9910     19.0643    116.5816
   905.7000      8.0965      2.4243      0.0355     13.6788     19.9966    110.9294
   905.8000      8.0513      2.4446      0.0534     12.4485     20.9587    105.0585
   905.9000      8.0513      2.4940      0.1162      9.4556     22.0001    106.7695
   906.0000      8.0084      2.5455      0.1818      6.3310     22.9856    113.4023
   906.1000      8.0084      2.5752      0.2189      4.5329     23.7818    116.7909
   906.2000      8.0084      2.5859      0.1438      3.8860     24.3340    113.4694
   906.3000      7.9876      2.5945      0.1715      3.3655     24.6185    108.7542
   906.4000      7.9876      2.6036      0.1644      2.8147     24.8189    109.3492
   906.5000      7.9979      2.6044      0.1980      2.7608     25.2274    112.6982
   906.6000      7.9979      2.5958      0.1131      3.2840     25.8366    112.7876
   906.7000      7.9979      2.5831      0.1221      4.0515     26.4285    112.0691
   906.8000      8.0285      2.5673      0.0670      5.0150     26.7385    112.9386
   906.9000      8.0285      2.5523      0.0532      5.9202     26.5399    111.3095
   907.0000      8.0564      2.5457      0.0184      6.3195     25.9848    108.8789
   907.1000      8.0564      2.5494      0.0549      6.0947     25.5601    110.4407
   907.2000      8.0564      2.5658      0.0161      5.1011     25.6094    114.2010
   907.3000      8.0645      2.5996      0.0376      3.0574     25.9273    118.8142
   907.4000      8.0645      2.6448      0.0605      0.3129     26.1173    125.0298
   907.5000      8.0557      2.6917      0.0870     -2.5296     26.1285    128.5434
   907.6000      8.0557      2.7352      0.1220     -5.1631     26.1207    126.5131
   907.7000      8.0557      2.7742      0.0890     -7.5296     26.1717    122.2871
   907.8000      8.0432      2.8073      0.1092     -9.5304     26.5117    118.6508
   907.9000      8.0432      2.8233      0.1072    -10.5026     27.2397    114.9893
   908.0000      8.0408      2.8116      0.1184     -9.7950     27.9185    109.1055
   908.1000      8.0408      2.7839      0.1073     -8.1175     28.3238    100.4366
   908.2000      8.0408      2.7642      0.0359     -6.9203     28.6356     94.2187
   908.3000      8.0515      2.7550      0.0316     -6.3651     28.7754     94.5388
   908.4000      8.0515      2.7350      0.0094     -5.1535     28.6092     94.8270
   908.5000      8.0614      2.7021     -0.0960     -3.1546     28.2000     89.1488
   908.6000      8.0614      2.6813     -0.0675     -1.8949     27.5174     83.3030
   908.7000      8.0614      2.6754     -0.0285     -1.5380     26.5811     82.5233
   908.8000      8.0624      2.6611      0.0044     -0.6746     25.6654     84.5572
   908.9000      8.0624      2.6368      0.0016      0.7971     25.0025     87.7692
   909.0000      8.0677      2.6244      0.0064      1.5511     24.6928     89.7455
   909.1000      8.0677      2.6254      0.0395      1.4897     24.6092     87.3783
   909.2000      8.0677      2.6227      0.0176      1.6520     24.4191     82.5548
   909.3000      8.0837      2.6134     -0.0060      2.2180     24.1015     80.6399
   909.4000      8.0837      2.6038      0.0268      2.8009     23.8997     83.5504
   909.5000      8.0922      2.5869      0.0307      3.8221     23.9869     87.9704
   909.6000      8.0922      2.5558      0.0133      5.7072     24.3000     89.6550
   909.7000      8.0922      2.5285     -0.0395      7.3660     24.4384     88.0195
   909.8000      8.0850      2.5271     -0.0021      7.4472     24.2835     86.1358
   909.9000      8.0850      2.5422      0.0685      6.5316     24.2112     86.5764
   910.0000      8.0742      2.5499      0.0594      6.0639     24.3606     90.9942
   910.1000      8.0742      2.5495      0.0108      6.0918     24.6966     98.2539
