~Version Information
VERS.                      2.0: CWLS Log ASCII Standard - VERSION 2.0
WRAP.                       NO: One line per depth step
~Well Information Block
STRT.FT               380.0000: 
STOP.FT              1887.5000: 
STEP.FT                 0.1000: 
NULL.                -999.2500: 
COMP.          Pioneer Natural Resources: COMPANY
WELL.          Cortina 23-25 Tr: WELL
FLD.           Purgatoire River: FIELD
LOC.           2521' FSL & 2345' FWL: LOCATION
STAT.                 Colorado: State
CNTY.               Las Animas: COUNTY
CTRY. USA : Country
SECT. 25 : Section
TOWN. 32S : Township
RANG. 67W : Range
SRVC.                Patterson: SERVICE COMPANY
DATE.          Mon Sep 26 06:09:01 2005: LOG DATE
API.           05 071 08534 00: UNIQUE WELL ID
~Curve Information Block
DEPT.FT            0 000 00 00: Depth
DCAL.in                       : CDL Caliper
RHOB.g/cc                     : CDL Bulk Density
RHOC.g/cc                     : CDL Density Correction
DPOR.pu                       : CDL Density Porosity
GR.GAPI                       : Gamma Ray
NPOR.pu                       : Neutron Porosity
~Parameter Information Block
~A  Depth       DCAL        RHOB        RHOC        DPOR         GR         NPOR    
# ...
   476.0000      8.0776      2.6691      0.1907     -1.1570    152.3753     26.6442
   476.1000      8.0801      2.6879      0.2235     -2.2972    150.8250     26.8672
   476.2000      8.0792      2.6907      0.2480     -2.4645    157.3864     27.3228
   476.3000      8.0747      2.6746      0.1862     -1.4924    159.3897     27.7521
   476.4000      8.0667      2.6554      0.1699     -0.3268    159.0040     28.0273
   476.5000      8.0558      2.6413      0.1680      0.5263    166.9452     27.9122
   476.6000      8.0426      2.6251      0.1056      1.5081    177.3822     27.3823
   476.7000      8.0279      2.6067      0.0949      2.6234    178.1182     26.7825
   476.8000      8.0128      2.5938      0.1049      3.4045    175.4253     26.3825
   476.9000      7.9982      2.5814      0.0584      4.1571    176.5255     26.3891
   477.0000      7.9849      2.5619      0.0331      5.3387    175.2130     26.7786
   477.1000      7.9737      2.5465      0.0440      6.2757    168.9832     27.2562
   477.2000      7.9648      2.5458      0.0619      6.3148    164.9955     27.6648
   477.3000      7.9586      2.5463      0.0730      6.2855    166.6575     28.0008
   477.4000      7.9551      2.5350      0.0297      6.9685    170.5266     28.2459
   477.5000      7.9539      2.5283      0.0063      7.3787    173.8562     28.2662
   477.6000      7.9547      2.5460      0.0274      6.3026    174.7241     28.1393
   477.7000      7.9568      2.5758      0.0915      4.4999    170.2224     28.0181
   477.8000      7.9597      2.5838      0.1131      4.0152    160.1846     27.7472
   477.9000      7.9627      2.5664      0.0650      5.0675    150.1618     27.1469
   478.0000      7.9651      2.5588      0.0406      5.5299    144.8858     26.4461
   478.1000      7.9666      2.5792      0.0944      4.2890    142.7902     26.1902
   478.2000      7.9666      2.6031      0.1449      2.8407    141.3697     26.4433
   478.3000      7.9650      2.6067      0.1253      2.6231    140.5716     26.7616
   478.4000      7.9619      2.6004      0.0683      3.0056    141.4509     26.8695
   478.5000      7.9573      2.5946      0.1009      3.3584    141.5264     26.7960
   478.6000      7.9516      2.5757      0.0864      4.5010    134.7176     26.5839
   478.7000      7.9453      2.5411      0.0788      6.5992    123.2648     26.3391
   478.8000      7.9388      2.5133      0.0231      8.2840    119.4491     26.1112
   478.9000      7.9326      2.5128     -0.0197      8.3177    130.4333     25.8661
   479.0000      7.9272      2.5343      0.0276      7.0133    143.7656     25.7342
   479.1000      7.9226      2.5512      0.0656      5.9902    140.2450     25.9135
   479.2000      7.9191      2.5504      0.0250      6.0372    125.6077     26.1865
   479.3000      7.9165      2.5493     -0.0322      6.1042    124.0353     26.1991
   479.4000      7.9148      2.5625      0.0792      5.3059    139.8938     26.1474
   479.5000      7.9139      2.5786      0.0700      4.3245    152.7429     26.2942
   479.6000      7.9134      2.5803      0.0938      4.2268    150.1448     26.5563
   479.7000      7.9135      2.5635      0.0450      5.2429    138.9667     26.8658
   479.8000      7.9138      2.5477     -0.0255      6.2026    127.6529     27.1984
   479.9000      7.9144      2.5485      0.0382      6.1489    119.8299     27.2885
   480.0000      7.9152      2.5527      0.0396      5.8943    118.4925     26.9967
   480.1000      7.9160      2.5523      0.0113      5.9241    124.0767     26.8789
   480.2000      7.9168      2.5585      0.0234      5.5459    131.4262     27.3066
   480.3000      7.9174      2.5780      0.0631      4.3661    135.0512     27.6670
   480.4000      7.9176      2.6050      0.1019      2.7246    132.6735     27.5144
   480.5000      7.9175      2.6272      0.0633      1.3844    126.7464     27.3470
   480.6000      7.9170      2.6287      0.0863      1.2911    123.5638     27.4561
   480.7000      7.9163      2.6087     -0.0073      2.5032    125.5751     27.3912
   480.8000      7.9155      2.5898      0.0497      3.6496    130.3153     27.0423
   480.9000      7.9150      2.5798      0.0365      4.2575    134.4135     26.6732
   481.0000      7.9149      2.5687      0.0302      4.9296    134.9072     26.4346
   481.1000      7.9154      2.5554      0.0170      5.7341    131.5266     26.5926
   481.2000      7.9166      2.5492      0.0198      6.1077    129.1141     26.7701
   481.3000      7.9185      2.5579      0.0241      5.5846    129.1759     26.5519
   481.4000      7.9211      2.5777      0.0366      4.3838    127.5827     26.5337
   481.5000      7.9241      2.5966      0.0623      3.2393    124.3114     26.8454
   481.6000      7.9274      2.6056      0.0735      2.6922    121.7931     26.8269
   481.7000      7.9306      2.6038      0.0687      2.8022    117.8789     26.3650
   481.8000      7.9335      2.5922      0.0772      3.5044    112.5949     26.1338
   481.9000      7.9358      2.5801     -0.0035      4.2390    110.4402     26.3782
   482.0000      7.9375      2.5854      0.0683      3.9180    110.9344     26.3988
   482.1000      7.9383      2.6065      0.0703      2.6368    108.8901     25.9166
   482.2000      7.9383      2.6261      0.0617      1.4486    102.0935     25.3942
   482.3000      7.9374      2.6350      0.0975      0.9113     98.0140     25.2490
   482.4000      7.9357      2.6297      0.1002      1.2326    102.3304     25.4044
   482.5000      7.9337      2.6101      0.0793      2.4198    106.7882     25.4129
   482.6000      7.9314      2.5814      0.0438      4.1553    106.6009     25.2177
   482.7000      7.9292      2.5515      0.0105      5.9722    107.3706     24.9254
   482.8000      7.9273      2.5354     -0.0198      6.9456    109.7984     24.5137
   482.9000      7.9260      2.5464      0.0286      6.2814    113.1422     24.2942
   483.0000      7.9252      2.5690      0.0623      4.9098    116.6495     24.5865
   483.1000      7.9251      2.5761      0.0820      4.4771    113.8275     25.0804
   483.2000      7.9254      2.5676      0.0377      4.9931    106.6614     25.0881
   483.3000      7.9260      2.5686      0.0240      4.9351    104.7863     24.4348
   483.4000      7.9266      2.5911      0.0593      3.5725    109.1989     23.7167
   483.5000      7.9271      2.6105      0.0913      2.3933    112.2450     23.4671
   483.6000      7.9271      2.6023      0.0413      2.8890    108.9754     23.7075
   483.7000      7.9266      2.5817      0.0572      4.1416    102.3065     24.1887
   483.8000      7.9253      2.5781      0.0088      4.3606     99.8724     24.6628
   483.9000      7.9233      2.5947      0.0891      3.3527    100.3879     24.8807
   484.0000      7.9207      2.6076      0.0703      2.5673     97.5211     24.8430
   484.1000      7.9174      2.6049      0.0806      2.7313     95.0403     24.9033
   484.2000      7.9138      2.5941      0.0287      3.3892     95.1104     25.1619
   484.3000      7.9100      2.5761      0.0529      4.4810     94.1077     25.1027
   484.4000      7.9063      2.5515      0.0006      5.9674     93.4660     24.4330
   484.5000      7.9029      2.5372      0.0174      6.8355     96.3039     23.7441
   484.6000      7.8999      2.5378      0.0179      6.8006    101.5502     23.6161
   484.7000      7.8974      2.5425      0.0074      6.5178    107.4465     23.8520
   484.8000      7.8953      2.5551      0.0110      5.7494    111.3206     23.9883
   484.9000      7.8936      2.5795      0.0430      4.2734    110.1658     23.9088
   485.0000      7.8921      2.5985      0.0530      3.1196    104.2323     23.7877
   485.1000      7.8908      2.6014      0.0449      2.9481     97.2359     23.6907
   485.2000      7.8894      2.5924      0.0224      3.4902     93.2583     23.7468
   485.3000      7.8881      2.5737      0.0441      4.6265     95.0354     24.2211
   485.4000      7.8869      2.5452      0.0349      6.3538     99.0723     24.8618
   485.5000      7.8857      2.5244     -0.0405      7.6137     99.1816     25.2111
