~Version Information
VERS.                      2.0: CWLS Log ASCII Standard - VERSION 2.0
WRAP.                       NO: One line per depth step
~Well Information Block
STRT.FT               330.0000: 
STOP.FT              1972.5000: 
STEP.FT                 0.1000: 
NULL.                -999.2500: 
COMP.          Pioneer Natural Resources: COMPANY
WELL.           Willys 32-8 Tr: WELL
FLD.           Purgatoire River: FIELD
LOC.           1843' FNL & 2355' FEL: LOCATION
CNTY.               Las Animas: COUNTY
SRVC.                Patterson: SERVICE COMPANY
DATE.          Thu Feb 09 10:31:59 2006: LOG DATE
UWI.           05 071 08688 00: UNIQUE WELL ID
STAT.                 Colorado: STATE
~Curve Information Block
DEPT.FT            0 000 00 00: Depth
DCAL.in                       : CDL Caliper
RHOB.g/cc                     : CDL Bulk Density
RHOC.g/cc                     : CDL Density Correction
DPOR.pu                       : CDL Density Porosity
GR.GAPI                       : Gamma Ray
~Parameter Information Block
~A  Depth       DCAL        RHOB        RHOC        DPOR         GR     
# ...
  1091.6000      8.0588      2.4728      0.0832     10.7394    138.4400
  1091.7000      8.0588      2.4933      0.0174      9.4960    141.3405
  1091.8000      8.0768      2.5042     -0.0020      8.8369    143.4145
  1091.9000      8.0768      2.5081     -0.0137      8.6022    142.5607
  1092.0000      8.0813      2.5085     -0.0084      8.5758    144.6401
  1092.1000      8.0813      2.5073      0.0178      8.6493    149.3668
  1092.2000      8.0813      2.4965      0.0121      9.3042    148.5323
  1092.3000      8.0271      2.4786      0.0232     10.3868    142.6331
  1092.4000      8.0271      2.4678      0.0387     11.0414    140.3308
  1092.5000      7.9826      2.4683      0.0377     11.0092    142.1633
  1092.6000      7.9826      2.4816      0.0123     10.2079    142.5950
  1092.7000      7.9826      2.5093     -0.0003      8.5277    141.4016
  1092.8000      7.9571      2.5483      0.0312      6.1640    142.1834
  1092.9000      7.9571      2.5884      0.0611      3.7312    144.2299
  1093.0000      7.9646      2.6081      0.1140      2.5397    143.4138
  1093.1000      7.9646      2.5943      0.1122      3.3755    141.9309
  1093.2000      7.9646      2.5621      0.0832      5.3257    145.6919
  1093.3000      7.9247      2.5290      0.0877      7.3317    154.1066
  1093.4000      7.9247      2.4979      0.0612      9.2192    159.9437
  1093.5000      7.9210      2.4777     -0.0098     10.4404    156.3652
  1093.6000      7.9210      2.4841     -0.0067     10.0565    146.7683
  1093.7000      7.9210      2.5109      0.0386      8.4297    141.1414
  1093.8000      7.9402      2.5366      0.0715      6.8713    141.5281
  1093.9000      7.9402      2.5545      0.1194      5.7853    144.3691
  1094.0000      7.9539      2.5698      0.1591      4.8615    149.9955
  1094.1000      7.9539      2.5767      0.2160      4.4419    159.9996
  1094.2000      7.9539      2.5678      0.1793      4.9808    169.2733
  1094.3000      7.9513      2.5478      0.2162      6.1952    170.7681
  1094.4000      7.9513      2.5238      0.1382      7.6462    166.6749
  1094.5000      7.9334      2.4998      0.0547      9.1017    164.7278
  1094.6000      7.9334      2.4776      0.0908     10.4506    164.1157
  1094.7000      7.9334      2.4701      0.0512     10.9035    161.5416
  1094.8000      7.9536      2.4911      0.1069      9.6286    162.1994
  1094.9000      7.9536      2.5260      0.1210      7.5129    165.5077
  1095.0000      7.9612      2.5497      0.1914      6.0762    164.9375
  1095.1000      7.9612      2.5523      0.1908      5.9237    158.8217
  1095.2000      7.9612      2.5349      0.1976      6.9747    151.6887
  1095.3000      7.9579      2.5046      0.1919      8.8140    148.5646
  1095.4000      7.9579      2.4758      0.1041     10.5575    147.5118
  1095.5000      8.0329      2.4587      0.1065     11.5931    146.1423
  1095.6000      8.0329      2.4414      0.1226     12.6394    147.1042
  1095.7000      8.0329      2.4011      0.0571     15.0834    152.3231
  1095.8000      8.0220      2.3354      0.0008     19.0685    158.6952
  1095.9000      8.0220      2.2672      0.0289     23.2012    161.1518
  1096.0000      8.0297      2.2205      0.0094     26.0312    158.7229
  1096.1000      8.0297      2.2077      0.0137     26.8046    154.5316
  1096.2000      8.0297      2.2257      0.0863     25.7162    150.1736
  1096.3000      8.0647      2.2483      0.1888     24.3436    148.1001
  1096.4000      8.0647      2.2461      0.2290     24.4807    150.3414
  1096.5000      8.0807      2.2187      0.1781     26.1391    151.9272
  1096.6000      8.0807      2.1907      0.1796     27.8353    147.6727
  1096.7000      8.0807      2.1830      0.1706     28.3022    141.7775
  1096.8000      8.1130      2.1980      0.1714     27.3930    138.8054
  1096.9000      8.1130      2.2183      0.1713     26.1653    138.5620
  1097.0000      8.1115      2.2227      0.1540     25.8959    141.0097
  1097.1000      8.1115      2.2080      0.0867     26.7864    147.0246
  1097.2000      8.1115      2.1778      0.1173     28.6187    154.9256
  1097.3000      8.1424      2.1310      0.1058     31.4554    159.7844
  1097.4000      8.1424      2.0859      0.0986     34.1868    159.1036
  1097.5000      8.1621      2.0785      0.1634     34.6392    156.4793
  1097.6000      8.1621      2.1278      0.2193     31.6497    156.3802
  1097.7000      8.1621      2.2178      0.2607     26.1943    157.5569
  1097.8000      8.2234      2.3094      0.3352     20.6398    157.5116
  1097.9000      8.2234      2.3667      0.4573     17.1700    155.5533
  1098.0000      8.3411      2.3721      0.4676     16.8435    153.8670
  1098.1000      8.3411      2.3392      0.4350     18.8362    155.6555
  1098.2000      8.3411      2.3036      0.3759     20.9954    157.5444
  1098.3000      8.3676      2.2842      0.3667     22.1690    154.9311
  1098.4000      8.3676      2.2722      0.3097     22.8964    147.9785
  1098.5000      8.1637      2.2657      0.2193     23.2934    140.4022
  1098.6000      8.1637      2.2836      0.2279     22.2048    136.7057
  1098.7000      8.1637      2.3401      0.3706     18.7846    136.5785
  1098.8000      7.9305      2.4283      0.3926     13.4363    135.0164
  1098.9000      7.9305      2.5176      0.5216      8.0218    130.3679
  1099.0000      8.0622      2.5676      0.4811      4.9967    128.4839
  1099.1000      8.0622      2.5794      0.3815      4.2768    133.0317
  1099.2000      8.0622      2.5892      0.3464      3.6830    134.6732
  1099.3000      8.1880      2.6142      0.2735      2.1695    125.7230
  1099.4000      8.1880      2.6488      0.3472      0.0731    113.5779
  1099.5000      8.1782      2.6785      0.3175     -1.7259    109.9568
  1099.6000      8.1782      2.6892      0.3176     -2.3751    117.0142
  1099.7000      8.1782      2.6750      0.2917     -1.5159    126.7289
  1099.8000      8.0989      2.6458      0.1867      0.2520    130.6574
  1099.9000      8.0989      2.6207      0.2096      1.7765    128.8731
  1100.0000      8.1614      2.6093      0.1075      2.4638    127.8905
  1100.1000      8.1614      2.6053      0.1940      2.7073    129.8233
  1100.2000      8.1614      2.5981      0.1371      3.1447    130.1339
  1100.3000      8.0776      2.5949      0.1173      3.3391    125.7075
  1100.4000      8.0776      2.6033      0.1448      2.8307    120.9215
  1100.5000      8.0636      2.6115      0.1354      2.3331    121.3996
  1100.6000      8.0636      2.6103      0.0971      2.4045    127.2816
  1100.7000      8.0636      2.6007      0.1642      2.9888    134.6994
  1100.8000      7.9811      2.5857      0.0908      3.8970    138.4012
  1100.9000      7.9811      2.5905      0.0888      3.6073    135.4070
  1101.0000      7.9257      2.6363      0.0789      0.8273    125.7953
  1101.1000      7.9257      2.6993      0.1197     -2.9850    115.4835
  1101.2000      7.9257      2.7461      0.0824     -5.8226    112.1019
  1101.3000      7.9121      2.7840      0.0907     -8.1212    116.4189
  1101.4000      7.9121      2.8334      0.1087    -11.1176    122.9507
  1101.5000      7.9083      2.8800      0.1847    -13.9403    122.6609
  1101.6000      7.9083      2.8889      0.1453    -14.4767    114.4450
  1101.7000      7.9083      2.8439      0.1077    -11.7531    106.9350
  1101.8000      7.8979      2.7635      0.0001     -6.8799    103.7076
  1101.9000      7.8979      2.6889     -0.0327     -2.3572    105.1638
  1102.0000      7.8987      2.6433     -0.0355      0.4067    110.6297
  1102.1000      7.8987      2.6187      0.0473      1.8990    114.7946
  1102.2000      7.8987      2.5972      0.0195      3.1997    117.0775
  1102.3000      7.9212      2.5715      0.0648      4.7591    122.2220
  1102.4000      7.9212      2.5463      0.0145      6.2871    129.6329
  1102.5000      7.9450      2.5315      0.0550      7.1804    136.0057
  1102.6000      7.9450      2.5305      0.0443      7.2447    140.1297
  1102.7000      7.9450      2.5380      0.0322      6.7889    137.9330
