~Version Information
VERS.                      2.0: CWLS Log ASCII Standard - VERSION 2.0
WRAP.                       NO: One line per depth step
~Well Information Block
STRT.FT               460.0000: 
STOP.FT              2311.7500: 
STEP.FT                 0.2500: 
NULL.                -999.2500: 
COMP.          Pioneer Natural Resources: COMPANY
WELL.          McDonald 33-31 R: WELL
FLD.           Purgatoire River: FIELD
LOC.           1386' FSL & 1926' FEL: LOCATION
STAT.                 Colorado: State
CNTY.               Las Animas: COUNTY
CTRY.                      USA: Country
SECT.                       31: Section
TOWN.                      32S: Township
RANG.                      66W: Range
SRVC.                Patterson: SERVICE COMPANY
DATE.          Fri Sep 23 00:08:18 2005: LOG DATE
API.           05 071 08533 00: API#
~Curve Information Block
DEPT.FT            0 000 00 00: Depth
SN.Ohm-m                      : IEL Short Normal
SP.mV                         : IEL Spontaneous Potential
DIR.Ohm-m                     : IEL Induction Resistivity
GR.GAPI                       : Gamma Ray
~Parameter Information Block
~A  Depth        SN          SP         DIR          GR     
# ...
  2135.0000      4.9532   -349.2703     11.1988    109.9601
  2135.2500      4.9580   -348.3744     10.7278    114.2058
  2135.5000      4.9944   -347.5510     10.3133    119.1785
  2135.7500      5.0688   -346.8914      9.9706    122.1663
  2136.0000      5.1754   -346.4495      9.7098    126.7383
  2136.2500      5.3009   -346.2426      9.5343    129.4886
  2136.5000      5.4359   -346.2639      9.4408    132.0531
  2136.7500      5.5912   -346.4858      9.4190    132.4319
  2137.0000      5.7989   -346.8716      9.4522    131.1965
  2137.2500      6.0808   -347.3877      9.5211    129.3273
  2137.5000      6.4085   -348.0148      9.6086    125.2772
  2137.7500      6.7125   -348.7484      9.7041    122.2747
  2138.0000      6.9481   -349.5854      9.8057    118.7733
  2138.2500      7.1490   -350.4935      9.9171    117.8224
  2138.5000      7.3948   -351.3673     10.0428    118.6623
  2138.7500      7.7033   -351.9859     10.1830    120.1022
  2139.0000      7.9552   -351.9977     10.3323    121.5478
  2139.2500      7.9638   -350.9515     10.4809    120.8575
  2139.5000      7.6474   -348.3908     10.6201    116.7416
  2139.7500      7.1189   -343.9971     10.7464    112.7108
  2140.0000      6.5944   -337.7501     10.8645    106.7362
  2140.2500      6.2298   -330.0428     10.9837    103.3371
  2140.5000      6.0496   -321.6964     11.1119     98.5493
  2140.7500      5.9918   -313.8456     11.2484     95.2267
  2141.0000      5.9726   -307.7039     11.3792     90.7525
  2141.2500      5.9142   -304.2797     11.4771     88.8751
  2141.5000      5.7539   -304.1299     11.5077     88.2246
  2141.7500      5.4754   -307.2312     11.4395     89.0266
  2142.0000      5.1455   -313.0125     11.2567     91.8163
  2142.2500      4.8929   -320.5246     10.9683     94.8680
  2142.5000      4.8184   -328.6836     10.6061    101.5234
  2142.7500      4.9187   -336.5074     10.2145    107.1697
  2143.0000      5.1039   -343.2812      9.8351    116.1816
  2143.2500      5.2722   -348.6214      9.4966    121.4545
  2143.5000      5.3612   -352.4516      9.2120    126.8972
  2143.7500      5.3576   -354.9205      8.9822    128.8170
  2144.0000      5.2857   -356.3040      8.8029    129.9230
  2144.2500      5.1852   -356.9196      8.6715    129.9914
  2144.5000      5.0901   -357.0703      8.5891    129.8289
  2144.7500      5.0199   -357.0140      8.5594    129.9451
  2145.0000      4.9770   -356.9520      8.5856    130.7754
  2145.2500      4.9514   -357.0246      8.6682    131.5891
  2145.5000      4.9390   -357.3100      8.8033    132.7594
  2145.7500      4.9577   -357.8192      8.9809    133.5020
  2146.0000      5.0338   -358.4980      9.1814    134.8111
  2146.2500      5.1694   -359.2329      9.3739    135.8028
  2146.5000      5.3270   -359.8693      9.5190    137.0332
  2146.7500      5.4575   -360.2405      9.5803    137.3946
  2147.0000      5.5419   -360.2052      9.5405    137.2473
  2147.2500      5.5993   -359.6797      9.4112    137.0788
  2147.5000      5.6574   -358.6621      9.2292    137.5397
  2147.7500      5.7307   -357.2409      9.0404    138.4776
  2148.0000      5.8233   -355.5858      8.8844    140.3443
  2148.2500      5.9247   -353.9200      8.7851    141.4385
  2148.5000      6.0024   -352.4837      8.7500    142.3339
  2148.7500      6.0260   -351.4916      8.7725    142.3470
  2149.0000      6.0133   -351.0945      8.8365    141.5124
  2149.2500      6.0317   -351.3519      8.9227    140.4653
  2149.5000      6.1315   -352.2218      9.0150    138.4986
  2149.7500      6.2817   -353.5663      9.1066    137.1165
  2150.0000      6.3829   -355.1752      9.2012    134.8681
  2150.2500      6.3471   -356.8010      9.3093    133.0698
  2150.5000      6.1644   -358.2006      9.4431    129.9631
  2150.7500      5.9051   -359.1779      9.6106    127.9478
  2151.0000      5.6723   -359.6169      9.8142    125.7550
  2151.2500      5.5480   -359.4996     10.0522    125.2478
  2151.5000      5.5617   -358.9035     10.3219    126.2798
  2151.7500      5.6850   -357.9777     10.6224    127.7687
  2152.0000      5.8496   -356.9046     10.9558    128.9449
  2152.2500      5.9837   -355.8577     11.3243    127.2166
  2152.5000      6.0489   -354.9686     11.7302    118.9627
  2152.7500      6.0494   -354.3100     12.1784    110.2785
  2153.0000      6.0102   -353.8998     12.6828     96.3758
  2153.2500      5.9467   -353.7182     13.2700     89.3092
  2153.5000      5.8563   -353.7299     13.9754     85.1907
  2153.7500      5.7389   -353.9021     14.8281     87.1795
  2154.0000      5.6196   -354.2119     15.8283     95.9668
  2154.2500      5.5414   -354.6451     16.9241    104.1414
  2154.5000      5.5305   -355.1896     18.0002    116.7647
  2154.7500      5.5704   -355.8296     18.8966    124.1687
  2155.0000      5.6109   -356.5424     19.4615    133.7643
  2155.2500      5.6065   -357.2989     19.6150    140.1651
  2155.5000      5.5500   -358.0655     19.3793    151.3553
  2155.7500      5.4713   -358.8057     18.8591    159.8491
  2156.0000      5.4129   -359.4788     18.1944    172.5017
  2156.2500      5.4113   -360.0412     17.5143    179.7293
  2156.5000      5.4832   -360.4508     16.9096    187.6007
  2156.7500      5.6053   -360.6738     16.4242    190.6383
  2157.0000      5.7150   -360.6959     16.0618    191.6391
  2157.2500      5.7527   -360.5304     15.8012    189.9550
  2157.5000      5.7133   -360.2213     15.6140    185.0020
  2157.7500      5.6467   -359.8370     15.4784    181.3470
  2158.0000      5.6029   -359.4568     15.3842    177.1268
  2158.2500      5.5782   -359.1540     15.3291    175.1569
  2158.5000      5.5252   -358.9794     15.3140    171.9160
  2158.7500      5.4214   -358.9518     15.3412    168.6585
  2159.0000      5.3186   -359.0557     15.4130    161.7573
  2159.2500      5.3079   -359.2487     15.5290    156.1542
  2159.5000      5.4300   -359.4713     15.6801    146.9661
  2159.7500      5.6230   -359.6616     15.8457    140.6992
  2160.0000      5.7725   -359.7667     15.9983    132.0236
  2160.2500      5.8126   -359.7517     16.1159    127.4468
  2160.5000      5.7673   -359.6036     16.1928    123.1877
  2160.7500      5.7007   -359.3318     16.2425    121.8880
  2161.0000      5.6522   -358.9651     16.2914    120.9727
  2161.2500      5.6312   -358.5472     16.3666    120.2865
  2161.5000      5.6535   -358.1318     16.4872    118.7065
  2161.7500      5.7478   -357.7759     16.6602    117.7369
  2162.0000      5.9111   -357.5333     16.8809    117.7964
  2162.2500      6.0773   -357.4481     17.1346    119.2033
  2162.5000      6.1603   -357.5480     17.3981    122.2165
  2162.7500      6.1390   -357.8432     17.6419    123.6638
  2163.0000      6.0862   -358.3271     17.8353    124.0741
  2163.2500      6.1085   -358.9802     17.9564    123.5202
  2163.5000      6.2555   -359.7784     17.9995    122.3738
  2163.7500      6.4730   -360.7002     17.9769    121.6963
  2164.0000      6.6374   -361.7264     17.9136    121.2616
  2164.2500      6.6470   -362.8347     17.8387    121.6749
  2164.5000      6.4845   -363.9875     17.7767    123.2121
  2164.7500      6.1925   -365.1152     17.7396    124.1465
  2165.0000      5.8173   -366.1002     17.7237    124.1740
  2165.2500      5.4060   -366.7675     17.7123    123.2117
  2165.5000      5.0292   -366.8941     17.6863    121.1852
  2165.7500      4.7544   -366.2417     17.6362    119.9417
  2166.0000      4.5979   -364.6154     17.5661    118.5575
  2166.2500      4.5297   -361.9387     17.4890    117.9178
  2166.5000      4.5230   -358.3223     17.4167    116.9187
  2166.7500      4.5749   -354.0983     17.3550    115.7758
  2167.0000      4.6789   -349.7936     17.3035    113.0373
  2167.2500      4.8014   -346.0371     17.2604    110.9780
  2167.5000      4.8965   -343.4186     17.2244    109.0185
  2167.7500      4.9367   -342.3427     17.1955    109.1817
  2168.0000      4.9216   -342.9272     17.1727    111.7240
  2168.2500      4.8639   -344.9832     17.1506    114.2087
