~Version Information
VERS.                      2.0: CWLS Log ASCII Standard - VERSION 2.0
WRAP.                       NO: One line per depth step
~Well Information Block
STRT.FT               615.0000: 
STOP.FT              2807.0000: 
STEP.FT                 0.1000: 
NULL.                -999.2500: 
COMP.          Pioneer Natural Resources: COMPANY
WELL.              Loews 41-32: WELL
FLD.           Purgatoire River: FIELD
LOC.           751' FNL & 128' FEL: LOCATION
CNTY.               Las Animas: COUNTY
SRVC.                Patterson: SERVICE COMPANY
DATE.          Mon Feb 13 07:19:27 2006: LOG DATE
UWI.           05 071 08693 00: UNIQUE WELL ID
STAT.                 Colorado: STATE
~Curve Information Block
DEPT.FT            0 000 00 00: Depth
DCAL.in                       : CDL Caliper
RHOB.g/cc                     : CDL Bulk Density
RHOC.g/cc                     : CDL Density Correction
DPOR.pu                       : CDL Density Porosity
GR.GAPI                       : Gamma Ray
NPOR.pu                       : Neutron Porosity
~Parameter Information Block
~A  Depth       DCAL        RHOB        RHOC        DPOR         GR         NPOR    
# ...
  1488.6000      7.9965      2.4890      0.0596      9.7569     72.0283     16.9675
  1488.7000      7.9965      2.4753      0.0085     10.5894     66.8342     16.9735
  1488.8000      7.9993      2.4656      0.0494     11.1739     61.7412     16.6340
  1488.9000      7.9993      2.4599      0.0084     11.5212     56.9158     16.0386
  1489.0000      7.9994      2.4636      0.0213     11.2957     55.9959     15.6920
  1489.1000      7.9994      2.4773      0.0105     10.4649     59.3072     16.0356
  1489.2000      7.9994      2.4904      0.0392      9.6705     60.7607     17.4679
  1489.3000      7.9995      2.4955      0.0215      9.3661     56.5039     19.3666
  1489.4000      7.9995      2.4949      0.0340      9.3990     49.3142     20.7718
  1489.5000      8.0000      2.4948      0.0414      9.4047     45.0698     21.8562
  1489.6000      8.0000      2.4991      0.0111      9.1452     45.7413     22.7394
  1489.7000      8.0000      2.5038      0.0467      8.8630     48.0324     23.0288
  1489.8000      7.9996      2.4903      0.0728      9.6758     49.7618     22.5585
  1489.9000      7.9996      2.4509      0.0117     12.0663     51.5859     21.5639
  1490.0000      7.9975      2.4141     -0.0644     14.2954     54.4342     20.7047
  1490.1000      7.9975      2.4056     -0.0036     14.8113     59.6941     20.2192
  1490.2000      7.9975      2.4110      0.0293     14.4871     65.7024     19.6539
  1490.3000      7.9980      2.4041      0.0360     14.9057     66.0591     19.1054
  1490.4000      7.9980      2.3789      0.0027     16.4294     60.7255     19.2073
  1490.5000      7.9995      2.3464     -0.0207     18.4030     57.0796     20.0761
  1490.6000      7.9995      2.3112      0.0171     20.5341     58.6211     21.3309
  1490.7000      7.9995      2.2719     -0.0230     22.9131     63.2370     22.6644
  1490.8000      7.9990      2.2305     -0.0253     25.4215     68.5733     23.8571
  1490.9000      7.9990      2.1823     -0.0092     28.3461     72.7410     24.7496
  1491.0000      8.0003      2.1285     -0.0483     31.6084     73.3774     25.6208
  1491.1000      8.0003      2.0884     -0.0468     34.0390     72.4226     26.7853
  1491.2000      8.0003      2.0640      0.0203     35.5168     73.0545     27.8389
  1491.3000      8.0004      2.0247      0.0275     37.8940     76.1068     28.2483
  1491.4000      8.0004      1.9513      0.0515     42.3446     80.8157     28.4830
  1491.5000      7.9999      1.8715      0.0374     47.1821     88.0518     29.4339
  1491.6000      7.9999      1.8321      0.0472     49.5704    100.0385     30.9738
  1491.7000      7.9999      1.8391      0.0955     49.1428    113.9688     32.2834
  1491.8000      8.0054      1.8611      0.0936     47.8104    123.0560     33.0938
  1491.9000      8.0054      1.8804      0.0706     46.6449    124.1712     33.3178
  1492.0000      8.0113      1.9066      0.0549     45.0567    120.6464     32.8516
  1492.1000      8.0113      1.9494      0.1193     42.4628    116.7736     32.3043
  1492.2000      8.0113      2.0099      0.1177     38.7950    113.9227     32.0940
  1492.3000      8.0133      2.0884      0.1656     34.0379    111.3372     31.7711
  1492.4000      8.0133      2.1693      0.2057     29.1314    108.5981     30.9748
  1492.5000      8.0079      2.2364      0.2219     25.0685    106.5468     29.9525
  1492.6000      8.0079      2.3117      0.1122     20.5047    106.8971     29.3118
  1492.7000      8.0079      2.4163      0.2232     14.1616    109.9630     29.4255
  1492.8000      8.0084      2.5102      0.2308      8.4698    114.6688     30.0958
  1492.9000      8.0084      2.5527      0.1137      5.8982    122.7637     30.7711
  1493.0000      8.0073      2.5625      0.0476      5.3023    131.9846     31.0201
  1493.1000      8.0073      2.5648      0.1038      5.1640    135.8544     31.0482
  1493.2000      8.0073      2.5525      0.0676      5.9081    135.5976     30.9366
  1493.3000      8.0066      2.5224      0.0679      7.7318    135.7052     30.3258
  1493.4000      8.0066      2.4944      0.0240      9.4302    136.4553     29.3779
  1493.5000      8.0067      2.4795      0.0380     10.3320    136.4361     28.6367
  1493.6000      8.0067      2.4617      0.0330     11.4144    137.4034     28.3541
  1493.7000      8.0067      2.4309      0.0321     13.2765    142.2411     28.6401
  1493.8000      8.0075      2.4059     -0.0252     14.7953    150.3883     29.2647
  1493.9000      8.0075      2.4042      0.0063     14.8974    158.6817     29.7316
  1494.0000      8.0055      2.4143     -0.0139     14.2858    164.5358     29.9156
  1494.1000      8.0055      2.4185     -0.0108     14.0324    166.8865     29.9065
  1494.2000      8.0055      2.4179      0.0115     14.0684    162.9886     29.7051
  1494.3000      8.0063      2.4265      0.0071     13.5440    154.4328     29.4669
  1494.4000      8.0063      2.4581      0.0465     11.6332    146.0790     29.4594
  1494.5000      8.0067      2.5131      0.0172      8.2986    140.0392     29.5440
  1494.6000      8.0067      2.5693      0.0970      4.8882    140.2129     29.4672
  1494.7000      8.0067      2.6049      0.0791      2.7327    150.0105     29.3679
  1494.8000      8.0080      2.6292      0.0760      1.2603    161.0305     29.4962
  1494.9000      8.0080      2.6585      0.1350     -0.5161    164.0842     29.6964
  1495.0000      8.0069      2.6871      0.1336     -2.2514    163.4754     29.7078
  1495.1000      8.0069      2.6969      0.1843     -2.8436    164.0731     29.4197
  1495.2000      8.0069      2.6792      0.1707     -1.7717    165.2454     29.0188
  1495.3000      8.0076      2.6460      0.1525      0.2395    166.0746     28.8076
  1495.4000      8.0076      2.6095      0.1270      2.4560    163.9278     29.0434
  1495.5000      8.0059      2.5777      0.0167      4.3832    158.2253     29.6708
  1495.6000      8.0059      2.5630     -0.0058      5.2736    156.4366     30.3692
  1495.7000      8.0059      2.5614     -0.0157      5.3700    160.8992     30.7268
  1495.8000      8.0052      2.5594      0.0421      5.4915    163.2067     30.3899
  1495.9000      8.0052      2.5664      0.0491      5.0679    161.8505     29.6166
  1496.0000      8.0078      2.6018      0.0830      2.9236    163.6898     29.3063
  1496.1000      8.0078      2.6520      0.1802     -0.1219    169.4389     30.0109
  1496.2000      8.0078      2.6765      0.1797     -1.6070    176.7651     30.9313
  1496.3000      8.0065      2.6601      0.0663     -0.6114    186.5028     31.0139
  1496.4000      8.0065      2.6244      0.0435      1.5503    192.9986     30.3096
  1496.5000      8.0024      2.5961     -0.0176      3.2644    185.9670     29.4731
  1496.6000      8.0024      2.5878      0.0050      3.7670    171.0930     29.3046
  1496.7000      8.0024      2.5905     -0.0277      3.6057    164.4410     29.7881
  1496.8000      8.0035      2.5885     -0.0261      3.7258    167.6944     30.0193
  1496.9000      8.0035      2.5710     -0.0114      4.7856    170.6452     29.6938
  1497.0000      8.0072      2.5391     -0.0681      6.7233    167.2617     29.0776
  1497.1000      8.0072      2.5105     -0.0507      8.4554    159.6491     28.7878
  1497.2000      8.0072      2.4944      0.0204      9.4279    156.0918     29.0685
  1497.3000      8.0089      2.4843      0.0276     10.0448    158.7753     29.1727
  1497.4000      8.0089      2.4788      0.0108     10.3757    161.1654     28.8649
  1497.5000      8.0113      2.4818      0.0292     10.1961    161.5600     28.9351
  1497.6000      8.0113      2.4959     -0.0028      9.3411    162.5825     29.4127
  1497.7000      8.0113      2.5208      0.0404      7.8331    160.3509     29.5251
  1497.8000      7.9943      2.5440      0.0473      6.4231    150.5207     28.9626
  1497.9000      7.9943      2.5539      0.0350      5.8226    136.3281     28.2207
  1498.0000      7.9917      2.5547      0.0876      5.7777    126.8973     27.8849
  1498.1000      7.9917      2.5615      0.0950      5.3651    125.1778     28.0494
