~Version Information
VERS.                      2.0: CWLS Log ASCII Standard - VERSION 2.0
WRAP.                       NO: One line per depth step
~Well Information Block
STRT.FT               860.0000: 
STOP.FT              2362.5000: 
STEP.FT                 0.2500: 
NULL.                -999.2500: 
COMP.          Pioneer Natural Resources: COMPANY
WELL.            Cayenne 23-23: WELL
FLD.           Purgatoire River: FIELD
LOC.           2555' FSL & 2386' FWL: LOCATION
PROV.                 Colorado: PROVINCE
CNTY.               Las Animas: COUNTRY
SRVC.                Patterson: SERVICE COMPANY
DATE.          Wed Aug 17 06:47:40 2005: LOG DATE
UWI.           05 071 08476 00: UNIQUE WELL ID
~Curve Information Block
DEPT.FT            0 000 00 00: Depth
SN.Ohm-m                      : IEL Short Normal
SP.mV                         : IEL Spontaneous Potential
DIR.Ohm-m                     : IEL Induction Resistivity
GR.GAPI                       : Gamma Ray
~Parameter Information Block
~A  Depth        SN          SP         DIR          GR     
# ...
  1061.0000     13.5724   -122.3791     11.9229    120.6862
  1061.2500     13.8248   -122.5606     11.9387    120.2714
  1061.5000     13.7496   -122.7395     11.9123    122.5471
  1061.7500     13.4528   -122.8870     11.8321    125.7313
  1062.0000     13.1401   -122.9831     11.6965    131.4370
  1062.2500     12.8984   -123.0356     11.5170    134.6697
  1062.5000     12.6840   -123.0831     11.3141    137.1377
  1062.7500     12.4748   -123.1729     11.1090    137.0821
  1063.0000     12.2973   -123.3274     10.9161    135.6050
  1063.2500     12.1594   -123.5183     10.7425    134.6569
  1063.5000     12.0111   -123.6657     10.5918    134.4433
  1063.7500     11.7670   -123.6764     10.4686    135.2950
  1064.0000     11.3750   -123.5065     10.3789    137.9470
  1064.2500     10.8270   -123.2024     10.3272    140.5511
  1064.5000     10.1401   -122.8813     10.3137    145.3457
  1064.7500      9.3918   -122.6628     10.3341    148.5595
  1065.0000      8.7610   -122.6067     10.3831    152.1489
  1065.2500      8.5058   -122.7044     10.4577    153.2089
  1065.5000      8.8154   -122.9104     10.5562    152.3188
  1065.7500      9.6252   -123.1727     10.6748    149.8656
  1066.0000     10.6419   -123.4451     10.8058    143.6273
  1066.2500     11.5861   -123.6935     10.9412    138.5581
  1066.5000     12.3436   -123.9049     11.0791    131.6174
  1066.7500     12.9022   -124.0917     11.2269    128.3574
  1067.0000     13.3027   -124.2834     11.3992    125.9322
  1067.2500     13.6046   -124.5100     11.6101    125.6218
  1067.5000     13.7899   -124.7883     11.8667    126.2337
  1067.7500     13.8068   -125.1202     12.1642    127.0356
  1068.0000     13.6998   -125.5008     12.4869    128.7518
  1068.2500     13.5884   -125.9253     12.8119    130.2057
  1068.5000     13.5323   -126.3904     13.1165    132.3118
  1068.7500     13.5067   -126.8936     13.3863    133.1160
  1069.0000     13.5230   -127.4375     13.6171    132.7148
  1069.2500     13.6320   -128.0330     13.8105    131.3820
  1069.5000     13.8026   -128.6963     13.9673    128.4658
  1069.7500     13.9405   -129.4366     14.0845    126.4465
  1070.0000     14.0002   -130.2428     14.1601    123.9518
  1070.2500     14.0149   -131.0814     14.2021    122.7402
  1070.5000     14.0525   -131.9061     14.2334    121.4891
  1070.7500     14.1629   -132.6732     14.2866    121.0189
  1071.0000     14.3638   -133.3566     14.3910    120.9543
  1071.2500     14.6342   -133.9590     14.5602    121.2746
  1071.5000     14.9083   -134.5133     14.7895    121.8872
  1071.7500     15.1345   -135.0697     15.0651    122.0780
  1072.0000     15.3094   -135.6740     15.3784    121.5741
  1072.2500     15.4374   -136.3479     15.7321    120.5706
  1072.5000     15.5569   -137.0780     16.1330    118.2707
  1072.7500     15.7706   -137.8162     16.5802    116.5346
  1073.0000     16.1586   -138.4935     17.0610    114.0593
  1073.2500     16.7186   -139.0501     17.5581    112.5214
  1073.5000     17.4161   -139.4700     18.0590    110.1529
  1073.7500     18.2302   -139.7858     18.5604    108.2649
  1074.0000     19.1466   -140.0481     19.0645    104.3515
  1074.2500     20.0979   -140.2923     19.5776    100.8291
  1074.5000     20.9558   -140.5341     20.1120     94.7442
  1074.7500     21.6643   -140.7803     20.6893     90.9890
  1075.0000     22.3327   -141.0336     21.3336     87.1343
  1075.2500     23.1280   -141.2899     22.0550     85.8573
  1075.5000     24.0753   -141.5390     22.8351     84.7289
  1075.7500     25.0292   -141.7722     23.6315     83.7318
  1076.0000     25.8681   -141.9864     24.3976     81.8512
  1076.2500     26.5890   -142.1849     25.1022     81.0581
  1076.5000     27.2026   -142.3770     25.7302     81.5280
  1076.7500     27.6880   -142.5793     26.2690     82.8348
  1077.0000     28.0521   -142.8124     26.6974     85.4117
  1077.2500     28.3318   -143.0922     26.9969     87.0926
  1077.5000     28.5320   -143.4208     27.1788     89.1177
  1077.7500     28.5922   -143.7894     27.2989     90.0491
  1078.0000     28.4889   -144.1903     27.4348     90.8893
  1078.2500     28.3455   -144.6237     27.6389     91.1306
  1078.5000     28.2795   -145.0945     27.9063     90.9456
  1078.7500     28.2372   -145.6023     28.1835     90.4360
  1079.0000     28.1301   -146.1368     28.4120     89.3739
  1079.2500     28.0350   -146.6797     28.5694     88.6120
  1079.5000     28.1400   -147.2061     28.6740     86.9337
  1079.7500     28.5099   -147.6779     28.7629     84.9711
  1080.0000     29.0367   -148.0461     28.8735     80.8970
  1080.2500     29.6382   -148.2692     29.0478     78.3620
  1080.5000     30.3326   -148.3362     29.3379     76.6942
  1080.7500     31.0745   -148.2692     29.7910     77.3920
  1081.0000     31.7341   -148.1082     30.4158     80.2257
  1081.2500     32.3139   -147.8960     31.1555     82.2305
  1081.5000     32.9531   -147.6700     31.8974     83.6418
  1081.7500     33.6474   -147.4572     32.5199     82.9939
  1082.0000     34.1607   -147.2699     32.9439     80.1058
  1082.2500     34.3077   -147.1065     33.1512     77.8385
  1082.5000     34.1989   -146.9566     33.1700     75.6540
  1082.7500     34.0810   -146.8043     33.0606     75.5914
  1083.0000     34.0952   -146.6224     32.9139     77.7304
  1083.2500     34.2815   -146.3622     32.8387     80.3588
  1083.5000     34.5924   -145.9641     32.9214     84.9031
  1083.7500     34.8909   -145.3944     33.1843     87.2280
  1084.0000     35.1162   -144.6788     33.5821     87.8171
  1084.2500     35.3853   -143.8907     34.0475     85.7970
  1084.5000     35.8212   -143.1103     34.5455     79.8223
  1084.7500     36.4121   -142.3916     35.0800     74.9820
  1085.0000     37.0670   -141.7512     35.6495     68.5584
  1085.2500     37.6698   -141.1705     36.2051     65.5230
  1085.5000     38.1172   -140.6080     36.6585     62.5789
  1085.7500     38.3717   -140.0240     36.9343     61.1104
  1086.0000     38.4601   -139.4069     37.0149     59.0828
  1086.2500     38.4089   -138.7824     36.9395     57.9419
  1086.5000     38.1817   -138.1946     36.7705     56.9201
  1086.7500     37.7425   -137.6731     36.5670     56.8114
  1087.0000     37.1625   -137.2113     36.3810     57.6071
  1087.2500     36.6004   -136.7707     36.2524     58.7797
  1087.5000     36.1917   -136.3065     36.1905     61.0042
  1087.7500     35.9487   -135.7940     36.1565     62.0594
  1088.0000     35.7783   -135.2396     36.0796     61.4473
  1088.2500     35.6590   -134.6687     35.9105     59.0957
  1088.5000     35.7098   -134.1028     35.6782     53.4387
  1088.7500     36.0229   -133.5475     35.5027     49.4759
  1089.0000     36.5288   -133.0012     35.5440     45.1647
  1089.2500     37.0780   -132.4675     35.9145     43.6673
  1089.5000     37.6166   -131.9536     36.5959     42.6848
  1089.7500     38.2121   -131.4619     37.4064     42.2502
  1090.0000     38.9006   -130.9869     38.0693     41.3134
  1090.2500     39.6234   -130.5173     38.3742     40.4083
  1090.5000     40.3046   -130.0394     38.3120     38.7943
  1090.7500     40.8835   -129.5420     38.0512     37.7403
  1091.0000     41.3432   -129.0275     37.8024     36.5744
  1091.2500     41.7379   -128.5176     37.7067     36.3955
  1091.5000     42.1048   -128.0404     37.8074     37.8073
  1091.7500     42.4075   -127.6067     38.0692     40.1709
  1092.0000     42.6095   -127.2004     38.4078     45.3874
  1092.2500     42.7173   -126.7938     38.7233     49.1662
  1092.5000     42.7461   -126.3714     38.9326     53.8930
  1092.7500     42.6802   -125.9401     38.9854     56.1422
  1093.0000     42.5105   -125.5217     38.8608     58.7840
  1093.2500     42.3151   -125.1400     38.5640     60.6051
  1093.5000     42.2063   -124.8116     38.1365     63.6460
  1093.7500     42.2085   -124.5394     37.6587     65.4550
  1094.0000     42.2671   -124.3098     37.2229     67.0259
  1094.2500     42.3242   -124.0980     36.8913     67.3737
