~Version Information
VERS.                      2.0: CWLS Log ASCII Standard - VERSION 2.0
WRAP.                       NO: One line per depth step
~Well Information Block
STRT.FT                -9.5000: 
STOP.FT              1304.7500: 
STEP.FT                 0.2500: 
NULL.                -999.2500: 
COMP.          Pioneer Natural Resources: COMPANY
WELL.            Hamburg 43-35: WELL
FLD.           Purgatorie River: FIELD
LOC.           2444' FSL & 950' FEL--: LOCATION
PROV.                       CO: PROVINCE
CNTY.               Las Animas: COUNTRY
SRVC.          Patterson Wireline: SERVICE COMPANY
DATE.          Thu Dec 08 14:29:45 2005: LOG DATE
UWI.           08 071 08607 00: UNIQUE WELL ID
~Curve Information Block
DEPT.FT            0 000 00 00: Depth
CCL.                          : Casing Collar Locator
TT3.usec                      : CBL 3' Travel Time
AMP3.mV                       : CBL 3' Amplitude
GR.GAPI                       : Gamma Ray
~Parameter Information Block
~A  Depth       CCL         TT3         AMP3         GR     
# ...
   258.5000      0.0000    755.2512     11.8935    103.5133
   258.7500      0.0000    759.9646     12.0749    101.0789
   259.0000      0.0000    770.9258     12.3081     99.5706
   259.2500      0.0000    792.5317     12.5540    100.5014
   259.5000      0.0000    829.4457     12.8054    104.1453
   259.7500      0.0000    883.2787     13.1084    108.6139
   260.0000      0.0000    947.3574     13.5180    111.2831
   260.2500      0.0000   1004.4753     14.0287    110.8624
   260.5000      0.0000   1033.9928     14.5547    108.0066
   260.7500      0.0000   1025.9674     14.9782    104.5172
   261.0000      0.0000    989.7465     15.2158    102.1778
   261.2500      0.0000    947.3644     15.2489    101.8035
   261.5000      0.0000    916.9335     15.1095    102.9510
   261.7500      0.0000    901.8604     14.8486    104.5491
   262.0000      0.0000    895.5768     14.5216    105.7680
   262.2500      0.0000    893.8987     14.1994    106.3038
   262.5000      0.0000    899.2925     13.9755    106.1231
   262.7500      0.0000    914.0547     13.9378    105.1702
   263.0000      0.0000    933.5093     14.1145    103.2813
   263.2500      0.0000    946.8882     14.4469    100.4122
   263.5000      0.0000    943.6411     14.8194     96.9950
   263.7500      0.0000    920.9837     15.1278     93.9638
   264.0000      0.0000    887.9036     15.3340     92.3050
   264.2500      0.0000    860.0201     15.4678     92.5634
   264.5000      0.0000    847.5950     15.5795     94.7759
   264.7500      0.0000    848.5767     15.6870     98.6726
   265.0000      0.0000    853.4313     15.7675    103.6655
   265.2500      0.0000    854.7116     15.8006    108.8309
   265.5000      0.0000    851.3469     15.8135    113.4179
   265.7500      0.0000    846.2142     15.8638    117.3935
   266.0000      0.0000    842.0403     15.9639    121.1287
   266.2500      0.0000    839.5915     16.0276    124.6545
   266.5000      0.0000    838.1622     15.9110    127.5070
   266.7500      0.0000    836.5526     15.5222    129.0449
   267.0000      0.0000    833.5479     14.8952    128.6485
   267.2500      0.0000    828.2356     14.1623    125.9279
   267.5000      0.0000    820.6118     13.4734    120.9396
   267.7500      0.0000    811.9323     12.9403    114.1049
   268.0000      0.0000    803.9767     12.6260    106.0599
   268.2500      0.0000    797.5978     12.5479     97.7588
   268.5000      0.0000    792.0143     12.6796     90.5668
   268.7500      0.0000    785.6382     12.9603     86.0703
   269.0000      0.0000    777.6534     13.3105     85.6555
   269.2500      0.0000    768.8720     13.6531     89.9491
   269.5000      0.0000    761.1059     13.9420     98.3138
   269.7500      0.0000    755.8209     14.1950    108.9075
   270.0000      0.0000    753.2064     14.4934    119.6335
   270.2500      0.0000    751.9236     14.9247    129.2925
   270.5000      0.0000    748.9271     15.5133    137.6621
   270.7500      0.0000    740.5049     16.1990    144.2905
   271.0000      0.0000    726.6023     16.8651    147.7100
   271.2500      0.0000    715.4585     17.3762    146.6320
   271.5000      0.0000    719.9757     17.6177    141.8003
   271.7500      0.0000    745.3017     17.5507    135.7766
   272.0000      0.0000    782.1582     17.2418    130.6634
   272.2500      0.0000    815.6721     16.8192    126.5553
   272.5000      0.0000    838.0566     16.3863    122.2948
   272.7500      0.0000    850.0800     15.9748    117.1384
   273.0000      0.0000    854.0771     15.5663    111.3692
   273.2500      0.0000    850.4651     15.1465    105.5628
   273.5000      0.0000    840.5424     14.7387     99.7451
   273.7500      0.0000    828.6329     14.3941     93.6168
   274.0000      0.0000    819.5646     14.1512     87.4933
   274.2500      0.0000    815.5201     14.0106     82.5245
   274.5000      0.0000    816.2733     13.9463     79.9203
   274.7500      0.0000    821.1486     13.9287     80.4605
   275.0000      0.0000    829.8401     13.9303     84.8431
   275.2500      0.0000    842.0774     13.9180     93.6087
   275.5000      0.0000    856.3173     13.8605    105.8954
   275.7500      0.0000    867.7742     13.7511    118.7251
   276.0000      0.0000    869.1960     13.6260    128.7307
   276.2500      0.0000    856.5057     13.5579    134.7762
   276.5000      0.0000    833.4894     13.6166    137.9558
   276.7500      0.0000    808.9769     13.8204    139.0784
   277.0000      0.0000    789.8367     14.1224    137.5631
   277.2500      0.0000    777.7310     14.4490    133.0830
   277.5000      0.0000    770.9432     14.7425    127.1355
   277.7500      0.0000    767.0369     14.9724    122.6351
   278.0000      0.0000    764.0289     15.1259    122.2629
   278.2500      0.0000    760.9033     15.2045    126.5810
   278.5000      0.0000    757.9518     15.2300    133.2104
   278.7500      0.0000    756.3334     15.2424    138.5663
   279.0000      0.0000    757.1146     15.2892    141.0540
   279.2500      0.0000    760.4200     15.4090    142.2167
   279.5000      0.0000    764.9451     15.6102    144.5261
   279.7500      0.0000    768.2028     15.8576    148.5366
   280.0000      0.0000    767.9917     16.0923    152.4391
   280.2500      0.0000    763.8094     16.2820    154.1162
   280.5000      0.0000    756.1779     16.4545    153.3322
   280.7500      0.0000    744.2495     16.6680    151.6803
   281.0000      0.0000    725.5022     16.9274    150.3741
   281.2500      0.0000    700.3372     17.1114    148.6486
   281.5000      0.0000    677.5758     16.9964    144.8495
   281.7500      0.0000    671.7762     16.4083    138.6521
   282.0000      0.0000    690.8496     15.4052    131.4952
   282.2500      0.0000    727.1402     14.2934    125.1636
   282.5000      0.0000    763.3265     13.4067    120.5305
   282.7500      0.0000    786.4052     12.8677    117.4870
   283.0000      0.0000    795.3115     12.5770    115.6049
   283.2500     -2.0000    797.9692     12.3861    114.8462
   283.5000      2.0000    802.9894     12.2315    115.7487
   283.7500      0.0000    811.3632     12.1529    118.9449
   284.0000      0.0000    813.4896     12.2639    124.5688
   284.2500      0.0000    797.0748     12.6836    131.9968
   284.5000      0.0000    762.1530     13.3995    139.9040
   284.7500      0.0000    725.9177     14.1764    146.7433
   285.0000      0.0000    707.9576     14.6913    151.5433
   285.2500      0.0000    712.6166     14.7986    154.1280
   285.5000      0.0000    729.2455     14.6089    154.5284
   285.7500      0.0000    745.6060     14.3176    152.8998
   286.0000      0.0000    756.2485     14.0404    150.3381
   286.2500      0.0000    761.2902     13.8082    148.6098
   286.5000      0.0000    762.7868     13.6291    147.8237
   286.7500      0.0000    762.8412     13.5086    145.1206
   287.0000      0.0000    762.5347     13.4391    137.1734
   287.2500      0.0000    761.6273     13.4016    123.8137
   287.5000      0.0000    759.6214     13.3799    108.2547
   287.7500      0.0000    756.8718     13.3699     94.2628
   288.0000      0.0000    754.3733     13.3717     83.8369
   288.2500      0.0000    752.7836     13.3726     76.8697
   288.5000      0.0000    752.0717     13.3404     72.2766
   288.7500      0.0000    751.8867     13.2346     69.7635
   289.0000      0.0000    751.9278     13.0336     70.7229
   289.2500      0.0000    752.0359     12.7582     76.9118
   289.5000      0.0000    752.1497     12.4656     88.1550
   289.7500      0.0000    752.2563     12.2119    101.9061
   290.0000      0.0000    752.3459     12.0216    115.2042
   290.2500      0.0000    752.3994     11.8936    126.4894
   290.5000      0.0000    752.4066     11.8186    135.3983
   290.7500      0.0000    752.3843     11.7817    141.6140
   291.0000      0.0000    752.3655     11.7633    144.5306
   291.2500      0.0000    752.3771     11.7495    143.7035
   291.5000      0.0000    752.4312     11.7328    139.2479
   291.7500      0.0000    752.5285     11.7043    132.1149
