~Version Information
VERS.                      2.0: CWLS Log ASCII Standard - VERSION 2.0
WRAP.                       NO: One line per depth step
~Well Information Block
STRT.FT               710.0000: 
STOP.FT              1983.0000: 
STEP.FT                 0.1000: 
NULL.                -999.2500: 
COMP.          Petrogulf Corporation: COMPANY
WELL.           State 16-23R-X: WELL
FLD.           Purgatorie River: FIELD
LOC.           2381' FSL & 2072' FWL: LOCATION
PROV.                 Colorado: PROVINCE
CNTY.               Las Animas: COUNTRY
SRVC.                Patterson: SERVICE COMPANY
DATE.          Mon Aug 08 07:36:34 2005: LOG DATE
UWI.                          : UNIQUE WELL ID
~Curve Information Block
DEPT.FT            0 000 00 00: Depth
DCAL.in                       : CDL Caliper
RHOB.g/cc                     : CDL Bulk Density
RHOC.g/cc                     : CDL Density Correction
DPOR.pu                       : CDL Density Porosity
GR.GAPI                       : Gamma Ray
NPOR.pu                       : Neutron Porosity
~Parameter Information Block
~A  Depth       DCAL        RHOB        RHOC        DPOR         GR         NPOR    
# ...
   873.2000      8.3149      2.4423      0.0954     12.5884    152.0496     25.7532
   873.3000      8.3490      2.3979      0.0681     15.2765    147.3010     25.2346
   873.4000      8.3490      2.3583      0.0201     17.6800    139.7138     25.1700
   873.5000      8.3620      2.3503      0.0152     18.1653    134.3831     25.4150
   873.6000      8.3620      2.3842      0.0380     16.1108    132.1324     25.5411
   873.7000      8.3620      2.4506      0.0989     12.0832    132.2537     25.4040
   873.8000      8.3704      2.5128      0.1972      8.3152    134.6649     25.3140
   873.9000      8.3704      2.5376      0.1901      6.8125    137.7941     25.3920
   874.0000      8.3609      2.5300      0.1613      7.2701    138.8240     25.4087
   874.1000      8.3609      2.5134      0.1553      8.2817    137.2387     25.3808
   874.2000      8.3609      2.4951      0.1907      9.3850    135.6517     25.4616
   874.3000      8.3007      2.4691      0.1632     10.9664    136.6503     25.5357
   874.4000      8.3007      2.4431      0.0486     12.5418    139.8108     25.5781
   874.5000      8.2131      2.4360      0.0526     12.9694    141.7542     25.5444
   874.6000      8.2131      2.4442      0.0668     12.4747    142.4654     25.3393
   874.7000      8.2131      2.4540      0.0513     11.8763    143.6921     25.1854
   874.8000      8.2173      2.4632      0.1053     11.3215    143.5025     25.1324
   874.9000      8.2173      2.4648      0.1541     11.2218    141.0745     25.0112
   875.0000      8.2460      2.4523      0.1277     11.9827    139.8088     24.9226
   875.1000      8.2460      2.4278      0.1244     13.4646    142.1336     24.9680
   875.2000      8.2460      2.3955      0.0591     15.4264    145.0784     25.0757
   875.3000      8.2596      2.3680      0.0209     17.0886    145.7609     25.2833
   875.4000      8.2596      2.3596      0.0480     17.5993    146.1609     25.6058
   875.5000      8.2900      2.3661      0.0741     17.2072    147.3073     25.7445
   875.6000      8.2900      2.3768      0.0512     16.5553    146.3821     25.5996
   875.7000      8.2900      2.3859      0.0839     16.0077    144.4948     25.6099
   875.8000      8.3161      2.3892      0.0632     15.8042    144.9851     26.1239
   875.9000      8.3161      2.3877      0.0653     15.8960    147.3703     26.7842
   876.0000      8.3109      2.3856      0.0644     16.0256    149.8723     27.1278
   876.1000      8.3109      2.3848      0.0614     16.0719    151.2804     27.1290
   876.2000      8.3109      2.3889      0.0315     15.8258    151.6273     26.9550
   876.3000      8.3093      2.4063      0.0299     14.7719    151.1435     26.7557
   876.4000      8.3093      2.4328      0.0900     13.1644    149.5798     26.4357
   876.5000      8.3438      2.4535      0.0893     11.9077    146.3940     26.0070
   876.6000      8.3438      2.4635      0.0794     11.3009    141.9115     25.7370
   876.7000      8.3438      2.4630      0.1168     11.3347    140.4670     25.4760
   876.8000      8.4236      2.4499      0.0906     12.1274    145.2311     25.0126
   876.9000      8.4236      2.4240      0.1074     13.6947    152.9079     24.3787
   877.0000      8.4433      2.3840      0.1132     16.1216    157.9273     23.4240
   877.1000      8.4433      2.3320      0.0358     19.2701    157.0220     22.2976
   877.2000      8.4433      2.2719      0.0610     22.9157    149.4510     21.4008
   877.3000      8.4232      2.1945      0.0136     27.6087    138.1588     20.5955
   877.4000      8.4232      2.0956     -0.0134     33.5977    129.1866     19.7455
   877.5000      8.4543      1.9965     -0.0450     39.6091    124.3396     19.0899
   877.6000      8.4543      1.9214     -0.0599     44.1555    120.9609     18.7194
   877.7000      8.4543      1.8717     -0.0178     47.1681    119.9112     18.4136
   877.8000      8.4782      1.8338     -0.0360     49.4669    121.8999     18.1362
   877.9000      8.4782      1.8022     -0.0290     51.3796    123.0487     18.0759
   878.0000      8.4524      1.7733      0.0933     53.1344    121.8435     18.2678
   878.1000      8.4524      1.7363      0.1240     55.3731    119.6016     18.4513
   878.2000      8.4524      1.6908      0.0912     58.1306    117.6340     18.6467
   878.3000      8.4430      1.6488      0.0456     60.6794    116.6626     19.0114
   878.4000      8.4430      1.6188      0.0048     62.4997    116.2610     19.2728
   878.5000      8.4113      1.6031     -0.0576     63.4485    116.6789     19.1803
   878.6000      8.4113      1.5992     -0.0457     63.6835    116.3376     18.8555
   878.7000      8.4113      1.5940      0.0318     64.0020    112.0226     18.6235
   878.8000      8.4102      1.5769      0.0373     65.0384    106.5568     18.6479
   878.9000      8.4102      1.5555      0.0289     66.3325    104.7778     18.8731
   879.0000      8.4338      1.5433      0.0450     67.0753    105.7352     19.1961
   879.1000      8.4338      1.5490      0.0344     66.7247    105.6470     19.3960
   879.2000      8.4338      1.5751      0.0614     65.1438    104.2628     19.1691
   879.3000      8.4397      1.6109      0.1041     62.9734    105.0979     18.6588
   879.4000      8.4397      1.6491      0.1040     60.6591    109.0649     18.4298
   879.5000      8.4579      1.6982      0.1205     57.6837    112.7413     18.6383
   879.6000      8.4579      1.7605      0.1836     53.9095    114.1240     19.1026
   879.7000      8.4579      1.8279      0.1572     49.8253    115.0193     19.7253
   879.8000      8.4501      1.8987      0.1917     45.5311    116.4052     20.4464
   879.9000      8.4501      1.9684      0.2370     41.3118    117.3682     21.1006
   880.0000      8.4475      2.0251      0.2407     37.8727    118.6851     21.4694
   880.1000      8.4475      2.0655      0.1831     35.4245    120.7425     21.5205
   880.2000      8.4475      2.0942      0.1487     33.6851    122.2591     21.4343
   880.3000      8.4369      2.1094      0.1335     32.7635    123.7640     21.2972
   880.4000      8.4369      2.1070      0.0929     32.9121    126.1427     20.9450
   880.5000      8.4253      2.0884      0.0899     34.0366    128.4154     20.3076
   880.6000      8.4253      2.0494      0.0761     36.4002    128.7644     19.6423
   880.7000      8.4253      1.9876      0.0559     40.1475    127.2618     19.2570
   880.8000      8.4346      1.9239      0.0019     44.0081    126.4823     19.1666
   880.9000      8.4346      1.8854      0.0225     46.3397    128.5940     19.2414
   881.0000      8.4940      1.8728      0.0425     47.1036    132.3535     19.6463
   881.1000      8.4940      1.8715      0.0239     47.1830    134.3739     20.5571
   881.2000      8.4940      1.8732      0.0887     47.0776    133.5212     21.5991
   881.3000      8.4222      1.8770      0.0939     46.8477    130.9774     22.3943
   881.4000      8.4222      1.8935      0.0672     45.8470    127.7667     23.2266
   881.5000      8.3723      1.9379      0.0522     43.1556    127.3122     24.3005
   881.6000      8.3723      2.0080      0.0938     38.9063    132.4639     25.3489
   881.7000      8.3723      2.0826      0.1158     34.3871    140.6947     26.1773
   881.8000      8.3576      2.1513      0.0638     30.2221    147.6595     26.5906
   881.9000      8.3576      2.2198      0.0809     26.0713    150.5144     26.4718
   882.0000      8.3734      2.2768      0.1189     22.6154    149.4864     26.2206
   882.1000      8.3734      2.3025      0.0514     21.0634    147.1208     26.1605
   882.2000      8.3734      2.2888      0.0866     21.8884    145.3248     25.8504
   882.3000      8.3810      2.2315      0.0667     25.3641    143.2321     24.8282
   882.4000      8.3810      2.1490     -0.0299     30.3653    139.1256     23.4636
   882.5000      8.4048      2.0834     -0.0523     34.3417    135.0866     22.2948
   882.6000      8.4048      2.0478     -0.0264     36.4981    133.1262     21.4734
   882.7000      8.4048      2.0200     -0.0237     38.1844    131.2174     20.9964
