~Version Information
VERS.                      2.0: CWLS Log ASCII Standard - VERSION 2.0
WRAP.                       NO: One line per depth step
~Well Information Block
STRT.FT               588.7000: 
STOP.FT              1820.2000: 
STEP.FT                 0.1000: 
NULL.                -999.2500: 
COMP.          Pioneer Natural Resources: COMPANY
WELL.           Loews 41-32 Tr: WELL
FLD.           Purgatoire River: FIELD
LOC.           706' FNL & 224' FEL--: LOCATION
CNTY.               Las Animas: COUNTY
SRVC.                Patterson: SERVICE COMPANY
DATE.          Tue Feb 21 10:23:46 2006: LOG DATE
UWI.           05 071 08690 00: UNIQUE WELL ID
STAT.                 Colorado: STATE
~Curve Information Block
DEPT.FT            0 000 00 00: Depth
DCAL.in                       : CDL Caliper
RHOB.g/cc                     : CDL Bulk Density
RHOC.g/cc                     : CDL Density Correction
DPOR.pu                       : CDL Density Porosity
GR.GAPI                       : Gamma Ray
~Parameter Information Block
~A  Depth       DCAL        RHOB        RHOC        DPOR         GR     
# ...
  1708.7000      8.2958      2.6358      0.2713      0.8600    133.0337
  1708.8000      8.1609      2.6290      0.2467      1.2717    132.9348
  1708.9000      8.1609      2.6146      0.2130      2.1472    133.2125
  1709.0000      8.0863      2.6095      0.2047      2.4526    132.1100
  1709.1000      8.0863      2.6115      0.1975      2.3357    127.1150
  1709.2000      8.0863      2.6033      0.1235      2.8282    119.7301
  1709.3000      8.0256      2.5844      0.0992      3.9755    114.6040
  1709.4000      8.0256      2.5693      0.0995      4.8888    116.3177
  1709.5000      7.9454      2.5672      0.0891      5.0192    125.1466
  1709.6000      7.9454      2.5749      0.1091      4.5508    134.0771
  1709.7000      7.9454      2.5797      0.1297      4.2600    135.7271
  1709.8000      7.8942      2.5672      0.1382      5.0178    131.2048
  1709.9000      7.8942      2.5401      0.1035      6.6625    124.0033
  1710.0000      7.8837      2.5217      0.0634      7.7773    117.0138
  1710.1000      7.8837      2.5257      0.1097      7.5308    116.0382
  1710.2000      7.8837      2.5432      0.0746      6.4729    120.1554
  1710.3000      7.8963      2.5639      0.0952      5.2197    123.5603
  1710.4000      7.8963      2.5808      0.1001      4.1950    122.7342
  1710.5000      7.9228      2.5856      0.1344      3.9008    119.2872
  1710.6000      7.9228      2.5807      0.1141      4.2029    119.0820
  1710.7000      7.9228      2.5823      0.0442      4.1000    125.8060
  1710.8000      7.9432      2.5906      0.0949      3.5998    135.7525
  1710.9000      7.9432      2.5833      0.0896      4.0432    139.9604
  1711.0000      7.9412      2.5581      0.0592      5.5673    138.2111
  1711.1000      7.9412      2.5426      0.0365      6.5103    137.6548
  1711.2000      7.9412      2.5570      0.0712      5.6364    137.9564
  1711.3000      7.9211      2.5851      0.1121      3.9354    135.0607
  1711.4000      7.9211      2.5989      0.1129      3.0970    129.4833
  1711.5000      7.9039      2.5993      0.0624      3.0703    123.0104
  1711.6000      7.9039      2.5993      0.0805      3.0743    114.6096
  1711.7000      7.9039      2.5910      0.0894      3.5783    106.4633
  1711.8000      7.8963      2.5733      0.0275      4.6459    104.5252
  1711.9000      7.8963      2.5694      0.0491      4.8869    106.7577
  1712.0000      7.8913      2.5808      0.0972      4.1914    109.3562
  1712.1000      7.8913      2.5864      0.0774      3.8544    114.1546
  1712.2000      7.8913      2.5779      0.0811      4.3686    120.5647
  1712.3000      7.8863      2.5648      0.0443      5.1632    124.3830
  1712.4000      7.8863      2.5610      0.0323      5.3911    124.8021
  1712.5000      7.8802      2.5665      0.0436      5.0608    126.9609
  1712.6000      7.8802      2.5660      0.0656      5.0883    131.0900
  1712.7000      7.8802      2.5584      0.0624      5.5526    129.8786
  1712.8000      7.8720      2.5648      0.0642      5.1612    125.1654
  1712.9000      7.8720      2.5951      0.1002      3.3279    126.0029
  1713.0000      7.8691      2.6280      0.1352      1.3357    130.7908
  1713.1000      7.8691      2.6400      0.0900      0.6031    131.3319
  1713.2000      7.8691      2.6351      0.0848      0.9031    125.8030
  1713.3000      7.8748      2.6315      0.0900      1.1198    120.6924
  1713.4000      7.8748      2.6376      0.0755      0.7489    119.8892
  1713.5000      7.8819      2.6448      0.1135      0.3128    119.2621
  1713.6000      7.8819      2.6410      0.0909      0.5433    117.8922
  1713.7000      7.8819      2.6294      0.0672      1.2489    122.9721
  1713.8000      7.8822      2.6206      0.0678      1.7843    134.6120
  1713.9000      7.8822      2.6179      0.0613      1.9442    142.1138
  1714.0000      7.8781      2.6150      0.0684      2.1226    140.5343
  1714.1000      7.8781      2.6005      0.0589      3.0004    135.1444
  1714.2000      7.8781      2.5767      0.0298      4.4400    133.5618
  1714.3000      7.8756      2.5659      0.0004      5.0963    137.4587
  1714.4000      7.8756      2.5778      0.0446      4.3775    139.8607
  1714.5000      7.8739      2.5869      0.1015      3.8245    137.7870
  1714.6000      7.8739      2.5710      0.0624      4.7853    139.2872
  1714.7000      7.8739      2.5428      0.0278      6.4951    146.9104
  1714.8000      7.8710      2.5175      0.0647      8.0275    152.5311
  1714.9000      7.8710      2.4997      0.0060      9.1113    151.3489
  1715.0000      7.8683      2.4975      0.0681      9.2444    147.9555
  1715.1000      7.8683      2.5076      0.0734      8.6314    147.8388
  1715.2000      7.8683      2.5206      0.0679      7.8419    152.6084
  1715.3000      7.8664      2.5367      0.0900      6.8649    157.3000
  1715.4000      7.8664      2.5576      0.0947      5.5989    154.9457
  1715.5000      7.8677      2.5844      0.0943      3.9773    151.9614
  1715.6000      7.8677      2.6067      0.1630      2.6258    151.3412
  1715.7000      7.8677      2.6112      0.1055      2.3531    141.8987
  1715.8000      7.8728      2.6140      0.0777      2.1790    124.6315
  1715.9000      7.8728      2.6301      0.1043      1.2084    112.0043
  1716.0000      7.8762      2.6436      0.0957      0.3857    106.8032
  1716.1000      7.8762      2.6459      0.0656      0.2502    105.1621
  1716.2000      7.8762      2.6478      0.0764      0.1358    105.5335
  1716.3000      7.8745      2.6507      0.0512     -0.0418    107.7146
  1716.4000      7.8745      2.6397      0.0425      0.6236    109.3767
  1716.5000      7.8732      2.6058      0.0124      2.6794    109.2564
  1716.6000      7.8732      2.5626      0.0266      5.2986    107.7443
  1716.7000      7.8732      2.5363     -0.0490      6.8909    105.8286
  1716.8000      7.8732      2.5332      0.0565      7.0811    106.1564
  1716.9000      7.8732      2.5286      0.0779      7.3599    111.2650
  1717.0000      7.8742      2.5102      0.0389      8.4740    121.3238
  1717.1000      7.8742      2.4836      0.0838     10.0843    129.6988
  1717.2000      7.8742      2.4525      0.0494     11.9695    130.8472
  1717.3000      7.8805      2.4280      0.0418     13.4560    129.1934
  1717.4000      7.8805      2.4181      0.0602     14.0559    130.0899
  1717.5000      7.8886      2.4124      0.0515     14.4019    130.8640
  1717.6000      7.8886      2.3989      0.0287     15.2179    126.3237
  1717.7000      7.8886      2.3857      0.0125     16.0164    119.4748
  1717.8000      7.8926      2.3891      0.0066     15.8092    118.2982
  1717.9000      7.8926      2.4046      0.0783     14.8739    124.2849
  1718.0000      7.8913      2.4191      0.0473     13.9963    131.0507
  1718.1000      7.8913      2.4357      0.0685     12.9905    134.5298
  1718.2000      7.8913      2.4572      0.1008     11.6864    135.7504
  1718.3000      7.8883      2.4806      0.1182     10.2693    132.4481
  1718.4000      7.8883      2.5042      0.0919      8.8381    124.0850
  1718.5000      7.8848      2.5245      0.0678      7.6030    115.7059
  1718.6000      7.8848      2.5286      0.0747      7.3566    109.2672
  1718.7000      7.8848      2.5030      0.0679      8.9063    106.4771
  1718.8000      7.8785      2.4596      0.0135     11.5384    107.8952
  1718.9000      7.8785      2.4210      0.0101     13.8781    109.6667
  1719.0000      7.8691      2.3908     -0.0019     15.7087    112.1981
  1719.1000      7.8691      2.3720      0.0078     16.8474    116.2930
  1719.2000      7.8691      2.3769     -0.0060     16.5545    117.9419
  1719.3000      7.8596      2.4073      0.0023     14.7109    116.0092
  1719.4000      7.8596      2.4486      0.0613     12.2065    114.5918
  1719.5000      7.8519      2.4851      0.0743      9.9933    117.6014
  1719.6000      7.8519      2.5169      0.0886      8.0648    122.4560
  1719.7000      7.8519      2.5526      0.1390      5.9026    124.4095
  1719.8000      7.8472      2.5945      0.1600      3.3621    123.7230
