~Version Information
VERS.                      2.0: CWLS Log ASCII Standard - VERSION 2.0
WRAP.                       NO: One line per depth step
~Well Information Block
STRT.FT               525.0000: 
STOP.FT              2377.2000: 
STEP.FT                 0.1000: 
NULL.                -999.2500: 
COMP.          Pioneer Natural Resources: COMPANY
WELL.          Sparrowhawk 22-12: WELL
FLD.           Purgatoire River: FIELD
LOC.           2049' FNL & 2060' FWL--: LOCATION
CNTY.               Las Animas: COUNTY
SRVC.                Patterson: SERVICE COMPANY
DATE.          Thu Mar 23 13:24:48 2006: LOG DATE
UWI.           05 071 08484 00: UNIQUE WELL ID
STAT.                 Colorado: STATE
~Curve Information Block
DEPT.FT            0 000 00 00: Depth
DCAL.in                       : CDL Caliper
RHOB.g/cc                     : CDL Bulk Density
RHOC.g/cc                     : CDL Density Correction
DPOR.pu                       : CDL Density Porosity
NPOR.pu                       : Neutron Porosity
GR.GAPI                       : Gamma Ray
~Parameter Information Block
~A  Depth       DCAL        RHOB        RHOC        DPOR        NPOR         GR     
# ...
  2224.2000      7.8962      2.5344      0.0812      7.0045     26.0983    143.8283
  2224.3000      7.9018      2.5456      0.0821      6.3270     26.1250    143.4669
  2224.4000      7.9018      2.5466      0.0764      6.2654     25.9126    139.1672
  2224.5000      7.9031      2.5430      0.0267      6.4828     25.1388    132.0968
  2224.6000      7.9031      2.5473      0.0718      6.2243     23.9178    125.1864
  2224.7000      7.9031      2.5564      0.0490      5.6705     22.6559    119.2627
  2224.8000      7.8917      2.5647      0.0361      5.1684     21.8579    110.6806
  2224.9000      7.8917      2.5687      0.0916      4.9270     21.3740    105.0339
  2225.0000      7.8779      2.5591      0.0595      5.5080     20.7954    107.2475
  2225.1000      7.8779      2.5362      0.0327      6.8988     20.1932    107.9237
  2225.2000      7.8779      2.5111      0.0366      8.4200     19.8302     99.7557
  2225.3000      7.8725      2.4931      0.0468      9.5102     19.7804     87.8259
  2225.4000      7.8725      2.4836      0.0518     10.0833     19.7328     81.0108
  2225.5000      7.8742      2.4822      0.0215     10.1694     19.2482     80.4909
  2225.6000      7.8742      2.4873      0.0352      9.8583     18.5305     80.0218
  2225.7000      7.8742      2.4900      0.0729      9.6940     18.3971     77.6587
  2225.8000      7.8813      2.4834      0.0656     10.0980     19.0091     75.8971
  2225.9000      7.8813      2.4806     -0.0020     10.2649     19.6365     73.4670
  2226.0000      7.8911      2.5009      0.0292      9.0359     19.8641     68.1407
  2226.1000      7.8911      2.5324      0.0887      7.1254     20.0326     64.2745
  2226.2000      7.8911      2.5446      0.0798      6.3882     20.3491     69.2658
  2226.3000      7.8962      2.5287      0.0391      7.3485     20.5974     79.9658
  2226.4000      7.8962      2.5019      0.0173      8.9740     20.6706     87.8207
  2226.5000      7.8948      2.4848      0.0176     10.0103     20.5348     90.9357
  2226.6000      7.8948      2.4803      0.0568     10.2877     20.1377     91.6448
  2226.7000      7.8948      2.4779      0.0314     10.4296     19.8182     89.0934
  2226.8000      7.8884      2.4768      0.0337     10.4994     19.9477     80.7248
  2226.9000      7.8884      2.4784      0.0538     10.3972     20.2599     72.0739
  2227.0000      7.8797      2.4806      0.0580     10.2642     20.3679     69.8426
  2227.1000      7.8797      2.4808      0.0861     10.2542     20.4862     70.9338
  2227.2000      7.8797      2.4761      0.0588     10.5384     20.9201     71.6166
  2227.3000      7.8737      2.4703      0.0719     10.8887     21.5227     72.2921
  2227.4000      7.8737      2.4723      0.0994     10.7713     22.0773     73.1300
  2227.5000      7.8689      2.4934      0.0087      9.4900     22.3659     74.2305
  2227.6000      7.8689      2.5345      0.0920      6.9996     22.4121     74.4267
  2227.7000      7.8689      2.5722      0.1189      4.7174     22.5465     71.9465
  2227.8000      7.8664      2.5881      0.0913      3.7517     22.7968     68.9589
  2227.9000      7.8664      2.5853      0.1042      3.9241     22.8851     70.1400
  2228.0000      7.8693      2.5757      0.0620      4.5031     22.6057     75.1848
  2228.1000      7.8693      2.5710      0.0497      4.7893     22.1747     78.6300
  2228.2000      7.8693      2.5653      0.0833      5.1323     21.7892     79.3129
  2228.3000      7.8752      2.5435      0.0783      6.4525     21.4725     79.2325
  2228.4000      7.8752      2.5188      0.0013      7.9515     21.2728     79.9463
  2228.5000      7.8827      2.5201      0.0413      7.8703     21.0546     82.0690
  2228.6000      7.8827      2.5427      0.0626      6.5056     20.9746     83.2393
  2228.7000      7.8827      2.5604      0.0918      5.4294     21.3953     82.7372
  2228.8000      7.8834      2.5666      0.0889      5.0571     22.0774     83.0057
  2228.9000      7.8834      2.5697      0.0982      4.8673     22.4746     85.0406
  2229.0000      7.8759      2.5712      0.1009      4.7730     22.3566     88.7940
  2229.1000      7.8759      2.5645      0.1013      5.1826     22.1149     96.2908
  2229.2000      7.8759      2.5467      0.1022      6.2605     22.3237    105.8849
  2229.3000      7.8700      2.5296      0.0812      7.2957     22.7699    111.8581
  2229.4000      7.8700      2.5301      0.0671      7.2669     22.9063    113.2495
  2229.5000      7.8675      2.5446      0.1398      6.3865     22.9311    113.1046
  2229.6000      7.8675      2.5497      0.1169      6.0806     23.1282    113.5009
  2229.7000      7.8675      2.5393      0.0841      6.7068     22.9960    112.6079
  2229.8000      7.8700      2.5340      0.0435      7.0290     22.2547    107.6906
  2229.9000      7.8700      2.5401      0.0840      6.6618     21.6149    100.7420
  2230.0000      7.8781      2.5379      0.0968      6.7965     21.4766     98.7618
  2230.1000      7.8781      2.5249      0.0360      7.5844     21.3490    103.9559
  2230.2000      7.8781      2.5182      0.0355      7.9874     21.0044    111.3050
  2230.3000      7.8784      2.5154      0.0506      8.1602     20.8177    116.1659
  2230.4000      7.8784      2.5063      0.0360      8.7068     21.2136    119.5759
  2230.5000      7.8752      2.4934      0.0704      9.4905     21.9508    122.6457
  2230.6000      7.8752      2.4838      0.0041     10.0703     22.2550    124.2696
  2230.7000      7.8752      2.4893      0.0399      9.7400     22.0353    126.5756
  2230.8000      7.8760      2.5116      0.0480      8.3869     21.8731    132.3069
  2230.9000      7.8760      2.5339      0.0971      7.0371     21.8583    136.3719
  2231.0000      7.8807      2.5380      0.0752      6.7880     21.9607    134.6904
  2231.1000      7.8807      2.5273      0.0322      7.4394     22.1018    130.5658
  2231.2000      7.8807      2.5170      0.0357      8.0621     21.9608    125.0946
  2231.3000      7.8921      2.5131      0.0365      8.2964     21.8005    116.7826
  2231.4000      7.8921      2.5121      0.0664      8.3577     21.8519    107.3944
  2231.5000      7.9090      2.5123      0.0284      8.3456     21.7819    100.8370
  2231.6000      7.9090      2.5143      0.0464      8.2237     21.6146    100.4539
  2231.7000      7.9090      2.5112      0.0899      8.4105     21.4874    108.1583
  2231.8000      7.9211      2.4986      0.0282      9.1739     21.1582    120.9771
  2231.9000      7.9211      2.4859      0.0622      9.9481     20.7822    129.8729
  2232.0000      7.9260      2.4848      0.0170     10.0117     20.9760    126.6340
  2232.1000      7.9260      2.4980      0.0650      9.2134     21.6453    115.6071
  2232.2000      7.9260      2.5110      0.0612      8.4238     21.9778    107.5232
  2232.3000      7.9256      2.5123      0.0706      8.3445     21.7823    104.9526
  2232.4000      7.9256      2.5089      0.0417      8.5494     21.5472    108.4756
  2232.5000      7.9185      2.5088      0.0467      8.5557     21.5659    119.2379
  2232.6000      7.9185      2.5082      0.0529      8.5958     21.5813    130.9704
  2232.7000      7.9185      2.5028      0.0298      8.9208     21.3578    137.0630
  2232.8000      7.9083      2.5013      0.0148      9.0117     21.4456    139.9782
  2232.9000      7.9083      2.5166     -0.0089      8.0861     21.9889    141.0893
  2233.0000      7.9027      2.5414      0.0925      6.5824     22.2128    138.1802
  2233.1000      7.9027      2.5496      0.0503      6.0820     21.9586    132.1974
  2233.2000      7.9027      2.5373      0.0363      6.8315     21.7379    121.7746
  2233.3000      7.9006      2.5216      0.0459      7.7794     21.6875    106.4893
  2233.4000      7.9006      2.5060      0.0786      8.7295     21.5347     97.2435
  2233.5000      7.8992      2.4822      0.0453     10.1700     21.1871    101.1103
  2233.6000      7.8992      2.4633     -0.0294     11.3124     20.8650    107.9495
  2233.7000      7.8992      2.4660      0.0249     11.1529     21.0189    109.7265
