~Version Information
VERS.                      2.0: CWLS Log ASCII Standard - VERSION 2.0
WRAP.                       NO: One line per depth step
~Well Information Block
STRT.FT               -10.0000: 
STOP.FT              1703.5000: 
STEP.FT                 0.2500: 
NULL.                -999.2500: 
COMP.          Pioneer Natural Resources: COMPANY
WELL.          Parrothead 31-31 Tr: WELL
FLD.           Purgatoire River: FIELD
LOC.           496' FNL & 1546' FEL--: LOCATION
PROV.                       CO: PROVINCE
CNTY.               Las Animas: COUNTRY
SRVC.          Patterson Wireline: SERVICE COMPANY
DATE.          Mon Nov 14 09:44:02 2005: LOG DATE
UWI.           05 071 08610 00: UNIQUE WELL ID
~Curve Information Block
DEPT.FT            0 000 00 00: Depth
CCL.                          : Casing Collar Locator
TT3.usec                      : CBL 3' Travel Time
AMP3.mV                       : CBL 3' Amplitude
GR.GAPI                       : Gamma Ray
~Parameter Information Block
~A  Depth       CCL         TT3         AMP3         GR     
# ...
  1095.5000      0.0000    739.9753      8.5693    122.3422
  1095.7500      0.0000    742.7650      8.6124    118.7210
  1096.0000      0.0000    746.0789      8.6360    118.4822
  1096.2500      0.0000    750.3843      8.5999    119.6302
  1096.5000      0.0000    755.0662      8.4932    119.8661
  1096.7500      0.0000    758.2382      8.3406    118.1130
  1097.0000      0.0000    758.1303      8.2020    114.8910
  1097.2500      0.0000    754.7968      8.1585    111.8858
  1097.5000      0.0000    750.1323      8.2689    111.0023
  1097.7500      0.0000    746.1913      8.5241    113.0283
  1098.0000      0.0000    743.8231      8.8528    117.0337
  1098.2500      0.0000    742.7631      9.1713    121.3609
  1098.5000      0.0000    742.4252      9.4192    124.8712
  1098.7500      0.0000    742.3779      9.5610    127.0117
  1099.0000      0.0000    742.3896      9.5829    127.4644
  1099.2500      0.0000    742.3605      9.4987    126.5248
  1099.5000      0.0000    742.2728      9.3576    125.6256
  1099.7500      0.0000    742.1484      9.2387    126.7654
  1100.0000      0.0000    742.0102      9.2157    130.7852
  1100.2500      0.0000    741.8647      9.3033    136.3255
  1100.5000      0.0000    741.7180      9.4430    141.1127
  1100.7500      0.0000    741.5938      9.5552    144.2750
  1101.0000      0.0000    741.5214      9.6039    146.6631
  1101.2500      0.0000    741.5124      9.6099    148.9965
  1101.5000      0.0000    741.5635      9.6182    150.7178
  1101.7500      0.0000    741.6699      9.6689    150.7808
  1102.0000      0.0000    741.8145      9.7948    148.7286
  1102.2500      0.0000    741.9667     10.0283    145.0217
  1102.5000      0.0000    742.1078     10.3941    140.8485
  1102.7500      0.0000    742.2446     10.8847    137.2668
  1103.0000      0.0000    742.4313     11.4398    134.1994
  1103.2500      0.0000    742.8298     11.9601    130.7632
  1103.5000      0.0000    743.7586     12.3581    126.6179
  1103.7500      0.0000    745.5394     12.6120    122.3556
  1104.0000      0.0000    748.0596     12.7769    118.7400
  1104.2500      0.0000    750.4191     12.9392    116.0515
  1104.5000      0.0000    751.3295     13.1574    113.6791
  1104.7500      0.0000    750.2147     13.4414    110.0561
  1105.0000      0.0000    747.8430     13.7697    103.7863
  1105.2500      0.0000    745.7278     14.1034     95.5207
  1105.5000      0.0000    745.1587     14.3863     88.3168
  1105.7500      0.0000    746.8984     14.5559     85.5678
  1106.0000      0.0000    751.1945     14.5763     88.5896
  1106.2500      0.0000    757.3563     14.4600     96.3379
  1106.5000      0.0000    763.3870     14.2547    107.0308
  1106.7500      0.0000    766.8560     14.0166    119.4045
  1107.0000      0.0000    766.7086     13.7965    132.5770
  1107.2500      0.0000    763.9824     13.6281    145.4167
  1107.5000      0.0000    760.4595     13.5065    156.2375
  1107.7500      0.0000    756.9913     13.3775    162.9322
  1108.0000      0.0000    753.5091     13.1576    163.8614
  1108.2500      0.0000    750.0906     12.7743    159.2628
  1108.5000      0.0000    747.2517     12.2028    151.7930
  1108.7500      0.0000    745.3515     11.4872    145.2437
  1109.0000      0.0000    744.2621     10.7287    142.4433
  1109.2500      0.0000    743.6415     10.0385    144.2041
  1109.5000      0.0000    743.2656      9.4911    149.5979
  1109.7500      0.0000    743.0622      9.1203    156.3257
  1110.0000      0.0000    743.0008      8.9378    160.9754
  1110.2500      0.0000    743.0356      8.9324    160.3285
  1110.5000      0.0000    743.1235      9.0563    153.5140
  1110.7500      0.0000    743.2537      9.2340    142.7717
  1111.0000      0.0000    743.4312      9.3952    131.8812
  1111.2500      0.0000    743.6136      9.4997    124.0295
  1111.5000      0.0000    743.6752      9.5329    120.9571
  1111.7500      0.0000    743.4775      9.4862    122.9414
  1112.0000      0.0000    743.0009      9.3557    128.6713
  1112.2500      0.0000    742.3782      9.1641    135.5455
  1112.5000      0.0000    741.7584      8.9722    141.0866
  1112.7500      0.0000    741.1215      8.8536    144.2756
  1113.0000      0.0000    740.1858      8.8509    145.2926
  1113.2500      0.0000    738.5250      8.9480    144.3232
  1113.5000      0.0000    735.7720      9.0859    141.3425
  1113.7500      0.0000    731.5923      9.2102    136.9422
  1114.0000      0.0000    725.1578      9.3053    132.4666
  1114.2500      0.0000    715.1763      9.3765    129.0907
  1114.5000      0.0000    702.0280      9.4019    127.3696
  1114.7500      0.0000    690.3227      9.3258    127.6992
  1115.0000      0.0000    687.0546      9.1203    130.4294
  1115.2500      0.0000    695.2247      8.8475    135.1377
  1115.5000      0.0000    710.4351      8.6439    140.2150
  1115.7500      0.0000    724.9875      8.6288    143.6799
  1116.0000      0.0000    733.9348      8.8225    144.4653
  1116.2500      0.0000    736.3641      9.1415    142.7757
  1116.5000      0.0000    732.8258      9.4629    139.6090
  1116.7500      0.0000    723.2274      9.6948    136.4256
  1117.0000      0.0000    706.8120      9.7988    134.7016
  1117.2500      0.0000    684.1761      9.7647    134.7774
  1117.5000      0.0000    660.5045      9.5875    135.2997
  1117.7500      0.0000    646.0428      9.2854    134.5333
  1118.0000      0.0000    649.7070      8.9359    131.9981
  1118.2500      0.0000    670.6542      8.6682    128.4933
  1118.5000      0.0000    698.2214      8.5876    125.1264
  1118.7500      0.0000    720.9745      8.7005    122.8750
  1119.0000      0.0000    734.2938      8.9177    122.6711
  1119.2500      0.0000    739.9570      9.1289    125.2052
  1119.5000      0.0000    741.6047      9.2652    130.3512
  1119.7500      0.0000    741.7833      9.3054    136.9555
  1120.0000      0.0000    741.6030      9.2543    143.5235
  1120.2500      0.0000    741.3676      9.1325    149.1861
  1120.5000      0.0000    741.1037      8.9739    153.8286
  1120.7500      0.0000    740.8152      8.8195    157.2682
  1121.0000      0.0000    740.5635      8.7065    158.5615
  1121.2500      0.0000    740.4822      8.6562    156.5032
  1121.5000      0.0000    740.7808      8.6670    151.0148
  1121.7500      0.0000    741.7769      8.7158    143.8304
  1122.0000      0.0000    743.7841      8.7713    137.6118
  1122.2500      0.0000    746.6986      8.8089    134.3337
  1122.5000      0.0000    749.6132      8.8182    134.0995
  1122.7500      0.0000    751.1811      8.7989    135.0504
  1123.0000      0.0000    750.7226      8.7595    134.6584
  1123.2500      0.0000    748.8514      8.7222    131.7285
  1123.5000      0.0000    746.7885      8.7218    127.1087
  1123.7500      0.0000    745.2610      8.7867    122.3495
  1124.0000      0.0000    744.2163      8.9141    118.2138
  1124.2500      0.0000    743.2285      9.0667    114.7459
  1124.5000      0.0000    741.7526      9.1983    112.1082
  1124.7500      0.0000    739.0744      9.2828    110.7639
  1125.0000      0.0000    734.4989      9.3199    110.9876
  1125.2500      0.0000    727.9854      9.3164    112.3345
  1125.5000      0.0000    720.5742      9.2709    113.4190
  1125.7500      0.0000    713.8930      9.1761    112.4235
  1126.0000      0.0000    709.0945      9.0331    108.5191
  1126.2500      0.0000    706.3206      8.8616    102.9040
  1126.5000      0.0000    705.0414      8.6983     97.8842
  1126.7500      0.0000    704.6213      8.5813     94.7860
  1127.0000      0.0000    704.5659      8.5346     93.1122
  1127.2500      0.0000    704.5352      8.5617     91.5638
  1127.5000      0.0000    704.3605      8.6493     89.3629
  1127.7500      0.0000    704.0677      8.7714     86.7294
  1128.0000      0.0000    703.8104      8.8943     84.5192
  1128.2500      0.0000    703.7571      8.9882     83.5528
  1128.5000      0.0000    704.0464      9.0395     84.2024
  1128.7500      0.0000    704.8468      9.0523     86.3629
