~Version Information
VERS.                      2.0: CWLS Log ASCII Standard - VERSION 2.0
WRAP.                       NO: One line per depth step
~Well Information Block
STRT.FT               550.0000: 
STOP.FT              1981.5000: 
STEP.FT                 0.2500: 
NULL.                -999.2500: 
COMP.          Pioneer Natural Resources: COMPANY
WELL.          Flying Horse 12-11 Tr: WELL
FLD.           Purgatoire River: FIELD
LOC.           2459' FNL & 410' FWL: LOCATION
STAT.                 Colorado: State
CNTY.               Las Animas: COUNTY
CTRY. USA : Country
SECT. 11 : Section
TOWN. 32S : Township
RANG. 66W : Range
SRVC.                Patterson: SERVICE COMPANY
DATE.          Sat Sep 03 20:17:31 2005: LOG DATE
API.           05 071 08485 00: UNIQUE WELL ID
~Curve Information Block
DEPT.FT            0 000 00 00: Depth
SN.Ohm-m                      : IEL Short Normal
SP.mV                         : IEL Spontaneous Potential
DIR.Ohm-m                     : IEL Induction Resistivity
GR.GAPI                       : Gamma Ray
~Parameter Information Block
~A  Depth        SN          SP         DIR          GR     
# ...
  1387.5000     10.2863     84.3792      0.5447    114.9212
  1387.7500      9.7204     77.8770      0.4486    112.7201
  1388.0000      8.8238     75.6517      0.3737    107.4702
  1388.2500      7.4568     78.5789      0.3153    102.6095
  1388.5000      5.7269     86.5038      0.2702     94.0774
  1388.7500      4.0482     98.2314      0.2362     88.1619
  1389.0000      2.8574    111.9552      0.2115     80.1701
  1389.2500      2.2739    125.8339      0.1950     76.2222
  1389.5000      2.1023    138.4211      0.1863     73.2128
  1389.7500      2.1139    148.8439      0.1850     73.1577
  1390.0000      2.2220    156.7858      0.1915     75.7354
  1390.2500      2.4418    162.3703      0.2063     79.1888
  1390.5000      2.8909    165.9971      0.2300     86.6524
  1390.7500      3.8945    168.1577      0.2633     92.3507
  1391.0000      5.7518    169.2945      0.3068     99.7253
  1391.2500      8.2506    169.7715      0.3619    102.7016
  1391.5000     10.7332    169.9206      0.4310    103.4459
  1391.7500     12.6493    170.0271      0.5183    101.5952
  1392.0000     13.8064    170.2078      0.6297     96.0826
  1392.2500     14.3058    170.3213      0.7735     91.2200
  1392.5000     14.4551    170.0692      0.9597     83.4315
  1392.7500     14.5704    169.2443      1.2009     78.8458
  1393.0000     14.8501    167.8718      1.5116     75.0095
  1393.2500     15.4894    166.0600      1.9069     75.7689
  1393.5000     16.6243    163.7325      2.3992     82.7400
  1393.7500     18.0593    160.6388      2.9930     90.3563
  1394.0000     19.3073    156.7340      3.6794    102.7040
  1394.2500     19.9448    152.5147      4.4396    109.4689
  1394.5000     19.8524    148.8822      5.2607    115.7736
  1394.7500     19.2100    146.6223      6.1581    117.6525
  1395.0000     18.3296    145.9875      7.1845    117.8943
  1395.2500     17.4777    146.7247      8.4185    116.5861
  1395.5000     16.7909    148.4451      9.9383    113.1265
  1395.7500     16.2916    150.9581     11.7804    110.9710
  1396.0000     15.9769    154.3234     13.8749    110.4621
  1396.2500     15.7849    158.6906     15.9742    112.6879
  1396.5000     15.4970    164.1322     17.6607    119.0532
  1396.7500     14.9333    170.5832     18.5426    123.9890
  1397.0000     14.2069    177.8604     18.5238    130.0625
  1397.2500     13.6347    185.6634     17.8401    132.4148
  1397.5000     13.4857    193.5030     16.8352    133.5119
  1397.7500     13.8257    200.6559     15.7636    133.2263
  1398.0000     14.5330    206.3248     14.7566    131.8542
  1398.2500     15.4340    209.9843     13.8732    130.0650
  1398.5000     16.4056    211.6204     13.1468    125.4900
  1398.7500     17.3413    211.6510     12.6007    121.3608
  1399.0000     18.0894    210.6547     12.2467    114.9016
  1399.2500     18.5824    209.1680     12.0823    111.3394
  1399.5000     18.9935    207.6476     12.0942    107.7493
  1399.7500     19.5962    206.4893     12.2665    106.0510
  1400.0000     20.5345    205.9794     12.5889    102.8397
  1400.2500     21.7821    206.1822     13.0602     99.3513
  1400.5000     23.2936    206.8974     13.6864     91.7203
  1400.7500     25.1513    207.7787     14.4731     85.7434
  1401.0000     27.4665    208.5343     15.4191     77.4859
  1401.2500     30.2164    209.0385     16.5160     73.2420
  1401.5000     33.2829    209.2964     17.7534     68.6342
  1401.7500     36.5147    209.3590     19.1207     66.2381
  1402.0000     39.6701    209.2992     20.5987     63.1897
  1402.2500     42.4846    209.2366     22.1463     61.5197
  1402.5000     44.8710    209.3190     23.7013     59.5575
  1402.7500     46.8796    209.6333     25.2016     58.5359
  1403.0000     48.4796    210.1273     26.6099     57.4121
  1403.2500     49.5204    210.6317     27.9155     57.0851
  1403.5000     49.9004    210.9810     29.1190     57.6274
  1403.7500     49.7142    211.1259     30.2277     58.7524
  1404.0000     49.1781    211.1445     31.2663     61.1303
  1404.2500     48.4143    211.1599     32.2767     62.7591
  1404.5000     47.3962    211.2517     33.2837     65.0792
  1404.7500     46.0923    211.4220     34.2478     66.8627
  1405.0000     44.5799    211.6139     35.0526     70.4626
  1405.2500     43.0698    211.7532     35.5545     73.3652
  1405.5000     41.7976    211.7873     35.6618     77.4907
  1405.7500     40.8285    211.7056     35.3765     79.3963
  1406.0000     40.0470    211.5382     34.7558     80.1831
  1406.2500     39.3078    211.3415     33.8473     79.1878
  1406.5000     38.5154    211.1821     32.6624     75.7313
  1406.7500     37.6473    211.1175     31.2144     72.6040
  1407.0000     36.7314    211.1680     29.5659     68.0331
  1407.2500     35.7239    211.2914     27.8368     66.0371
  1407.5000     34.4320    211.3963     26.1633     66.1085
  1407.7500     32.6254    211.4050     24.6476     68.7507
  1408.0000     30.2676    211.3077     23.3317     76.6580
  1408.2500     27.6214    211.1499     22.1999     83.8114
  1408.5000     25.0864    210.9684     21.1994     94.8608
  1408.7500     22.9250    210.7495     20.2685    101.0039
  1409.0000     21.1664    210.4526     19.3641    107.4595
  1409.2500     19.7303    210.0645     18.4779    110.2536
  1409.5000     18.5389    209.6293     17.6304    112.8533
  1409.7500     17.5543    209.2261     16.8492    113.6135
  1410.0000     16.7901    208.9201     16.1499    113.8673
  1410.2500     16.2273    208.7233     15.5330    114.4381
  1410.5000     15.7587    208.5789     14.9951    117.3574
  1410.7500     15.3282    208.3734     14.5368    120.2702
  1411.0000     15.0136    207.9775     14.1621    123.5280
  1411.2500     14.8528    207.3048     13.8710    123.8255
  1411.5000     14.7662    206.3601     13.6568    121.8412
  1411.7500     14.6986    205.2532     13.5089    119.9085
  1412.0000     14.6771    204.1641     13.4159    117.3283
  1412.2500     14.7642    203.2808     13.3653    116.0391
  1412.5000     14.9997    202.7438     13.3423    114.9748
  1412.7500     15.3097    202.6215     13.3297    114.9757
  1413.0000     15.5023    202.9121     13.3132    115.6631
  1413.2500     15.4571    203.5625     13.2862    115.9374
  1413.5000     15.2566    204.4939     13.2517    115.2215
  1413.7500     15.0452    205.6140     13.2188    114.0928
  1414.0000     14.8552    206.8071     13.1972    112.1713
  1414.2500     14.6390    207.9282     13.1932    111.0353
  1414.5000     14.4005    208.8365     13.2100    109.8561
  1414.7500     14.1913    209.4608     13.2511    109.7172
  1415.0000     14.0372    209.8434     13.3218    111.0241
  1415.2500     13.9780    210.1250     13.4271    112.9849
  1415.5000     14.0733    210.4773     13.5653    117.0681
  1415.7500     14.2941    211.0164     13.7250    119.9170
  1416.0000     14.5298    211.7389     13.8891    123.1559
  1416.2500     14.7354    212.5254     14.0444    124.2635
  1416.5000     14.9390    213.2121     14.1900    124.6212
  1416.7500     15.1576    213.6725     14.3364    124.3705
  1417.0000     15.4773    213.8584     14.5000    123.6964
  1417.2500     16.0583    213.8022     14.6975    123.2051
  1417.5000     16.8853    213.5977     14.9436    122.6987
  1417.7500     17.6997    213.3674     15.2482    122.5562
  1418.0000     18.2665    213.2174     15.6126    122.1415
  1418.2500     18.5555    213.1985     16.0272    121.3764
  1418.5000     18.6348    213.2967     16.4723    119.6747
  1418.7500     18.5293    213.4602     16.9205    118.6623
  1419.0000     18.2508    213.6421     17.3395    117.4815
  1419.2500     17.8966    213.8192     17.6946    116.1913
  1419.5000     17.6424    213.9801     17.9531    111.8351
  1419.7500     17.6133    214.1109     18.0883    107.0097
  1420.0000     17.7543    214.2025     18.0847     98.1516
  1420.2500     17.8208    214.2768     17.9446     92.5554
  1420.5000     17.5834    214.4162     17.6923     86.9416
  1420.7500     17.0811    214.7750     17.3699     85.8219
