~Version Information
VERS.                      2.0: CWLS Log ASCII Standard - VERSION 2.0
WRAP.                       NO: One line per depth step
~Well Information Block
STRT.FT                -4.0000: 
STOP.FT              1544.0000: 
STEP.FT                 0.2500: 
NULL.                -999.2500: 
COMP.          Pioneer Natural Resources: COMPANY
WELL.           Screamin 12-29: WELL
FLD.           Purgatoire River: FIELD
LOC.           2038' FNL & 612' FWL--: LOCATION
CNTY.               Las Animas: COUNTY
SRVC.                Patterson: SERVICE COMPANY
DATE.          Fri Apr 14 00:36:42 2006: LOG DATE
UWI.           05 071 08661 00: UNIQUE WELL ID
STAT.                 Colorado: STATE
~Curve Information Block
DEPT.FT            0 000 00 00: Depth
GR.GAPI                       : Gamma Ray
CCL.                          : Casing Collar Locator
TT3.usec                      : CBL 3' Travel Time
AMP3.mV                       : CBL 3' Amplitude
~Parameter Information Block
~A  Depth        GR         CCL         TT3         AMP3    
# ...
   699.5000    128.6118      0.0000    637.4346      6.0662
   699.7500    124.5411      0.0000    634.9630      6.0534
   700.0000    115.4690      0.0000    638.5207      6.0322
   700.2500    108.1119      0.0000    644.9189      6.0160
   700.5000     96.9511      0.0000    657.6156      5.9886
   700.7500     90.7638      0.0000    666.8453      5.9697
   701.0000     85.0721      0.0000    679.5361      5.9462
   701.2500     83.6591      0.0000    685.5632      5.9360
   701.5000     83.1998      0.0000    688.8080      5.9222
   701.7500     82.4820      0.0000    686.9166      5.9043
   702.0000     79.3534      0.0000    679.7300      5.8460
   702.2500     76.2921      0.0000    674.0713      5.7812
   702.5000     72.2251      0.0000    668.6434      5.6546
   702.7500     70.6862      0.0000    669.2010      5.5671
   703.0000     69.7704      0.0000    677.1768      5.4627
   703.2500     69.2245      0.0000    685.6494      5.4192
   703.5000     67.3427      0.0000    698.3681      5.3823
   703.7500     65.2580      0.0000    704.6327      5.3649
   704.0000     61.4949      0.0000    709.6561      5.3382
   704.2500     59.1648      0.0000    710.7692      5.3180
   704.5000     56.8225      0.0000    710.8818      5.2767
   704.7500     56.1622      0.0000    710.7989      5.2384
   705.0000     55.8483      0.0000    711.4323      5.1794
   705.2500     55.3778      0.0000    712.6066      5.1596
   705.5000     53.3874      0.0000    715.0766      5.1844
   705.7500     51.2316      0.0000    716.4697      5.2326
   706.0000     47.6455      0.0000    716.8806      5.3226
   706.2500     45.7760      0.0000    715.8235      5.3816
   706.5000     45.0088      0.0000    713.0513      5.4737
   706.7500     46.2364      0.0000    711.0182      5.5496
   707.0000     50.1499      0.0000    707.5316      5.6916
   707.2500     53.3913      0.0000    703.9587      5.7918
   707.5000     58.8086      0.0000    695.3588      5.9186
   707.7500     63.6571      0.0000    688.2479      5.9802
   708.0000     75.1712      0.0000    679.9512      6.0483
   708.2500     86.3948      0.0000    678.5657      6.0826
   708.5000    107.1578      0.0000    682.7416      6.1131
   708.7500    121.3742      0.0000    686.6353      6.1174
   709.0000    138.8433      0.0000    687.3214      6.1150
   709.2500    146.3319      0.0000    682.6394      6.1235
   709.5000    151.1599      0.0000    672.1909      6.1679
   709.7500    150.7842      0.0000    667.9519      6.2138
   710.0000    146.0252      0.0000    671.0425      6.2803
   710.2500    140.9716      0.0000    678.1360      6.3084
   710.5000    133.0956      0.0000    688.6367      6.3211
   710.7500    129.1161      0.0000    690.5111      6.3181
   711.0000    125.8730      0.0000    679.0128      6.3119
   711.2500    124.9388      0.0000    659.7554      6.3087
   711.5000    124.2650      0.0000    614.9644      6.3010
   711.7500    124.3296      0.0000    579.5024      6.2930
   712.0000    125.7605      0.0000    531.4832      6.2812
   712.2500    127.3632      0.0000    509.5247      6.2763
   712.5000    129.1066      0.0000    494.6238      6.2719
   712.7500    128.9576      0.0000    495.3503      6.2667
   713.0000    126.6533      0.0000    512.4766      6.2514
   713.2500    124.2449      0.0000    536.0905      6.2406
   713.5000    119.6715      0.0000    586.5846      6.2401
   713.7500    115.5339      0.0000    622.4888      6.2598
   714.0000    107.1466      0.0000    663.5144      6.3218
   714.2500    100.7791      0.0000    677.9673      6.3751
   714.5000     92.2416      0.0000    685.8746      6.4461
   714.7500     87.8985      0.0000    688.7355      6.4739
   715.0000     83.1050      0.0000    696.7621      6.4781
   715.2500     80.9811      0.0000    704.5289      6.4614
   715.5000     80.2983      0.0000    715.9435      6.4269
   715.7500     81.9290      0.0000    721.3893      6.4085
   716.0000     86.6699      0.0000    724.8320      6.3970
   716.2500     90.1894      0.0000    724.0985      6.3998
   716.5000     94.2002      0.0000    719.6580      6.4150
   716.7500     95.4281      0.0000    715.2104      6.4285
   717.0000     94.5848      0.0000    707.0331      6.4425
   717.2500     92.2658      0.0000    700.8902      6.4406
   717.5000     87.4655      0.0000    691.4998      6.4158
   717.7500     84.7996      0.0000    685.7062      6.3887
   718.0000     83.7152      0.0000    678.2944      6.3460
   718.2500     85.4174      0.0000    674.1998      6.3242
   718.5000     91.4181      0.0000    669.0035      6.3091
   718.7500     97.2615      0.0000    666.1728      6.3118
   719.0000    107.4058      0.0000    663.7376      6.3330
   719.2500    114.0710      0.0000    663.9462      6.3540
   719.5000    122.7296      0.0000    666.3798      6.3822
   719.7500    127.5742      0.0000    667.6503      6.3914
   720.0000    134.2082      0.0000    665.3748      6.3914
   720.2500    138.5894      0.0000    659.8462      6.3911
   720.5000    144.8231      0.0000    645.9630      6.4097
   720.7500    148.0336      0.0000    634.7321      6.4406
   721.0000    149.8258      0.0000    619.9330      6.5078
   721.2500    148.2755      0.0000    614.3943      6.5546
   721.5000    141.6118      0.0000    615.3044      6.6038
   721.7500    135.0718      0.0000    621.9418      6.6124
   722.0000    125.1258      0.0000    638.4479      6.5837
   722.2500    120.4424      0.0000    651.2987      6.5418
   722.5000    117.9183      0.0000    668.4857      6.4656
   722.7500    118.2915      0.0000    676.6500      6.4215
   723.0000    118.8973      0.0000    683.4977      6.3837
   723.2500    118.6068      0.0000    685.2449      6.3793
   723.5000    118.5322      0.0000    685.0588      6.3954
   723.7500    119.8057      0.0000    683.5934      6.4135
   724.0000    124.1033      0.0000    680.2654      6.4376
   724.2500    128.1547      0.0000    678.1021      6.4451
   724.5000    134.7830      0.0000    676.5597      6.4430
   724.7500    138.4477      0.0000    677.3205      6.4425
   725.0000    140.9231      0.0000    681.0681      6.4708
   725.2500    140.3428      0.0000    684.3566      6.5181
   725.5000    137.7898      0.0000    687.5913      6.6115
   725.7500    136.4177      0.0000    687.0051      6.6609
   726.0000    136.3540      0.0000    681.3459      6.6814
   726.2500    137.4961      0.0000    675.6052      6.6611
   726.5000    139.6427      0.0000    667.6993      6.6030
   726.7500    140.6843      0.0000    664.8500      6.5552
   727.0000    141.4281      0.0000    665.6741      6.4754
   727.2500    141.6346      0.0000    669.0693      6.4239
   727.5000    141.7471      0.0000    675.6912      6.3726
   727.7500    141.3730      0.0000    679.3377      6.3703
   728.0000    139.2585      0.0000    681.6379      6.4237
   728.2500    136.7404      0.0000    680.6801      6.4863
   728.5000    132.3138      0.0000    676.0976      6.5786
   728.7500    129.7464      0.0000    672.0662      6.6158
   729.0000    127.5571      0.0000    667.5336      6.6255
   729.2500    127.6405      0.0000    667.0421      6.6129
   729.5000    130.2135      0.0000    670.4831      6.5919
   729.7500    132.9178      0.0000    674.3739      6.5864
   730.0000    136.5624      0.0000    679.9052      6.5999
   730.2500    138.0460      0.0000    682.4404      6.6264
   730.5000    139.0936      0.0000    684.3282      6.6884
   730.7500    139.2205      0.0000    684.6014      6.7335
   731.0000    138.0528      0.0000    683.8142      6.7766
   731.2500    136.1830      0.0000    682.0778      6.7718
   731.5000    132.8739      0.0000    674.9764      6.6990
   731.7500    131.2442      0.0000    664.2321      6.6121
   732.0000    129.4814      0.0000    633.7270      6.4599
   732.2500    127.7019      0.0000    603.8131      6.3699
   732.5000    123.2205      0.0000    555.4596      6.2717
   732.7500    119.8523      0.0000    532.1376      6.2200
