~Version Information
VERS.                      2.0: CWLS Log ASCII Standard - VERSION 2.0
WRAP.                       NO: One line per depth step
~Well Information Block
STRT.FT                -6.7500: 
STOP.FT              1250.5000: 
STEP.FT                 0.2500: 
NULL.                -999.2500: 
COMP.          Pioneer Natural Resources: COMPANY
WELL.          Irish Eyes 33-21: WELL
FLD.           Purgatorie River: FIELD
LOC.           1379' FSL & 2544' FEL--: LOCATION
PROV.                       CO: PROVINCE
CNTY.               Las Animas: COUNTRY
SRVC.          Patterson Wireline: SERVICE COMPANY
DATE.          Mon Jan 23 11:57:23 2006: LOG DATE
UWI.           05 071 08658 00: UNIQUE WELL ID
~Curve Information Block
DEPT.FT            0 000 00 00: Depth
CCL.                          : Casing Collar Locator
TT3.usec                      : CBL 3' Travel Time
AMP3.mV                       : CBL 3' Amplitude
GR.GAPI                       : Gamma Ray
~Parameter Information Block
~A  Depth       CCL         TT3         AMP3         GR     
# ...
   663.2500      0.0000    767.6671     15.8249     97.9927
   663.5000      0.0000    764.9200     15.9523     99.6831
   663.7500      0.0000    763.8876     16.0806    103.3208
   664.0000      0.0000    763.7194     16.2018    108.2089
   664.2500      0.0000    763.9911     16.3049    114.8162
   664.5000      0.0000    764.7181     16.3727    123.3130
   664.7500      0.0000    766.2723     16.3900    132.1512
   665.0000      0.0000    769.2875     16.3661    138.3434
   665.2500      0.0000    774.2630     16.3391    139.4005
   665.5000      0.0000    780.7669     16.3476    135.4344
   665.7500      0.0000    787.0120     16.4008    129.3943
   666.0000      0.0000    790.6962     16.4745    124.9670
   666.2500      0.0000    790.5560     16.5248    124.1000
   666.5000      0.0000    786.9868     16.5067    126.2844
   666.7500      0.0000    781.2825     16.3945    129.6931
   667.0000      0.0000    774.6741     16.1917    132.8747
   667.2500      0.0000    768.0557     15.9157    135.6427
   667.5000      0.0000    762.1829     15.5787    138.6706
   667.7500      0.0000    757.9028     15.1903    142.5168
   668.0000      0.0000    756.0032     14.7741    146.9374
   668.2500      0.0000    756.5586     14.3691    150.7251
   668.5000      0.0000    758.5651     14.0126    152.3822
   668.7500      0.0000    760.6122     13.7250    151.5672
   669.0000      0.0000    761.8837     13.5046    149.8223
   669.2500      0.0000    762.3843     13.3352    149.0844
   669.5000      0.0000    762.4507     13.2024    149.3733
   669.7500      0.0000    762.3400     13.1068    148.5497
   670.0000      0.0000    762.1710     13.0576    144.4335
   670.2500      0.0000    761.9980     13.0578    136.7657
   670.5000      0.0000    761.8334     13.1010    127.2823
   670.7500      0.0000    761.6603     13.1821    118.3967
   671.0000      0.0000    761.4664     13.3055    111.8589
   671.2500      0.0000    761.2731     13.4817    108.2331
   671.5000      0.0000    761.1196     13.7114    107.0959
   671.7500      0.0000    761.0198     13.9718    107.3675
   672.0000      0.0000    760.9456     14.2223    107.6466
   672.2500      0.0000    760.8562     14.4273    106.9465
   672.5000      0.0000    760.7381     14.5669    105.6169
   672.7500      0.0000    760.6093     14.6340    105.3351
   673.0000      0.0000    760.4978     14.6316    107.6029
   673.2500      0.0000    760.4243     14.5788    111.9243
   673.5000      0.0000    760.3951     14.5088    115.5220
   673.7500      0.0000    760.3677     14.4586    115.1506
   674.0000      0.0000    760.2073     14.4603    109.5097
   674.2500      0.0000    759.4113     14.5308    100.0380
   674.5000      0.0000    756.5035     14.6552     89.6062
   674.7500      0.0000    748.3480     14.7767     80.7378
   675.0000      0.0000    730.7427     14.8080     74.7856
   675.2500      0.0000    701.9343     14.6660     71.9555
   675.5000      0.0000    666.9063     14.3349     71.5869
   675.7500      0.0000    636.9546     13.9185     72.5937
   676.0000      0.0000    623.9520     13.5728     74.1168
   676.2500      0.0000    635.5605     13.3195     75.8627
   676.5000      0.0000    673.0451     12.9866     77.4722
   676.7500      0.0000    728.3130     12.4295     77.7016
   677.0000      0.0000    784.8444     11.7453     75.0451
   677.2500      0.0000    827.5057     11.1659     69.6597
   677.5000      0.0000    851.5389     10.8064     64.1252
   677.7500      0.0000    860.1735     10.6128     61.5893
   678.0000      2.0000    856.5073     10.5006     63.3046
   678.2500      0.0000    839.2620     10.4698     68.4108
   678.5000      0.0000    803.5403     10.6069     75.6618
   678.7500      0.0000    746.3083     10.9854     84.4825
   679.0000      0.0000    675.2851     11.5319     94.2721
   679.2500      0.0000    611.3990     12.0263    103.4881
   679.5000      0.0000    577.0779     12.3157    110.2213
   679.7500      0.0000    581.0222     12.4750    113.8197
   680.0000      0.0000    615.0902     12.6705    115.5454
   680.2500      0.0000    662.5242     12.9410    117.2520
   680.5000      0.0000    707.3563     13.2010    119.4490
   680.7500      0.0000    740.4975     13.3800    120.8321
   681.0000      0.0000    761.1968     13.4754    119.7085
   681.2500      0.0000    773.2369     13.5079    115.8215
   681.5000      0.0000    780.0515     13.4895    110.7478
   681.7500      0.0000    783.5633     13.4333    106.5355
   682.0000      0.0000    785.7627     13.3629    104.0920
   682.2500      0.0000    788.9439     13.3061    102.8593
   682.5000      0.0000    794.1541     13.2833    101.7688
   682.7500      0.0000    800.7764     13.3018    100.2558
   683.0000      0.0000    807.9051     13.3591     98.2623
   683.2500      0.0000    815.3814     13.4477     95.4183
   683.5000      0.0000    822.9827     13.5563     90.8874
   683.7500      0.0000    829.2929     13.6672     84.3996
   684.0000      0.0000    832.3214     13.7603     76.9300
   684.2500      0.0000    831.5682     13.8266     69.9953
   684.5000      0.0000    829.1367     13.8765     64.7053
   684.7500      0.0000    828.3126     13.9335     61.6190
   685.0000      0.0000    830.8273     14.0167     60.9926
   685.2500      0.0000    835.4342     14.1280     62.7652
   685.5000      0.0000    838.9916     14.2526     66.2153
   685.7500      0.0000    838.8444     14.3701     69.7344
   686.0000      0.0000    834.5256     14.4695     71.5580
   686.2500      0.0000    827.7557     14.5596     71.2537
   686.5000      0.0000    821.0382     14.6663     70.3120
   686.7500      0.0000    816.0640     14.8148     70.8481
   687.0000      0.0000    813.1197     15.0119     73.6390
   687.2500      0.0000    811.6335     15.2454     77.4135
   687.5000      0.0000    810.9586     15.4939     79.9685
   687.7500      0.0000    810.6909     15.7368     79.7274
   688.0000      0.0000    810.5914     15.9551     76.3305
   688.2500      0.0000    810.4269     16.1288     70.5996
   688.5000      0.0000    809.8233     16.2352     64.5259
   688.7500      0.0000    808.1131     16.2579     60.6029
   689.0000      0.0000    804.4516     16.2010     60.2716
   689.2500      0.0000    798.4846     16.0964     62.9511
   689.5000      0.0000    790.9035     15.9874     66.7088
   689.7500      0.0000    782.6505     15.8987     69.5533
   690.0000      0.0000    773.3826     15.8205     70.2460
   690.2500      0.0000    761.8246     15.7266     68.7301
   690.5000      0.0000    748.1971     15.6043     66.1914
   690.7500      0.0000    735.2142     15.4636     64.2785
   691.0000      0.0000    726.0571     15.3182     63.8885
   691.2500      0.0000    722.2277     15.1668     64.7074
   691.5000      0.0000    723.5263     14.9989     65.9356
   691.7500      0.0000    728.8327     14.8142     67.2517
   692.0000      0.0000    736.4420     14.6315     68.8928
   692.2500      0.0000    744.8967     14.4766     70.8865
   692.5000      0.0000    754.3463     14.3608     72.5810
   692.7500      0.0000    766.0766     14.2684     73.1395
   693.0000      0.0000    779.9598     14.1699     72.3054
   693.2500      0.0000    793.3891     14.0459     70.4659
   693.5000      0.0000    803.4114     13.8992     68.2544
   693.7500      0.0000    809.1132     13.7453     66.4145
   694.0000      0.0000    811.5970     13.5967     65.6794
   694.2500      0.0000    812.4658     13.4583     66.1783
   694.5000      0.0000    812.7628     13.3291     67.0822
   694.7500      0.0000    812.8734     13.2052     67.2214
   695.0000      0.0000    812.8616     13.0826     66.0364
   695.2500      0.0000    812.7625     12.9609     63.9473
   695.5000      0.0000    812.6401     12.8448     62.0746
   695.7500      0.0000    812.5085     12.7443     61.6504
   696.0000      0.0000    812.2963     12.6738     63.4842
   696.2500      0.0000    811.9177     12.6454     67.8831
   696.5000      0.0000    811.3787     12.6586     74.8230
