~Version Information
VERS.                      2.0: CWLS Log ASCII Standard - VERSION 2.0
WRAP.                       NO: One line per depth step
~Well Information Block
STRT.FT               -10.0000: 
STOP.FT              1703.5000: 
STEP.FT                 0.2500: 
NULL.                -999.2500: 
COMP.          Pioneer Natural Resources: COMPANY
WELL.          Parrothead 31-31 Tr: WELL
FLD.           Purgatoire River: FIELD
LOC.           496' FNL & 1546' FEL--: LOCATION
PROV.                       CO: PROVINCE
CNTY.               Las Animas: COUNTRY
SRVC.          Patterson Wireline: SERVICE COMPANY
DATE.          Mon Nov 14 09:44:02 2005: LOG DATE
UWI.           05 071 08610 00: UNIQUE WELL ID
~Curve Information Block
DEPT.FT            0 000 00 00: Depth
CCL.                          : Casing Collar Locator
TT3.usec                      : CBL 3' Travel Time
AMP3.mV                       : CBL 3' Amplitude
GR.GAPI                       : Gamma Ray
~Parameter Information Block
~A  Depth       CCL         TT3         AMP3         GR     
# ...
  1330.0000      0.0000    638.6926     11.9585    117.4199
  1330.2500      0.0000    704.1151     11.8398    117.2100
  1330.5000      0.0000    745.8373     11.6676    116.0957
  1330.7500      0.0000    765.4011     11.4683    113.5371
  1331.0000      0.0000    770.2234     11.2690    109.2998
  1331.2500      0.0000    767.7996     11.0642    104.2118
  1331.5000      0.0000    763.4029     10.7994    100.0848
  1331.7500      0.0000    759.9991     10.3972     98.6388
  1332.0000      0.0000    758.7919      9.8106    100.2935
  1332.2500      0.0000    760.1345      9.0786    103.6870
  1332.5000      0.0000    764.0182      8.3445    106.4496
  1332.7500      0.0000    769.6406      7.7878    106.7089
  1333.0000      0.0000    775.0728      7.5027    103.9097
  1333.2500      0.0000    777.7745      7.4545     98.4706
  1333.5000     -2.0000    775.1289      7.5565     91.3243
  1333.7500     -2.0000    764.9725      7.7477     83.9882
  1334.0000      0.0000    747.4940      7.9943     78.3847
  1334.2500      0.0000    727.5607      8.2725     75.8345
  1334.5000      0.0000    713.2018      8.5880     76.0610
  1334.7500      0.0000    709.4787      8.9845     77.3404
  1335.0000      0.0000    714.4924      9.4843     77.6690
  1335.2500      0.0000    722.4465     10.0273     75.9206
  1335.5000      0.0000    729.0963     10.4849     72.2533
  1335.7500      0.0000    733.3480     10.7439     67.6743
  1336.0000      0.0000    735.6591     10.7831     63.2027
  1336.2500      0.0000    736.6979     10.6828     59.2982
  1336.5000      0.0000    737.0372     10.5645     55.9165
  1336.7500      0.0000    737.0999     10.5191     52.9136
  1337.0000      0.0000    737.0908     10.5863     50.4697
  1337.2500      0.0000    737.0685     10.7761     49.4659
  1337.5000      0.0000    737.0433     11.0817     51.6435
  1337.7500      0.0000    737.0540     11.4677     59.0650
  1338.0000      0.0000    737.1576     11.8651     72.8341
  1338.2500      0.0000    737.3801     12.1964     91.8904
  1338.5000      0.0000    737.6972     12.4062    112.9539
  1338.7500      0.0000    738.0590     12.4681    131.9896
  1339.0000      0.0000    738.4203     12.3705    146.2582
  1339.2500      0.0000    738.7394     12.1082    155.3258
  1339.5000      0.0000    738.9680     11.6938    160.2302
  1339.7500      0.0000    739.0702     11.1709    161.9561
  1340.0000      0.0000    739.0511     10.6096    161.0921
  1340.2500      0.0000    738.9552     10.0844    158.6673
  1340.5000      0.0000    738.8318      9.6564    156.4945
  1340.7500      0.0000    738.6987      9.3692    156.3959
  1341.0000      0.0000    738.5322      9.2440    159.1458
  1341.2500      0.0000    738.2928      9.2652    163.9455
  1341.5000      0.0000    737.9690      9.3711    168.9079
  1341.7500      0.0000    737.6006      9.4724    172.4866
  1342.0000      0.0000    737.2587      9.4996    174.4493
  1342.2500      0.0000    737.0048      9.4500    175.3869
  1342.5000      0.0000    736.8726      9.3858    175.9079
  1342.7500      0.0000    736.8682      9.3748    176.5614
  1343.0000      0.0000    736.9692      9.4262    177.6681
  1343.2500      0.0000    737.1370      9.4889    178.7309
  1343.5000      0.0000    737.3534      9.5064    178.5102
  1343.7500      0.0000    737.6427      9.4719    176.0131
  1344.0000      0.0000    738.0420      9.4324    171.1882
  1344.2500      0.0000    738.5480      9.4461    164.7174
  1344.5000      0.0000    739.1024      9.5354    157.6394
  1344.7500      0.0000    739.6140      9.6758    151.2931
  1345.0000      0.0000    739.9735      9.8225    147.0492
  1345.2500      0.0000    740.0706      9.9423    145.5118
  1345.5000      0.0000    739.8398     10.0167    146.0505
  1345.7500      0.0000    739.3181     10.0269    147.4164
  1346.0000      0.0000    738.6500      9.9538    148.5975
  1346.2500      0.0000    738.0136      9.7968    148.9190
  1346.5000      0.0000    737.5183      9.5843    147.8165
  1346.7500      0.0000    737.1657      9.3631    145.2076
  1347.0000      0.0000    736.9059      9.1771    142.0756
  1347.2500      0.0000    736.7177      9.0514    140.0705
  1347.5000      0.0000    736.6255      8.9864    140.1820
  1347.7500      0.0000    736.6534      8.9633    142.1366
  1348.0000      0.0000    736.7873      8.9517    145.2374
  1348.2500      0.0000    736.9933      8.9125    149.1841
  1348.5000      0.0000    737.2587      8.8108    153.7517
  1348.7500      0.0000    737.6017      8.6476    158.3490
  1349.0000      0.0000    738.0423      8.4773    162.5008
  1349.2500      0.0000    738.5969      8.3773    166.3279
  1349.5000      0.0000    739.3326      8.3940    169.9654
  1349.7500      0.0000    740.4401      8.5215    172.7355
  1350.0000      0.0000    742.1580      8.7179    173.5150
  1350.2500      0.0000    744.4025      8.9254    172.0201
  1350.5000      0.0000    746.3555      9.0836    169.3163
  1350.7500      0.0000    746.7042      9.1440    166.7027
  1351.0000      0.0000    744.6259      9.0892    164.2388
  1351.2500      0.0000    740.5045      8.9463    160.7409
  1351.5000      0.0000    735.6662      8.7836    155.2394
  1351.7500      0.0000    731.6929      8.6827    148.1770
  1352.0000      0.0000    729.8307      8.6926    141.1510
  1352.2500      0.0000    730.3922      8.8019    135.7359
  1352.5000      0.0000    732.5316      8.9574    132.8500
  1352.7500      0.0000    734.9114      9.1072    133.0622
  1353.0000      0.0000    736.6470      9.2231    136.7500
  1353.2500      0.0000    737.5787      9.2946    143.3048
  1353.5000      0.0000    737.9200      9.3159    150.4722
  1353.7500      0.0000    737.9237      9.2853    155.2556
  1354.0000      0.0000    737.7695      9.2122    155.8671
  1354.2500      0.0000    737.5120      9.1179    152.9141
  1354.5000      0.0000    736.8362      9.0276    148.8371
  1354.7500      0.0000    734.4927      8.9673    146.1317
  1355.0000      0.0000    727.6126      8.9709    145.8810
  1355.2500      0.0000    712.1278      9.0801    147.4854
  1355.5000      0.0000    686.1943      9.3206    149.2979
  1355.7500      0.0000    655.5163      9.6751    149.7315
  1356.0000      0.0000    633.6710     10.0856    148.4533
  1356.2500      0.0000    632.4617     10.4862    146.5992
  1356.5000      0.0000    650.1699     10.8348    145.6216
  1356.7500      0.0000    672.0973     11.1169    146.2093
  1357.0000      0.0000    684.1804     11.3267    148.4321
  1357.2500      0.0000    684.5786     11.4495    151.9848
  1357.5000      0.0000    681.7454     11.4668    155.6418
  1357.7500      0.0000    683.7952     11.3763    157.1723
  1358.0000      0.0000    691.9250     11.2024    154.7889
  1358.2500      0.0000    702.7447     10.9819    148.9161
  1358.5000      0.0000    713.1716     10.7474    142.5382
  1358.7500      0.0000    721.5620     10.5253    139.6334
  1359.0000      0.0000    726.0107     10.3402    142.4785
  1359.2500      0.0000    723.0111     10.2070    149.5668
  1359.5000      0.0000    707.5981     10.1217    156.2648
  1359.7500      0.0000    675.7498     10.0673    158.4433
  1360.0000      0.0000    628.9149     10.0286    155.7637
  1360.2500      0.0000    576.3154      9.9960    151.0618
  1360.5000      0.0000    530.5017      9.9601    147.0862
  1360.7500      0.0000    499.7267      9.9098    144.7525
  1361.0000      0.0000    485.3060      9.8382    144.0411
  1361.2500      0.0000    484.6672      9.7489    144.9659
  1361.5000      0.0000    493.4179      9.6614    147.1938
  1361.7500      0.0000    504.3652      9.6103    149.6542
  1362.0000      0.0000    508.8606      9.6324    151.1873
  1362.2500      0.0000    502.5408      9.7462    151.1375
  1362.5000      0.0000    488.8096      9.9471    149.1163
  1362.7500      0.0000    474.8481     10.2203    144.9402
  1363.0000      0.0000    464.9623     10.5502    139.5310
  1363.2500      0.0000    458.2636     10.9127    135.2666
