~Version Information
VERS.                      2.0: CWLS Log ASCII Standard - VERSION 2.0
WRAP.                       NO: One line per depth step
~Well Information Block
STRT.FT               875.0000: 
STOP.FT              2947.2500: 
STEP.FT                 0.2500: 
NULL.                -999.2500: 
COMP.          Pioneer Natural Resources: COMPANY
WELL.          Hanginstone 21-27: WELL
FLD.           Purgatoire River: FIELD
LOC.           1186' FNL & 1606' FWL--: LOCATION
PROV.                 Colorado: PROVINCE
CNTY.               Las Animas: COUNTRY
SRVC.                Patterson: SERVICE COMPANY
DATE.          Sat Jan 07 09:06:14 2006: LOG DATE
UWI.           05 071 08632 00: UNIQUE WELL ID
~Curve Information Block
DEPT.FT            0 000 00 00: Depth
SN.Ohm-m                      : IEL Short Normal
SP.mV                         : IEL Spontaneous Potential
DIR.Ohm-m                     : IEL Induction Resistivity
GR.GAPI                       : Gamma Ray
~Parameter Information Block
~A  Depth        SN          SP         DIR          GR     
# ...
  2382.5000      9.9004     71.3574      8.1331    132.3927
  2382.7500      9.8884     71.1479      8.1169    132.7902
  2383.0000      9.8712     70.9810      8.1084    131.9366
  2383.2500      9.8415     70.8429      8.1006    130.5943
  2383.5000      9.8041     70.7159      8.0920    128.1024
  2383.7500      9.7763     70.5798      8.0901    126.4263
  2384.0000      9.7816     70.4149      8.1099    124.0258
  2384.2500      9.8436     70.2038      8.1683    122.3661
  2384.5000      9.9790     69.9347      8.2778    119.5164
  2384.7500     10.1886     69.6025      8.4432    117.5173
  2385.0000     10.4497     69.2103      8.6615    115.2204
  2385.2500     10.7215     68.7685      8.9236    114.6263
  2385.5000     10.9635     68.2944      9.2164    115.0360
  2385.7500     11.1557     67.8094      9.5243    115.4914
  2386.0000     11.3049     67.3374      9.8310    114.9416
  2386.2500     11.4368     66.9018     10.1207    113.2900
  2386.5000     11.5808     66.5229     10.3819    109.4220
  2386.7500     11.7538     66.2152     10.6096    106.7407
  2387.0000     11.9524     65.9859     10.8061    103.8844
  2387.2500     12.1585     65.8328     10.9773    103.1991
  2387.5000     12.3520     65.7445     11.1279    104.0996
  2387.7500     12.5184     65.7009     11.2571    105.5640
  2388.0000     12.6469     65.6765     11.3605    107.4419
  2388.2500     12.7305     65.6438     11.4338    107.3968
  2388.5000     12.7685     65.5794     11.4785    104.5051
  2388.7500     12.7725     65.4677     11.5040    101.1128
  2389.0000     12.7684     65.3046     11.5262     95.4139
  2389.2500     12.7912     65.0978     11.5637     91.8481
  2389.5000     12.8690     64.8642     11.6327     86.9657
  2389.7500     13.0063     64.6261     11.7433     84.0154
  2390.0000     13.1790     64.4056     11.8966     80.6133
  2390.2500     13.3480     64.2197     12.0831     79.3742
  2390.5000     13.4816     64.0775     12.2827     78.9826
  2390.7500     13.5685     63.9792     12.4685     79.4948
  2391.0000     13.6171     63.9162     12.6150     81.4661
  2391.2500     13.6479     63.8742     12.7074     83.6617
  2391.5000     13.6841     63.8348     12.7458     87.6852
  2391.7500     13.7429     63.7790     12.7423     90.0766
  2392.0000     13.8320     63.6888     12.7160     92.1597
  2392.2500     13.9526     63.5494     12.6873     92.5147
  2392.5000     14.1055     63.3502     12.6762     92.0407
  2392.7500     14.2929     63.0857     12.6992     91.2076
  2393.0000     14.5174     62.7554     12.7678     89.0974
  2393.2500     14.7797     62.3640     12.8864     87.2267
  2393.5000     15.0760     61.9202     13.0544     84.3370
  2393.7500     15.3954     61.4367     13.2679     82.6302
  2394.0000     15.7200     60.9290     13.5213     80.4539
  2394.2500     16.0311     60.4163     13.8070     79.2699
  2394.5000     16.3156     59.9216     14.1139     78.1563
  2394.7500     16.5674     59.4719     14.4275     77.9648
  2395.0000     16.7822     59.0979     14.7298     78.3626
  2395.2500     16.9503     58.8317     14.9999     78.9906
  2395.5000     17.0497     58.7027     15.2116     80.4789
  2395.7500     17.0452     58.7325     15.3337     81.7475
  2396.0000     16.9008     58.9306     15.3360     83.6249
  2396.2500     16.6002     59.2907     15.2056     84.7052
  2396.5000     16.1617     59.7902     14.9600     86.3514
  2396.7500     15.6375     60.3927     14.6448     87.6951
  2397.0000     15.1011     61.0527     14.3135     89.7677
  2397.2500     14.6287     61.7215     14.0059     90.5792
  2397.5000     14.2813     62.3528     13.7392     90.1790
  2397.7500     14.0901     62.9075     13.5122     89.0543
  2398.0000     14.0484     63.3569     13.3153     87.2795
  2398.2500     14.1195     63.6841     13.1404     86.5745
  2398.5000     14.2636     63.8853     12.9887     86.0850
  2398.7500     14.4675     63.9695     12.8728     85.5880
  2399.0000     14.7487     63.9574     12.8150     83.9084
  2399.2500     15.1264     63.8800     12.8394     82.3410
  2399.5000     15.5828     63.7749     12.9630     80.2256
  2399.7500     16.0499     63.6830     13.1859     79.1991
  2400.0000     16.4315     63.6430     13.4851     77.5787
  2400.2500     16.6441     63.6873     13.8138     75.9608
  2400.5000     16.6533     63.8377     14.1102     72.8861
  2400.7500     16.4894     64.1021     14.3156     71.0788
  2401.0000     16.2399     64.4727     14.3955     69.9350
  2401.2500     16.0237     64.9267     14.3513     70.5037
  2401.5000     15.9523     65.4268     14.2170     73.0267
  2401.7500     16.0925     65.9254     14.0458     75.4230
  2402.0000     16.4450     66.3688     13.8937     79.5806
  2402.2500     16.9496     66.7027     13.8076     82.5142
  2402.5000     17.5164     66.8788     13.8168     86.3762
  2402.7500     18.0657     66.8601     13.9308     87.7963
  2403.0000     18.5582     66.6263     14.1448     86.9451
  2403.2500     19.0076     66.1777     14.4504     84.1772
  2403.5000     19.4776     65.5360     14.8488     77.2055
  2403.7500     20.0674     64.7435     15.3580     71.1505
  2404.0000     20.8832     63.8579     16.0123     61.0528
  2404.2500     21.9965     62.9455     16.8516     54.5599
  2404.5000     23.4035     62.0721     17.9036     46.8121
  2404.7500     25.0073     61.2941     19.1617     43.5181
  2405.0000     26.6425     60.6514     20.5654     41.3459
  2405.2500     28.1360     60.1632     21.9997     41.3787
  2405.5000     29.3734     59.8286     23.3267     42.9444
  2405.7500     30.3262     59.6293     24.4372     44.6869
  2406.0000     31.0273     59.5364     25.2865     47.9264
  2406.2500     31.5232     59.5164     25.8871     50.2061
  2406.5000     31.8426     59.5373     26.2795     53.1600
  2406.7500     31.9944     59.5727     26.5120     54.5010
  2407.0000     31.9874     59.6038     26.6390     55.3612
  2407.2500     31.8540     59.6193     26.7194     55.2280
  2407.5000     31.6609     59.6139     26.8092     54.3156
  2407.7500     31.4965     59.5867     26.9519     53.5295
  2408.0000     31.4412     59.5389     27.1747     52.5415
  2408.2500     31.5393     59.4722     27.4897     52.1523
  2408.5000     31.7881     59.3879     27.8961     52.0473
  2408.7500     32.1450     59.2866     28.3813     52.2093
  2409.0000     32.5483     59.1684     28.9202     52.1720
  2409.2500     32.9445     59.0336     29.4777     51.4419
  2409.5000     33.3107     58.8828     30.0135     49.0516
  2409.7500     33.6614     58.7173     30.4908     47.1152
  2410.0000     34.0335     58.5382     30.8800     45.0054
  2410.2500     34.4559     58.3462     31.1608     44.4788
  2410.5000     34.9262     58.1409     31.3254     44.5162
  2410.7500     35.4137     57.9215     31.3834     44.5310
  2411.0000     35.8870     57.6873     31.3650     43.9673
  2411.2500     36.3364     57.4388     31.3147     43.2880
  2411.5000     36.7685     57.1786     31.2776     42.4317
  2411.7500     37.1830     56.9112     31.2867     42.2883
  2412.0000     37.5621     56.6423     31.3553     42.6632
  2412.2500     37.8820     56.3779     31.4819     42.9154
  2412.5000     38.1277     56.1239     31.6580     42.6150
  2412.7500     38.2976     55.8860     31.8737     41.9518
  2413.0000     38.3977     55.6706     32.1146     40.9177
  2413.2500     38.4340     55.4863     32.3559     40.5581
  2413.5000     38.4080     55.3442     32.5622     40.4608
  2413.7500     38.3158     55.2580     32.6978     40.3814
  2414.0000     38.1483     55.2413     32.7414     39.8505
  2414.2500     37.8944     55.3043     32.6938     39.2662
  2414.5000     37.5449     55.4497     32.5722     38.4691
  2414.7500     37.1036     55.6688     32.3939     38.2117
  2415.0000     36.6015     55.9402     32.1662     38.1324
  2415.2500     36.1004     56.2299     31.8905     38.0026
  2415.5000     35.6719     56.4945     31.5764     37.6279
  2415.7500     35.3611     56.6862     31.2459     37.7787
