~Version Information
VERS.                      2.0: CWLS Log ASCII Standard - VERSION 2.0
WRAP.                       NO: One line per depth step
~Well Information Block
STRT.FT               -12.2500: 
STOP.FT              1442.2500: 
STEP.FT                 0.2500: 
NULL.                -999.2500: 
COMP.          Pioneer Natural Resources: COMPANY
WELL.              Lucky 21-36: WELL
FLD.           Purgatorie River: FIELD
LOC.           799' FNL & 1578' FWL--: LOCATION
CDN. :
PROV. :
UWI. :
STAT. :
CNTY. :
CTRY. :
API. :
COMP. :
WELL. :
FLD. :
LOC. :
DATE. :
SRVC. :
CNTY.               Las Animas: COUNTY
SRVC.          Superior Well Services: SERVICE COMPANY
DATE.          Mon Jul 21 12-16-21 2008: LOG DATE
UWI.           05 071 08456 00: UNIQUE WELL ID
STAT.                       CO: STATE
~Curve Information Block
DEPT.FT            0 000 00 00: Depth
CCL.                          : Casing Collar Locator
TT3.usec                      : CBL 3' Travel Time
AMP3.mV                       : CBL 3' Amplitude
GR.GAPI                       : Gamma Ray
~Parameter Information Block
~A  Depth       CCL         TT3         AMP3         GR     
# ...
   724.7500      0.0000    557.3879     14.9326    137.4264
   725.0000      0.0000    577.7324     14.8803    137.5894
   725.2500      0.0000    626.7713     14.8972    135.8724
   725.5000      0.0000    677.0586     14.9380    134.3708
   725.7500      0.0000    706.3524     14.9476    135.1604
   726.0000      0.0000    710.4153     14.8972    139.1051
   726.2500      0.0000    701.8130     14.7962    145.0210
   726.5000      0.0000    698.1360     14.6747    150.1618
   726.7500      0.0000    707.9541     14.5553    152.2730
   727.0000      0.0000    725.4868     14.4435    151.4155
   727.2500      0.0000    737.7833     14.3357    149.6182
   727.5000      0.0000    735.7355     14.2296    148.8333
   727.7500      0.0000    720.0878     14.1226    149.2448
   728.0000      0.0000    701.2571     14.0033    149.2523
   728.2500      0.0000    693.0927     13.8497    147.1560
   728.5000      0.0000    702.3976     13.6408    143.2076
   728.7500      0.0000    723.6312     13.3747    139.8998
   729.0000      0.0000    745.1932     13.0747    139.9489
   729.2500      0.0000    759.5402     12.7722    143.8832
   729.5000      0.0000    766.2316     12.4792    149.5279
   729.7500      0.0000    768.3147     12.1812    153.7540
   730.0000      0.0000    768.5637     11.8557    154.6979
   730.2500      0.0000    768.4892     11.4894    152.5431
   730.5000      0.0000    768.8804     11.0801    148.6537
   730.7500      0.0000    770.3422     10.6298    144.1980
   731.0000      0.0000    773.4121     10.1396    139.5448
   731.2500      0.0000    778.5148      9.6033    134.9257
   731.5000      0.0000    786.0437      9.0098    131.3091
   731.7500      0.0000    795.7983      8.3593    129.9422
   732.0000      0.0000    805.5526      7.6831    130.9289
   732.2500      0.0000    811.0092      7.0407    132.8542
   732.5000      0.0000    809.0756      6.4931    133.8938
   732.7500      0.0000    801.3077      6.0751    132.6431
   733.0000      0.0000    792.7720      5.7936    127.9771
   733.2500      0.0000    787.4246      5.6418    119.3742
   733.5000      0.0000    785.4393      5.6110    107.9696
   733.7500      0.0000    784.6927      5.6930     96.5009
   734.0000      0.0000    783.6937      5.8873     87.5567
   734.2500      0.0000    782.9359      6.2148     82.0344
   734.5000      0.0000    784.1946      6.7197     79.2699
   734.7500      0.0000    788.1940      7.4477     78.2198
   735.0000      0.0000    791.6437      8.4176     78.4093
   735.2500      0.0000    785.8661      9.6081     79.9904
   735.5000      0.0000    759.2845     10.9584     83.0277
   735.7500      0.0000    704.3818     12.3661     86.7596
   736.0000      0.0000    626.4024     13.6922     89.6778
   736.2500      0.0000    546.9440     14.7962     90.5952
   736.5000      0.0000    495.6620     15.5952     89.9700
   736.7500      0.0000    492.5562     16.0945     90.2317
   737.0000      0.0000    533.6896     16.3626     94.1966
   737.2500      0.0000    591.6484     16.4810    102.6413
   737.5000      0.0000    630.9503     16.5107    113.6647
   737.7500      0.0000    628.2457     16.4891    124.5520
   738.0000      0.0000    584.2550     16.4361    133.4325
   738.2500      0.0000    520.4083     16.3508    138.6437
   738.5000      0.0000    464.0644     16.2106    137.8895
   738.7500      0.0000    434.7430     15.9865    129.8727
   739.0000      0.0000    440.7156     15.6671    116.4666
   739.2500      0.0000    481.7536     15.2630    101.7315
   739.5000      0.0000    548.8669     14.7918     88.7775
   739.7500      0.0000    622.9392     14.2720     78.5125
   740.0000      0.0000    681.6146     13.7322     70.9773
   740.2500      0.0000    712.8090     13.2164     66.5768
   740.5000      0.0000    721.0523     12.7667     65.7665
   740.7500      0.0000    720.0493     12.4005     68.3009
   741.0000      0.0000    720.4918     12.1042     73.1126
   741.2500      0.0000    725.0977     11.8463     78.7570
   741.5000      0.0000    732.1951     11.5990     83.9200
   741.7500      0.0000    739.9756     11.3511     87.7411
   742.0000      0.0000    746.6497     11.1019     89.9568
   742.2500      0.0000    749.9767     10.8462     90.8832
   742.5000      0.0000    749.5598     10.5772     91.1561
   742.7500      0.0000    748.7815     10.3079     91.2342
   743.0000      0.0000    752.5237     10.0769     91.0602
   743.2500      0.0000    762.9161      9.9209     90.3103
   743.5000      0.0000    777.5408      9.8459     88.9038
   743.7500      0.0000    791.1292      9.8275     87.1533
   744.0000      0.0000    799.0030      9.8331     85.6871
   744.2500      0.0000    799.6710      9.8375     85.4679
   744.5000      0.0000    794.8011      9.8262     87.6351
   744.7500      0.0000    787.0731      9.7914     92.9917
   745.0000      0.0000    778.2756      9.7242    101.5613
   745.2500      0.0000    769.5602      9.6136    112.3770
   745.5000      0.0000    762.9236      9.4651    123.2074
   745.7500      0.0000    760.8964      9.3108    130.7477
   746.0000      0.0000    763.8939      9.1673    132.2398
   746.2500      0.0000    769.0637      8.9902    127.7439
   746.5000      0.0000    772.7709      8.7180    120.4969
   746.7500      0.0000    773.6096      8.3566    114.2829
   747.0000      0.0000    772.7903      7.9749    110.3791
   747.2500     -2.0000    772.5910      7.6250    107.3725
   747.5000      2.0000    774.6144      7.3052    103.4353
   747.7500      0.0000    778.2773      6.9918     98.0217
   748.0000      0.0000    780.4863      6.6828     91.8359
   748.2500      0.0000    778.1761      6.4147     86.1919
   748.5000      0.0000    772.2121      6.2363     82.3222
   748.7500      0.0000    767.5153      6.1576     80.4480
   749.0000      0.0000    768.1716      6.1282     79.4098
   749.2500      0.0000    773.3644      6.0914     77.8629
   749.5000      0.0000    778.9188      6.0523     76.1452
   749.7500      0.0000    781.9238      6.0755     76.5910
   750.0000      0.0000    783.4828      6.2237     81.7095
   750.2500      0.0000    787.6663      6.5130     92.1275
   750.5000      0.0000    797.3215      6.9136    106.2994
   750.7500      0.0000    810.1509      7.3768    121.8935
   751.0000      0.0000    819.5613      7.8671    137.1546
   751.2500      0.0000    820.0596      8.3801    150.9627
   751.5000      0.0000    811.4796      8.9366    162.0626
   751.7500      0.0000    798.1511      9.5564    169.1090
   752.0000      0.0000    785.1691     10.2282    171.9205
   752.2500      0.0000    775.6349     10.8948    172.2366
   752.5000      0.0000    770.1627     11.4689    172.5450
   752.7500      0.0000    767.7892     11.8779    174.1102
   753.0000      0.0000    767.1664     12.1036    176.3025
   753.2500      0.0000    767.2830     12.1857    177.6310
   753.5000      0.0000    767.5939     12.1883    177.1546
   753.7500      0.0000    767.8345     12.1644    175.1032
   754.0000      0.0000    767.8216     12.1446    172.5327
   754.2500      0.0000    767.1138     12.1507    170.3737
   754.5000      0.0000    764.4471     12.2063    168.6351
   754.7500      0.0000    757.1835     12.3299    166.6090
   755.0000      0.0000    741.9778     12.5166    163.6957
   755.2500      0.0000    717.9597     12.7314    159.7845
   755.5000      0.0000    689.9437     12.9269    155.1895
   755.7500      0.0000    666.5251     13.0696    150.6974
   756.0000      0.0000    653.9540     13.1525    147.4142
   756.2500      0.0000    653.9064     13.1825    145.9814
   756.5000      0.0000    666.3963     13.1576    145.8440
   756.7500      0.0000    689.9012     13.0577    145.7539
   757.0000      0.0000    718.5417     12.8551    145.1280
   757.2500      0.0000    744.0930     12.5304    144.5475
   757.5000      0.0000    761.7394     12.0852    144.8160
   757.7500      0.0000    771.8513     11.5487    145.9222
   758.0000      0.0000    777.2712     10.9754    147.0611
