~Version Information
VERS.                      2.0: CWLS Log ASCII Standard - VERSION 2.0
WRAP.                       NO: One line per depth step
~Well Information Block
STRT.FT               555.0000: 
STOP.FT              2322.2000: 
STEP.FT                 0.1000: 
NULL.                -999.2500: 
COMP.          Pioneer Natural Resources: COMPANY
WELL.          Fittipaldi 21-12: WELL
FLD.           Purgatoire River: FIELD
LOC.           207' FNL & 2110' FWL--: LOCATION
CNTY.               Las Animas: COUNTY
SRVC.                Patterson: SERVICE COMPANY
DATE.          Wed Mar 22 07:11:06 2006: LOG DATE
UWI.           05 071 08492 00: UNIQUE WELL ID
STAT.                 Colorado: STATE
~Curve Information Block
DEPT.FT            0 000 00 00: Depth
DCAL.in                       : CDL Caliper
RHOB.g/cc                     : CDL Bulk Density
RHOC.g/cc                     : CDL Density Correction
DPOR.pu                       : CDL Density Porosity
NPOR.pu                       : Neutron Porosity
GR.GAPI                       : Gamma Ray
~Parameter Information Block
~A  Depth       DCAL        RHOB        RHOC        DPOR        NPOR         GR     
# ...
  2177.4000      7.7544      2.4154      0.0295     14.2212     28.0751     57.4768
  2177.5000      7.7524      2.4067      0.0489     14.7433     29.1013     60.8939
  2177.6000      7.7524      2.4107      0.0309     14.5049     29.4390     65.0982
  2177.7000      7.7524      2.4229      0.0629     13.7627     29.0800     66.6191
  2177.8000      7.7525      2.4387      0.0548     12.8072     28.9185     64.7423
  2177.9000      7.7525      2.4518      0.0862     12.0135     29.0313     61.7190
  2178.0000      7.7599      2.4579      0.0838     11.6445     28.9221     60.0549
  2178.1000      7.7599      2.4663      0.0748     11.1348     28.6999     61.9603
  2178.2000      7.7599      2.4844      0.0846     10.0388     28.4994     64.9366
  2178.3000      7.7693      2.5047      0.0789      8.8052     28.3268     64.8443
  2178.4000      7.7693      2.5184      0.0741      7.9741     28.3853     63.5158
  2178.5000      7.7700      2.5276      0.0569      7.4180     28.4537     66.2821
  2178.6000      7.7700      2.5368      0.0755      6.8604     28.1968     72.6039
  2178.7000      7.7700      2.5390      0.0815      6.7290     28.0229     75.2324
  2178.8000      7.7677      2.5287      0.0745      7.3520     28.3766     73.5374
  2178.9000      7.7677      2.5195      0.0228      7.9120     28.8512     73.2357
  2179.0000      7.7688      2.5262      0.0523      7.5043     28.8768     72.1826
  2179.1000      7.7688      2.5455      0.0932      6.3347     28.4672     67.8954
  2179.2000      7.7688      2.5656      0.0786      5.1138     27.7796     64.2109
  2179.3000      7.7681      2.5767      0.0856      4.4406     26.8881     61.6647
  2179.4000      7.7681      2.5754      0.0763      4.5187     25.9834     58.8567
  2179.5000      7.7675      2.5690      0.0570      4.9106     25.3556     57.4830
  2179.6000      7.7675      2.5615      0.0773      5.3607     25.0903     58.2492
  2179.7000      7.7675      2.5530      0.0643      5.8760     24.9784     60.0268
  2179.8000      7.7658      2.5536      0.0402      5.8395     24.9210     61.3368
  2179.9000      7.7658      2.5728      0.0254      4.6800     24.8903     61.1663
  2180.0000      7.7633      2.5977      0.0708      3.1714     24.8485     58.9290
  2180.1000      7.7633      2.6007      0.0907      2.9887     24.9318     56.3160
  2180.2000      7.7633      2.5753      0.0368      4.5282     24.9677     55.8326
  2180.3000      7.7542      2.5487     -0.0183      6.1396     24.5692     56.3121
  2180.4000      7.7542      2.5506      0.0203      6.0212     23.8383     55.9139
  2180.5000      7.7330      2.5826      0.0489      4.0836     23.0081     55.6153
  2180.6000      7.7330      2.6204      0.0829      1.7953     22.2651     55.3566
  2180.7000      7.7330      2.6358      0.1192      0.8605     21.9033     54.9635
  2180.8000      7.7213      2.6208      0.0952      1.7727     21.9973     55.2080
  2180.9000      7.7213      2.5974      0.0288      3.1860     22.3721     55.1547
  2181.0000      7.7277      2.5875      0.0695      3.7890     22.8819     54.2407
  2181.1000      7.7277      2.5818      0.0504      4.1360     23.3231     55.2151
  2181.2000      7.7277      2.5595      0.0668      5.4871     23.4983     59.6200
  2181.3000      7.7306      2.5190      0.0088      7.9392     23.6203     62.7710
  2181.4000      7.7306      2.4826     -0.0200     10.1441     24.1245     62.1350
  2181.5000      7.7156      2.4698     -0.0195     10.9241     24.9009     61.8126
  2181.6000      7.7156      2.4788     -0.0021     10.3759     25.1333     62.3578
  2181.7000      7.7156      2.4947      0.0185      9.4139     24.4574     60.6031
  2181.8000      7.7004      2.5150      0.0176      8.1822     23.6585     57.8485
  2181.9000      7.7004      2.5534      0.0494      5.8524     23.5472     57.1427
  2182.0000      7.7099      2.5976      0.1401      3.1748     24.0322     58.0760
  2182.1000      7.7099      2.6129      0.1095      2.2515     24.4438     58.8923
  2182.2000      7.7099      2.5946      0.0503      3.3589     24.3460     60.2141
  2182.3000      7.7269      2.5690      0.0573      4.9088     24.0428     62.7646
  2182.4000      7.7269      2.5537      0.0505      5.8378     23.7752     64.2430
  2182.5000      7.7364      2.5450      0.0713      6.3618     23.3976     62.6738
  2182.6000      7.7364      2.5416      0.0489      6.5715     23.1086     59.8761
  2182.7000      7.7364      2.5512      0.0497      5.9893     23.2545     58.4125
  2182.8000      7.7378      2.5662      0.0898      5.0763     23.5587     60.3440
  2182.9000      7.7378      2.5700      0.0335      4.8476     23.6201     64.8964
  2183.0000      7.7297      2.5704      0.0383      4.8267     23.6212     67.3204
  2183.1000      7.7297      2.5856      0.0588      3.9035     23.5311     65.3778
  2183.2000      7.7297      2.6063      0.1115      2.6506     23.0818     62.3811
  2183.3000      7.7153      2.6092      0.1042      2.4754     22.6510     62.7998
  2183.4000      7.7153      2.5959      0.0892      3.2774     22.6395     65.2868
  2183.5000      7.7040      2.5821      0.0869      4.1175     23.0178     63.9601
  2183.6000      7.7040      2.5700      0.0578      4.8480     23.6956     57.6088
  2183.7000      7.7040      2.5569      0.0400      5.6435     24.4387     52.6379
  2183.8000      7.7090      2.5447      0.0602      6.3847     24.9305     53.1063
  2183.9000      7.7090      2.5349      0.0398      6.9728     24.9884     54.6057
  2184.0000      7.7248      2.5308      0.0218      7.2266     24.6530     53.1305
  2184.1000      7.7248      2.5392      0.0071      6.7143     24.5171     52.3468
  2184.2000      7.7248      2.5596      0.0576      5.4804     24.7755     54.5790
  2184.3000      7.7415      2.5779      0.0744      4.3685     24.7468     57.0315
  2184.4000      7.7415      2.5856      0.0638      3.9013     24.3470     57.4870
  2184.5000      7.7447      2.5854      0.0573      3.9128     23.9442     56.1967
  2184.6000      7.7447      2.5798      0.0544      4.2542     23.6284     56.1819
  2184.7000      7.7447      2.5715      0.0234      4.7574     23.5348     58.7665
  2184.8000      7.7329      2.5687      0.0356      4.9264     23.7333     61.7889
  2184.9000      7.7329      2.5752      0.0493      4.5315     24.0418     62.5509
  2185.0000      7.7310      2.5816      0.0813      4.1455     24.2413     60.1696
  2185.1000      7.7310      2.5844      0.0364      3.9728     24.1449     55.7724
  2185.2000      7.7310      2.5986      0.0467      3.1159     23.6283     50.8011
  2185.3000      7.7423      2.6220      0.1129      1.6962     22.9292     46.5026
  2185.4000      7.7423      2.6347      0.0766      0.9261     22.4661     43.6949
  2185.5000      7.7513      2.6330      0.0598      1.0302     22.2947     42.3610
  2185.6000      7.7513      2.6206      0.1112      1.7807     22.3141     40.7966
  2185.7000      7.7513      2.6033      0.0490      2.8324     22.5439     39.1609
  2185.8000      7.7497      2.5892      0.0247      3.6874     23.0025     40.4867
  2185.9000      7.7497      2.5766      0.0257      4.4456     23.6966     44.9072
  2186.0000      7.7538      2.5639      0.0482      5.2197     24.1186     47.6857
  2186.1000      7.7538      2.5609      0.0421      5.3994     23.8814     46.8429
  2186.2000      7.7538      2.5730      0.0157      4.6678     23.3982     46.6335
  2186.3000      7.7683      2.5815      0.0571      4.1521     23.1392     49.0945
  2186.4000      7.7683      2.5675      0.0398      4.9974     23.1344     50.4554
  2186.5000      7.7767      2.5397      0.0068      6.6847     23.1430     47.8416
  2186.6000      7.7767      2.5221     -0.0109      7.7526     23.0582     43.3568
  2186.7000      7.7767      2.5274     -0.0147      7.4300     22.9563     41.1548
  2186.8000      7.7753      2.5398      0.0485      6.6800     22.8299     41.8443
  2186.9000      7.7753      2.5370      0.0356      6.8495     22.7117     44.1337
