~Version Information
VERS.                      2.0: CWLS Log ASCII Standard - VERSION 2.0
WRAP.                       NO: One line per depth step
~Well Information Block
STRT.FT                 0.0000: 
STOP.FT              1981.7500: 
STEP.FT                 0.2500: 
NULL.                -999.2500: 
COMP.          Petrogulf Corporation: COMPANY
WELL.          Collister 17-31R: WELL
FLD.           Purgatorie River: FIELD
LOC.           962' FNL & 1520' FEL: LOCATION
STAT.                 Colorado: State
CNTY.               Las Animas: COUNTY
CTRY. USA : Country
SECT. 17 : Section
TOWN. 33S : Township
RANG. 67W : Range
SRVC.                Patterson: SERVICE COMPANY
DATE.          Fri Jan 06 10:32:29 2006: LOG DATE
API. 05-071-08436                         : UNIQUE WELL ID
~Curve Information Block
DEPT.FT            0 000 00 00: Depth
CCL.                          : Casing Collar Locator
TT3.usec                      : CBL 3' Travel Time
AMP3.mV                       : CBL 3' Amplitude
GR.GAPI                       : Gamma Ray
~Parameter Information Block
~A  Depth       CCL         TT3         AMP3         GR     
# ...
  1172.5000      0.0000    664.7609      7.3416    145.2696
  1172.7500      0.0000    664.6346      7.4089    142.1124
  1173.0000      0.0000    664.5292      7.4622    138.3628
  1173.2500      0.0000    664.4211      7.5953    134.0480
  1173.5000      0.0000    664.2886      7.8524    129.5854
  1173.7500      0.0000    664.1038      8.1677    125.6170
  1174.0000      0.0000    663.9391      8.4002    122.2922
  1174.2500      0.0000    663.9404      8.4469    119.2754
  1174.5000      0.0000    664.0800      8.3321    116.3884
  1174.7500      0.0000    664.2414      8.1721    113.6193
  1175.0000      0.0000    664.4911      8.0644    110.7550
  1175.2500      0.0000    664.9246      8.0276    107.8471
  1175.5000      0.0000    665.4489      8.0305    105.8743
  1175.7500      0.0000    665.8210      8.0238    105.9665
  1176.0000      0.0000    665.8315      7.9754    107.9991
  1176.2500      0.0000    665.5759      7.9179    110.6825
  1176.5000      0.0000    665.3212      7.8900    113.0520
  1176.7500      0.0000    665.2348      7.8545    115.3630
  1177.0000      0.0000    665.7550      7.7368    118.6088
  1177.2500      0.0000    668.1791      7.5139    123.5601
  1177.5000      0.0000    674.1656      7.2597    130.0327
  1177.7500      0.0000    683.2349      7.0950    136.5629
  1178.0000      0.0000    692.3911      7.0724    140.8933
  1178.2500      0.0000    700.5558      7.1206    141.3553
  1178.5000      0.0000    706.7597      7.1236    138.0785
  1178.7500      0.0000    704.8860      7.0612    132.8311
  1179.0000      0.0000    692.5901      7.0029    127.6854
  1179.2500      0.0000    678.8693      6.9792    123.8717
  1179.5000      0.0000    672.7772      6.9636    121.7472
  1179.7500      0.0000    674.3732      6.9421    121.4128
  1180.0000      0.0000    681.3787      6.9241    123.0161
  1180.2500      0.0000    692.2924      6.9328    126.4626
  1180.5000      0.0000    701.4014      6.9973    130.8536
  1180.7500      0.0000    702.1063      7.1028    134.3040
  1181.0000      0.0000    691.8746      7.1899    134.8316
  1181.2500      0.0000    671.1356      7.2245    132.0038
  1181.5000      0.0000    645.7618      7.2197    127.4899
  1181.7500      0.0000    624.1002      7.2164    123.5928
  1182.0000      0.0000    608.6197      7.2531    121.4153
  1182.2500      0.0000    599.6539      7.3085    120.6260
  1182.5000      0.0000    599.5651      7.3207    120.4135
  1182.7500      0.0000    607.8511      7.2859    120.2387
  1183.0000      0.0000    619.7439      7.2675    119.9025
  1183.2500      0.0000    632.1498      7.2933    119.3997
  1183.5000      0.0000    644.9952      7.3112    118.9037
  1183.7500      0.0000    656.0612      7.2731    118.7443
  1184.0000      0.0000    662.3942      7.2128    119.1680
  1184.2500      0.0000    664.5645      7.1986    120.0696
  1184.5000      0.0000    664.6218      7.2309    120.9982
  1184.7500      0.0000    662.3232      7.2441    121.4705
  1185.0000      0.0000    654.4109      7.2065    121.3059
  1185.2500      0.0000    638.9786      7.1693    120.6824
  1185.5000      0.0000    622.2337      7.1960    119.8353
  1185.7500      0.0000    615.6284      7.2833    118.7324
  1186.0000      0.0000    623.5643      7.4026    117.1022
  1186.2500      0.0000    638.8871      7.5521    114.8140
  1186.5000      0.0000    649.3178      7.6939    112.1927
  1186.7500      0.0000    648.2066      7.6954    109.7542
  1187.0000      0.0000    642.9908      7.4342    107.5318
  1187.2500      0.0000    647.7543      7.0731    105.0203
  1187.5000      0.0000    663.2003      7.0298    101.9781
  1187.7500      0.0000    669.2395      7.4179     98.8822
  1188.0000      2.0000    650.8366      7.8857     96.3762
  1188.2500      0.0000    625.6793      8.1595     94.7784
  1188.5000     -2.0000    620.2142      8.2916     94.3999
  1188.7500      0.0000    635.3428      8.3820     95.6711
  1189.0000      0.0000    655.5524      8.4064     98.3605
  1189.2500      0.0000    669.6951      8.3623    101.1790
  1189.5000      0.0000    679.6502      8.3215    102.9050
  1189.7500      0.0000    694.2952      8.2084    103.8001
  1190.0000      0.0000    713.8424      7.9554    105.3330
  1190.2500      0.0000    730.3718      7.8005    108.4600
  1190.5000      0.0000    738.6992      7.8445    112.6729
  1190.7500      0.0000    738.1102      7.8029    116.7506
  1191.0000      0.0000    730.3628      7.5459    119.7690
  1191.2500      0.0000    720.6632      7.2715    121.0664
  1191.5000      0.0000    716.5936      7.1281    119.9722
  1191.7500      0.0000    721.8160      7.0728    116.4668
  1192.0000      0.0000    731.6894      7.0237    111.8701
  1192.2500      0.0000    737.7667      6.9607    107.9551
  1192.5000      0.0000    735.1269      6.8847    105.2801
  1192.7500      0.0000    722.4466      6.7624    103.0059
  1193.0000      0.0000    700.3481      6.5497    100.3911
  1193.2500      0.0000    670.0665      6.2510     97.9520
  1193.5000      0.0000    630.6663      5.9502     96.8903
  1193.7500      0.0000    588.9049      5.7633     97.4932
  1194.0000      0.0000    565.3728      5.7205     98.2520
  1194.2500      0.0000    573.7924      5.7416     96.7991
  1194.5000      0.0000    604.5599      5.7516     92.0178
  1194.7500      0.0000    639.2070      5.7257     85.1542
  1195.0000      0.0000    670.5450      5.6582     78.6041
  1195.2500      0.0000    698.7266      5.5883     73.8146
  1195.5000      0.0000    718.1110      5.5690     70.7124
  1195.7500      0.0000    720.7829      5.5741     68.8640
  1196.0000      0.0000    708.1346      5.5328     68.3321
  1196.2500      0.0000    690.5947      5.4344     69.2643
  1196.5000      0.0000    675.5225      5.3358     71.4833
  1196.7500      0.0000    661.4849      5.2987     74.9318
  1197.0000      0.0000    648.0895      5.3283     79.8669
  1197.2500      0.0000    640.8290      5.3708     86.1830
  1197.5000      0.0000    639.6774      5.3833     93.0233
  1197.7500      0.0000    636.6743      5.3715     99.4286
  1198.0000      0.0000    629.4877      5.3454    104.8647
  1198.2500      0.0000    625.4097      5.2978    108.7261
  1198.5000      0.0000    630.7236      5.2396    109.8433
  1198.7500      0.0000    644.4202      5.2234    107.1825
  1199.0000      0.0000    662.2569      5.3012    101.0368
  1199.2500      0.0000    679.7067      5.4560     93.0388
  1199.5000      0.0000    691.6667      5.6282     84.7528
  1199.7500      0.0000    696.4705      5.8055     76.4575
  1200.0000      0.0000    695.7425      6.0116     67.6113
  1200.2500      0.0000    688.2869      6.2264     58.4541
  1200.5000      0.0000    673.0160      6.3878     50.5859
  1200.7500      0.0000    655.8549      6.4523     45.5856
  1201.0000      0.0000    647.2145      6.4234     43.4467
  1201.2500      0.0000    652.3370      6.3502     42.7617
  1201.5000      0.0000    666.6076      6.2817     42.0697
  1201.7500      0.0000    682.1617      6.2126     40.8408
  1202.0000      0.0000    694.5382      6.1172     39.6826
  1202.2500      0.0000    701.1868      6.0109     39.9332
  1202.5000      0.0000    699.3474      5.9177     42.6889
  1202.7500      0.0000    690.4498      5.8231     47.8998
  1203.0000      0.0000    682.6381      5.7037     54.3659
  1203.2500      0.0000    682.1458      5.5743     60.5588
  1203.5000      0.0000    686.5349      5.4876     65.3912
  1203.7500      0.0000    690.1276      5.4768     68.5361
  1204.0000      0.0000    689.5564      5.5035     70.5200
  1204.2500      0.0000    683.5699      5.4957     72.6795
  1204.5000      0.0000    673.3890      5.4303     76.7932
  1204.7500      0.0000    663.4067      5.3387     84.3029
  1205.0000      0.0000    658.1207      5.2441     95.1435
  1205.2500      0.0000    657.4171      5.1323    106.8434
  1205.5000      0.0000    658.0284      4.9888    115.3961
  1205.7500      0.0000    659.8702      4.8344    118.1610
