~Version Information
VERS.                      2.0: CWLS Log ASCII Standard - VERSION 2.0
WRAP.                       NO: One line per depth step
~Well Information Block
STRT.FT               620.0000: 
STOP.FT              3067.2000: 
STEP.FT                 0.1000: 
NULL.                -999.2500: 
COMP.          Pioneer Natural Resources: COMPANY
WELL.          Interceptor 43-13 Kv: WELL
FLD.           Purgatoire River: FIELD
LOC.           2073' FSL & 519' FEL--: LOCATION
PROV.                 Colorado: PROVINCE
CNTY.               Las Animas: COUNTRY
SRVC.                Patterson: SERVICE COMPANY
DATE.          Sat Jan 14 20:27:27 2006: LOG DATE
UWI.           05 071 08655 00: UNIQUE WELL ID
~Curve Information Block
DEPT.FT            0 000 00 00: Depth
DCAL.in                       : CDL Caliper
RHOB.g/cc                     : CDL Bulk Density
RHOC.g/cc                     : CDL Density Correction
DPOR.pu                       : CDL Density Porosity
NPOR.pu                       : Neutron Porosity
GR.GAPI                       : Gamma Ray
~Parameter Information Block
~A  Depth       DCAL        RHOB        RHOC        DPOR        NPOR         GR     
# ...
  1426.4000      8.0560      2.5330      0.0719      7.0909     63.7081    158.9820
  1426.5000      8.0550      2.4974     -0.0128      9.2508     63.7081    158.8133
  1426.6000      8.0550      2.4812     -0.0103     10.2279     63.7081    152.8303
  1426.7000      8.0550      2.4839      0.0357     10.0643     63.7081    149.7579
  1426.8000      8.0478      2.4880      0.0392      9.8190     63.7081    154.3554
  1426.9000      8.0478      2.4892      0.0335      9.7445     63.7081    159.5173
  1427.0000      8.0431      2.4941      0.0126      9.4504     63.7081    157.6174
  1427.1000      8.0431      2.5068      0.0537      8.6765     63.7081    149.5889
  1427.2000      8.0431      2.5231      0.0796      7.6907     63.7081    141.4138
  1427.3000      8.0427      2.5356      0.0730      6.9353     63.7081    139.1365
  1427.4000      8.0427      2.5419      0.0863      6.5543     63.7081    139.6454
  1427.5000      8.0437      2.5423      0.0558      6.5277     63.7081    136.3616
  1427.6000      8.0437      2.5372      0.0381      6.8375     63.7081    131.9892
  1427.7000      8.0437      2.5258      0.0247      7.5243     63.7081    131.8558
  1427.8000      8.0444      2.5096      0.0259      8.5096     63.7081    134.7829
  1427.9000      8.0444      2.4904      0.0086      9.6750     63.7081    137.1999
  1428.0000      8.0432      2.4774     -0.0419     10.4591     63.7081    138.1507
  1428.1000      8.0432      2.4805     -0.0224     10.2703     63.7081    137.4449
  1428.2000      8.0432      2.4874      0.0310      9.8552     63.7081    135.8391
  1428.3000      8.0406      2.4830     -0.0026     10.1219     63.7081    135.2117
  1428.4000      8.0406      2.4743      0.0309     10.6478     63.7081    136.5235
  1428.5000      8.0429      2.4677     -0.0069     11.0513     63.7081    139.6587
  1428.6000      8.0429      2.4628      0.0216     11.3430     63.7081    144.2281
  1428.7000      8.0429      2.4684      0.0074     11.0076     63.7081    147.9461
  1428.8000      8.0525      2.4900      0.0328      9.6970     63.7081    149.5726
  1428.9000      8.0525      2.5157      0.0443      8.1369     63.7081    147.1929
  1429.0000      8.0638      2.5248      0.0822      7.5889     63.7081    141.8769
  1429.1000      8.0638      2.5107      0.0327      8.4440     63.7081    140.6496
  1429.2000      8.0638      2.4931      0.0457      9.5064     63.7081    146.0067
  1429.3000      8.0809      2.4899      0.0053      9.7060     63.7081    150.9449
  1429.4000      8.0809      2.4873      0.0541      9.8584     63.7081    149.0964
  1429.5000      8.1521      2.4545      0.0437     11.8457     63.7081    140.8391
  1429.6000      8.1521      2.3888      0.0190     15.8291     63.7081    132.8548
  1429.7000      8.1521      2.3214     -0.0035     19.9153     63.7081    132.6506
  1429.8000      8.3156      2.2751     -0.0154     22.7187     63.7081    139.7522
  1429.9000      8.3156      2.2442      0.0133     24.5958     63.7081    145.5280
  1430.0000      8.4600      2.2196     -0.0534     26.0832     63.7081    141.8561
  1430.1000      8.4600      2.2093     -0.0101     26.7105     63.7081    133.1456
  1430.2000      8.4600      2.2201      0.0300     26.0545     63.7081    129.7695
  1430.3000      8.4310      2.2509      0.0484     24.1867     63.7081    128.8321
  1430.4000      8.4310      2.2978      0.0812     21.3444     63.7081    123.9516
  1430.5000      8.2832      2.3597      0.1418     17.5945     63.7081    119.1654
  1430.6000      8.2832      2.4393      0.1940     12.7687     63.7081    119.0397
  1430.7000      8.2832      2.5231      0.2484      7.6906     63.7081    123.8860
  1430.8000      8.1746      2.5786      0.2393      4.3284     63.7081    128.7817
  1430.9000      8.1746      2.5937      0.1280      3.4107     63.7081    130.7530
  1431.0000      8.1388      2.5877      0.0747      3.7731     63.7081    132.6384
  1431.1000      8.1388      2.5768      0.0685      4.4390     63.7081    135.0795
  1431.2000      8.1388      2.5682      0.0360      4.9550     63.7081    138.7891
  1431.3000      8.1337      2.5778     -0.0060      4.3779     63.7081    141.8311
  1431.4000      8.1337      2.6021      0.0905      2.9026     63.7081    138.9965
  1431.5000      8.1335      2.6190      0.0384      1.8813     63.7081    133.1658
  1431.6000      8.1335      2.6317      0.0238      1.1061     63.7081    132.5694
  1431.7000      8.1335      2.6438      0.0975      0.3768     63.7081    138.7986
  1431.8000      8.1272      2.6346      0.0779      0.9328     63.7081    145.0043
  1431.9000      8.1272      2.6040      0.0450      2.7899     63.7081    147.6243
  1432.0000      8.1212      2.5826     -0.0037      4.0834     63.7081    149.0396
  1432.1000      8.1212      2.5852      0.0499      3.9243     63.7081    149.9674
  1432.2000      8.1212      2.5896      0.0387      3.6626     63.7081    149.4903
  1432.3000      8.1212      2.5842      0.0204      3.9897     63.7081    150.0280
  1432.4000      8.1212      2.5822      0.0590      4.1096     63.7081    154.5484
  1432.5000      8.1288      2.5830      0.0533      4.0582     63.7081    158.8719
  1432.6000      8.1288      2.5832      0.0276      4.0500     63.7081    153.4529
  1432.7000      8.1288      2.5939      0.0312      3.4020     63.7081    139.4798
  1432.8000      8.1560      2.6104      0.0426      2.4005     63.7081    130.3187
  1432.9000      8.1560      2.6114      0.0478      2.3411     63.7081    133.9532
  1433.0000      8.1730      2.5923      0.0551      3.4999     63.7081    145.7472
  1433.1000      8.1730      2.5695      0.0076      4.8785     63.7081    154.5231
  1433.2000      8.1730      2.5599      0.0101      5.4629     63.7081    150.8408
  1433.3000      8.1398      2.5607      0.0296      5.4143     63.7081    139.9330
  1433.4000      8.1398      2.5648      0.0357      5.1661     63.7081    136.3088
  1433.5000      8.1063      2.5793      0.0333      4.2854     63.7081    143.5950
  1433.6000      8.1063      2.6064      0.0858      2.6402     63.7081    153.4262
  1433.7000      8.1063      2.6309      0.0693      1.1575     63.7081    156.3145
  1433.8000      8.0967      2.6439      0.0839      0.3682     63.7081    151.4404
  1433.9000      8.0967      2.6561      0.0789     -0.3711     63.7081    147.4015
  1434.0000      8.0941      2.6712      0.1193     -1.2847     63.7081    146.3821
  1434.1000      8.0941      2.6713      0.0977     -1.2887     63.7081    144.1118
  1434.2000      8.0941      2.6558      0.0207     -0.3522     63.7081    141.9808
  1434.3000      8.0938      2.6518      0.0462     -0.1116     63.7081    141.5396
  1434.4000      8.0938      2.6571      0.0941     -0.4278     63.7081    142.4299
  1434.5000      8.0945      2.6419      0.0381      0.4886     63.7081    143.7321
  1434.6000      8.0945      2.6080     -0.0089      2.5451     63.7081    140.8587
  1434.7000      8.0945      2.5775     -0.0098      4.3965     63.7081    136.0691
  1434.8000      8.0958      2.5579     -0.0341      5.5812     63.7081    136.4044
  1434.9000      8.0958      2.5509     -0.0192      6.0033     63.7081    136.8964
  1435.0000      8.0982      2.5512     -0.0083      5.9856     63.7081    131.2236
  1435.1000      8.0982      2.5505     -0.0039      6.0304     63.7081    127.1424
  1435.2000      8.0982      2.5602     -0.0377      5.4399     63.7081    132.5111
  1435.3000      8.1008      2.5907     -0.0076      3.5947     63.7081    139.9337
  1435.4000      8.1008      2.6266      0.0311      1.4206     63.7081    139.7556
  1435.5000      8.1022      2.6479      0.0584      0.1287     63.7081    134.7484
  1435.6000      8.1022      2.6437      0.0931      0.3790     63.7081    129.6905
  1435.7000      8.1022      2.6204      0.0267      1.7958     63.7081    126.7539
  1435.8000      8.1003      2.6043     -0.0029      2.7687     63.7081    126.7004
  1435.9000      8.1003      2.6149      0.0052      2.1258     63.7081    126.2016
