~Version Information
VERS.                      2.0: CWLS Log ASCII Standard - VERSION 2.0
WRAP.                       NO: One line per depth step
~Well Information Block
STRT.FT               230.2000: 
STOP.FT              1518.7000: 
STEP.FT                 0.1000: 
NULL.                -999.2500: 
COMP.          Pioneer Natural Resources: COMPANY
WELL.          Mow 8-14-33-67 Tr: WELL
FLD.           Purgatoire River: FIELD
LOC.           2258' FNL & 929' FEL: LOCATION
PROV.                 Colorado: PROVINCE
CNTY.               Las Animas: COUNTRY
SRVC.                Patterson: SERVICE COMPANY
DATE.          Mon Jan 30 11:22:55 2006: LOG DATE
UWI.           05 071 08684 00: UNIQUE WELL ID
~Curve Information Block
DEPT.FT            0 000 00 00: Depth
DCAL.in                       : CDL Caliper
DPOR.pu                       : CDL Density Porosity
RHOB.g/cc                     : CDL Bulk Density
RHOC.g/cc                     : CDL Density Correction
GR.GAPI                       : Gamma Ray
~Parameter Information Block
~A  Depth       DCAL        DPOR        RHOB        RHOC         GR     
# ...
  1171.0000      8.0791     38.1632      2.0203      0.2832     68.2006
  1171.1000      8.0791     31.2351      2.1346      0.3029     69.0881
  1171.2000      8.0791     24.7314      2.2419      0.2852     70.2732
  1171.3000      8.0903     18.9184      2.3378      0.2588     82.1851
  1171.4000      8.0903     14.1274      2.4169      0.2374    101.4555
  1171.5000      8.0423     10.4177      2.4781      0.1529    107.5519
  1171.6000      8.0423      8.0572      2.5171      0.0963     97.4172
  1171.7000      8.0423      7.5584      2.5253      0.0697     91.5218
  1171.8000      7.9553      8.3879      2.5116      0.0466    100.5533
  1171.9000      7.9553      9.0699      2.5003      0.0164    105.5454
  1172.0000      7.9047      8.7801      2.5051      0.0204     94.8629
  1172.1000      7.9047      7.8159      2.5210      0.0321     86.9200
  1172.2000      7.9047      6.6387      2.5405      0.0449     94.9159
  1172.3000      7.8989      5.5475      2.5585      0.0376    108.9793
  1172.4000      7.8989      4.6417      2.5734      0.0444    115.7086
  1172.5000      7.9044      3.7155      2.5887      0.0531    116.7854
  1172.6000      7.9044      3.1008      2.5988      0.1144    124.6359
  1172.7000      7.9044      3.3578      2.5946      0.0671    140.4006
  1172.8000      7.9067      3.8224      2.5869      0.0511    145.8737
  1172.9000      7.9067      3.4141      2.5937      0.0374    131.3785
  1173.0000      7.9069      2.3477      2.6113      0.0669    117.3458
  1173.1000      7.9069      2.0172      2.6167      0.1253    115.7986
  1173.2000      7.9069      3.0071      2.6004      0.0847    122.4308
  1173.3000      7.9069      3.8254      2.5869      0.0552    136.9594
  1173.4000      7.9069      3.4414      2.5932      0.1073    147.9901
  1173.5000      7.9062      2.9151      2.6019      0.0714    137.3754
  1173.6000      7.9062      2.9055      2.6021      0.0625    112.4029
  1173.7000      7.9062      3.1931      2.5973      0.0648    101.9833
  1173.8000      7.9045      3.7254      2.5885      0.0531    108.2844
  1173.9000      7.9045      3.9449      2.5849     -0.0031    107.2276
  1174.0000      7.9040      3.6157      2.5903      0.1035     97.1741
  1174.1000      7.9040      3.5534      2.5914      0.0576     94.4308
  1174.2000      7.9040      3.5180      2.5920      0.0342     99.2857
  1174.3000      7.9048      2.9626      2.6011      0.0676    101.6748
  1174.4000      7.9048      2.3814      2.6107      0.0592    105.2567
  1174.5000      7.9052      2.0062      2.6169      0.0731    115.3127
  1174.6000      7.9052      1.6064      2.6235      0.0710    121.5147
  1174.7000      7.9052      1.2221      2.6298      0.0719    123.2439
  1174.8000      7.9052      0.9510      2.6343      0.0863    129.2294
  1174.9000      7.9052      0.6830      2.6387      0.0685    130.0666
  1175.0000      7.9041      0.3409      2.6444      0.0818    118.1113
  1175.1000      7.9041      0.3046      2.6450      0.1159    109.5683
  1175.2000      7.9041      1.1127      2.6316      0.0604    109.6637
  1175.3000      7.9004      2.8500      2.6030      0.0683    107.5069
  1175.4000      7.9004      4.7387      2.5718      0.0516    105.1642
  1175.5000      7.8921      5.0753      2.5663     -0.0006    112.3555
  1175.6000      7.8921      3.1768      2.5976      0.0559    126.7603
  1175.7000      7.8921      0.5871      2.6403      0.0994    136.7475
  1175.8000      7.8781     -1.7743      2.6793      0.0527    136.7097
  1175.9000      7.8781     -4.3465      2.7217      0.0987    134.4552
  1176.0000      7.8631     -6.0478      2.7498      0.1504    139.9582
  1176.1000      7.8631     -5.5622      2.7418      0.0987    145.5975
  1176.2000      7.8631     -4.2050      2.7194      0.0415    140.7710
  1176.3000      7.8541     -3.5606      2.7088      0.0830    134.9846
  1176.4000      7.8541     -2.9592      2.6988      0.0732    137.3378
  1176.5000      7.8507     -1.7515      2.6789      0.0378    135.8928
  1176.6000      7.8507     -0.8755      2.6644      0.0211    122.0154
  1176.7000      7.8507     -1.0165      2.6668      0.0474    106.1550
  1176.8000      7.8499     -1.4446      2.6738      0.0988    100.7384
  1176.9000      7.8499     -1.4373      2.6737      0.0532    104.3939
  1177.0000      7.8522     -1.2726      2.6710      0.0836    110.9441
  1177.1000      7.8522     -1.3075      2.6716      0.0793    114.1884
  1177.2000      7.8522     -1.3345      2.6720      0.1117    108.5916
  1177.3000      7.8560     -0.5580      2.6592      0.1031    100.1439
  1177.4000      7.8560      1.2503      2.6294      0.0751     97.5494
  1177.5000      7.8602      3.0014      2.6005      0.0413    100.9085
  1177.6000      7.8602      3.9038      2.5856      0.0713    113.2742
  1177.7000      7.8602      4.3383      2.5784      0.0464    139.3261
  1177.8000      7.8626      4.4422      2.5767      0.0278    163.9997
  1177.9000      7.8626      4.1835      2.5810      0.0840    165.7523
  1178.0000      7.8612      4.0136      2.5838      0.0761    143.1620
  1178.1000      7.8612      3.9843      2.5843      0.0585    109.9201
  1178.2000      7.8612      3.5896      2.5908      0.0445     86.7285
  1178.3000      7.8635      2.9554      2.6012      0.1045     81.5566
  1178.4000      7.8635      2.8464      2.6030      0.0685     82.6723
  1178.5000      7.8725      3.4213      2.5935      0.0712     83.6763
  1178.6000      7.8725      4.1752      2.5811      0.0455     90.2768
  1178.7000      7.8725      4.6144      2.5739      0.0579    100.7901
  1178.8000      7.8780      4.5874      2.5743      0.0300    103.1786
  1178.9000      7.8780      4.5686      2.5746      0.0799     98.1273
  1179.0000      7.8790      5.0878      2.5661      0.0642     98.0146
  1179.1000      7.8790      5.2554      2.5633     -0.0021    104.7878
  1179.2000      7.8790      4.6818      2.5728      0.0729    109.8911
  1179.3000      7.8803      4.9186      2.5688      0.0961    109.2650
  1179.4000      7.8803      5.9589      2.5517      0.0180    104.0154
  1179.5000      7.8789      5.7709      2.5548      0.0564     95.1598
  1179.6000      7.8789      4.0149      2.5838      0.0506     85.0393
  1179.7000      7.8789      2.1360      2.6148      0.0663     76.6844
  1179.8000      7.8702      1.4400      2.6262      0.0932     71.5250
  1179.9000      7.8702      2.5705      2.6076      0.0722     67.9982
  1180.0000      7.8582      5.0530      2.5666      0.0723     68.6786
  1180.1000      7.8582      7.1600      2.5319     -0.0263     77.7039
  1180.2000      7.8582      7.4378      2.5273      0.0181     88.7274
  1180.3000      7.8529      6.3965      2.5445      0.0487     96.2369
  1180.4000      7.8529      5.3909      2.5611      0.0417    106.1614
  1180.5000      7.8549      5.2289      2.5637      0.0896    115.9164
  1180.6000      7.8549      6.1620      2.5483      0.0481    115.4988
  1180.7000      7.8549      7.1289      2.5324     -0.0013    112.7337
  1180.8000      7.8616      6.7660      2.5384      0.0225    116.6805
  1180.9000      7.8616      5.3394      2.5619      0.0308    117.4835
  1181.0000      7.8707      3.5562      2.5913      0.0266    106.2911
  1181.1000      7.8707      1.4422      2.6262      0.0692     87.2519
  1181.2000      7.8707     -0.1977      2.6533      0.1104     70.3523
  1181.3000      7.8769     -0.5048      2.6583      0.0952     63.7573
  1181.4000      7.8769     -0.3432      2.6557      0.0809     69.9793
  1181.5000      7.8777     -0.6065      2.6600      0.0741     79.5926
  1181.6000      7.8777     -0.6177      2.6602      0.0900     79.6649
  1181.7000      7.8777      0.3700      2.6439      0.0458     73.3940
  1181.8000      7.8754      1.9164      2.6184      0.0521     72.2289
  1181.9000      7.8754      3.1777      2.5976      0.0070     76.2209
  1182.0000      7.8742      3.8632      2.5863      0.0274     80.7415
  1182.1000      7.8742      4.2329      2.5802      0.0334     84.2408
