~Version Information
VERS.                      2.0: CWLS Log ASCII Standard - VERSION 2.0
WRAP.                       NO: One line per depth step
~Well Information Block
STRT.FT               230.2000: 
STOP.FT              1518.7000: 
STEP.FT                 0.1000: 
NULL.                -999.2500: 
COMP.          Pioneer Natural Resources: COMPANY
WELL.          Mow 8-14-33-67 Tr: WELL
FLD.           Purgatoire River: FIELD
LOC.           2258' FNL & 929' FEL: LOCATION
PROV.                 Colorado: PROVINCE
CNTY.               Las Animas: COUNTRY
SRVC.                Patterson: SERVICE COMPANY
DATE.          Mon Jan 30 11:22:55 2006: LOG DATE
UWI.           05 071 08684 00: UNIQUE WELL ID
~Curve Information Block
DEPT.FT            0 000 00 00: Depth
DCAL.in                       : CDL Caliper
DPOR.pu                       : CDL Density Porosity
RHOB.g/cc                     : CDL Bulk Density
RHOC.g/cc                     : CDL Density Correction
GR.GAPI                       : Gamma Ray
~Parameter Information Block
~A  Depth       DCAL        DPOR        RHOB        RHOC         GR     
# ...
  1339.0000      7.9483      7.8711      2.5201      0.1112    156.4439
  1339.1000      7.9483      8.1304      2.5158      0.1044    149.4487
  1339.2000      7.9483      8.4208      2.5111      0.0612    148.1738
  1339.3000      7.9534      8.0256      2.5176      0.0956    149.8118
  1339.4000      7.9534      7.3040      2.5295      0.0912    142.5319
  1339.5000      7.9567      7.0007      2.5345      0.1243    130.9900
  1339.6000      7.9567      7.2146      2.5310      0.1099    129.3865
  1339.7000      7.9567      7.6350      2.5240      0.1081    139.9678
  1339.8000      7.9582      8.1800      2.5150      0.1046    159.7253
  1339.9000      7.9582      8.5301      2.5093      0.0910    178.6626
  1340.0000      7.9591      8.1380      2.5157      0.0909    180.1652
  1340.1000      7.9591      7.2233      2.5308      0.0967    164.7683
  1340.2000      7.9591      6.9463      2.5354      0.1276    144.2520
  1340.3000      7.9597      7.5529      2.5254      0.0345    124.4748
  1340.4000      7.9597      7.9335      2.5191      0.0910    109.9377
  1340.5000      7.9581      7.8962      2.5197      0.0887    108.2132
  1340.6000      7.9581      7.8625      2.5203      0.0716    116.9622
  1340.7000      7.9581      7.5428      2.5255      0.0594    126.2987
  1340.8000      7.9552      6.7274      2.5390      0.0849    133.6792
  1340.9000      7.9552      5.5216      2.5589      0.0839    139.7118
  1341.0000      7.9551      4.2281      2.5802      0.1066    140.7168
  1341.1000      7.9551      3.9121      2.5855      0.1126    134.0126
  1341.2000      7.9551      5.1545      2.5650      0.1105    118.6878
  1341.3000      7.9575      6.5507      2.5419      0.0576    101.6136
  1341.4000      7.9575      6.5021      2.5427      0.0888     96.0074
  1341.5000      7.9583      5.6050      2.5575      0.0863     96.1957
  1341.6000      7.9583      5.1295      2.5654      0.0298     90.9191
  1341.7000      7.9583      4.9985      2.5675      0.0312     79.6090
  1341.8000      7.9570      4.7993      2.5708      0.0394     63.8149
  1341.9000      7.9570      4.8750      2.5696      0.0471     51.0136
  1342.0000      7.9560      5.4215      2.5605      0.0343     50.6879
  1342.1000      7.9560      5.7709      2.5548      0.0104     58.9203
  1342.2000      7.9560      5.1874      2.5644      0.0034     64.4232
  1342.3000      7.9567      3.7390      2.5883      0.0115     65.9898
  1342.4000      7.9567      2.2008      2.6137      0.0303     70.5501
  1342.5000      7.9590      1.3185      2.6282      0.0689     83.0941
  1342.6000      7.9590      1.5198      2.6249      0.0973    100.9087
  1342.7000      7.9590      2.2474      2.6129      0.0616    117.8241
  1342.8000      7.9605      2.3843      2.6107      0.0656    127.5001
  1342.9000      7.9605      2.2895      2.6122      0.0971    121.9106
  1343.0000      7.9597      3.1564      2.5979      0.0483    101.8884
  1343.1000      7.9597      5.0610      2.5665      0.0364     78.4786
  1343.2000      7.9597      6.8646      2.5367     -0.0084     66.5519
  1343.3000      7.9585      7.3957      2.5280      0.0313     75.0447
  1343.4000      7.9585      6.6650      2.5400      0.0373     96.4221
  1343.5000      7.9593      5.3624      2.5615      0.0368    109.4701
  1343.6000      7.9593      3.7401      2.5883      0.0295    102.1600
  1343.7000      7.9593      2.0718      2.6158      0.0797     79.9091
  1343.8000      7.9591      0.9756      2.6339      0.0616     59.9725
  1343.9000      7.9591      0.7823      2.6371      0.1086     58.8171
  1344.0000      7.9562      1.1590      2.6309      0.0501     73.0519
  1344.1000      7.9562      1.1054      2.6318      0.0664     88.5932
  1344.2000      7.9562      0.6525      2.6392      0.0946    100.0992
  1344.3000      7.9548      0.9125      2.6349      0.1026    107.9824
  1344.4000      7.9548      2.1048      2.6153      0.0650    109.1255
  1344.5000      7.9560      3.5320      2.5917      0.0502    103.1608
  1344.6000      7.9560      4.6683      2.5730      0.0459     99.2684
  1344.7000      7.9560      5.1993      2.5642      0.0250    104.7999
  1344.8000      7.9557      4.9344      2.5686      0.0396    113.0692
  1344.9000      7.9557      4.3886      2.5776      0.0628    113.9304
  1345.0000      7.9546      4.2313      2.5802     -0.0066    109.7476
  1345.1000      7.9546      4.4301      2.5769      0.0611    104.2563
  1345.2000      7.9546      4.5998      2.5741      0.0355     96.4276
  1345.3000      7.9562      4.2487      2.5799      0.0610     90.7093
  1345.4000      7.9562      3.2457      2.5964      0.0650     93.4422
  1345.5000      7.9585      1.9886      2.6172      0.0664    103.6517
  1345.6000      7.9585      0.9876      2.6337      0.0805    112.3522
  1345.7000      7.9585      0.3164      2.6448      0.0717    110.8027
  1345.8000      7.9589      0.0942      2.6484      0.1313    102.4852
  1345.9000      7.9589      0.9919      2.6336      0.1194    104.0838
  1346.0000      7.9595      3.0487      2.5997      0.0758    114.7476
  1346.1000      7.9595      5.6332      2.5571      0.0582    115.6755
  1346.2000      7.9595      7.8631      2.5203     -0.0229    106.4768
  1346.3000      7.9607      8.7884      2.5050      0.0206     98.1540
  1346.4000      7.9607      8.7619      2.5054      0.0323     89.6466
  1346.5000      7.9595      8.7070      2.5063      0.0026     81.2892
  1346.6000      7.9595      8.6125      2.5079     -0.0097     80.3682
  1346.7000      7.9595      8.9860      2.5017      0.0952     89.8019
  1346.8000      7.9580     10.8621      2.4708      0.0437    102.0326
  1346.9000      7.9580     13.4325      2.4284      0.0123    107.9555
  1347.0000      7.9579     15.2342      2.3986      0.0219    106.1698
  1347.1000      7.9579     16.2862      2.3813      0.0589     99.8400
  1347.2000      7.9579     17.0714      2.3683      0.0551     96.0030
  1347.3000      7.9570     17.6134      2.3594      0.0823     98.5808
  1347.4000      7.9570     18.6342      2.3425      0.1117    104.5668
  1347.5000      7.9553     21.1567      2.3009      0.0677    110.5568
  1347.6000      7.9553     25.1921      2.2343      0.0773    111.6054
  1347.7000      7.9553     30.3845      2.1487      0.0583    101.9818
  1347.8000      7.9558     36.8035      2.0427      0.0872     86.4941
  1347.9000      7.9558     43.7016      1.9289      0.0070     77.7673
  1348.0000      7.9711     48.5378      1.8491     -0.0434     77.4399
  1348.1000      7.9711     49.3194      1.8362     -0.0294     72.5550
  1348.2000      7.9711     46.4553      1.8835      0.0354     60.5985
  1348.3000      8.0146     41.6458      1.9628      0.0504     50.4443
  1348.4000      8.0146     36.3757      2.0498      0.1395     45.4129
  1348.5000      8.0704     31.6496      2.1278      0.1968     49.0120
  1348.6000      8.0704     27.7827      2.1916      0.2184     68.0070
  1348.7000      8.0704     24.1003      2.2523      0.1948     92.8912
  1348.8000      8.0686     19.9894      2.3202      0.2068    101.5562
  1348.9000      8.0686     15.7879      2.3895      0.1526     90.6017
  1349.0000      7.9575     12.1453      2.4496      0.0586     75.4990
  1349.1000      7.9575      9.5908      2.4918      0.0638     74.3252
  1349.2000      7.9575      8.1811      2.5150      0.0593     96.8067
  1349.3000      7.8102      7.4320      2.5274      0.0509    133.9712
  1349.4000      7.8102      6.8109      2.5376      0.0275    170.2229
  1349.5000      7.7335      6.0696      2.5499      0.0905    193.5459
  1349.6000      7.7335      5.3613      2.5615      0.0812    187.1819
  1349.7000      7.7335      4.5970      2.5741      0.1035    157.8062
  1349.8000      7.7172      4.1457      2.5816      0.1653    141.7321
  1349.9000      7.7172      4.8479      2.5700      0.1090    145.5477
  1350.0000      7.7143      6.3600      2.5451      0.0931    142.8458
  1350.1000      7.7143      7.8336      2.5207      0.0857    132.5106
