~Version Information
VERS.                      2.0: CWLS Log ASCII Standard - VERSION 2.0
WRAP.                       NO: One line per depth step
~Well Information Block
STRT.FT               550.0000: 
STOP.FT              1664.0000: 
STEP.FT                 0.2500: 
NULL.                -999.2500: 
COMP.          Pioneer Natural Resources: COMPANY
WELL.          Stock Canyon 34-33: WELL
FLD.           Purgatorie River: FIELD
LOC.           980' FSL & 2191' FEL: LOCATION
PROV.                 Colorado: PROVINCE
CNTY.               Las Animas: COUNTRY
SRVC.                Patterson: SERVICE COMPANY
DATE.          Mon Dec 05 09:58:03 2005: LOG DATE
UWI.                          : UNIQUE WELL ID
~Curve Information Block
DEPT.FT            0 000 00 00: Depth
SN.Ohm-m                      : IEL Short Normal
SP.mV                         : IEL Spontaneous Potential
DIR.Ohm-m                     : IEL Induction Resistivity
GR.GAPI                       : Gamma Ray
~Parameter Information Block
~A  Depth        SN          SP         DIR          GR     
# ...
  1253.5000      7.5097    326.0437      7.7403    104.8789
  1253.7500      7.7772    326.1544      7.7996    106.7185
  1254.0000      7.9745    326.2637      7.8440    110.3388
  1254.2500      8.0946    326.3781      7.8751    112.5152
  1254.5000      8.1441    326.4847      7.8949    115.0457
  1254.7500      8.1383    326.5597      7.9060    116.2975
  1255.0000      8.0952    326.5902      7.9109    117.0817
  1255.2500      8.0307    326.5901      7.9128    116.4087
  1255.5000      7.9578    326.5936      7.9151    113.7063
  1255.7500      7.8868    326.6343      7.9209    111.6637
  1256.0000      7.8273    326.7285      7.9326    109.9781
  1256.2500      7.7878    326.8677      7.9519    110.0180
  1256.5000      7.7750    327.0194      7.9807    110.8806
  1256.7500      7.7916    327.1303      8.0203    111.4908
  1257.0000      7.8352    327.1388      8.0724    112.7580
  1257.2500      7.8997    326.9958      8.1376    114.3315
  1257.5000      7.9770    326.6837      8.2158    117.7419
  1257.7500      8.0606    326.2178      8.3054    119.8899
  1258.0000      8.1470    325.6328      8.4036    121.2352
  1258.2500      8.2360    324.9661      8.5058    120.5869
  1258.5000      8.3294    324.2494      8.6077    118.2794
  1258.7500      8.4293    323.5100      8.7061    116.7210
  1259.0000      8.5380    322.7718      8.8022    115.3206
  1259.2500      8.6577    322.0534      8.9023    115.1399
  1259.5000      8.7908    321.3705      9.0166    115.5708
  1259.7500      8.9401    320.7436      9.1561    115.8891
  1260.0000      9.1085    320.2033      9.3282    115.8289
  1260.2500      9.3001    319.7801      9.5360    115.3441
  1260.5000      9.5202    319.4848      9.7795    114.1231
  1260.7500      9.7762    319.2962     10.0601    113.1020
  1261.0000     10.0764    319.1651     10.3803    111.3755
  1261.2500     10.4289    319.0276     10.7415    110.2519
  1261.5000     10.8414    318.8217     11.1392    109.3157
  1261.7500     11.3218    318.5038     11.5624    109.6779
  1262.0000     11.8789    318.0587     11.9970    111.7812
  1262.2500     12.5233    317.4967     12.4331    113.7132
  1262.5000     13.2661    316.8408     12.8728    116.2892
  1262.7500     14.1168    316.1129     13.3318    117.3306
  1263.0000     15.0800    315.3315     13.8332    117.2964
  1263.2500     16.1529    314.5166     14.3976    115.8760
  1263.5000     17.3226    313.6904     15.0381    111.2764
  1263.7500     18.5665    312.8748     15.7620    106.6774
  1264.0000     19.8540    312.0891     16.5730     98.4760
  1264.2500     21.1512    311.3532     17.4658     93.0201
  1264.5000     22.4252    310.6911     18.4151     86.0445
  1264.7500     23.6473    310.1274     19.3695     82.2727
  1265.0000     24.7948    309.6760     20.2579     77.0393
  1265.2500     25.8507    309.3319     21.0094     73.2211
  1265.5000     26.8031    309.0735     21.5788     66.7744
  1265.7500     27.6433    308.8685     21.9678     62.4323
  1266.0000     28.3660    308.6736     22.2269     56.8547
  1266.2500     28.9688    308.4374     22.4289     54.0104
  1266.5000     29.4535    308.1186     22.6306     50.6464
  1266.7500     29.8283    307.7100     22.8483     48.5367
  1267.0000     30.1106    307.2437     23.0585     45.1177
  1267.2500     30.3293    306.7721     23.2185     42.7814
  1267.5000     30.5244    306.3389     23.3017     39.8936
  1267.7500     30.7421    305.9599     23.3367     38.8210
  1268.0000     31.0243    305.6128     23.4179     38.5663
  1268.2500     31.3977    305.2472     23.6599     38.7407
  1268.5000     31.8643    304.8175     24.1166     38.2628
  1268.7500     32.4008    304.3215     24.7270     37.2080
  1269.0000     32.9656    303.8015     25.3389     35.1412
  1269.2500     33.5117    303.3075     25.8135     33.9510
  1269.5000     33.9989    302.8672     26.1278     32.9834
  1269.7500     34.4005    302.4966     26.3673     32.9513
  1270.0000     34.7045    302.2263     26.6261     33.4198
  1270.2500     34.9104    302.1013     26.9256     33.5948
  1270.5000     35.0251    302.1454     27.2176     32.9845
  1270.7500     35.0603    302.3220     27.4393     31.9986
  1271.0000     35.0289    302.5280     27.5539     30.2078
  1271.2500     34.9427    302.6315     27.5486     29.1697
  1271.5000     34.8099    302.5403     27.4270     28.1915
  1271.7500     34.6346    302.2609     27.2230     28.0292
  1272.0000     34.4191    301.9081     27.0126     28.6885
  1272.2500     34.1675    301.6503     26.8838     29.6822
  1272.5000     33.8895    301.6292     26.8782     31.4329
  1272.7500     33.6009    301.9111     26.9582     32.3573
  1273.0000     33.3207    302.4950     27.0312     33.0666
  1273.2500     33.0651    303.3479     27.0103     33.1137
  1273.5000     32.8409    304.4307     26.8641     32.6349
  1273.7500     32.6423    305.7004     26.6115     32.0616
  1274.0000     32.4525    307.1012     26.2734     31.3285
  1274.2500     32.2499    308.5657     25.8326     31.2862
  1274.5000     32.0155    310.0257     25.2518     32.2350
  1274.7500     31.7394    311.4200     24.5414     33.5373
  1275.0000     31.4239    312.6946     23.8055     36.2421
  1275.2500     31.0827    313.8029     23.1996     38.2632
  1275.5000     30.7382    314.7155     22.8338     40.9931
  1275.7500     30.4170    315.4281     22.7106     42.3583
  1276.0000     30.1460    315.9552     22.7446     43.8665
  1276.2500     29.9480    316.3135     22.8470     44.8518
  1276.5000     29.8368    316.5180     23.0044     46.6795
  1276.7500     29.8142    316.5989     23.2736     47.9960
  1277.0000     29.8695    316.6202     23.6968     49.4323
  1277.2500     29.9828    316.6708     24.2212     49.6688
  1277.5000     30.1304    316.8256     24.7064     48.9627
  1277.7500     30.2912    317.1099     25.0255     48.2896
  1278.0000     30.4502    317.4985     25.1709     48.1853
  1278.2500     30.5998    317.9455     25.2500     49.1400
  1278.5000     30.7387    318.4140     25.3849     51.8615
  1278.7500     30.8704    318.8847     25.6264     54.0304
  1279.0000     31.0010    319.3451     25.9495     57.1014
  1279.2500     31.1371    319.7721     26.3040     58.9045
  1279.5000     31.2844    320.1222     26.6647     61.2850
  1279.7500     31.4466    320.3383     27.0402     62.6446
  1280.0000     31.6256    320.3720     27.4515     64.2085
  1280.2500     31.8209    320.2012     27.9047     64.8011
  1280.5000     32.0310    319.8302     28.3827     64.6833
  1280.7500     32.2536    319.2725     28.8516     63.7078
  1281.0000     32.4884    318.5422     29.2688     60.7016
  1281.2500     32.7417    317.6619     29.5884     57.8686
  1281.5000     33.0317    316.6729     29.7778     53.3665
  1281.7500     33.3903    315.6292     29.8469     50.9171
  1282.0000     33.8575    314.5758     29.8721     48.9464
  1282.2500     34.4664    313.5320     29.9772     48.9452
  1282.5000     35.2239    312.4921     30.2712     50.5980
  1282.7500     36.0996    311.4456     30.7868     52.2116
  1283.0000     37.0279    310.4006     31.4649     53.9562
  1283.2500     37.9269    309.3920     32.1924     54.0303
  1283.5000     38.7235    308.4686     32.8680     52.4786
  1283.7500     39.3699    307.6720     33.4403     50.8769
  1284.0000     39.8464    307.0243     33.8917     48.6617
  1284.2500     40.1496    306.5272     34.2012     47.4726
  1284.5000     40.2780    306.1690     34.3333     45.3608
  1284.7500     40.2248    305.9346     34.2603     43.1677
  1285.0000     39.9810    305.8163     33.9847     38.8132
  1285.2500     39.5453    305.8174     33.5325     35.9409
  1285.5000     38.9330    305.9437     32.9266     32.9011
  1285.7500     38.1789    306.1869     32.1735     32.0034
  1286.0000     37.3312    306.5090     31.2815     32.5610
  1286.2500     36.4406    306.8448     30.2914     34.4010
  1286.5000     35.5491    307.1288     29.2786     39.4589
  1286.7500     34.6812    307.3318     28.3145     43.9346
