~Version Information
VERS.                      2.0: CWLS Log ASCII Standard - VERSION 2.0
WRAP.                       NO: One line per depth step
~Well Information Block
STRT.FT               295.7500: 
STOP.FT              1461.0000: 
STEP.FT                 0.2500: 
NULL.                -999.2500: 
COMP.          Pioneer Natural Resources: COMPANY
WELL.              Lucky 21-36: WELL
FLD.           Purgatoire River: FIELD
LOC.           799' FNL & 1578' FWL--: LOCATION
CDN. :
PROV. :
UWI. :
STAT. :
CNTY. :
CTRY. :
API. :
COMP. :
WELL. :
FLD. :
LOC. :
DATE. :
SRVC. :
CNTY.               Las Animas: COUNTY
SRVC.          Superior Well Services: SERVICE COMPANY
DATE.          Mon Jul 07 19-13-01 2008: LOG DATE
UWI.           05 071 08456 00: UNIQUE WELL ID
STAT.                 Colorado: STATE
~Curve Information Block
DEPT.FT            0 000 00 00: Depth
SN.Ohm-m                      : IEL Short Normal
SP.mV                         : IEL Spontaneous Potential
DIR.Ohm-m                     : IEL Induction Resistivity
GR.GAPI                       : Gamma Ray
~Parameter Information Block
~A  Depth        SN          SP         DIR          GR     
# ...
  1066.2500     15.9932    -26.1336     13.7414    178.8275
  1066.5000     15.8697    -26.6812     13.4954    178.7732
  1066.7500     15.6681    -27.2125     13.2121    177.4550
  1067.0000     15.4936    -27.7203     12.9129    175.9805
  1067.2500     15.2860    -28.1992     12.6165    173.6175
  1067.5000     14.9225    -28.6453     12.3369    172.5208
  1067.7500     14.5621    -29.0556     12.0841    172.4296
  1068.0000     14.3168    -29.4284     11.8652    173.4034
  1068.2500     14.1737    -29.7622     11.6833    175.3573
  1068.5000     14.1137    -30.0552     11.5390    176.1643
  1068.7500     14.0948    -30.3055     11.4319    175.8197
  1069.0000     14.0622    -30.5108     11.3632    174.6478
  1069.2500     14.0535    -30.6684     11.3348    172.6634
  1069.5000     14.0634    -30.7752     11.3479    172.2942
  1069.7500     14.0660    -30.8290     11.4002    174.5361
  1070.0000     13.9672    -30.8278     11.4858    177.5332
  1070.2500     13.7214    -30.7707     11.5967    181.7472
  1070.5000     13.4066    -30.6579     11.7251    182.9628
  1070.7500     13.0426    -30.4906     11.8650    182.1729
  1071.0000     12.7665    -30.2709     12.0131    180.9050
  1071.2500     12.7301    -30.0007     12.1667    179.5585
  1071.5000     13.0007    -29.6821     12.3215    179.2609
  1071.7500     13.6475    -29.3158     12.4701    179.3656
  1072.0000     14.5229    -28.9014     12.6049    179.7762
  1072.2500     15.3089    -28.4370     12.7223    180.9195
  1072.5000     15.8429    -27.9189     12.8257    181.3510
  1072.7500     16.1440    -27.3424     12.9263    179.1606
  1073.0000     16.2677    -26.7020     13.0404    175.0145
  1073.2500     16.3637    -25.9928     13.1864    166.4351
  1073.5000     16.5038    -25.2106     13.3802    161.4123
  1073.7500     16.6747    -24.3540     13.6320    158.0212
  1074.0000     16.8475    -23.4243     13.9448    158.6351
  1074.2500     17.0340    -22.4267     14.3154    161.5623
  1074.5000     17.3366    -21.3701     14.7350    163.3723
  1074.7500     17.6915    -20.2673     15.1902    165.1074
  1075.0000     18.0546    -19.1343     15.6650    166.0565
  1075.2500     18.5120    -17.9893     16.1443    167.6516
  1075.5000     19.0681    -16.8517     16.6191    168.4065
  1075.7500     19.6522    -15.7406     17.0886    168.0164
  1076.0000     20.1939    -14.6741     17.5610    166.6516
  1076.2500     20.7392    -13.6679     18.0530    163.7457
  1076.5000     21.3743    -12.7349     18.5890    161.6845
  1076.7500     22.1232    -11.8851     19.2003    158.4313
  1077.0000     23.0503    -11.1249     19.9212    155.7553
  1077.2500     24.1185    -10.4583     20.7828    149.9806
  1077.5000     25.2199     -9.8865     21.8078    144.5103
  1077.7500     26.4709     -9.4087     23.0106    133.9854
  1078.0000     28.0833     -9.0225     24.4046    126.0064
  1078.2500     30.0886     -8.7236     26.0084    113.7466
  1078.5000     32.4530     -8.5064     27.8452    105.8071
  1078.7500     35.2325     -8.3635     29.9272     94.6422
  1079.0000     38.2755     -8.2863     32.2312     87.9043
  1079.2500     41.2827     -8.2652     34.6779     79.1609
  1079.5000     44.0104     -8.2901     37.1284     74.2213
  1079.7500     46.0852     -8.3514     39.4042     67.7424
  1080.0000     47.3022     -8.4408     41.3218     63.8117
  1080.2500     47.7521     -8.5520     42.7288     58.3974
  1080.5000     47.5683     -8.6812     43.5379     55.0999
  1080.7500     46.9534     -8.8273     43.7545     50.4079
  1081.0000     46.1551     -8.9912     43.4784     47.2934
  1081.2500     45.3839     -9.1756     42.8621     42.6682
  1081.5000     44.7788     -9.3839     42.0467     39.8528
  1081.7500     44.3102     -9.6195     41.1142     36.6019
  1082.0000     43.7965     -9.8853     40.0922     35.2956
  1082.2500     43.1548    -10.1830     38.9999     34.5568
  1082.5000     42.4075    -10.5132     37.8928     34.6643
  1082.7500     41.6182    -10.8754     36.8639     35.3402
  1083.0000     40.8935    -11.2687     36.0033     36.0221
  1083.2500     40.2306    -11.6918     35.3588     37.5479
  1083.5000     39.6674    -12.1439     34.9281     39.0813
  1083.7500     39.3368    -12.6247     34.6794     41.9521
  1084.0000     39.1962    -13.1349     34.5749     43.6650
  1084.2500     39.1191    -13.6762     34.5697     44.8453
  1084.5000     38.9437    -14.2507     34.5910     44.5627
  1084.7500     38.6020    -14.8614     34.5234     43.3241
  1085.0000     38.1203    -15.5110     34.2291     42.7513
  1085.2500     37.3499    -16.2020     33.6033     43.8613
  1085.5000     36.0873    -16.9362     32.6269     47.0070
  1085.7500     34.3951    -17.7141     31.3728     57.3601
  1086.0000     32.6597    -18.5348     29.9698     68.8098
  1086.2500     31.3336    -19.3956     28.5538     91.9990
  1086.5000     30.4706    -20.2916     27.2294    109.2415
  1086.7500     29.7925    -21.2153     26.0470    131.9052
  1087.0000     29.0246    -22.1569     24.9990    141.6380
  1087.2500     28.0100    -23.1038     24.0403    145.5380
  1087.5000     26.7512    -24.0413     23.1260    141.9805
  1087.7500     25.3867    -24.9535     22.2456    133.0717
  1088.0000     24.1007    -25.8236     21.4357    128.9667
  1088.2500     23.1332    -26.6358     20.7639    130.4058
  1088.5000     22.7026    -27.3762     20.2976    136.3749
  1088.7500     22.8758    -28.0336     20.0775    148.3300
  1089.0000     23.4198    -28.6010     20.1065    154.9010
  1089.2500     24.1115    -29.0756     20.3497    159.1379
  1089.5000     24.7420    -29.4595     20.7407    158.2126
  1089.7500     25.0124    -29.7594     21.1920    153.3368
  1090.0000     24.8595    -29.9858     21.6128    149.1178
  1090.2500     24.5144    -30.1526     21.9379    143.0518
  1090.5000     24.2439    -30.2752     22.1531    140.0583
  1090.7500     24.1740    -30.3697     22.2978    138.5670
  1091.0000     24.3835    -30.4511     22.4393    139.8733
  1091.2500     24.8680    -30.5323     22.6401    143.9444
  1091.5000     25.6131    -30.6227     22.9367    146.3175
  1091.7500     26.6332    -30.7282     23.3339    146.0322
  1092.0000     27.6125    -30.8507     23.8093    141.9495
  1092.2500     28.1379    -30.9885     24.3283    129.9274
  1092.5000     28.2507    -31.1371     24.8657    119.5870
  1092.7500     28.4299    -31.2891     25.4242    105.2571
  1093.0000     29.1084    -31.4357     26.0346     98.7364
  1093.2500     30.4579    -31.5664     26.7373     93.5108
  1093.5000     32.2108    -31.6694     27.5630     90.8378
  1093.7500     33.8539    -31.7322     28.5249     83.8186
  1094.0000     35.1447    -31.7416     29.6183     76.4397
  1094.2500     36.0812    -31.6848     30.8192     63.8263
  1094.5000     36.7761    -31.5500     32.0830     56.6455
  1094.7500     37.5570    -31.3284     33.3583     49.9091
  1095.0000     38.6990    -31.0146     34.6151     47.8185
  1095.2500     40.0732    -30.6086     35.8665     46.2181
  1095.5000     41.2784    -30.1156     37.1535     45.0742
  1095.7500     42.0301    -29.5460     38.4937     42.6383
  1096.0000     42.2723    -28.9142     39.8272     40.8789
  1096.2500     42.0836    -28.2371     40.9992     39.2213
  1096.5000     41.6457    -27.5324     41.8050     39.5222
  1096.7500     41.1373    -26.8165     42.0866     42.8494
  1097.0000     40.7334    -26.1032     41.8154     46.7612
  1097.2500     40.3960    -25.4029     41.0935     53.5956
  1097.5000     39.9415    -24.7223     40.0783     57.6623
  1097.7500     39.2781    -24.0647     38.9052     61.8103
  1098.0000     38.4216    -23.4304     37.6700     63.2785
  1098.2500     37.4071    -22.8174     36.4531     64.4975
  1098.5000     36.3619    -22.2229     35.3374     65.2147
  1098.7500     35.5090    -21.6434     34.3954     66.1717
  1099.0000     34.9668    -21.0764     33.6605     66.2149
  1099.2500     34.6463    -20.5207     33.1136     64.5165
  1099.5000     34.3421    -19.9776     32.6915     62.1466
