~Version Information
VERS.                      2.0: CWLS Log ASCII Standard - VERSION 2.0
WRAP.                       NO: One line per depth step
~Well Information Block
STRT.FT                -5.7500: 
STOP.FT              2734.0000: 
STEP.FT                 0.2500: 
NULL.                -999.2500: 
COMP.          Pioneer Natural Resources: COMPANY
WELL.              Loews 41-32: WELL
FLD.           Purgatoire River: FIELD
LOC.           751' FNL & 128' FEL--: LOCATION
CNTY.               Las Animas: COUNTY
SRVC.                         : SERVICE COMPANY
DATE.          Sat Mar 04 08:20:59 2006: LOG DATE
UWI.           05 071 08693 00: UNIQUE WELL ID
STAT.                       CO: STATE
~Curve Information Block
DEPT.FT            0 000 00 00: Depth
GR.GAPI                       : Gamma Ray
CCL.                          : Casing Collar Locator
TT3.usec                      : CBL 3' Travel Time
AMP3.mV                       : CBL 3' Amplitude
~Parameter Information Block
~A  Depth        GR         CCL         TT3         AMP3    
# ...
   530.2500     51.3569      0.0000    695.3915      5.2322
   530.5000     53.5472      0.0000    695.3173      5.2156
   530.7500     54.2650      0.0000    695.2699      5.1941
   531.0000     53.4319      0.0000    695.2266      5.1661
   531.2500     51.8720      0.0000    695.1752      5.1304
   531.5000     50.3783      0.0000    695.1180      5.0912
   531.7500     49.1992      0.0000    695.0665      5.0577
   532.0000     48.3363      0.0000    695.0358      5.0364
   532.2500     47.8758      0.0000    695.0369      5.0269
   532.5000     47.7836      0.0000    695.0702      5.0234
   532.7500     47.6726      0.0000    695.1310      5.0201
   533.0000     47.1949      0.0000    695.2216      5.0139
   533.2500     46.6093      0.0000    695.3455      5.0038
   533.5000     46.6346      0.0000    695.4881      4.9892
   533.7500     47.7335      0.0000    695.6111      4.9709
   534.0000     49.6687      0.0000    695.6719      4.9536
   534.2500     51.7331      0.0000    695.6479      4.9443
   534.5000     53.4061      0.0000    695.5518      4.9484
   534.7500     54.8110      0.0000    695.4310      4.9661
   535.0000     56.4470      0.0000    695.3459      4.9919
   535.2500     58.4869      0.0000    695.3340      5.0183
   535.5000     60.4978      0.0000    695.3907      5.0421
   535.7500     61.8243      0.0000    695.4846      5.0675
   536.0000     61.9643      0.0000    695.5834      5.1030
   536.2500     60.6214      0.0000    695.6699      5.1527
   536.5000     57.8361      0.0000    695.7487      5.2095
   536.7500     54.4049      0.0000    695.8550      5.2598
   537.0000     51.9030      0.0000    696.0519      5.2942
   537.2500     51.6063      0.0000    696.4009      5.3152
   537.5000     53.1373      0.0000    696.9288      5.3319
   537.7500     54.6605      0.0000    697.5840      5.3481
   538.0000     54.6840      0.0000    698.1763      5.3567
   538.2500     53.3123      0.0000    698.3406      5.3443
   538.5000     51.7238      0.0000    697.7361      5.3013
   538.7500     50.9528      0.0000    696.7910      5.2294
   539.0000     51.2743      0.0000    697.6404      5.1476
   539.2500     52.2455      0.0000    704.1340      5.0892
   539.5000     53.0909      0.0000    719.6636      5.0797
   539.7500     53.2955      0.0000    743.3712      5.1130
   540.0000     52.9906      0.0000    768.2064      5.1568
   540.2500     52.7967      0.0000    784.6560      5.1928
   540.5000     53.2644      0.0000    787.9893      5.2383
   540.7500     54.2936      0.0000    780.9515      5.3169
   541.0000     54.9747      0.0000    769.1996      5.4221
   541.2500     54.1953      0.0000    756.5114      5.5220
   541.5000     51.6408     -2.0000    744.4236      5.5890
   541.7500     48.2000      0.0000    732.9568      5.6200
   542.0000     45.3734      0.0000    720.9117      5.6444
   542.2500     44.3068      0.0000    708.1071      5.7106
   542.5000     45.1776      0.0000    697.5009      5.8441
   542.7500     47.1377      0.0000    693.2130      6.0257
   543.0000     48.7501      0.0000    697.2617      6.2323
   543.2500     48.8408      0.0000    709.7640      6.4733
   543.5000     47.3345      0.0000    730.6129      6.7483
   543.7500     45.2822      0.0000    758.6406      7.0024
   544.0000     43.9414      0.0000    789.8665      7.1681
   544.2500     43.8816      0.0000    818.8871      7.2309
   544.5000     44.9566      0.0000    842.7105      7.2294
   544.7500     46.8559      0.0000    862.6622      7.2094
   545.0000     49.4082      0.0000    882.3494      7.1981
   545.2500     52.3536      0.0000    903.7401      7.2077
   545.5000     55.0162      0.0000    924.7650      7.2397
   545.7500     56.5231      0.0000    940.2261      7.2844
   546.0000     56.5893      0.0000    944.2427      7.3235
   546.2500     55.8489      0.0000    931.6205      7.3435
   546.5000     55.0767      0.0000    899.1299      7.3448
   546.7500     54.3552      0.0000    848.9025      7.3384
   547.0000     53.3299      0.0000    790.9475      7.3334
   547.2500     51.9636      0.0000    739.2222      7.3301
   547.5000     50.6300      0.0000    703.2156      7.3231
   547.7500     49.7211      0.0000    683.5869      7.3079
   548.0000     49.5222      0.0000    675.1780      7.2831
   548.2500     50.2512      0.0000    672.3298      7.2505
   548.5000     51.8438      0.0000    671.5048      7.2122
   548.7500     53.7128      0.0000    671.1490      7.1693
   549.0000     54.9383      0.0000    670.8159      7.1230
   549.2500     54.8729      0.0000    670.5609      7.0777
   549.5000     53.5857      0.0000    670.5665      7.0422
   549.7500     51.6862      0.0000    670.9068      7.0237
   550.0000     49.8227      0.0000    671.4477      7.0207
   550.2500     48.5419      0.0000    671.9500      7.0219
   550.5000     48.4829      0.0000    672.2542      7.0134
   550.7500     50.1211      0.0000    672.3672      6.9884
   551.0000     53.0435      0.0000    672.3857      6.9527
   551.2500     55.9214      0.0000    672.3760      6.9177
   551.5000     57.5481      0.0000    672.3533      6.8893
   551.7500     57.6788      0.0000    672.3295      6.8639
   552.0000     56.7462      0.0000    672.2983      6.8352
   552.2500     55.1303      0.0000    672.1723      6.8043
   552.5000     52.9343      0.0000    671.8241      6.7799
   552.7500     50.2774      0.0000    671.2393      6.7706
   553.0000     47.5888      0.0000    670.5955      6.7766
   553.2500     45.6299      0.0000    670.1895      6.7839
   553.5000     45.2808      0.0000    670.4595      6.7705
   553.7500     47.1254      0.0000    672.3894      6.7248
   554.0000     50.9114      0.0000    678.1503      6.6591
   554.2500     55.3184      0.0000    690.9489      6.6004
   554.5000     58.5300      0.0000    712.4059      6.5665
   554.7500     59.3304      0.0000    738.1542      6.5559
   555.0000     57.8102      0.0000    757.0774      6.5570
   555.2500     55.2873      0.0000    758.6861      6.5610
   555.5000     53.5669      0.0000    742.7579      6.5651
   555.7500     53.7793      0.0000    719.8828      6.5673
   556.0000     55.5293      0.0000    702.3774      6.5659
   556.2500     57.2528      0.0000    696.9628      6.5623
   556.5000     57.6656      0.0000    705.0840      6.5608
   556.7500     56.8673      0.0000    724.9379      6.5619
   557.0000     55.9212      0.0000    750.2710      6.5571
   557.2500     55.6407      0.0000    770.3521      6.5339
   557.5000     56.2050      0.0000    775.7079      6.4877
   557.7500     57.6049      0.0000    764.8314      6.4279
   558.0000     59.6670      0.0000    744.0922      6.3703
   558.2500     61.5579      0.0000    721.4812      6.3272
   558.5000     61.9955      0.0000    701.5565      6.3048
   558.7500     60.4515      0.0000    685.6592      6.3045
   559.0000     57.8945      0.0000    674.4766      6.3222
   559.2500     55.9625      0.0000    668.8523      6.3461
   559.5000     55.5093      0.0000    668.8789      6.3578
   559.7500     56.1451      0.0000    673.5390      6.3406
   560.0000     56.9019      0.0000    681.1754      6.2915
   560.2500     57.0289      0.0000    689.9359      6.2238
   560.5000     56.3623      0.0000    698.3264      6.1577
   560.7500     55.2403      0.0000    706.2979      6.1052
   561.0000     54.1101      0.0000    715.9439      6.0679
   561.2500     53.2132      0.0000    730.6516      6.0423
   561.5000     52.7377      0.0000    752.7686      6.0253
   561.7500     53.0937      0.0000    781.2766      6.0136
   562.0000     54.6597      0.0000    811.3239      5.9997
   562.2500     57.0973      0.0000    836.4072      5.9715
   562.5000     59.1929      0.0000    852.0227      5.9208
   562.7500     59.6650      0.0000    858.1210      5.8527
   563.0000     58.0563      0.0000    858.3005      5.7845
   563.2500     54.7885      0.0000    856.6809      5.7315
   563.5000     50.7642      0.0000    855.4938      5.6968
