~Version Information
 VERS.                                  2.0 : CWLS LAS VERSION
 WRAP.                                   NO : WRAPING MODE
 SWARE .                 MController 2.5.0J : SOFTWARE VERSION
~Well Information
 WELL.                    Buena Vista 31-03 : WELL
 COMP.    Pioneer Natural Resources USA Inc : COMPANY
 FLD.                      Purgatoire River : FIELD
 LOC.                  NWNE Sec03 T35S R65W : LOCATION
 DATE.                             01/24/06 : DATE(S) LOGGED
 SRVC.       Blanco Geological Services LLC : SERVICE COMPANY
 STAT.                             Colorado : STATE
 CNTY.                           Las Animas : COUNTY
 CTRY.                                  USA : COUNTRY
 API.                          05-071-08663 : API NUMBER
 STRT.FT                             175.00 : START DEPTH
 STOP.FT                            1165.00 : STOP DEPTH
 STEP.FT                               1.00 : DEPTH INCREMENT
 NULL.                                -9999 : NULL VALUE
~Curve information
 DEPTH.FT                                   :
 ROP.MIN/FT                                 :
 GAS.UNITS                                  :
~ASCII Log data
# ...
       575.0         0.37          4.5 
       576.0         0.47          5.0 
       577.0         0.37          4.2 
       578.0         0.27          4.5 
       579.0         0.22          5.4 
       580.0         0.17          5.4 
       581.0         0.20          4.6 
       582.0         0.17          5.1 
       583.0         0.20          4.3 
       584.0         0.20          4.2 
       585.0         0.27          4.0 
       586.0         0.23          4.3 
       587.0         0.23          4.5 
       588.0         0.23          5.4 
       589.0         0.23          5.4 
       590.0         0.23          5.1 
       591.0         0.23          4.8 
       592.0         0.23          4.8 
       593.0         0.27          3.5 
       594.0         0.28          2.8 
       595.0         0.33          2.4 
       596.0         3.18          9.6 
       597.0         0.40          5.3 
       598.0         0.40          4.7 
       599.0         0.33          4.6 
       600.0         0.27          4.6 
       601.0         0.23          4.3 
       602.0         0.20          4.3 
       603.0         0.23          4.1 
       604.0         0.23          4.1 
       605.0         0.27          4.0 
       606.0         0.27          4.1 
       607.0         0.28          4.1 
       608.0         0.27          3.7 
       609.0         0.23          4.4 
       610.0         0.23          4.6 
       611.0         0.23          4.6 
       612.0         0.23          4.2 
       613.0         0.33          3.8 
       614.0         0.30          3.8 
       615.0         0.20          3.7 
       616.0         0.17          4.1 
       617.0         0.20          4.5 
       618.0         0.20          4.2 
       619.0         0.20          3.7 
       620.0         0.20          3.5 
       621.0         0.20          3.4 
       622.0         0.22          3.4 
       623.0         0.20          2.9 
       624.0         0.20          1.5 
       625.0         0.23          1.4 
       626.0         3.35          8.9 
       627.0         0.27          5.7 
       628.0         0.27          4.9 
       629.0         0.33          4.8 
       630.0         0.33          4.2 
       631.0         0.30          4.3 
       632.0         0.27          4.1 
       633.0         0.33          4.0 
       634.0         0.33          3.9 
       635.0         0.28          4.1 
       636.0         0.30          4.2 
       637.0         0.30          3.9 
       638.0         0.23          4.6 
       639.0         0.23          4.9 
       640.0         0.27          5.3 
       641.0         0.30          5.0 
       642.0         0.30          4.9 
       643.0         0.30          5.2 
       644.0         0.30          5.1 
       645.0         0.30          4.4 
       646.0         0.27          3.9 
       647.0         0.32          4.5 
       648.0         0.27          4.0 
       649.0         0.33          4.2 
       650.0         0.30          4.4 
       651.0         0.27          4.4 
       652.0         0.30          3.7 
       653.0         0.27          3.5 
       654.0         0.33          1.8 
       655.0         0.30          1.9 
       656.0         2.55         12.3 
       657.0         0.27          6.2 
       658.0         0.33          6.0 
       659.0         0.37          5.0 
       660.0         0.37          4.6 
       661.0         0.28          3.8 
       662.0         0.30          3.7 
       663.0         0.30          3.6 
       664.0         0.30          3.9 
       665.0         0.33          3.9 
       666.0         0.30          4.0 
       667.0         0.30          4.2 
       668.0         0.30          3.8 
       669.0         0.30          3.7 
       670.0         0.30          3.4 
       671.0         0.30          4.2 
       672.0         0.32          3.7 
       673.0         0.30          4.7 
       674.0         0.27          6.5 
       675.0         0.27          7.8 
       676.0         0.27          8.0 
       677.0         0.23          7.1 
       678.0         0.23          6.1 
       679.0         0.20          6.0 
       680.0         0.23          5.1 
       681.0         0.23          4.1 
       682.0         0.27          3.7 
       683.0         0.30          3.9 
       684.0         0.33          3.2 
       685.0         0.32          2.0 
       686.0         3.65         11.0 
       687.0         0.40          5.8 
       688.0         0.43          5.4 
       689.0         0.37          5.5 
       690.0         0.37          5.3 
       691.0         0.37          4.8 
       692.0         0.37          5.1 
       693.0         0.27          5.0 
       694.0         0.23          4.8 
       695.0         0.25          4.5 
       696.0         0.23          3.9 
       697.0         0.27          3.9 
       698.0         0.20          3.5 
       699.0         0.23          3.6 
       700.0         0.20          3.3 
       701.0         0.27          3.5 
       702.0         0.20          3.9 
       703.0         0.20          4.1 
       704.0         0.20          4.3 
       705.0         0.23          4.7 
       706.0         0.23          4.6 
       707.0         0.23          4.3 
       708.0         0.23          4.6 
       709.0         0.28          3.7 
       710.0         0.23          4.5 
       711.0         0.27          4.0 
       712.0         0.27          4.0 
       713.0         0.27          2.3 
       714.0         0.27          1.6 
       715.0         0.20          1.6 
       716.0         2.92         13.0 
       717.0         0.23         10.9 
       718.0         0.27         10.3 
       719.0         0.27          8.9 
       720.0         0.30          7.3 
       721.0         0.23          6.3 
       722.0         0.23          5.6 
       723.0         0.27          6.1 
       724.0         0.23          5.0 
       725.0         0.25          4.0 
       726.0         0.27          4.2 
       727.0         0.23          3.7 
       728.0         0.30          4.3 
       729.0         0.33          3.9 
       730.0         0.27          3.7 
       731.0         0.27          3.5 
       732.0         0.23          3.9 
       733.0         0.27          3.5 
       734.0         0.30          3.6 
       735.0         0.23          3.3 
       736.0         0.27          4.4 
       737.0         0.23          4.1 
       738.0         0.22          5.0 
       739.0         0.23          4.6 
       740.0         0.23          4.6 
       741.0         0.33         17.1 
       742.0         0.30         15.6 
       743.0         0.20         12.6 
       744.0         0.20         10.6 
       745.0         0.17          9.4 
       746.0         2.42         23.2 
       747.0         0.20         12.7 
       748.0         0.23          9.5 
       749.0         0.27          9.8 
       750.0         0.27         10.4 
       751.0         0.27         10.3 
       752.0         0.20         10.0 
       753.0         0.23          8.8 
       754.0         0.27          7.7 
       755.0         0.20          6.8 
       756.0         0.20          7.2 
       757.0         0.18          7.2 
       758.0         0.23          8.6 
       759.0         0.20          9.6 
       760.0         0.23         10.3 
       761.0         0.20          8.6 
       762.0         0.23          7.4 
       763.0         0.20          6.5 
       764.0         0.23          6.2 
       765.0         0.23          5.1 
       766.0         0.20          5.1 
       767.0         0.23          5.4 
       768.0         0.27          4.7 
       769.0         0.23          5.5 
       770.0         0.23          4.9 
       771.0         0.27          4.8 
       772.0         0.35          5.0 
       773.0         0.27          5.0 
       774.0         0.33          3.7 
