~Version Information
VERS.                      2.0: CWLS Log ASCII Standard - VERSION 2.0
WRAP.                       NO: One line per depth step
~Well Information Block
STRT.FT                10.0000: 
STOP.FT              1665.0000: 
STEP.FT                 0.1000: 
NULL.                -999.2500: 
COMP.          Pioneer Natural Resources: COMPANY
WELL.          Stock Canyon 34-33: WELL
FLD.           Purgatorie River: FIELD
LOC.           980' FSL & 2191' FEL: LOCATION
PROV.                 Colorado: PROVINCE
CNTY.               Las Animas: COUNTRY
SRVC.                Patterson: SERVICE COMPANY
DATE.          Mon Dec 05 10:33:50 2005: LOG DATE
UWI.                          : UNIQUE WELL ID
~Curve Information Block
DEPT.FT            0 000 00 00: Depth
DCAL.in                       : CDL Caliper
RHOB.g/cc                     : CDL Bulk Density
RHOC.g/cc                     : CDL Density Correction
DPOR.pu                       : CDL Density Porosity
GR.GAPI                       : Gamma Ray
NPOR.pu                       : Neutron Porosity
~Parameter Information Block
~A  Depth       DCAL        RHOB        RHOC        DPOR         GR         NPOR    
# ...
   336.4000      2.7444      2.4300      2.3915     -0.0044     94.0430     20.4279
   336.5000      2.7444      2.4446      2.3780     -0.0041     91.7919     20.1168
   336.6000      2.7444      2.4578      2.4294     -0.0038     88.8941     19.7651
   336.7000      2.7444      2.4547      2.4033     -0.0039     87.0696     19.8229
   336.8000      2.7444      2.4390      2.3927     -0.0042     87.5608     19.7864
   336.9000      2.7444      2.4256      2.3712     -0.0045     88.7287     19.3279
   337.0000      2.7444      2.4203      2.3886     -0.0046     89.3102     19.4166
   337.1000      2.7444      2.4270      2.3540     -0.0045     89.4941     20.4052
   337.2000      2.7444      2.4483      2.3826     -0.0040     87.9179     21.4454
   337.3000      2.7444      2.4762      2.4003     -0.0035     85.2829     21.8990
   337.4000      2.7444      2.4936      2.4601     -0.0031     85.2088     21.8823
   337.5000      2.7444      2.4894      2.4299     -0.0032     87.8860     21.8126
   337.6000      2.7444      2.4731      2.3890     -0.0035     91.2241     21.8547
   337.7000      2.7444      2.4556      2.4055     -0.0039     95.2624     21.9695
   337.8000      2.7444      2.4349      2.3706     -0.0043     98.8201     22.2322
   337.9000      2.7444      2.4163      2.2988     -0.0047     99.3568     22.5752
   338.0000      2.7444      2.4057      2.3549     -0.0049     98.3389     22.6790
   338.1000      2.7444      2.3958      2.3514     -0.0051     98.3070     22.3659
   338.2000      2.7444      2.3850      2.3281     -0.0053     97.4847     21.8458
   338.3000      2.7444      2.3803      2.3335     -0.0054     95.5621     21.3417
   338.4000      2.7444      2.3836      2.3587     -0.0053     95.9082     20.9277
   338.5000      2.7444      2.3913      2.3769     -0.0052     97.5076     21.0060
   338.6000      2.7444      2.3971      2.3621     -0.0051     96.9908     21.6482
   338.7000      2.7444      2.3949      2.3823     -0.0051     96.1693     22.1209
   338.8000      2.7444      2.3827      2.3818     -0.0053     96.8495     22.0625
   338.9000      2.7444      2.3632      2.3798     -0.0057     96.8926     21.8425
   339.0000      2.7444      2.3465      2.3186     -0.0061     94.6719     21.7485
   339.1000      2.7444      2.3417      2.3472     -0.0062     91.2428     21.7669
   339.2000      2.7444      2.3463      2.3478     -0.0061     90.0884     21.9684
   339.3000      2.7444      2.3644      2.3485     -0.0057     93.0766     22.4093
   339.4000      2.7444      2.4006      2.3566     -0.0050     98.0941     22.8542
   339.5000      2.7444      2.4322      2.3934     -0.0044    102.0062     23.0260
   339.6000      2.7444      2.4353      2.3593     -0.0043    103.7893     23.1402
   339.7000      2.7444      2.4174      2.3269     -0.0047    105.8018     23.4630
   339.8000      2.7444      2.3958      2.3528     -0.0051    107.5518     23.9151
   339.9000      2.7444      2.3840      2.3136     -0.0053    106.0272     24.2234
   340.0000      2.7444      2.3892      2.3647     -0.0052    103.2394     24.2194
   340.1000      2.7444      2.4021      2.3582     -0.0050    103.6468     24.2817
   340.2000      2.7444      2.4159      2.3727     -0.0047    107.9228     24.6240
   340.3000      2.7444      2.4295      2.3643     -0.0044    113.3125     24.6934
   340.4000      2.7444      2.4328      2.3722     -0.0043    116.8665     24.1996
   340.5000      2.7444      2.4186      2.3362     -0.0046    118.0533     23.5072
   340.6000      2.7444      2.3994      2.3235     -0.0050    117.5245     23.1265
   340.7000      2.7444      2.3941      2.3698     -0.0051    115.4205     23.2109
   340.8000      2.7444      2.4015      2.3619     -0.0050    113.5880     23.5702
   340.9000      2.7444      2.4112      2.3590     -0.0048    114.3727     23.9799
   341.0000      2.7444      2.4227      2.3472     -0.0045    115.1842     24.2457
   341.1000      2.7444      2.4343      2.3973     -0.0043    113.9615     24.3059
   341.2000      2.7444      2.4366      2.3766     -0.0043    111.8218     24.2424
   341.3000      2.7444      2.4322      2.3703     -0.0044    109.1126     24.2919
   341.4000      2.7444      2.4359      2.3743     -0.0043    107.0279     24.6650
   341.5000      2.7444      2.4463      2.4095     -0.0041    106.7450     24.9081
   341.6000      2.7444      2.4507      2.3917     -0.0040    106.7359     24.6579
   341.7000      2.7444      2.4511      2.3612     -0.0040    107.4581     24.3829
   341.8000      2.7444      2.4529      2.3578     -0.0039    112.0469     24.5015
   341.9000      2.7444      2.4487      2.3951     -0.0040    117.5394     24.9543
   342.0000      2.7444      2.4409      2.3246     -0.0042    116.0936     25.4438
   342.1000      2.7444      2.4474      2.3800     -0.0041    108.5597     25.5293
   342.2000      2.7444      2.4595      2.4089     -0.0038    102.9214     24.9011
   342.3000      2.7444      2.4600      2.3475     -0.0038    100.9839     23.7956
   342.4000      2.7444      2.4611      2.3402     -0.0038     99.9308     22.7484
   342.5000      2.7444      2.4690      2.3828     -0.0036    100.3445     22.1342
   342.6000      2.7444      2.4671      2.3810     -0.0037    105.0797     22.1978
   342.7000      2.7444      2.4565      2.3343     -0.0039    110.5428     22.5970
   342.8000      2.7444      2.4530      2.3769     -0.0039    110.6535     22.7040
   342.9000      2.7444      2.4547      2.3685     -0.0039    108.6551     22.4106
   343.0000      2.7444      2.4515      2.4031     -0.0040    108.8193     21.9200
   343.1000      2.7444      2.4408      2.3655     -0.0042    109.0902     21.4292
   343.2000      2.7444      2.4271      2.3714     -0.0045    108.0743     21.1952
   343.3000      2.7444      2.4197      2.3333     -0.0046    107.2299     21.1849
   343.4000      2.7444      2.4266      2.3725     -0.0045    107.3497     21.2922
   343.5000      2.7444      2.4441      2.4042     -0.0041    107.3040     21.4782
   343.6000      2.7444      2.4659      2.3665     -0.0037    105.9455     21.5644
   343.7000      2.7444      2.4868      2.4007     -0.0033    104.4883     21.6260
   343.8000      2.7444      2.4955      2.4041     -0.0031    105.4202     21.7293
   343.9000      2.7444      2.4900      2.3898     -0.0032    107.1174     21.6362
   344.0000      2.7444      2.4790      2.3928     -0.0034    104.5698     21.4424
   344.1000      2.7444      2.4655      2.3682     -0.0037     96.9042     21.2711
   344.2000      2.7444      2.4507      2.3376     -0.0040     89.7417     20.9178
   344.3000      2.7444      2.4368      2.3517     -0.0043     88.0411     20.5716
   344.4000      2.7444      2.4278      2.3177     -0.0044     91.5488     20.4953
   344.5000      2.7444      2.4324      2.3507     -0.0044     96.3555     20.3174
   344.6000      2.7444      2.4494      2.3551     -0.0040     99.5852     20.1055
   344.7000      2.7444      2.4691      2.3827     -0.0036    102.4072     20.1594
   344.8000      2.7444      2.4875      2.3720     -0.0033    105.0053     20.2135
   344.9000      2.7444      2.5009      2.4138     -0.0030    105.7865     20.3778
   345.0000      2.7444      2.5028      2.4126     -0.0029    104.7660     20.7600
   345.1000      2.7444      2.4989      2.4182     -0.0030    103.3950     20.7586
   345.2000      2.7444      2.4990      2.3817     -0.0030    101.9670     20.1833
   345.3000      2.7444      2.5000      2.4115     -0.0030    101.3731     19.8278
   345.4000      2.7444      2.4919      2.4092     -0.0032    103.5958     20.5038
   345.5000      2.7444      2.4716      2.3817     -0.0036    105.7258     21.8541
   345.6000      2.7444      2.4489      2.3632     -0.0040    104.4997     22.5171
   345.7000      2.7444      2.4366      2.3580     -0.0043    102.3523     21.9978
   345.8000      2.7444      2.4316      2.3720     -0.0044    101.0911     21.1807
   345.9000      2.7444      2.4168      2.4049     -0.0047    100.8471     20.9749
