~Version Information
VERS.                      2.0: CWLS Log ASCII Standard - VERSION 2.0
WRAP.                       NO: One line per depth step
~Well Information Block
STRT.FT                 6.0000: 
STOP.FT              1577.7500: 
STEP.FT                 0.2500: 
NULL.                -999.2500: 
COMP.          Pioneer Natural Resources: COMPANY
WELL.           Kermit 32-7 Tr: WELL
FLD.           Purgatoire River: FIELD
LOC.           2009' FNL & 2196' FEL: LOCATION
PROV.                 Colorado: PROVINCE
CNTY.               Las Animas: COUNTRY
SRVC.                Patterson: SERVICE COMPANY
DATE.          Wed Jan 18 14:19:39 2006: LOG DATE
UWI.           05 071 08664 00: UNIQUE WELL ID
~Curve Information Block
DEPT.FT            0 000 00 00: Depth
GR.GAPI                       : Gamma Ray
CCL.                          : Casing Collar Locator
TT3.usec                      : CBL 3' Travel Time
AMP3.mV                       : CBL 3' Amplitude
~Parameter Information Block
~A  Depth        GR         CCL         TT3         AMP3    
# ...
   944.0000    122.1891      0.0000    741.5463     10.2145
   944.2500    121.2528      0.0000    738.7429     10.2933
   944.5000    120.9904      0.0000    731.4235     10.3139
   944.7500    121.3568      0.0000    723.9343     10.2766
   945.0000    122.2009      0.0000    718.8509     10.1921
   945.2500    123.1815      0.0000    715.0624     10.0754
   945.5000    123.9247      0.0000    710.5428      9.9471
   945.7500    124.5729      0.0000    705.7714      9.8317
   946.0000    125.5026      0.0000    703.7627      9.7490
   946.2500    126.2379      0.0000    707.1547      9.7130
   946.5000    125.3436      0.0000    715.4507      9.7360
   946.7500    121.8336      0.0000    724.8171      9.8248
   947.0000    116.2341      0.0000    730.6791      9.9735
   947.2500    109.9607      0.0000    730.9386     10.1649
   947.5000    104.0890      0.0000    726.8229     10.3747
   947.7500     98.9621      0.0000    720.9967     10.5764
   948.0000     94.6543      0.0000    715.5337     10.7520
   948.2500     91.5456      0.0000    711.6828     10.9059
   948.5000     90.2773      0.0000    710.2462     11.0611
   948.7500     91.0530      0.0000    711.1629     11.2365
   949.0000     93.2506      0.0000    713.0135     11.4268
   949.2500     95.9598      0.0000    713.7360     11.6095
   949.5000     98.6224      0.0000    712.1105     11.7645
   949.7500    101.0102      0.0000    708.6395     11.8833
   950.0000    103.1091      0.0000    705.1948     11.9620
   950.2500    105.4385      0.0000    703.7621     11.9932
   950.5000    109.1000      0.0000    705.1927     11.9694
   950.7500    114.7103      0.0000    708.7904     11.8909
   951.0000    121.0488      0.0000    712.9327     11.7656
   951.2500    125.3836      0.0000    716.2006     11.6049
   951.5000    125.7203      0.0000    718.0947     11.4264
   951.7500    122.5950      0.0000    718.8936     11.2549
   952.0000    118.4419      0.0000    719.0851     11.1143
   952.2500    115.5834      0.0000    719.0150     11.0184
   952.5000    115.0409      0.0000    718.8724     10.9765
   952.7500    116.6647      0.0000    718.7699     10.9965
   953.0000    119.6425      0.0000    718.7084     11.0716
   953.2500    122.9237      0.0000    718.4959     11.1697
   953.5000    125.6987      0.0000    717.7057     11.2478
   953.7500    127.7790      0.0000    715.7865     11.2777
   954.0000    129.5015      0.0000    712.3403     11.2566
   954.2500    131.2155      0.0000    707.4361     11.2005
   954.5000    132.6261      0.0000    701.6627     11.1317
   954.7500    132.3855      0.0000    695.9305     11.0659
   955.0000    128.7718      0.0000    691.2650     11.0071
   955.2500    121.4269      0.0000    688.3968     10.9534
   955.5000    112.2619      0.0000    687.0483     10.9037
   955.7500    104.2857      0.0000    685.8359     10.8578
   956.0000     99.7805      0.0000    683.4275     10.8135
   956.2500     99.5120      0.0000    679.7265     10.7672
   956.5000    102.7309      0.0000    675.9786     10.7003
   956.7500    107.4619      0.0000    674.5192     10.5382
   957.0000    111.4518      0.0000    678.5239     10.1364
   957.2500    113.4275      0.0000    690.2917      9.3862
   957.5000    113.4122      0.0000    708.4355      8.3780
   957.7500    112.0166      0.0000    728.3039      7.3996
   958.0000    109.7719      0.0000    746.7292      6.7182
   958.2500    107.0133      0.0000    765.0850      6.3951
   958.5000    104.0289      0.0000    786.0723      6.3222
   958.7500    101.1102      3.0000    809.0825      6.3683
   959.0000     98.3213      0.0000    829.9165      6.4650
   959.2500     95.2808      0.0000    843.0205      6.6155
   959.5000     91.4044      0.0000    842.8275      6.8776
   959.7500     86.3967      0.0000    825.4296      7.3260
   960.0000     80.4195      0.0000    791.9149      7.9913
   960.2500     73.9629      0.0000    750.2147      8.8224
   960.5000     67.8164      0.0000    711.8641      9.6958
   960.7500     63.0961      0.0000    685.4666     10.4555
   961.0000     61.1071      0.0000    672.6296     10.9735
   961.2500     62.9908      0.0000    669.3435     11.2135
   961.5000     69.0338      0.0000    670.3981     11.2392
   961.7500     77.8845      0.0000    672.6585     11.1537
   962.0000     86.7784      0.0000    675.3209     11.0330
   962.2500     93.3592      0.0000    678.3784     10.9136
   962.5000     97.5108      0.0000    681.1998     10.8159
   962.7500    101.0361      0.0000    682.5527     10.7597
   963.0000    105.4988      0.0000    681.7636     10.7544
   963.2500    110.7549      0.0000    679.4775     10.7856
   963.5000    115.5367      0.0000    677.0302     10.8199
   963.7500    118.8338      0.0000    675.3079     10.8250
   964.0000    120.4495      0.0000    674.3949     10.7858
   964.2500    120.7605      0.0000    673.9860     10.7066
   964.5000    120.4360      0.0000    673.8047     10.6028
   964.7500    120.2304      0.0000    673.7027     10.4933
   965.0000    120.6815      0.0000    673.6074     10.3939
   965.2500    121.8368      0.0000    673.4969     10.3127
   965.5000    123.2509      0.0000    673.4050     10.2481
   965.7500    124.3383      0.0000    673.4415     10.1904
   966.0000    124.7974      0.0000    673.8401     10.1230
   966.2500    124.6160      0.0000    675.0809     10.0267
   966.5000    123.6685      0.0000    677.9444      9.8898
   966.7500    121.5910      0.0000    683.1572      9.7212
   967.0000    118.2383      0.0000    690.5804      9.5524
   967.2500    114.0915      0.0000    698.6562      9.4195
   967.5000    109.9452      0.0000    704.8967      9.3366
   967.7500    106.1880      0.0000    707.1701      9.2875
   968.0000    102.6660      0.0000    704.8351      9.2457
   968.2500     99.4907      0.0000    699.2639      9.2008
   968.5000     97.8207      0.0000    693.5690      9.1632
   968.7500     99.3875      0.0000    691.1221      9.1456
   969.0000    104.9660      0.0000    693.3494      9.1440
   969.2500    113.3421      0.0000    698.6706      9.1400
   969.5000    121.9336      0.0000    703.8550      9.1242
   969.7500    128.4540      0.0000    706.6511      9.1189
   970.0000    131.8923      0.0000    707.2537      9.1738
   970.2500    132.0744      0.0000    707.3981      9.3251
   970.5000    129.1488      0.0000    708.1666      9.5553
   970.7500    124.1547      0.0000    708.7130      9.7996
   971.0000    119.5286      0.0000    707.0269      9.9960
   971.2500    118.0700      0.0000    701.9588     10.1233
   971.5000    121.0403      0.0000    694.8104     10.1937
   971.7500    127.1960      0.0000    688.8949     10.2302
   972.0000    133.5768      0.0000    686.7675     10.2624
   972.2500    137.4351      0.0000    687.6986     10.3301
   972.5000    137.8098      0.0000    688.6238     10.4712
   972.7500    135.5959      0.0000    687.6399     10.6952
   973.0000    132.3267      0.0000    685.6872     10.9681
   973.2500    128.9165      0.0000    684.7659     11.2251
   973.5000    125.3154      0.0000    685.5541     11.4048
   973.7500    120.9930      0.0000    687.1478     11.4812
   974.0000    115.7486      0.0000    688.3552     11.4671
   974.2500    110.3095      0.0000    688.4907     11.3973
   974.5000    106.1795      0.0000    687.2603     11.3146
   974.7500    104.5405      0.0000    684.7784     11.2671
   975.0000    105.1510      0.0000    681.7991     11.2929
   975.2500    106.5920      0.0000    679.3292     11.3914
   975.5000    107.6586      0.0000    677.8578     11.5128
   975.7500    108.1068      0.0000    677.1639     11.5876
   976.0000    108.0905      0.0000    676.7665     11.5727
   976.2500    107.6663      0.0000    676.3619     11.4726
   976.5000    107.2016      0.0000    675.9199     11.3236
   976.7500    107.5720      0.0000    675.6076     11.1625
   977.0000    109.3442      0.0000    675.7332     11.0072
   977.2500    112.0523      0.0000    676.7846     10.8611
