~Version Information
VERS.                      2.0: CWLS Log ASCII Standard - VERSION 2.0
WRAP.                       NO: One line per depth step
~Well Information Block
STRT.FT               370.0000: 
STOP.FT              1259.0000: 
STEP.FT                 0.1000: 
NULL.                -999.2500: 
COMP.          Pioneer Natural Resources: COMPANY
WELL.           Tennis 7-12 Tr: WELL
FLD.           Purgatoire River: FIELD
LOC.           1794' FNL & 1563' FEL: LOCATION
PROV.                 Colorado: PROVINCE
CNTY.               Las Animas: COUNTRY
SRVC.                Patterson: SERVICE COMPANY
DATE.          Tue Dec 20 13:35:40 2005: LOG DATE
UWI.           05 071 08635 00: UNIQUE WELL ID
~Curve Information Block
DEPT.FT            0 000 00 00: Depth
DCAL.in                       : CDL Caliper
RHOB.g/cc                     : CDL Bulk Density
RHOC.g/cc                     : CDL Density Correction
DPOR.pu                       : CDL Density Porosity
GR.GAPI                       : Gamma Ray
~Parameter Information Block
~A  Depth       DCAL        RHOB        RHOC        DPOR         GR     
# ...
   661.2000      7.9297      1.6892     -0.1099     58.2326    102.8583
   661.3000      7.9314      1.6066     -0.1299     63.2393    101.4280
   661.4000      7.9314      1.5877     -0.0054     64.3836    103.2219
   661.5000      7.9321      1.6344      0.0891     61.5493    101.0689
   661.6000      7.9321      1.7227      0.1745     56.1998     97.7789
   661.7000      7.9321      1.8328      0.2051     49.5286     97.4233
   661.8000      7.9308      1.9564      0.2630     42.0392     97.4176
   661.9000      7.9308      2.0859      0.2773     34.1896     96.0593
   662.0000      7.9289      2.2114      0.3045     26.5828     93.4221
   662.1000      7.9289      2.3215      0.2666     19.9085     91.2608
   662.2000      7.9289      2.4116      0.2175     14.4478     96.4528
   662.3000      7.9272      2.4799      0.2335     10.3120    108.9319
   662.4000      7.9272      2.5156      0.1241      8.1463    117.9670
   662.5000      7.9252      2.5228      0.0239      7.7092    119.7929
   662.6000      7.9252      2.5215      0.0323      7.7884    117.6355
   662.7000      7.9252      2.5184      0.0175      7.9745    113.1294
   662.8000      7.9223      2.5125     -0.0031      8.3341    107.5978
   662.9000      7.9223      2.5018      0.0281      8.9830    104.1504
   663.0000      7.9205      2.4891     -0.0174      9.7540    103.5345
   663.1000      7.9205      2.4902     -0.0081      9.6844    102.3171
   663.2000      7.9205      2.5114      0.0081      8.3978     99.6273
   663.3000      7.9225      2.5410      0.0604      6.6085     97.6101
   663.4000      7.9225      2.5676      0.0844      4.9943     96.6253
   663.5000      7.9253      2.5925      0.0847      3.4819     95.3990
   663.6000      7.9253      2.6225      0.0882      1.6650     93.8970
   663.7000      7.9253      2.6587      0.1135     -0.5245     91.3599
   663.8000      7.9266      2.6961      0.1119     -2.7958     85.4779
   663.9000      7.9266      2.7268      0.1341     -4.6529     80.2557
   664.0000      7.9259      2.7411      0.1312     -5.5237     80.2424
   664.1000      7.9259      2.7418      0.0821     -5.5631     80.2860
   664.2000      7.9259      2.7397      0.1074     -5.4347     76.7543
   664.3000      7.9245      2.7384      0.0643     -5.3599     75.3185
   664.4000      7.9245      2.7411      0.0440     -5.5193     78.9735
   664.5000      7.9239      2.7408      0.0540     -5.5005     82.6353
   664.6000      7.9239      2.7239      0.0276     -4.4794     83.1518
   664.7000      7.9239      2.7026     -0.0299     -3.1906     85.1393
   664.8000      7.9238      2.6982     -0.0225     -2.9225     87.5287
   664.9000      7.9238      2.6982      0.0049     -2.9208     82.5891
   665.0000      7.9240      2.6870     -0.0194     -2.2420     74.6985
   665.1000      7.9240      2.6822     -0.0291     -1.9499     74.5573
   665.2000      7.9240      2.6966     -0.0057     -2.8251     79.6672
   665.3000      7.9242      2.7124      0.0114     -3.7828     82.1485
   665.4000      7.9242      2.7235     -0.0572     -4.4557     80.2878
   665.5000      7.9237      2.7464     -0.0107     -5.8415     76.1623
   665.6000      7.9237      2.7757      0.0122     -7.6156     73.9848
   665.7000      7.9237      2.7911      0.0120     -8.5537     76.7005
   665.8000      7.9232      2.7882      0.0315     -8.3759     80.7322
   665.9000      7.9232      2.7772      0.0403     -7.7113     82.3879
   666.0000      7.9233      2.7643      0.0147     -6.9265     83.7921
   666.1000      7.9233      2.7385      0.0339     -5.3634     85.3146
   666.2000      7.9233      2.6980     -0.0292     -2.9100     86.5384
   666.3000      7.9239      2.6743     -0.1056     -1.4710     87.9409
   666.4000      7.9239      2.6768      0.0192     -1.6257     88.5529
   666.5000      7.9245      2.6646      0.0297     -0.8841     89.5040
   666.6000      7.9245      2.6194     -0.0460      1.8569     92.6448
   666.7000      7.9245      2.5734     -0.0724      4.6408     97.7780
   666.8000      7.9250      2.5582     -0.0732      5.5626    103.0187
   666.9000      7.9250      2.5729     -0.0603      4.6705    103.7017
   667.0000      7.9236      2.5930      0.0378      3.4562    100.1913
   667.1000      7.9236      2.5979      0.0408      3.1573     98.5239
   667.2000      7.9236      2.5936      0.0528      3.4205    101.5256
   667.3000      7.9185      2.5967      0.0647      3.2284    111.1630
   667.4000      7.9185      2.6079      0.1418      2.5524    124.7957
   667.5000      7.9144      2.6213      0.1000      1.7391    134.2897
   667.6000      7.9144      2.6393      0.1228      0.6510    135.2442
   667.7000      7.9144      2.6519      0.1308     -0.1164    130.4746
   667.8000      7.9172      2.6483      0.1101      0.1027    128.0518
   667.9000      7.9172      2.6362      0.0882      0.8394    131.3159
   668.0000      7.9237      2.6237      0.0815      1.5929    135.2643
   668.1000      7.9237      2.6073      0.0778      2.5888    135.5454
   668.2000      7.9237      2.5886      0.0246      3.7221    132.8326
   668.3000      7.9269      2.5779      0.0046      4.3718    127.8249
   668.4000      7.9269      2.5735      0.0174      4.6361    121.6572
   668.5000      7.9262      2.5659      0.0203      5.0958    119.4682
   668.6000      7.9262      2.5548      0.0241      5.7685    120.0777
   668.7000      7.9262      2.5441      0.0034      6.4169    119.0806
   668.8000      7.9250      2.5286      0.0236      7.3601    119.0475
   668.9000      7.9250      2.4987      0.0092      9.1669    120.6453
   669.0000      7.9250      2.4665     -0.0410     11.1184    122.0935
   669.1000      7.9250      2.4569     -0.0237     11.7048    125.6398
   669.2000      7.9250      2.4683     -0.0060     11.0093    131.6586
   669.3000      7.9259      2.4797     -0.0121     10.3221    135.9714
   669.4000      7.9259      2.4828     -0.0189     10.1356    135.3123
   669.5000      7.9268      2.4831     -0.0095     10.1137    130.7174
   669.6000      7.9268      2.4840     -0.0113     10.0628    126.8012
   669.7000      7.9268      2.4789      0.0172     10.3698    125.9969
   669.8000      7.9266      2.4596      0.0226     11.5407    127.5931
   669.9000      7.9266      2.4326     -0.0055     13.1740    129.1692
   670.0000      7.9260      2.4155     -0.0041     14.2119    128.4605
   670.1000      7.9260      2.4192     -0.0133     13.9903    125.2221
   670.2000      7.9260      2.4444      0.0031     12.4615    120.4899
   670.3000      7.9256      2.4761      0.0777     10.5422    115.6742
   670.4000      7.9256      2.4946      0.0626      9.4201    113.3955
   670.5000      7.9264      2.4987      0.0931      9.1671    118.2044
   670.6000      7.9264      2.4990      0.1094      9.1511    129.0231
   670.7000      7.9264      2.5093      0.1436      8.5280    136.7413
   670.8000      7.9303      2.5279      0.1967      7.3971    138.0295
   670.9000      7.9303      2.5291      0.2525      7.3282    138.7621
   671.0000      7.9367      2.5088      0.1044      8.5569    139.5234
   671.1000      7.9367      2.4991      0.1148      9.1450    135.9513
   671.2000      7.9367      2.5135      0.1082      8.2705    132.3639
   671.3000      7.9428      2.5379      0.1295      6.7945    134.3624
   671.4000      7.9428      2.5562      0.1465      5.6868    137.7283
   671.5000      7.9448      2.5559      0.1953      5.7033    138.3310
   671.6000      7.9448      2.5352      0.1241      6.9579    137.7471
   671.7000      7.9448      2.5065      0.1026      8.6969    137.8818
   671.8000      7.9446      2.4813      0.0501     10.2230    138.5117
   671.9000      7.9446      2.4638      0.0414     11.2828    137.9715
   672.0000      7.9443      2.4559      0.0340     11.7626    136.8008
   672.1000      7.9443      2.4604      0.0400     11.4913    136.8161
   672.2000      7.9443      2.4705      0.0843     10.8758    138.2465
   672.3000      7.9429      2.4732      0.0954     10.7172    138.1773
