~Version Information
VERS.                      2.0: CWLS Log ASCII Standard - VERSION 2.0
WRAP.                       NO: One line per depth step
~Well Information Block
STRT.FT               619.7000: 
STOP.FT               951.7000: 
STEP.FT                 0.1000: 
NULL.                -999.2500: 
COMP.          Pioneer Natural Resources: COMPANY
WELL.          Screamin 12-29 Tr: WELL
FLD.           Purgatoire River: FIELD
LOC.           1979' FNL & 532' FWL--: LOCATION
CNTY.               Las Animas: COUNTY
SRVC.                Patterson: SERVICE COMPANY
DATE.          Fri Mar 31 15:43:57 2006: LOG DATE
UWI.           05 071 08660 00: UNIQUE WELL ID
STAT.                 Colorado: STATE
~Curve Information Block
DEPT.FT            0 000 00 00: Depth
DCAL.in                       : CDL Caliper
RHOB.g/cc                     : CDL Bulk Density
RHOC.g/cc                     : CDL Density Correction
DPOR.pu                       : CDL Density Porosity
GR.GAPI                       : Gamma Ray
~Parameter Information Block
~A  Depth       DCAL        RHOB        RHOC        DPOR         GR     
# ...
   686.9000      7.9821      2.5345      0.0610      6.9987    124.5479
   687.0000      7.9884      2.5230      0.0603      7.6975    125.9560
   687.1000      7.9884      2.5090      0.0813      8.5452    128.5634
   687.2000      7.9884      2.4961      0.0700      9.3256    130.2847
   687.3000      7.9897      2.4894      0.0721      9.7316    129.4902
   687.4000      7.9897      2.4930      0.0706      9.5139    127.9535
   687.5000      7.9851      2.5035      0.0628      8.8807    128.0625
   687.6000      7.9851      2.5114      0.0901      8.3989    129.9145
   687.7000      7.9851      2.5101      0.0781      8.4775    133.3723
   687.8000      7.9817      2.5043      0.0739      8.8311    135.8697
   687.9000      7.9817      2.5013      0.0954      9.0132    137.0831
   688.0000      7.9826      2.5033      0.0845      8.8883    138.1198
   688.1000      7.9826      2.5074      0.0896      8.6399    135.7801
   688.2000      7.9826      2.5086      0.0824      8.5680    130.0320
   688.3000      7.9810      2.5103      0.0554      8.4674    126.1959
   688.4000      7.9810      2.5127      0.0574      8.3208    127.5691
   688.5000      7.9728      2.5040      0.0832      8.8495    131.9233
   688.6000      7.9728      2.4828      0.0212     10.1355    137.2973
   688.7000      7.9728      2.4701      0.0157     10.9034    143.0233
   688.8000      7.9685      2.4812      0.0250     10.2299    143.1051
   688.9000      7.9685      2.5020      0.0892      8.9715    137.0973
   689.0000      7.9691      2.5136      0.0589      8.2682    132.2294
   689.1000      7.9691      2.5197      0.0685      7.8992    128.4492
   689.2000      7.9691      2.5267      0.0888      7.4755    123.1908
   689.3000      7.9651      2.5318      0.0649      7.1623    121.4028
   689.4000      7.9651      2.5302      0.1029      7.2618    125.7390
   689.5000      7.9593      2.5191      0.0610      7.9348    130.6286
   689.6000      7.9593      2.5058      0.0751      8.7412    132.8176
   689.7000      7.9593      2.4966      0.0824      9.2999    133.8574
   689.8000      7.9626      2.4928      0.0537      9.5267    134.1713
   689.9000      7.9626      2.4951      0.0394      9.3865    133.6168
   690.0000      7.9666      2.5012      0.0646      9.0156    133.6249
   690.1000      7.9666      2.5052      0.0703      8.7745    134.6351
   690.2000      7.9666      2.5055      0.0306      8.7603    136.6875
   690.3000      7.9654      2.5096      0.0360      8.5096    139.1783
   690.4000      7.9654      2.5190      0.0782      7.9400    138.8055
   690.5000      7.9633      2.5234      0.0637      7.6719    136.7988
   690.6000      7.9633      2.5176      0.0534      8.0251    138.4643
   690.7000      7.9633      2.5126      0.0375      8.3286    139.9089
   690.8000      7.9607      2.5239      0.0911      7.6449    134.2057
   690.9000      7.9607      2.5434      0.1046      6.4585    123.8174
   691.0000      7.9598      2.5571      0.0387      5.6313    114.7420
   691.1000      7.9598      2.5672      0.0910      5.0202    110.6752
   691.2000      7.9598      2.5747      0.0797      4.5650    112.1624
   691.3000      7.9616      2.5801      0.0728      4.2353    116.9519
   691.4000      7.9616      2.5842      0.0772      3.9865    120.5536
   691.5000      7.9642      2.5804      0.0672      4.2187    119.4510
   691.6000      7.9642      2.5732      0.0264      4.6554    116.3936
   691.7000      7.9642      2.5745      0.0709      4.5748    114.9872
   691.8000      7.9671      2.5840      0.0455      3.9991    113.3640
   691.9000      7.9671      2.5948      0.0763      3.3436    110.7221
   692.0000      7.9695      2.6041      0.0313      2.7826    109.1792
   692.1000      7.9695      2.6139      0.0705      2.1856    109.7215
   692.2000      7.9695      2.6171      0.0916      1.9915    110.4961
   692.3000      7.9684      2.6045      0.0746      2.7564    108.9664
   692.4000      7.9684      2.5840      0.0285      4.0023    108.7728
   692.5000      7.9667      2.5695      0.0377      4.8761    115.3720
   692.6000      7.9667      2.5630      0.0437      5.2705    123.7793
   692.7000      7.9667      2.5614      0.0040      5.3687    125.4760
   692.8000      7.9699      2.5642      0.0442      5.2019    122.4762
   692.9000      7.9699      2.5659      0.0368      5.0940    119.6059
   693.0000      7.9742      2.5587      0.0693      5.5313    116.0257
   693.1000      7.9742      2.5378      0.0453      6.7972    110.9478
   693.2000      7.9742      2.5116     -0.0033      8.3899    105.7491
   693.3000      7.9741      2.4966      0.0003      9.2964    102.4356
   693.4000      7.9741      2.4954      0.0349      9.3700    101.9215
   693.5000      7.9736      2.4990      0.0319      9.1513    103.8641
   693.6000      7.9736      2.5081      0.0349      8.5972    108.0020
   693.7000      7.9736      2.5368      0.0260      6.8576    112.0291
   693.8000      7.9758      2.5845      0.1073      3.9715    112.9414
   693.9000      7.9758      2.6229      0.1165      1.6399    108.7847
   694.0000      7.9736      2.6446      0.0773      0.3248    102.3920
   694.1000      7.9736      2.6715      0.1331     -1.3027     99.0759
   694.2000      7.9736      2.7068      0.1285     -3.4416     98.7578
   694.3000      7.9611      2.7285      0.1372     -4.7563     96.6545
   694.4000      7.9611      2.7181      0.1563     -4.1250     94.1728
   694.5000      7.9468      2.6910      0.0298     -2.4855     95.7771
   694.6000      7.9468      2.6814      0.0573     -1.9052     97.2409
   694.7000      7.9468      2.6856      0.0824     -2.1592     93.6169
   694.8000      7.9390      2.6740      0.0274     -1.4523     87.7585
   694.9000      7.9390      2.6463     -0.0021      0.2231     84.9552
   695.0000      7.9334      2.6329     -0.0084      1.0368     85.1230
   695.1000      7.9334      2.6417      0.0963      0.5042     83.3613
   695.2000      7.9334      2.6395      0.0626      0.6352     79.4291
   695.3000      7.9299      2.6108      0.0107      2.3779     76.3901
   695.4000      7.9299      2.5854     -0.0275      3.9163     73.7838
   695.5000      7.9304      2.5832      0.0759      4.0469     70.8955
   695.6000      7.9304      2.5795      0.0890      4.2726     69.9601
   695.7000      7.9304      2.5535      0.0529      5.8509     73.7464
   695.8000      7.9276      2.5190      0.0372      7.9384     81.1714
   695.9000      7.9276      2.4981      0.0123      9.2076     86.6379
   696.0000      7.9352      2.4940      0.0447      9.4541     88.9538
   696.1000      7.9352      2.4876      0.0736      9.8451     92.7359
   696.2000      7.9352      2.4628      0.0642     11.3482     99.1330
   696.3000      7.9637      2.4321     -0.0294     13.2034    106.1273
   696.4000      7.9637      2.4236      0.0028     13.7235    112.4385
   696.5000      7.9946      2.4437      0.0089     12.5023    118.1210
   696.6000      7.9946      2.4657      0.1299     11.1668    123.6549
   696.7000      7.9946      2.4619      0.0531     11.4028    128.9020
   696.8000      8.0015      2.4404      0.0433     12.7000    133.0231
   696.9000      8.0015      2.4269      0.0236     13.5182    133.3507
   697.0000      7.9866      2.4308      0.0408     13.2854    131.0119
   697.1000      7.9866      2.4405      0.0241     12.6948    129.7939
   697.2000      7.9866      2.4389      0.0601     12.7917    128.7061
   697.3000      7.9688      2.4211      0.0503     13.8737    125.1135
   697.4000      7.9688      2.4020      0.0118     15.0304    122.6993
   697.5000      7.9583      2.3924      0.0598     15.6120    123.8553
   697.6000      7.9583      2.3871      0.0187     15.9331    124.8869
   697.7000      7.9583      2.3864      0.0173     15.9759    126.4024
   697.8000      7.9523      2.3917      0.0446     15.6538    129.1066
   697.9000      7.9523      2.3952      0.0852     15.4405    128.5841
   698.0000      7.9478      2.3957      0.0664     15.4122    125.1195
