~Version Information
VERS.                      2.0: CWLS Log ASCII Standard - VERSION 2.0
WRAP.                       NO: One line per depth step
~Well Information Block
STRT.FT               240.0000: 
STOP.FT              1342.0000: 
STEP.FT                 0.1000: 
NULL.                -999.2500: 
COMP.          Pioneer Natural Resources: COMPANY
WELL.          Lorencito 9-4-34-66: WELL
FLD.           Purgatoire River: FIELD
LOC.           2540' FSL & 438' FEL: LOCATION
STAT.                 Colorado: State
CNTY.               Las Animas: COUNTY
CTRY. USA : Country
SECT. 4 : Section
TOWN. 34S : Township
RANG. 68W : range
SRVC.                Patterson: SERVICE COMPANY
DATE.          Thu Sep 15 13:16:59 2005: LOG DATE
API.           05 071 08498 00: UNIQUE WELL ID
~Curve Information Block
DEPT.FT            0 000 00 00: Depth
DCAL.in                       : CDL Caliper
RHOB.g/cc                     : CDL Bulk Density
RHOC.g/cc                     : CDL Density Correction
DPOR.pu                       : CDL Density Porosity
GR.GAPI                       : Gamma Ray
NPOR.pu                       : Neutron Porosity
~Parameter Information Block
~A  Depth       DCAL        RHOB        RHOC        DPOR         GR         NPOR    
# ...
  1324.8000      8.0707      2.3118      0.0001     20.4986   -999.2500     18.8683
  1324.9000      8.0707      2.3287      0.0129     19.4735   -999.2500     19.7207
  1325.0000      8.0742      2.3563      0.0322     17.7979   -999.2500     20.2233
  1325.1000      8.0742      2.3945      0.1057     15.4853   -999.2500     20.6064
  1325.2000      8.0742      2.4343      0.0931     13.0729   -999.2500     20.8982
  1325.3000      8.0752      2.4652      0.1487     11.2012   -999.2500     20.6725
  1325.4000      8.0752      2.4820      0.1680     10.1828   -999.2500     20.4094
  1325.5000      8.0639      2.4832      0.1953     10.1115   -999.2500     20.7848
  1325.6000      8.0639      2.4670      0.1746     11.0904   -999.2500     21.3898
  1325.7000      8.0639      2.4379      0.1190     12.8524   -999.2500     21.1684
  1325.8000      8.0310      2.4077      0.0932     14.6866   -999.2500     19.7655
  1325.9000      8.0310      2.3909      0.0677     15.7022   -999.2500     18.0082
  1326.0000      7.9407      2.3966      0.0788     15.3600   -999.2500     17.6771
  1326.1000      7.9407      2.4196      0.0737     13.9638   -999.2500     19.3855
  1326.2000      7.9407      2.4466      0.0911     12.3272   -999.2500     21.4874
  1326.3000      7.9371      2.4654      0.0921     11.1880   -999.2500     22.6679
  1326.4000      7.9371      2.4816      0.0702     10.2053   -999.2500     22.4504
  1326.5000      7.9649      2.5090      0.1562      8.5429   -999.2500     21.0959
  1326.6000      7.9649      2.5352      0.1637      6.9601   -999.2500     20.1556
  1326.7000      7.9649      2.5318      0.1997      7.1607   -999.2500     20.2582
  1326.8000      7.9449      2.5008      0.1283      9.0431   -999.2500     20.4385
  1326.9000      7.9449      2.4768      0.1207     10.4954   -999.2500     20.0891
  1327.0000      7.9450      2.4821      0.1106     10.1750   -999.2500     19.8813
  1327.1000      7.9450      2.5010      0.1163      9.0318   -999.2500     21.8389
  1327.2000      7.9450      2.5058      0.1214      8.7390   -999.2500     28.7348
  1327.3000      7.9564      2.4931      0.1178      9.5095   -999.2500     39.2921
  1327.4000      7.9564      2.4858      0.0537      9.9531   -999.2500     46.8321
  1327.5000      7.9887      2.5035      0.0774      8.8801   -999.2500     49.5474
  1327.6000      7.9887      2.5411      0.0955      6.6007   -999.2500     50.0794
  1327.7000      7.9887      2.5764      0.1304      4.4582   -999.2500     50.1357
  1327.8000      8.0263      2.5885      0.1464      3.7243   -999.2500     50.1389
  1327.9000      8.0263      2.5725      0.1512      4.6943   -999.2500   -999.2500
  1328.0000      8.0015      2.5418      0.1226      6.5591   -999.2500   -999.2500
  1328.1000      8.0015      2.5143      0.0912      8.2227   -999.2500   -999.2500
  1328.2000      8.0015      2.4985      0.1058      9.1838   -999.2500   -999.2500
  1328.3000      7.9646      2.4962      0.0317      9.3183   -999.2500   -999.2500
  1328.4000      7.9646      2.5070      0.0604      8.6668   -999.2500   -999.2500
  1328.5000      7.9461      2.5192      0.0824      7.9272   -999.2500   -999.2500
  1328.6000      7.9461      2.5172      0.0524      8.0509   -999.2500   -999.2500
  1328.7000      7.9461      2.5000      0.0204      9.0883   -999.2500   -999.2500
  1328.8000      8.0179      2.4878      0.0224      9.8295   -999.2500   -999.2500
  1328.9000      8.0179      2.4967      0.0944      9.2906   -999.2500   -999.2500
  1329.0000      7.9938      2.5233      0.0696      7.6774   -999.2500   -999.2500
  1329.1000      7.9938      2.5538      0.1390      5.8306   -999.2500   -999.2500
  1329.2000      7.9938      2.5716      0.1665      4.7489   -999.2500   -999.2500
  1329.3000      7.9962      2.5749      0.1325      4.5524   -999.2500   -999.2500
  1329.4000      7.9962      2.5795      0.1481      4.2708   -999.2500   -999.2500
  1329.5000      7.9621      2.5912      0.1384      3.5652   -999.2500   -999.2500
  1329.6000      7.9621      2.5937      0.1733      3.4129   -999.2500   -999.2500
  1329.7000      7.9621      2.5810      0.1220      4.1814   -999.2500   -999.2500
  1329.8000      7.9584      2.5716      0.1026      4.7500   -999.2500   -999.2500
  1329.9000      7.9584      2.5754      0.0994      4.5226   -999.2500   -999.2500
  1330.0000      7.9470      2.5795      0.1055      4.2718   -999.2500   -999.2500
  1330.1000      7.9470      2.5719      0.0700      4.7347   -999.2500   -999.2500
  1330.2000      7.9470      2.5539      0.0648      5.8216   -999.2500   -999.2500
  1330.3000      7.9538      2.5367      0.0270      6.8682   -999.2500   -999.2500
  1330.4000      7.9538      2.5272      0.0991      7.4427   -999.2500   -999.2500
  1330.5000      8.0168      2.5247      0.0157      7.5953   -999.2500   -999.2500
  1330.6000      8.0168      2.5320      0.0609      7.1495   -999.2500   -999.2500
  1330.7000      8.0168      2.5433      0.0830      6.4687   -999.2500   -999.2500
  1330.8000      8.0155      2.5466      0.0618      6.2637   -999.2500   -999.2500
  1330.9000      8.0155      2.5417      0.0524      6.5626   -999.2500   -999.2500
  1331.0000      8.0548      2.5342      0.0765      7.0162   -999.2500   -999.2500
  1331.1000      8.0548      2.5314      0.0338      7.1896   -999.2500   -999.2500
  1331.2000      8.0548      2.5367      0.0827      6.8676   -999.2500   -999.2500
  1331.3000      8.0688      2.5482      0.0679      6.1669   -999.2500   -999.2500
  1331.4000      8.0688      2.5630      0.0885      5.2747   -999.2500   -999.2500
  1331.5000      7.9959      2.5698      0.1468      4.8604   -999.2500   -999.2500
  1331.6000      7.9959      2.5650      0.0924      5.1500   -999.2500   -999.2500
  1331.7000      7.9959      2.5607      0.1824      5.4130   -999.2500   -999.2500
  1331.8000      7.9715      2.5602      0.1245      5.4395   -999.2500   -999.2500
  1331.9000      7.9715      2.5646      0.1472      5.1746   -999.2500   -999.2500
  1332.0000      7.9397      2.5775      0.1858      4.3939   -999.2500   -999.2500
  1332.1000      7.9397      2.5942      0.2190      3.3801   -999.2500   -999.2500
  1332.2000      7.9397      2.6057      0.1830      2.6870   -999.2500   -999.2500
  1332.3000      7.9298      2.6060      0.1782      2.6643   -999.2500   -999.2500
  1332.4000      7.9298      2.5896      0.1475      3.6615   -999.2500   -999.2500
  1332.5000      7.9429      2.5582      0.1245      5.5621   -999.2500   -999.2500
  1332.6000      7.9429      2.5312      0.0642      7.2022   -999.2500   -999.2500
  1332.7000      7.9429      2.5229      0.0871      7.7002   -999.2500   -999.2500
  1332.8000      8.0263      2.5241      0.1080      7.6332   -999.2500   -999.2500
  1332.9000      8.0263      2.5312      0.0199      7.2029   -999.2500   -999.2500
  1333.0000      7.9661      2.5465      0.1396      6.2757   -999.2500   -999.2500
  1333.1000      7.9661      2.5487      0.1240      6.1375   -999.2500   -999.2500
  1333.2000      7.9661      2.5290      0.0613      7.3340   -999.2500   -999.2500
  1333.3000      7.9166      2.5051      0.1082      8.7802   -999.2500   -999.2500
  1333.4000      7.9166      2.4950      0.0612      9.3948   -999.2500   -999.2500
  1333.5000      7.8930      2.5061      0.0783      8.7240   -999.2500   -999.2500
  1333.6000      7.8930      2.5265      0.1012      7.4840   -999.2500   -999.2500
  1333.7000      7.8930      2.5329      0.1086      7.0960   -999.2500   -999.2500
  1333.8000      7.8614      2.5090      0.1184      8.5458   -999.2500   -999.2500
  1333.9000      7.8614      2.4754     -0.0137     10.5822   -999.2500   -999.2500
  1334.0000      7.8996      2.4740      0.0462     10.6662   -999.2500   -999.2500
  1334.1000      7.8996      2.5008      0.0582      9.0433   -999.2500   -999.2500
  1334.2000      7.8996      2.5255     -0.0228      7.5477   -999.2500   -999.2500
  1334.3000      7.9021      2.5358      0.0646      6.9213   -999.2500   -999.2500
