~Version Information
VERS.                      2.0: CWLS Log ASCII Standard - VERSION 2.0
WRAP.                       NO: One line per depth step
~Well Information Block
STRT.FT               860.0000: 
STOP.FT              2362.5000: 
STEP.FT                 0.2500: 
NULL.                -999.2500: 
COMP.          Pioneer Natural Resources: COMPANY
WELL.            Cayenne 23-23: WELL
FLD.           Purgatoire River: FIELD
LOC.           2555' FSL & 2386' FWL: LOCATION
PROV.                 Colorado: PROVINCE
CNTY.               Las Animas: COUNTRY
SRVC.                Patterson: SERVICE COMPANY
DATE.          Wed Aug 17 06:47:40 2005: LOG DATE
UWI.           05 071 08476 00: UNIQUE WELL ID
~Curve Information Block
DEPT.FT            0 000 00 00: Depth
SN.Ohm-m                      : IEL Short Normal
SP.mV                         : IEL Spontaneous Potential
DIR.Ohm-m                     : IEL Induction Resistivity
GR.GAPI                       : Gamma Ray
~Parameter Information Block
~A  Depth        SN          SP         DIR          GR     
# ...
  1731.0000     15.3241     94.3730     14.7299    141.9839
  1731.2500     14.6640     94.1393     14.6964    144.9438
  1731.5000     14.2811     94.0715     14.7429    147.2010
  1731.7500     14.2372     94.2112     14.8614    146.3792
  1732.0000     14.4506     94.5990     15.0347    140.7113
  1732.2500     14.8167     95.2999     15.2407    134.4530
  1732.5000     15.2838     96.3719     15.4635    123.5654
  1732.7500     15.8668     97.7889     15.7042    116.6825
  1733.0000     16.6422     99.3989     15.9816    108.5477
  1733.2500     17.7275    100.9756     16.3217    105.0921
  1733.5000     19.1643    102.3352     16.7376    103.0395
  1733.7500     20.7745    103.4247     17.2133    103.3418
  1734.0000     22.2249    104.3157     17.6998    104.8910
  1734.2500     23.2874    105.1270     18.1259    105.9107
  1734.5000     23.9512    105.9516     18.4193    107.0392
  1734.7500     24.2624    106.8351     18.5292    107.7744
  1735.0000     24.1793    107.7888     18.4390    109.4373
  1735.2500     23.5983    108.7976     18.1632    111.0629
  1735.5000     22.4665    109.8102     17.7317    114.0362
  1735.7500     20.8600    110.7357     17.1802    116.1726
  1736.0000     18.9835    111.4664     16.5501    119.8452
  1736.2500     17.1487    111.9202     15.8885    123.0447
  1736.5000     15.6838    112.0776     15.2351    128.9355
  1736.7500     14.7176    111.9952     14.6066    132.5348
  1737.0000     14.0664    111.7953     13.9931    134.7032
  1737.2500     13.4852    111.6331     13.3728    132.9342
  1737.5000     12.9846    111.6488     12.7327    125.6457
  1737.7500     12.7151    111.9149     12.0817    118.7544
  1738.0000     12.6510    112.4074     11.4464    107.9661
  1738.2500     12.6023    113.0247     10.8559    102.1245
  1738.5000     12.4608    113.6464     10.3291     97.7805
  1738.7500     12.3021    114.1947      9.8716     98.5148
  1739.0000     12.2482    114.6558      9.4812    104.6032
  1739.2500     12.2496    115.0539      9.1548    111.0277
  1739.5000     12.0894    115.4087      8.8897    122.3520
  1739.7500     11.6405    115.7169      8.6795    130.0895
  1740.0000     10.9825    115.9636      8.5099    140.5395
  1740.2500     10.2364    116.1454      8.3602    146.0605
  1740.5000      9.4398    116.2806      8.2102    151.9730
  1740.7500      8.6686    116.3980      8.0481    154.8524
  1741.0000      8.0885    116.5157      7.8733    158.4387
  1741.2500      7.7769    116.6327      7.6929    160.2364
  1741.5000      7.6215    116.7407      7.5162    161.3875
  1741.7500      7.4195    116.8433      7.3510    161.2344
  1742.0000      7.0850    116.9592      7.2025    160.7654
  1742.2500      6.7539    117.1064      7.0744    160.7737
  1742.5000      6.6058    117.2872      6.9689    160.8922
  1742.7500      6.6392    117.4897      6.8865    160.4069
  1743.0000      6.6977    117.7017      6.8252    158.0482
  1743.2500      6.6635    117.9219      6.7806    155.4831
  1743.5000      6.5541    118.1555      6.7481    151.4476
  1743.7500      6.4585    118.3986      6.7248    149.7933
  1744.0000      6.4335    118.6288      6.7093    150.2380
  1744.2500      6.4498    118.8120      6.7007    152.2873
  1744.5000      6.4280    118.9179      6.6973    156.1238
  1744.7500      6.3207    118.9333      6.6965    158.0475
  1745.0000      6.1614    118.8661      6.6967    159.1917
  1745.2500      6.0532    118.7449      6.6987    158.9062
  1745.5000      6.0915    118.6139      6.7045    157.2581
  1745.7500      6.3048    118.5179      6.7169    155.6046
  1746.0000      6.6703    118.4840      6.7379    153.1815
  1746.2500      7.0736    118.5145      6.7683    152.1830
  1746.5000      7.2620    118.5976      6.8076    152.0076
  1746.7500      7.0592    118.7234      6.8537    152.6861
  1747.0000      6.5954    118.8840      6.9020    154.6736
  1747.2500      6.1610    119.0566      6.9443    156.4260
  1747.5000      5.9317    119.1922      6.9721    158.9296
  1747.7500      5.8828    119.2396      6.9814    160.0251
  1748.0000      5.9282    119.1907      6.9758    160.3885
  1748.2500      6.0724    119.1003      6.9637    159.7491
  1748.5000      6.3454    119.0548      6.9529    157.7423
  1748.7500      6.6880    119.1174      6.9473    156.2669
  1749.0000      6.9607    119.2968      6.9469    155.3406
  1749.2500      7.0391    119.5503      6.9500    156.0851
  1749.5000      6.9502    119.8064      6.9537    158.5139
  1749.7500      6.8321    119.9941      6.9537    159.9929
  1750.0000      6.7532    120.0695      6.9449    160.7151
  1750.2500      6.7234    120.0294      6.9233    160.1641
  1750.5000      6.7511    119.9061      6.8881    158.8407
  1750.7500      6.7611    119.7478      6.8412    158.4375
  1751.0000      6.6472    119.6000      6.7840    158.8546
  1751.2500      6.4704    119.4968      6.7160    158.8589
  1751.5000      6.4447    119.4588      6.6356    156.0397
  1751.7500      6.6631    119.4906      6.5439    151.8035
  1752.0000      6.9116    119.5753      6.4474    143.9893
  1752.2500      6.8605    119.6758      6.3565    139.9487
  1752.5000      6.4540    119.7454      6.2812    138.1526
  1752.7500      5.9594    119.7418      6.2270    139.6328
  1753.0000      5.6187    119.6374      6.1936    143.4435
  1753.2500      5.4414    119.4278      6.1760    145.6373
  1753.5000      5.3277    119.1325      6.1667    147.6929
  1753.7500      5.2575    118.7830      6.1584    148.6500
  1754.0000      5.2966    118.4049      6.1460    150.2274
  1754.2500      5.4435    118.0059      6.1274    151.3678
  1754.5000      5.5974    117.5786      6.1033    152.7159
  1754.7500      5.6836    117.1148      6.0759    153.2999
  1755.0000      5.7086    116.6246      6.0496    154.3106
  1755.2500      5.7306    116.1462      6.0295    155.4595
  1755.5000      5.8115    115.7344      6.0209    157.6877
  1755.7500      5.9707    115.4322      6.0268    158.8762
  1756.0000      6.1883    115.2462      6.0460    159.1179
  1756.2500      6.4026    115.1490      6.0742    158.1044
  1756.5000      6.5205    115.1097      6.1061    155.6310
  1756.7500      6.5047    115.1246      6.1386    154.0065
  1757.0000      6.4079    115.2249      6.1722    152.1940
  1757.2500      6.2956    115.4585      6.2105    151.4751
  1757.5000      6.1940    115.8667      6.2570    151.3443
  1757.7500      6.1034    116.4713      6.3125    151.8504
  1758.0000      6.0200    117.2720      6.3741    152.2348
  1758.2500      5.9501    118.2424      6.4362    150.9988
  1758.5000      5.9133    119.3166      6.4942    145.8612
  1758.7500      5.9062    120.3859      6.5476    141.0963
  1759.0000      5.8636    121.3229      6.6009    135.1888
  1759.2500      5.6916    122.0288      6.6619    133.8181
  1759.5000      5.3767    122.4693      6.7384    136.7486
  1759.7500      5.0586    122.6782      6.8366    141.6077
  1760.0000      4.9737    122.7319      6.9603    151.4000
  1760.2500      5.3007    122.7127      7.1096    158.1196
  1760.5000      6.0040    122.6790      7.2795    165.7415
  1760.7500      6.8443    122.6551      7.4575    168.0310
  1761.0000      7.5876    122.6420      7.6270    167.1196
  1761.2500      8.1286    122.6380      7.7737    164.5473
  1761.5000      8.4382    122.6506      7.8915    159.7131
  1761.7500      8.5672    122.6965      7.9823    156.4594
  1762.0000      8.6441    122.7934      8.0521    151.5767
  1762.2500      8.7340    122.9536      8.1070    148.2629
  1762.5000      8.8185    123.1806      8.1527    143.6039
  1762.7500      8.8937    123.4664      8.1921    141.1116
  1763.0000      8.9423    123.7864      8.2240    138.9257
  1763.2500      8.9450    124.0979      8.2420    138.7872
  1763.5000      8.9343    124.3504      8.2370    140.5389
  1763.7500      8.8682    124.5125      8.2026    142.3914
  1764.0000      8.6401    124.5977      8.1399    144.3625
  1764.2500      8.2964    124.6565      8.0568    144.4069
