~Version Information
VERS.                      2.0: CWLS Log ASCII Standard - VERSION 2.0
WRAP.                       NO: One line per depth step
~Well Information Block
STRT.FT                -5.5000: 
STOP.FT               791.0000: 
STEP.FT                 0.2500: 
NULL.                -999.2500: 
COMP.          Pioneer Natural Resources: COMPANY
WELL.           Beringer 33-18: WELL
FLD.           Purgatoire River: FIELD
LOC.           2356' FSL & 2338' FEL--: LOCATION
CNTY.               Las Animas: COUNTY
SRVC.                Patterson: SERVICE COMPANY
DATE.          Mon Apr 03 11:39:01 2006: LOG DATE
UWI.           05 071 08725 00: UNIQUE WELL ID
STAT.                 Colorado: STATE
~Curve Information Block
DEPT.FT            0 000 00 00: Depth
CCL.                          : Casing Collar Locator
TT3.usec                      : CBL 3' Travel Time
AMP3.mV                       : CBL 3' Amplitude
GR.GAPI                       : Gamma Ray
~Parameter Information Block
~A  Depth       CCL         TT3         AMP3         GR     
# ...
   597.5000      0.0000    723.2068      5.2738    104.2912
   597.7500      0.0000    719.3191      5.2610    110.2957
   598.0000      0.0000    711.2733      5.2476    118.6839
   598.2500      0.0000    705.3694      5.2461    123.5765
   598.5000      0.0000    697.8326      5.2363    129.5278
   598.7500      0.0000    694.4438      5.2147    132.0835
   599.0000      0.0000    691.6971      5.1669    132.4828
   599.2500      0.0000    690.8633      5.1388    129.8531
   599.5000      0.0000    690.1781      5.1243    121.7251
   599.7500      0.0000    689.8083      5.1397    114.4984
   600.0000      0.0000    689.3441      5.1992    103.3205
   600.2500      0.0000    689.3005      5.2540     96.5269
   600.5000      0.0000    690.2782      5.3348     87.3087
   600.7500      0.0000    692.0591      5.3786     81.5494
   601.0000      0.0000    696.9264      5.4317     73.9532
   601.2500      0.0000    701.5744      5.4652     70.4279
   601.5000      0.0000    709.6861      5.5175     68.7980
   601.7500      0.0000    714.9125      5.5504     69.9981
   602.0000      0.0000    721.0436      5.5851     72.5868
   602.2500      0.0000    723.6887      5.5940     72.7556
   602.5000      0.0000    725.9125      5.5914     68.8188
   602.7500      0.0000    726.7352      5.5885     63.7571
   603.0000      0.0000    727.9682      5.5942     54.5548
   603.2500      0.0000    729.5243      5.6046     48.7596
   603.5000      0.0000    734.5101      5.6239     42.3921
   603.7500      0.0000    740.2292      5.6391     39.8663
   604.0000      0.0000    751.4688      5.6759     37.5797
   604.2500      0.0000    758.6008      5.7181     36.4063
   604.5000      0.0000    763.9908      5.8152     34.8885
   604.7500      0.0000    762.4362      5.8963     34.0931
   605.0000      0.0000    753.8077      6.0161     33.1095
   605.2500      0.0000    746.5100      6.0795     32.5535
   605.5000      0.0000    737.5257      6.1404     32.3318
   605.7500      0.0000    733.8588      6.1630     33.0710
   606.0000      0.0000    731.2648      6.1830     35.9298
   606.2500      0.0000    730.6930      6.1912     38.5934
   606.5000      0.0000    730.6729      6.1951     41.8176
   606.7500      0.0000    731.0993      6.1910     42.2877
   607.0000      0.0000    732.8037      6.1812     40.1838
   607.2500      0.0000    735.1337      6.1818     37.9488
   607.5000      0.0000    741.0728      6.2093     35.6311
   607.7500      0.0000    746.4144      6.2483     35.5994
   608.0000      0.0000    754.6505      6.3334     38.3953
   608.2500      0.0000    758.9696      6.4049     42.1695
   608.5000      0.0000    762.6052      6.5320     49.6735
   608.7500      0.0000    763.4166      6.6278     54.6169
   609.0000      0.0000    763.3791      6.7817     59.7483
   609.2500      0.0000    763.0696      6.8887     61.0192
   609.5000      0.0000    762.6230      7.0607     59.6929
   609.7500      0.0000    762.3929      7.1896     57.0235
   610.0000      0.0000    762.1141      7.4090     51.6533
   610.2500      0.0000    761.9520      7.5687     48.2398
   610.5000      0.0000    761.7512      7.8215     44.8338
   610.7500      0.0000    761.6438      7.9997     43.8860
   611.0000      0.0000    761.3811      8.2862     43.8717
   611.2500      0.0000    760.9063      8.4872     44.5429
   611.5000      0.0000    759.1346      8.7881     46.9857
   611.7500      0.0000    757.0149      8.9780     50.0753
   612.0000      0.0000    752.8745      9.2289     57.3089
   612.2500      0.0000    750.2052      9.3649     63.7001
   612.5000      0.0000    747.2220      9.5267     74.9221
   612.7500      0.0000    745.7573      9.6285     82.7218
   613.0000      0.0000    743.9797      9.8312     92.7202
   613.2500      0.0000    743.6006     10.0255     96.9009
   613.5000      0.0000    745.6236     10.4024     98.3883
   613.7500      0.0000    748.6467     10.6810     96.5345
   614.0000      0.0000    753.8958     11.0752     90.9246
   614.2500      0.0000    756.7831     11.2963     86.2222
   614.5000      0.0000    759.5137     11.5494     79.2261
   614.7500      0.0000    760.4402     11.6612     75.2985
   615.0000      0.0000    761.0603     11.7190     71.0291
   615.2500      0.0000    761.2191     11.6625     69.1280
   615.5000      0.0000    761.2776     11.4152     67.0052
   615.7500      0.0000    761.2297     11.1521     65.7438
   616.0000      0.0000    761.1443     10.6537     64.3185
   616.2500      0.0000    761.3513     10.2801     64.3736
   616.5000      0.0000    763.2566      9.7002     67.1719
   616.7500      0.0000    766.7034      9.3193     70.7772
   617.0000      0.0000    776.6228      8.7572     76.7705
   617.2500      0.0000    785.8823      8.3690     79.5299
   617.5000      0.0000    799.8572      7.7492     80.0530
   617.7500      0.0000    806.8878      7.3374     77.8326
   618.0000      0.0000    813.9413      6.8041     71.1684
   618.2500      0.0000    818.2146      6.5321     65.2333
   618.5000     -2.0000    825.5005      6.2326     56.8000
   618.7500      0.0000    829.6880      6.0830     53.6875
   619.0000      0.0000    832.3087      5.9314     55.1878
   619.2500      0.0000    830.9563      5.9082     59.7614
   619.5000      0.0000    823.2650      6.0461     68.4697
   619.7500      0.0000    813.8688      6.2450     73.4772
   620.0000      0.0000    795.5219      6.5959     78.4328
   620.2500      0.0000    783.5341      6.7905     80.5301
   620.5000      0.0000    770.2180      6.9693     83.9683
   620.7500      0.0000    764.5872      7.0178     87.8461
   621.0000      0.0000    758.1893      6.9853     97.8616
   621.2500      0.0000    753.6202      6.8806    107.6290
   621.5000      0.0000    745.5161      6.5989    125.5221
   621.7500      0.0000    739.9758      6.3570    137.8073
   622.0000      0.0000    733.2364      5.9909    153.0114
   622.2500      0.0000    730.4297      5.7839    158.9059
   622.5000      0.0000    728.7938      5.5615    158.8407
   622.7500      0.0000    729.1133      5.4684    152.8781
   623.0000      0.0000    731.1859      5.3838    138.6808
   623.2500      0.0000    733.2646      5.3461    128.9251
   623.5000      0.0000    736.2138      5.2964    117.8586
   623.7500      0.0000    737.1108      5.2598    113.4704
   624.0000      0.0000    735.9501      5.1873    110.4240
   624.2500      0.0000    733.9040      5.1225    109.7869
   624.5000      0.0000    730.6102      5.0073    109.1782
   624.7500      0.0000    729.0408      4.9326    108.1260
   625.0000      0.0000    727.8734      4.8535    105.2454
   625.2500      0.0000    727.5693      4.8340    103.2869
   625.5000      0.0000    727.1640      4.8530    102.3842
   625.7500      0.0000    726.7456      4.8849    103.5952
   626.0000      0.0000    726.3691      4.9304    107.0014
   626.2500      0.0000    727.0651      4.9444    109.4838
   626.5000      0.0000    730.6138      4.9324    113.3044
   626.7500      0.0000    733.9878      4.9067    116.2012
   627.0000      0.0000    736.6019      4.8605    120.7190
   627.2500      0.0000    734.3116      4.8379    122.9752
   627.5000      0.0000    724.4836      4.8333    123.7810
   627.7500      0.0000    716.0045      4.8526    122.3975
   628.0000      0.0000    705.4740      4.9057    118.2698
   628.2500      0.0000    701.6992      4.9441    114.9987
   628.5000      0.0000    701.3043      4.9768    110.6138
   628.7500      0.0000    703.8104      4.9699    108.3773
   629.0000      0.0000    709.9719      4.9244    105.8073
   629.2500      0.0000    715.0955      4.8924    104.1987
   629.5000      0.0000    724.9661      4.8801    101.2647
   629.7500      0.0000    733.7984      4.8997     98.9032
   630.0000      0.0000    749.8890      4.9453     95.7481
   630.2500      0.0000    760.5584      4.9698     94.8209
   630.5000      0.0000    772.5253      4.9879     95.5497
   630.7500      0.0000    776.7819      4.9921     96.5151
