~Version Information
VERS.                      2.0: CWLS Log ASCII Standard - VERSION 2.0
WRAP.                       NO: One line per depth step
~Well Information Block
STRT.FT               -16.2500: 
STOP.FT               938.7500: 
STEP.FT                 0.2500: 
NULL.                -999.2500: 
COMP.          XTO Energy Inc.: COMPANY
WELL.          Golden Eagle 20-04: WELL
FLD.           Purgatrorie River: FIELD
LOC.           702' FNL & 487' FWL--: LOCATION
STAT.                       CO: PROVINCE
CNTY.               Las Animas: COUNTY
CTRY. USA : Country
SECT. 20 : Section 
TOWN. 33S : Township
RANG. 67W : Range
SRVC.          Patterson Wireline: SERVICE COMPANY
DATE.          Mon Dec 05 10:32:54 2005: LOG DATE
API.           05 071 08599 00: UNIQUE WELL ID
~Curve Information Block
DEPT.FT            0 000 00 00: Depth
CCL.                          : Casing Collar Locator
TT3.usec                      : CBL 3' Travel Time
AMP3.mV                       : CBL 3' Amplitude
GR.GAPI                       : Gamma Ray
~Parameter Information Block
~A  Depth       CCL         TT3         AMP3         GR     
# ...
   620.2500      0.0000    666.1522      6.1738    126.2542
   620.5000      0.0000    667.5264      6.0816    121.5462
   620.7500      0.0000    667.3272      5.9824    116.1803
   621.0000      0.0000    667.6720      5.9073    109.9654
   621.2500      0.0000    670.1415      5.8782    103.6449
   621.5000      0.0000    674.0692      5.8947     98.5237
   621.7500      0.0000    677.0083      5.9429     95.6577
   622.0000      0.0000    676.7101      6.0113     95.5223
   622.2500      0.0000    672.7053      6.0942     98.0269
   622.5000      0.0000    666.4081      6.1822    102.4985
   622.7500      0.0000    659.9828      6.2532    107.8026
   623.0000      0.0000    654.9819      6.2759    112.7746
   623.2500      0.0000    651.7582      6.2266    116.6542
   623.5000      0.0000    649.8440      6.1070    119.1299
   623.7500      0.0000    648.6409      5.9458    120.1212
   624.0000      0.0000    647.7954      5.7794    119.6902
   624.2500      0.0000    647.1890      5.6327    118.1064
   624.5000      0.0000    646.8035      5.5076    115.8991
   624.7500      0.0000    646.6385      5.3856    114.0041
   625.0000      0.0000    646.7018      5.2346    113.8125
   625.2500      0.0000    647.0233      5.0223    116.4800
   625.5000      0.0000    647.6569      4.7318    121.7479
   625.7500      0.0000    648.7016      4.3734    127.7171
   626.0000      0.0000    650.4008      3.9803    132.1548
   626.2500      0.0000    653.2454      3.5946    133.9326
   626.5000      0.0000    657.7713      3.2569    133.1283
   626.7500      0.0000    663.9374      2.9994    130.0487
   627.0000      0.0000    670.6882      2.8368    124.6468
   627.2500      0.0000    676.4506      2.7614    117.1110
   627.5000      0.0000    680.2246      2.7489    108.7547
   627.7500      0.0000    682.1094      2.7720    101.7994
   628.0000      0.0000    682.8372      2.8103     98.1240
   628.2500      0.0000    682.9849      2.8522     98.4197
   628.5000      0.0000    682.5132      2.8960    102.3453
   628.7500      0.0000    680.8017      2.9562    108.8779
   629.0000      0.0000    677.1967      3.0750    116.3552
   629.2500      0.0000    671.9060      3.3206    122.7778
   629.5000      0.0000    666.4045      3.7491    126.7587
   629.7500      0.0000    662.5231      4.3445    128.2758
   630.0000      0.0000    660.9098      4.9988    128.2169
   630.2500      0.0000    660.7366      5.5652    127.4101
   630.5000      0.0000    661.0253      5.9410    126.4917
   630.7500      0.0000    661.7161      6.1009    126.2145
   631.0000      0.0000    663.1309      6.0650    126.9663
   631.2500      0.0000    664.9769      5.8583    128.0176
   631.5000      0.0000    666.3811      5.5171    127.8805
   631.7500      0.0000    666.6457      5.1202    125.5811
   632.0000      0.0000    665.7277      4.7739    121.5002
   632.2500      0.0000    664.3481      4.5467    116.9499
   632.5000      0.0000    663.8721      4.4293    112.9636
   632.7500      0.0000    665.5994      4.3722    109.5799
   633.0000      0.0000    669.5063      4.3492    106.4003
   633.2500      0.0000    673.7177      4.3756    103.5903
   633.5000      0.0000    675.8465      4.4834    102.0255
   633.7500      0.0000    675.2745      4.6892    102.5624
   634.0000      0.0000    673.8868      4.9682    105.2754
   634.2500      0.0000    674.2277      5.2484    109.2415
   634.5000      0.0000    677.0604      5.4474    113.0943
   634.7500      0.0000    680.9780      5.5325    116.0838
   635.0000      0.0000    683.9894      5.5348    118.5741
   635.2500      0.0000    684.9170      5.5043    121.4489
   635.5000      0.0000    683.4941      5.4694    125.2894
   635.7500      0.0000    680.0851      5.4383    130.1346
   636.0000      0.0000    675.8392      5.4165    135.4046
   636.2500      0.0000    672.5951      5.4146    139.8680
   636.5000      0.0000    671.6427      5.4393    142.2434
   636.7500      0.0000    672.2931      5.4792    141.9957
   637.0000      0.0000    672.2588      5.5042    139.4754
   637.2500      0.0000    669.8976      5.4845    135.7190
   637.5000      0.0000    665.9637      5.4077    132.3700
   637.7500      0.0000    663.0538      5.2753    131.2924
   638.0000      0.0000    663.4975      5.0955    133.4655
   638.2500      0.0000    667.6790      4.8913    137.8006
   638.5000      0.0000    673.9721      4.7111    141.1979
   638.7500      0.0000    680.0542      4.6151    140.4456
   639.0000      0.0000    684.4207      4.6397    134.6674
   639.2500      0.0000    686.9205      4.7713    126.0005
   639.5000      0.0000    688.1900      4.9546    117.8559
   639.7500      0.0000    688.8454      5.1252    112.7839
   640.0000      0.0000    689.1450      5.2349    111.8346
   640.2500      0.0000    689.1147      5.2573    114.8794
   640.5000      0.0000    688.7731      5.1847    120.5698
   640.7500      0.0000    688.1971      5.0282    126.1859
   641.0000      0.0000    687.4279      4.8205    128.5264
   641.2500      0.0000    686.3505      4.6110    125.9626
   641.5000      0.0000    684.7579      4.4443    120.0131
   641.7500      0.0000    682.6688      4.3349    114.5356
   642.0000      0.0000    680.6176      4.2579    112.8948
   642.2500      0.0000    679.3533      4.1596    115.8736
   642.5000      0.0000    679.0406      3.9824    121.8761
   642.7500      0.0000    679.0643      3.6990    128.2122
   643.0000      0.0000    678.9204      3.3400    132.2935
   643.2500      0.0000    678.9056      2.9834    132.7985
   643.5000      0.0000    679.5175      2.7048    130.0953
   643.7500      0.0000    680.5652      2.5334    125.2132
   644.0000      0.0000    681.3474      2.4472    118.8348
   644.2500      0.0000    681.4525      2.4023    111.9621
   644.5000      0.0000    681.0015      2.3637    107.0091
   644.7500      0.0000    680.2084      2.3226    106.8118
   645.0000      0.0000    679.0233      2.2972    111.9215
   645.2500      0.0000    677.3205      2.3234    119.4331
   645.5000      0.0000    675.2960      2.4411    125.1538
   645.7500      0.0000    673.3580      2.6800    126.8232
   646.0000      0.0000    671.6275      3.0440    125.0726
   646.2500      0.0000    670.0239      3.5032    121.9113
   646.5000      0.0000    668.8885      4.0020    118.9746
   646.7500      0.0000    668.8216      4.4825    117.0739
   647.0000      0.0000    669.7336      4.9058    116.7831
   647.2500      0.0000    670.8065      5.2638    118.8525
   647.5000      0.0000    671.5876      5.5746    123.6965
   647.7500      0.0000    672.4977      5.8656    130.5503
   648.0000      0.0000    674.0338      6.1544    137.4080
   648.2500      0.0000    675.9133      6.4408    142.0096
   648.5000      0.0000    677.3547      6.7119    143.0119
   648.7500      0.0000    678.1035      6.9524    140.5049
   649.0000      0.0000    678.7997      7.1512    135.9356
   649.2500      0.0000    680.1522      7.2982    131.6515
   649.5000      0.0000    682.0845      7.3818    129.6335
   649.7500      0.0000    683.9537      7.3989    129.9169
   650.0000      0.0000    685.3176      7.3734    130.6980
   650.2500      0.0000    686.2155      7.3534    130.3131
   650.5000      0.0000    686.8806      7.3818    128.6787
   650.7500      0.0000    687.4501      7.4694    126.9565
   651.0000      0.0000    687.9201      7.5958    126.4884
   651.2500      0.0000    688.2524      7.7291    127.8549
   651.5000      0.0000    688.4521      7.8449    130.1432
   651.7500      0.0000    688.5671      7.9348    131.1569
   652.0000      0.0000    688.6445      8.0057    129.2906
   652.2500      0.0000    688.7056      8.0692    125.6659
   652.5000      0.0000    688.7380      8.1285    123.6600
   652.7500      0.0000    688.6981      8.1753    125.4859
   653.0000      0.0000    688.4597      8.2004    129.5708
   653.2500      0.0000    687.6885      8.2066    131.9762
   653.5000      0.0000    685.6921      8.2035    130.0871
