~Version Information
VERS.                      2.0: CWLS Log ASCII Standard - VERSION 2.0
WRAP.                       NO: One line per depth step
~Well Information Block
STRT.FT                -7.7500: 
STOP.FT              1519.0000: 
STEP.FT                 0.2500: 
NULL.                -999.2500: 
COMP.          Pioneer Natural Resources: COMPANY
WELL.          Mow 8-14-33-67 Tr: WELL
FLD.           Purgatorie River: FIELD
LOC.           2258' FNL & 929' FEL--: LOCATION
CNTY.               Las Animas: COUNTY
SRVC.          Patterson Wireline: SERVICE COMPANY
DATE.          Thu Feb 02 10:06:28 2006: LOG DATE
UWI.           05 071 08684 00: UNIQUE WELL ID
STAT.                       CO: STATE
~Curve Information Block
DEPT.FT            0 000 00 00: Depth
MINMK.                        : Magnetic Mark Ticks
CCL.                          : Casing Collar Locator
TT3.usec                      : CBL 3' Travel Time
AMP3.mV                       : CBL 3' Amplitude
GR.GAPI                       : Gamma Ray
~Parameter Information Block
~A  Depth      MINMK        CCL         TT3         AMP3         GR     
# ...
   888.2500      0.0000      0.0000    263.8814     80.4139    106.7319
   888.5000      0.0000      0.0000    263.8797     80.4562    102.9826
   888.7500      0.0000      0.0000    263.8793     80.4689    100.2943
   889.0000      0.0000      0.0000    263.8806     80.4633     99.0961
   889.2500      0.0000      0.0000    263.8823     80.4626     99.2084
   889.5000      0.0000      0.0000    263.8823     80.4946    100.1305
   889.7500      0.0000      0.0000    263.8801     80.5766    101.6587
   890.0000      0.0000      0.0000    263.8769     80.7033    103.9567
   890.2500      0.0000      0.0000    263.8740     80.8494    106.8375
   890.5000      0.0000      0.0000    263.8719     80.9872    109.6814
   890.7500      0.0000      0.0000    263.8698     81.1002    112.5645
   891.0000      0.0000      0.0000    263.8662     81.1842    116.6416
   891.2500      0.0000      0.0000    263.8600     81.2443    122.5711
   891.5000      0.0000      0.0000    263.8507     81.2927    129.2648
   891.7500      0.0000      0.0000    263.8390     81.3456    134.9368
   892.0000      0.0000      0.0000    263.8272     81.4156    138.7633
   892.2500      0.0000      0.0000    263.8183     81.5044    141.1046
   892.5000      0.0000      0.0000    263.8134     81.5991    142.8500
   892.7500      0.0000      0.0000    263.8104     81.6758    144.7644
   893.0000      0.0000      0.0000    263.8053     81.7134    146.8087
   893.2500      0.0000      0.0000    263.7951     81.7075    148.2218
   893.5000      0.0000      0.0000    263.7802     81.6698    148.7624
   893.7500      0.0000      0.0000    263.7634     81.6141    149.4933
   894.0000      0.0000      0.0000    263.7484     81.5485    151.7878
   894.2500      0.0000      0.0000    263.7372     81.4783    155.7325
   894.5000      0.0000      0.0000    263.7300     81.4073    159.8348
   894.7500      0.0000      0.0000    263.7263     81.3376    162.3119
   895.0000      0.0000      0.0000    263.7249     81.2733    162.5081
   895.2500      0.0000      0.0000    263.7239     81.2152    160.9998
   895.5000      0.0000      0.0000    263.7207     81.1439    158.6647
   895.7500      0.0000      0.0000    263.7130     81.0196    156.1671
   896.0000      0.0000      0.0000    263.6995     80.8128    154.0501
   896.2500      0.0000      0.0000    263.6809     80.5310    152.2567
   896.5000      0.0000      0.0000    263.6593     80.2061    149.5368
   896.7500      0.0000      0.0000    263.6377     79.8635    144.4341
   897.0000      0.0000      0.0000    263.6182     79.5119    137.0513
   897.2500      0.0000      0.0000    263.6015     79.1584    129.2788
   897.5000      0.0000      0.0000    263.5872     78.8265    123.3820
   897.7500      0.0000      0.0000    263.5744     78.5641    120.6497
   898.0000      0.0000      0.0000    263.5625     78.4338    120.9104
   898.2500      0.0000      0.0000    263.5517     78.4712    122.9527
   898.5000      0.0000      0.0000    263.5441     78.6392    125.4796
   898.7500      0.0000      0.0000    263.5417     78.8333    127.8189
   899.0000      0.0000      0.0000    263.5456     78.9455    130.0389
   899.2500      0.0000      0.0000    263.5550     78.9236    132.6286
   899.5000      0.0000      0.0000    263.5695     78.7770    135.7288
   899.7500      0.0000      0.0000    263.5895     78.5496    138.6206
   900.0000      0.0000      0.0000    263.6132     78.3008    140.5692
   900.2500      0.0000      0.0000    263.6363     78.0937    142.1356
   900.5000      0.0000      0.0000    263.6539     77.9798    144.8529
   900.7500      0.0000      0.0000    263.6648     77.9917    149.0513
   901.0000      0.0000      0.0000    263.6703     78.1386    152.0381
   901.2500      0.0000      0.0000    263.6721     78.3945    149.0730
   901.5000      0.0000      0.0000    263.6703     78.6987    137.0990
   901.7500      0.0000      0.0000    263.6651     78.9918    117.8315
   902.0000      0.0000      0.0000    263.6589     79.2512     96.7418
   902.2500      0.0000      0.0000    263.6568     79.4853     78.9393
   902.5000      0.0000      0.0000    263.6640     79.7020     66.4186
   902.7500      0.0000      0.0000    263.6815     79.8973     58.7699
   903.0000      0.0000      0.0000    263.7048     80.0690     55.0897
   903.2500      0.0000      0.0000    263.7262     80.2265     54.5714
   903.5000      0.0000      0.0000    263.7401     80.3727     56.2182
   903.7500      0.0000      0.0000    263.7451     80.4629     59.1018
   904.0000      0.0000      0.0000    263.7471     80.3455     62.8585
   904.2500      0.0000      0.0000    263.7641     79.7262     67.2871
   904.5000      0.0000      0.0000    263.8416     78.2270     71.5496
   904.7500      0.0000      0.0000    264.0750     75.6203     74.4203
   905.0000      0.0000      0.0000    264.6126     72.1019     75.4758
   905.2500      0.0000      0.0000    265.5895     68.2423     75.5888
   905.5000      0.0000      0.0000    266.9926     64.5403     75.9588
   905.7500      0.0000      0.0000    268.5724     61.1590     76.7572
   906.0000      0.0000      0.0000    269.9448     58.2200     76.8781
   906.2500      0.0000      0.0000    270.8418     56.0393     74.8887
   906.5000      0.0000      0.0000    271.2704     54.8120     70.0839
   906.7500      0.0000      0.0000    271.4606     54.2897     62.8295
   907.0000      0.0000     -2.0000    271.7333     53.9913     54.3719
   907.2500      0.0000      0.0000    272.4484     53.5985     46.4108
   907.5000      0.0000      0.0000    273.9011     53.1451     40.4656
   907.7500      0.0000      0.0000    275.9512     53.0281     37.2067
   908.0000      0.0000      0.0000    277.6624     53.8431     36.2317
   908.2500      0.0000      0.0000    277.6911     55.9752     36.5505
   908.5000      0.0000      0.0000    275.4526     59.2990     37.3389
   908.7500      1.0000      0.0000    271.7898     63.4039     38.1623
   909.0000      0.0000      0.0000    268.2363     67.9159     38.6536
   909.2500      0.0000      0.0000    265.7840     72.3847     38.4672
   909.5000      0.0000      0.0000    264.4932     76.1645     37.7204
   909.7500      0.0000      0.0000    263.9480     78.7614     37.1516
   910.0000      0.0000      0.0000    263.7530     80.1831     37.6393
   910.2500      0.0000      0.0000    263.6896     80.8061     39.5907
   910.5000      0.0000      0.0000    263.6684     81.0249     42.7737
   910.7500      0.0000      0.0000    263.6620     81.0817     46.6551
   911.0000      0.0000      0.0000    263.6630     81.0945     50.9852
   911.2500      0.0000      0.0000    263.6700     81.1093     56.1426
   911.5000      0.0000      0.0000    263.6805     81.1352     62.7922
   911.7500      0.0000      0.0000    263.6908     81.1670     71.1260
   912.0000      0.0000      0.0000    263.6981     81.2058     80.4743
   912.2500      0.0000      0.0000    263.7017     81.2622     89.6668
   912.5000      0.0000      0.0000    263.7025     81.3422     97.9290
   912.7500      0.0000      0.0000    263.7017     81.4370    105.5896
   913.0000      0.0000      0.0000    263.7007     81.5261    113.5742
   913.2500      0.0000      0.0000    263.7007     81.5901    121.9517
   913.5000      0.0000      0.0000    263.7026     81.6223    129.5661
   913.7500      0.0000      0.0000    263.7062     81.6276    135.4330
   914.0000      0.0000      0.0000    263.7105     81.6093    139.8589
   914.2500      0.0000      0.0000    263.7143     81.5608    143.8196
   914.5000      0.0000      0.0000    263.7170     81.4729    147.7076
   914.7500      0.0000      0.0000    263.7190     81.3459    150.8762
   915.0000      0.0000      0.0000    263.7212     81.1922    152.1777
   915.2500      0.0000      0.0000    263.7247     81.0290    150.9411
   915.5000      0.0000      0.0000    263.7302     80.8737    147.5058
   915.7500      0.0000      0.0000    263.7367     80.7439    142.8803
   916.0000      0.0000      0.0000    263.7424     80.6553    138.1291
