~Version Information
VERS.                      2.0: CWLS Log ASCII Standard - VERSION 2.0
WRAP.                       NO: One line per depth step
~Well Information Block
STRT.FT               460.0000: 
STOP.FT              2811.5000: 
STEP.FT                 0.1000: 
NULL.                -999.2500: 
COMP.          Pioneer Natural Resources: COMPANY
WELL.           Dolzanie 34-12: WELL
FLD.           Purgatoire River: FIELD
LOC.           1001' FSL & 1750' FEL--: LOCATION
PROV.                 Colorado: PROVINCE
CNTY.               Las Animas: COUNTRY
SRVC.                Patterson: SERVICE COMPANY
DATE.          Wed Jul 20 07:56:24 2005: LOG DATE
UWI.           05 071 08439 00: UNIQUE WELL ID
~Curve Information Block
DEPT.FT            0 000 00 00: Depth
DCAL.in                       : CDL Caliper
DPOR.pu                       : CDL Density Porosity
NPOR.pu                       : Neutron Porosity
RHOB.g/cc                     : CDL Bulk Density
RHOC.g/cc                     : CDL Density Correction
GR.GAPI                       : Gamma Ray
~Parameter Information Block
~A  Depth       DCAL        DPOR        NPOR        RHOB        RHOC         GR     
# ...
  2792.8000      7.7787      5.6878     14.4580      2.5562      0.0485    114.0242
  2792.9000      7.7787      5.1812     14.7899      2.5645      0.0298    115.5172
  2793.0000      7.7792      4.6540     15.3265      2.5732      0.0515    114.3912
  2793.1000      7.7792      4.3590     15.6470      2.5781      0.0380    114.5153
  2793.2000      7.7792      4.3148     15.9189      2.5788      0.0608    118.1841
  2793.3000      7.7798      4.6268     16.2600      2.5737      0.0355    116.4902
  2793.4000      7.7798      5.1159     16.4826      2.5656      0.0390     93.1930
  2793.5000      7.7787      5.3169     16.6572      2.5623      0.0397     50.9875
  2793.6000      7.7787      5.0317     16.8814      2.5670      0.0527     16.8964
  2793.7000      7.7787      4.5676     17.0797      2.5746      0.0672      3.1678
  2793.8000      7.7782      4.2777     17.3130      2.5794      0.0504      0.3242
  2793.9000      7.7782      4.2714     17.5490      2.5795      0.0915      0.0175
  2794.0000      7.7842      4.6316     17.5334      2.5736      0.0582      0.0000
  2794.1000      7.7842      4.8372     17.3141      2.5702      0.0495   -999.2500
  2794.2000      7.7842      4.4293     17.2660      2.5769      0.0569   -999.2500
  2794.3000      7.7961      4.0040     17.4606      2.5839      0.0788   -999.2500
  2794.4000      7.7961      4.3195     17.6140      2.5787      0.0796   -999.2500
  2794.5000      7.8040      5.1115     17.6619      2.5657      0.0446   -999.2500
  2794.6000      7.8040      5.2614     17.8062      2.5632      0.0357   -999.2500
  2794.7000      7.8040      4.2546     17.8547      2.5798      0.0439   -999.2500
  2794.8000      7.8033      3.0713     17.5536      2.5993      0.0690   -999.2500
  2794.9000      7.8033      2.9887     17.2919      2.6007      0.0760   -999.2500
  2795.0000      7.7933      3.8412     17.3657      2.5866      0.0488   -999.2500
  2795.1000      7.7933      4.2848     17.4617      2.5793      0.0076   -999.2500
  2795.2000      7.7933      3.8077     17.4418      2.5872      0.0558   -999.2500
  2795.3000      7.7765      3.1477     17.3078      2.5981      0.0434   -999.2500
  2795.4000      7.7765      2.8813     16.9133      2.6025      0.0277   -999.2500
  2795.5000      7.7602      3.1920     16.3280      2.5973      0.0563   -999.2500
  2795.6000      7.7602      3.8581     15.6852      2.5863      0.0114   -999.2500
  2795.7000      7.7602      3.9520     15.0339      2.5848      0.0136   -999.2500
  2795.8000      7.7522      3.0715     14.5859      2.5993      0.0555   -999.2500
  2795.9000      7.7522      1.7492     14.4959      2.6211      0.0243   -999.2500
  2796.0000      7.7516      0.6744     14.5840      2.6389      0.0757   -999.2500
  2796.1000      7.7516      0.7932     14.5574      2.6369      0.0813   -999.2500
  2796.2000      7.7516      2.3068     14.5697      2.6119      0.0472   -999.2500
  2796.3000      7.7523      3.8887     14.9509      2.5858      0.0167   -999.2500
  2796.4000      7.7523      4.3024     15.5554      2.5790      0.0433   -999.2500
  2796.5000      7.7516      3.7973     15.9374      2.5873      0.0669   -999.2500
  2796.6000      7.7516      3.4221     15.7284      2.5935      0.0712   -999.2500
  2796.7000      7.7516      3.4351     15.0527      2.5933      0.0559   -999.2500
  2796.8000      7.7502      3.2544     14.6874      2.5963      0.0783   -999.2500
  2796.9000      7.7502      2.5850     15.1288      2.6073      0.0616   -999.2500
  2797.0000      7.7494      1.6440     15.6196      2.6229      0.0515   -999.2500
  2797.1000      7.7494      0.9513     15.3836      2.6343      0.0601   -999.2500
  2797.2000      7.7494      0.8390     15.0644      2.6362      0.0635   -999.2500
  2797.3000      7.7501      0.8385     15.5800      2.6362      0.0617   -999.2500
  2797.4000      7.7501      0.4105     16.6162      2.6432      0.0727   -999.2500
  2797.5000      7.7520     -0.0680     17.2291      2.6511      0.0826   -999.2500
  2797.6000      7.7520      0.0429     17.2698      2.6493      0.0673   -999.2500
  2797.7000      7.7520      0.6090     17.0133      2.6400      0.0504   -999.2500
  2797.8000      7.7522      0.9945     16.5784      2.6336      0.0476   -999.2500
  2797.9000      7.7522      1.2625     16.0311      2.6292      0.0713   -999.2500
  2798.0000      7.7505      1.6710     15.5105      2.6224      0.0564   -999.2500
  2798.1000      7.7505      1.6040     15.4065      2.6235      0.0720   -999.2500
  2798.2000      7.7505      0.8979     15.8963      2.6352      0.0671   -999.2500
  2798.3000      7.7500      0.4215     16.5660      2.6430      0.0808   -999.2500
  2798.4000      7.7500      0.7952     16.9449      2.6369      0.0876   -999.2500
  2798.5000      7.7514      1.8231     17.1167      2.6199      0.0441   -999.2500
  2798.6000      7.7514      2.8100     17.3549      2.6036      0.0332   -999.2500
  2798.7000      7.7514      3.4822     17.8800      2.5925      0.0761   -999.2500
  2798.8000      7.7518      3.9845     19.0212      2.5843      0.0639   -999.2500
  2798.9000      7.7518      4.0148     22.1187      2.5838      0.0560   -999.2500
  2799.0000      7.7506      3.6126     29.7459      2.5904      0.0721   -999.2500
  2799.1000      7.7506      3.5350     40.6756      2.5917      0.0401   -999.2500
  2799.2000      7.7506      3.8885     48.3778      2.5858      0.0447   -999.2500
  2799.3000      7.7491      4.3695     51.1528      2.5779      0.0477   -999.2500
  2799.4000      7.7491      5.0604     51.6977      2.5665      0.0347   -999.2500
  2799.5000      7.7486      5.6060     51.7555      2.5575      0.0024   -999.2500
  2799.6000      7.7486      5.5497     51.7587      2.5584      0.0611   -999.2500
  2799.7000      7.7486      5.3066   -999.2500      2.5624      0.0211   -999.2500
  2799.8000      7.7487      5.0062   -999.2500      2.5674      0.0616   -999.2500
  2799.9000      7.7487      4.3733   -999.2500      2.5778      0.0582   -999.2500
  2800.0000      7.7492      3.5542   -999.2500      2.5914      0.0706   -999.2500
  2800.1000      7.7492      2.8230   -999.2500      2.6034      0.0741   -999.2500
  2800.2000      7.7492      2.4300   -999.2500      2.6099      0.0847   -999.2500
  2800.3000      7.7500      2.6605   -999.2500      2.6061      0.0740   -999.2500
  2800.4000      7.7500      3.2652   -999.2500      2.5961      0.0733   -999.2500
  2800.5000      7.7517      3.6184   -999.2500      2.5903      0.0647   -999.2500
  2800.6000      7.7517      3.7160   -999.2500      2.5887      0.0384   -999.2500
  2800.7000      7.7517      3.7835   -999.2500      2.5876      0.0411   -999.2500
  2800.8000      7.7529      3.6608   -999.2500      2.5896      0.0766   -999.2500
  2800.9000      7.7529      3.3637   -999.2500      2.5945      0.0776   -999.2500
  2801.0000      7.7517      2.9861   -999.2500      2.6007      0.0391   -999.2500
  2801.1000      7.7517      2.5614   -999.2500      2.6077      0.0797   -999.2500
  2801.2000      7.7517      2.4465   -999.2500      2.6096      0.0609   -999.2500
  2801.3000      7.7503      2.7896   -999.2500      2.6040      0.0616   -999.2500
  2801.4000      7.7503      3.3080   -999.2500      2.5954      0.0284   -999.2500
  2801.5000      7.7512      3.8019   -999.2500      2.5873      0.0464   -999.2500
  2801.6000      7.7512      3.9679   -999.2500      2.5845      0.0543   -999.2500
  2801.7000      7.7512      3.2552   -999.2500      2.5963      0.0662   -999.2500
  2801.8000      7.7503      1.8622   -999.2500      2.6193      0.1141   -999.2500
  2801.9000      7.7503      0.6469   -999.2500      2.6393      0.1074   -999.2500
  2802.0000      7.7472     -0.2275   -999.2500      2.6538      0.1123   -999.2500
  2802.1000      7.7472     -0.4503   -999.2500      2.6574      0.1275   -999.2500
  2802.2000      7.7472      0.9281   -999.2500      2.6347      0.1045   -999.2500
  2802.3000      7.7474      3.3421   -999.2500      2.5949      0.0346   -999.2500
