~Version Information
VERS.                      2.0: CWLS Log ASCII Standard - VERSION 2.0
WRAP.                       NO: One line per depth step
~Well Information Block
STRT.FT                -7.2500: 
STOP.FT              1273.5000: 
STEP.FT                 0.2500: 
NULL.                -999.2500: 
COMP.          Pioneer Natural Resources: COMPANY
WELL.            Keiko 14-6 Tr: WELL
FLD.           Purgatorie River: FIELD
LOC.           462' FSL & 1202' FWL--: LOCATION
PROV.                       CO: PROVINCE
CNTY.               Las Animas: COUNTRY
SRVC.          Patterson Wireline: SERVICE COMPANY
DATE.          Wed Jan 04 09:22:19 2006: LOG DATE
UWI.           05 071 08629 00: UNIQUE WELL ID
~Curve Information Block
DEPT.FT            0 000 00 00: Depth
CCL.                          : Casing Collar Locator
TT3.usec                      : CBL 3' Travel Time
AMP3.mV                       : CBL 3' Amplitude
GR.GAPI                       : Gamma Ray
~Parameter Information Block
~A  Depth       CCL         TT3         AMP3         GR     
# ...
   327.7500      0.0000    489.7433     10.6917     74.6449
   328.0000      0.0000    506.9625     10.6865     72.2193
   328.2500      0.0000    526.7632     10.6933     70.8587
   328.5000      0.0000    547.5960     10.6949     70.7894
   328.7500      0.0000    569.0513     10.7007     71.4258
   329.0000      0.0000    589.6868     10.7306     72.1072
   329.2500      0.0000    602.5243     10.7917     72.6238
   329.5000      0.0000    597.9797     10.8733     73.2006
   329.7500      0.0000    574.0671     10.9575     74.3160
   330.0000      0.0000    540.2185     11.0289     76.4819
   330.2500      0.0000    509.0981     11.0768     79.9110
   330.5000      0.0000    487.2451     11.0942     84.1616
   330.7500      0.0000    474.2451     11.0786     87.9635
   331.0000      0.0000    467.4450     11.0352     89.6644
   331.2500      0.0000    465.1006     10.9828     88.3482
   331.5000      0.0000    466.2640     10.9498     84.7438
   331.7500      0.0000    469.6719     10.9544     80.9760
   332.0000      0.0000    473.5305     10.9838     79.2768
   332.2500      0.0000    476.2507     11.0000     80.6503
   332.5000      0.0000    477.0979     10.9723     84.4050
   332.7500      0.0000    475.8889     10.9049     88.7756
   333.0000      0.0000    472.4120     10.8306     92.1174
   333.2500      0.0000    466.8468     10.7792     93.7182
   333.5000      0.0000    461.7127     10.7542     93.6884
   333.7500      0.0000    462.9171     10.7294     92.4231
   334.0000      0.0000    476.5515     10.6581     90.3731
   334.2500      0.0000    503.0910     10.4868     88.0147
   334.5000      0.0000    536.3628     10.1888     85.6726
   334.7500      0.0000    569.6483      9.8114     83.4748
   335.0000      0.0000    600.7471      9.4830     81.6494
   335.2500      0.0000    630.3401      9.3397     80.6880
   335.5000      0.0000    658.6259      9.4356     80.9091
   335.7500      0.0000    684.9166      9.7321     81.7077
   336.0000      0.0000    707.6927     10.1584     81.5055
   336.2500      0.0000    723.6798     10.6627     78.9834
   336.5000      0.0000    729.0841     11.2317     74.4817
   336.7500     -2.0000    722.3188     11.8957     69.8927
   337.0000      0.0000    702.5961     12.7329     67.0856
   337.2500      0.0000    665.3838     13.8820     66.4507
   337.5000      0.0000    605.0626     15.5190     66.7458
   337.7500      0.0000    525.5673     17.7015     66.2301
   338.0000      0.0000    443.8942     20.1463     64.1873
   338.2500      0.0000    378.8027     22.2603     61.5385
   338.5000      0.0000    338.0927     23.5572     59.9175
   338.7500      0.0000    317.7682     24.0247     60.1725
   339.0000      0.0000    309.5926     23.9997     61.9273
   339.2500      0.0000    307.2220     23.7715     64.4350
   339.5000      0.0000    307.6509     23.4090     67.5461
   339.7500      0.0000    310.2265     22.8772     71.8857
   340.0000      0.0000    315.2648     22.1794     78.1708
   340.2500      0.0000    323.1906     21.3799     86.1387
   340.5000      0.0000    334.9217     20.5503     94.1489
   340.7500      0.0000    353.5904     19.7289    100.1685
   341.0000      0.0000    385.5071     18.9261    103.1424
   341.2500      0.0000    436.5672     18.1571    103.3084
   341.5000      0.0000    504.5339     17.4554    101.6006
   341.7500      0.0000    574.8663     16.8548     99.1181
   342.0000      0.0000    627.8512     16.3661     96.8810
   342.2500      0.0000    653.2447     15.9753     95.6280
   342.5000      0.0000    658.5477     15.6586     95.6052
   342.7500      0.0000    661.8224     15.3937     96.4939
   343.0000      0.0000    675.6577     15.1626     97.7107
   343.2500      0.0000    698.5144     14.9564     98.7952
   343.5000      0.0000    720.7299     14.7806     99.4436
   343.7500      0.0000    735.4772     14.6457     99.2754
   344.0000      0.0000    742.6293     14.5472     97.7394
   344.2500      0.0000    745.6611     14.4609     94.3638
   344.5000      0.0000    748.3627     14.3654     89.1834
   344.7500      0.0000    753.5788     14.2639     82.8499
   345.0000      0.0000    762.2507     14.1789     76.3045
   345.2500      0.0000    772.9965     14.1281     70.4627
   345.5000      0.0000    783.6436     14.1110     66.0290
   345.7500      0.0000    793.3130     14.1115     63.1821
   346.0000      0.0000    802.8088     14.1069     61.3836
   346.2500      0.0000    813.3900     14.0773     59.7797
   346.5000      0.0000    825.3901     14.0129     57.8284
   346.7500      0.0000    837.5416     13.9118     55.4746
   347.0000      0.0000    847.6485     13.7722     52.9066
   347.2500      0.0000    854.2683     13.5958     50.1625
   347.5000      0.0000    857.6241     13.3976     46.8992
   347.7500      0.0000    858.9501     13.2065     42.7990
   348.0000      0.0000    859.3862     13.0482     38.4259
   348.2500      0.0000    859.5385     12.9291     35.2654
   348.5000      0.0000    859.6336     12.8365     34.4915
   348.7500      0.0000    859.7310     12.7526     35.8685
   349.0000      0.0000    859.8392     12.6665     38.1089
   349.2500      0.0000    859.9573     12.5761     40.0477
   349.5000      0.0000    860.0912     12.4823     41.2051
   349.7500      0.0000    860.2438     12.3830     41.6265
   350.0000      0.0000    860.3947     12.2760     41.8203
   350.2500      0.0000    860.4943     12.1688     42.8359
   350.5000      0.0000    860.4806     12.0832     45.7868
   350.7500      0.0000    860.3174     12.0429     50.8682
   351.0000      0.0000    860.0354     12.0548     56.9357
   351.2500      0.0000    859.7294     12.1083     62.4005
   351.5000      0.0000    859.5036     12.1929     66.8326
   351.7500      0.0000    859.4117     12.3146     71.5725
   352.0000      0.0000    859.4420     12.4910     78.3564
   352.2500      0.0000    859.5436     12.7278     87.2147
   352.5000      0.0000    859.6664     12.9992     95.9429
   352.7500      0.0000    859.7911     13.2551    101.7073
   353.0000      0.0000    859.9352     13.4524    103.0752
   353.2500      0.0000    860.1373     13.5845    100.6365
   353.5000      0.0000    860.4318     13.6768     96.0985
   353.7500      0.0000    860.8166     13.7564     91.0049
   354.0000      0.0000    861.2372     13.8303     85.9947
   354.2500      0.0000    861.6079     13.8885     80.9415
   354.5000      0.0000    861.8510     13.9199     75.8201
   354.7500      0.0000    861.9190     13.9203     71.4245
   355.0000      0.0000    861.8013     13.8876     68.9105
   355.2500      0.0000    861.5348     13.8114     68.4507
   355.5000      0.0000    861.1985     13.6742     68.7477
   355.7500      0.0000    860.8622     13.4688     68.2458
   356.0000      0.0000    860.5289     13.2133     66.4897
   356.2500      0.0000    860.1506     12.9503     63.8551
   356.5000      0.0000    859.7173     12.7331     60.3970
   356.7500      0.0000    859.3177     12.6097     55.9245
   357.0000      0.0000    859.0848     12.6034     51.2168
   357.2500      0.0000    859.0738     12.6972     48.0917
   357.5000      0.0000    859.2054     12.8360     47.7474
   357.7500      0.0000    859.3425     12.9522     49.5419
   358.0000      0.0000    859.4167     12.9963     51.6506
   358.2500      0.0000    859.3951     12.9562     52.5479
   358.5000      0.0000    859.0579     12.8565     51.8231
   358.7500      0.0000    857.8074     12.7402     50.0513
   359.0000      0.0000    854.9259     12.6435     48.1386
   359.2500      0.0000    850.4506     12.5798     46.6680
   359.5000      0.0000    845.9583     12.5412     45.7613
   359.7500      0.0000    843.8890     12.5188     45.3911
   360.0000      0.0000    845.3682     12.5229     45.5596
   360.2500      0.0000    848.8037     12.5779     46.1483
   360.5000      0.0000    850.8557     12.6893     46.8270
   360.7500      0.0000    848.4903     12.8213     47.2220
   361.0000      0.0000    840.4113     12.9144     47.0788
