~Version Information
VERS.                      2.0: CWLS Log ASCII Standard - VERSION 2.0
WRAP.                       NO: One line per depth step
~Well Information Block
STRT.FT               686.2000: 
STOP.FT              1252.7000: 
STEP.FT                 0.1000: 
NULL.                -999.2500: 
COMP.          Pioneer Natural Resources: COMPANY
WELL.          Rock Island 44-24 Tr: WELL
FLD.           Purgatoire River: FIELD
LOC.           814' FSL & 761' FEL--: LOCATION
CNTY.               Las Animas: COUNTY
SRVC.                Patterson: SERVICE COMPANY
DATE.          Thu Apr 20 08:34:45 2006: LOG DATE
UWI.           05 071 08680 00: UNIQUE WELL ID
STAT.                 Colorado: STATE
~Curve Information Block
DEPT.FT            0 000 00 00: Depth
DCAL.in                       : CDL Caliper
RHOB.g/cc                     : CDL Bulk Density
RHOC.g/cc                     : CDL Density Correction
DPOR.pu                       : CDL Density Porosity
GR.GAPI                       : Gamma Ray
~Parameter Information Block
~A  Depth       DCAL        RHOB        RHOC        DPOR         GR     
# ...
   843.0000      8.0218      1.8062     -0.1307     51.1391     67.0099
   843.1000      8.0218      1.6938     -0.1457     57.9495     63.8506
   843.2000      8.0218      1.6315     -0.1015     61.7272     63.5418
   843.3000      8.0324      1.6206      0.0246     62.3901     66.4470
   843.4000      8.0324      1.6440      0.0459     60.9675     68.5345
   843.5000      8.0416      1.7006      0.1024     57.5397     70.2754
   843.6000      8.0416      1.7881      0.1580     52.2374     74.3254
   843.7000      8.0416      1.8913      0.1895     45.9817     78.2570
   843.8000      8.0511      2.0024      0.2270     39.2498     79.8746
   843.9000      8.0511      2.1238      0.2771     31.8918     81.2516
   844.0000      8.0572      2.2522      0.3497     24.1061     85.3730
   844.1000      8.0572      2.3655      0.4119     17.2397     92.9959
   844.2000      8.0572      2.4371      0.3468     12.9008    102.7039
   844.3000      8.0494      2.4713      0.2403     10.8298    112.1133
   844.4000      8.0494      2.4926      0.2395      9.5410    118.5368
   844.5000      8.0357      2.5070      0.2051      8.6693    120.2621
   844.6000      8.0357      2.5077      0.1512      8.6260    116.7517
   844.7000      8.0357      2.4944      0.0811      9.4295    110.3590
   844.8000      8.0236      2.4728      0.0707     10.7377    108.2222
   844.9000      8.0236      2.4509      0.0475     12.0694    114.8476
   845.0000      8.0161      2.4370      0.0250     12.9114    124.4742
   845.1000      8.0161      2.4298      0.0512     13.3481    129.1665
   845.2000      8.0161      2.4159      0.0634     14.1855    127.3334
   845.3000      8.0168      2.3958      0.0218     15.4082    122.2099
   845.4000      8.0168      2.3868      0.0171     15.9503    117.1002
   845.5000      8.0293      2.3882      0.0567     15.8674    114.5385
   845.6000      8.0293      2.3832      0.0075     16.1715    114.0133
   845.7000      8.0293      2.3669      0.0472     17.1553    111.9712
   845.8000      8.0485      2.3437     -0.0164     18.5644    108.9656
   845.9000      8.0485      2.3211      0.0231     19.9355    107.7789
   846.0000      8.0639      2.3059      0.0271     20.8567    109.4202
   846.1000      8.0639      2.2999      0.0232     21.2172    111.7422
   846.2000      8.0639      2.3010      0.0158     21.1517    110.3323
   846.3000      8.0745      2.3085      0.0039     20.6961    106.9461
   846.4000      8.0745      2.3194      0.0560     20.0373    106.8241
   846.5000      8.0879      2.3264      0.0485     19.6145    108.4195
   846.6000      8.0879      2.3323      0.0908     19.2544    108.0776
   846.7000      8.0879      2.3488      0.0509     18.2557    108.5258
   846.8000      8.1051      2.3780      0.0793     16.4822    112.2809
   846.9000      8.1051      2.4069      0.1179     14.7303    115.1521
   847.0000      8.1149      2.4245      0.1015     13.6657    115.0083
   847.1000      8.1149      2.4270      0.1294     13.5130    114.7353
   847.2000      8.1149      2.4133      0.1111     14.3449    115.4088
   847.3000      8.1097      2.3921      0.0526     15.6275    115.0234
   847.4000      8.1097      2.3752      0.0664     16.6533    111.6618
   847.5000      8.0946      2.3631      0.0888     17.3870    106.6954
   847.6000      8.0946      2.3495      0.1065     18.2133    104.7031
   847.7000      8.0946      2.3302      0.0727     19.3792    106.3829
   847.8000      8.0814      2.3037      0.0391     20.9888    107.6025
   847.9000      8.0814      2.2750      0.0082     22.7279    108.0796
   848.0000      8.0696      2.2633     -0.0374     23.4349    112.1877
   848.1000      8.0696      2.2799      0.0839     22.4305    120.2401
   848.2000      8.0696      2.3102      0.0958     20.5915    126.9097
   848.3000      8.0578      2.3387      0.1124     18.8678    129.0386
   848.4000      8.0578      2.3576      0.1233     17.7216    128.3121
   848.5000      8.0523      2.3671      0.1168     17.1442    125.9461
   848.6000      8.0523      2.3764      0.0974     16.5820    121.2477
   848.7000      8.0523      2.3837      0.1203     16.1418    117.6326
   848.8000      8.0498      2.3765      0.0959     16.5771    119.0535
   848.9000      8.0498      2.3594      0.0628     17.6102    121.8936
   849.0000      8.0469      2.3490      0.0677     18.2410    122.3362
   849.1000      8.0469      2.3514      0.0558     18.0965    121.9054
   849.2000      8.0469      2.3630      0.0809     17.3966    121.5577
   849.3000      8.0456      2.3699      0.1192     16.9773    120.7983
   849.4000      8.0456      2.3577      0.0885     17.7152    120.9049
   849.5000      8.0466      2.3287      0.0509     19.4732    122.8641
   849.6000      8.0466      2.2943      0.0476     21.5600    124.6531
   849.7000      8.0466      2.2674      0.0112     23.1855    126.5649
   849.8000      8.0497      2.2574      0.0213     23.7931    130.2013
   849.9000      8.0497      2.2573      0.0741     23.7992    131.7484
   850.0000      8.0500      2.2571      0.0431     23.8095    128.8152
   850.1000      8.0500      2.2565      0.0828     23.8482    123.5676
   850.2000      8.0500      2.2530      0.0980     24.0587    118.8654
   850.3000      8.0463      2.2491      0.0526     24.2940    117.0462
   850.4000      8.0463      2.2558      0.1100     23.8918    117.7678
   850.5000      8.0446      2.2791      0.1028     22.4792    120.1948
   850.6000      8.0446      2.3177      0.1560     20.1370    124.1644
   850.7000      8.0446      2.3521      0.1477     18.0561    126.2281
   850.8000      8.0455      2.3540      0.1164     17.9412    121.6034
   850.9000      8.0455      2.3296      0.0136     19.4174    114.7202
   851.0000      8.0408      2.3092      0.0557     20.6573    115.9798
   851.1000      8.0408      2.2972      0.0539     21.3792    125.2929
   851.2000      8.0408      2.2890      0.0270     21.8792    133.1155
   851.3000      8.0301      2.2917      0.0465     21.7163    133.1013
   851.4000      8.0301      2.3076      0.0850     20.7501    125.8665
   851.5000      8.0242      2.3353      0.0827     19.0718    117.5128
   851.6000      8.0242      2.3707      0.1440     16.9252    112.7329
   851.7000      8.0242      2.3977      0.1238     15.2879    111.0540
   851.8000      8.0232      2.4143      0.0720     14.2827    112.0876
   851.9000      8.0232      2.4425      0.1180     12.5774    116.1480
   852.0000      8.0236      2.4908      0.1735      9.6475    120.8284
   852.1000      8.0236      2.5472      0.1531      6.2314    122.2646
   852.2000      8.0236      2.5919      0.1560      3.5229    120.8309
   852.3000      8.0226      2.6059      0.1416      2.6729    119.3130
   852.4000      8.0226      2.5942      0.0827      3.3841    118.3957
   852.5000      8.0180      2.5818      0.0790      4.1357    119.0227
   852.6000      8.0180      2.5812      0.0758      4.1693    118.9406
   852.7000      8.0180      2.5836      0.0232      4.0269    115.9045
   852.8000      8.0121      2.5735      0.0786      4.6380    114.1399
   852.9000      8.0121      2.5488      0.0185      6.1340    117.0661
   853.0000      8.0108      2.5292      0.0090      7.3241    119.7391
   853.1000      8.0108      2.5301      0.0154      7.2671    118.9503
   853.2000      8.0108      2.5437      0.0593      6.4448    120.7114
   853.3000      8.0174      2.5524      0.0554      5.9141    126.6000
   853.4000      8.0174      2.5525      0.0324      5.9067    129.0798
   853.5000      8.0228      2.5515      0.0501      5.9700    125.4168
   853.6000      8.0228      2.5507      0.0556      6.0166    121.0195
   853.7000      8.0228      2.5445      0.0417      6.3940    119.1183
   853.8000      8.0243      2.5337      0.0233      7.0455    119.5377
   853.9000      8.0243      2.5249      0.0359      7.5826    119.8510
   854.0000      8.0232      2.5224     -0.0213      7.7354    117.5522
   854.1000      8.0232      2.5307      0.0249      7.2292    115.3316
