~Version Information
VERS.                      2.0: CWLS Log ASCII Standard - VERSION 2.0
WRAP.                       NO: One line per depth step
~Well Information Block
STRT.FT               547.0000: 
STOP.FT              1685.5000: 
STEP.FT                 0.2500: 
NULL.                -999.2500: 
COMP.          Pioneer Natural Resources: COMPANY
WELL.           Pedri 42-33 Tr: WELL
FLD.           Purgatorie River: FIELD
LOC.           1933' FNL & 662' FEL: LOCATION
PROV.                 Colorado: PROVINCE
CNTY.               Las Animas: COUNTRY
SRVC.                Patterson: SERVICE COMPANY
DATE.          Mon Dec 19 10:09:44 2005: LOG DATE
UWI.                          : UNIQUE WELL ID
~Curve Information Block
DEPT.FT            0 000 00 00: Depth
DIR.Ohm-m                     : IEL Induction Resistivity
GR.GAPI                       : Gamma Ray
~Parameter Information Block
~A  Depth       DIR          GR     
# ...
   714.2500     20.4060     95.1852
   714.5000     20.3823     92.7061
   714.7500     20.1807     92.1427
   715.0000     19.8342     92.8321
   715.2500     19.3879     93.7320
   715.5000     18.8868     94.5806
   715.7500     18.3642     94.7915
   716.0000     17.8383     95.5426
   716.2500     17.3172     96.7644
   716.5000     16.8070     99.7702
   716.7500     16.3160    102.4975
   717.0000     15.8529    107.4952
   717.2500     15.4234    111.2279
   717.5000     15.0290    117.1552
   717.7500     14.6722    121.1265
   718.0000     14.3608    126.0929
   718.2500     14.1098    127.9472
   718.5000     13.9391    128.3355
   718.7500     13.8668    127.9531
   719.0000     13.9033    128.8332
   719.2500     14.0475    131.2494
   719.5000     14.2897    137.1196
   719.7500     14.6192    141.1912
   720.0000     15.0333    144.6900
   720.2500     15.5423    144.2283
   720.5000     16.1664    139.5245
   720.7500     16.9287    134.6626
   721.0000     17.8484    126.6114
   721.2500     18.9378    121.6023
   721.5000     20.2039    115.4736
   721.7500     21.6500    112.1279
   722.0000     23.2753    106.9541
   722.2500     25.0746    102.9606
   722.5000     27.0390     96.8094
   722.7500     29.1576     93.0878
   723.0000     31.4216     87.4827
   723.2500     33.8333     82.8974
   723.5000     36.4130     74.2799
   723.7500     39.1918     67.9270
   724.0000     42.1877     59.0040
   724.2500     45.3804     54.3240
   724.5000     48.7035     50.2483
   724.7500     52.0396     49.4741
   725.0000     55.1987     49.8922
   725.2500     57.8966     50.2129
   725.5000     59.7998     49.8672
   725.7500     60.6734     49.1521
   726.0000     60.5434     47.7766
   726.2500     59.7174     46.8410
   726.5000     58.6257     45.6597
   726.7500     57.6001     45.1067
   727.0000     56.7334     44.4932
   727.2500     55.8703     44.0624
   727.5000     54.7139     43.2053
   727.7500     52.9848     42.4962
   728.0000     50.5382     41.4763
   728.2500     47.3826     41.1140
   728.5000     43.6426     41.3874
   728.7500     39.5329     41.9716
   729.0000     35.3378     42.7955
   729.2500     31.3568     43.0815
   729.5000     27.8252     43.4838
   729.7500     24.8625     44.2428
   730.0000     22.4755     46.6864
   730.2500     20.5959     49.1073
   730.5000     19.1221     53.5847
   730.7500     17.9495     57.2736
   731.0000     16.9862     64.9485
   731.2500     16.1616     72.2263
   731.5000     15.4285     86.5271
   731.7500     14.7621     97.3322
   732.0000     14.1545    112.7683
   732.2500     13.6089    121.3464
   732.5000     13.1341    130.9051
   732.7500     12.7393    135.0008
   733.0000     12.4308    137.5945
   733.2500     12.2103    136.9915
   733.5000     12.0754    133.2800
   733.7500     12.0198    129.7614
   734.0000     12.0339    124.7173
   734.2500     12.1033    122.4219
   734.5000     12.2100    121.3457
   734.7500     12.3361    122.0345
   735.0000     12.4696    123.7872
   735.2500     12.6095    124.3814
   735.5000     12.7655    123.6591
   735.7500     12.9532    122.6912
   736.0000     13.1849    122.1332
   736.2500     13.4639    122.6866
   736.5000     13.7831    124.1388
   736.7500     14.1291    125.0468
   737.0000     14.4884    126.5786
   737.2500     14.8524    128.1705
   737.5000     15.2192    130.9665
   737.7500     15.5929    131.7461
   738.0000     15.9808    128.6507
   738.2500     16.3889    123.3081
   738.5000     16.8167    112.2950
   738.7500     17.2502    104.9700
   739.0000     17.6583     97.2905
   739.2500     17.9945     95.5437
   739.5000     18.2067     98.1694
   739.7500     18.2503    102.6394
   740.0000     18.1007    111.4709
   740.2500     17.7600    117.5226
   740.5000     17.2572    124.4549
   740.7500     16.6412    126.4708
   741.0000     15.9694    125.2263
   741.2500     15.2974    122.4396
   741.5000     14.6726    117.6854
   741.7500     14.1307    115.4074
   742.0000     13.6956    114.5656
   742.2500     13.3801    115.5296
   742.5000     13.1875    117.5279
   742.7500     13.1129    118.1716
   743.0000     13.1470    117.6150
   743.2500     13.2791    116.7455
   743.5000     13.5007    115.9562
   743.7500     13.8063    116.1240
   744.0000     14.1915    116.9031
   744.2500     14.6523    117.1247
   744.5000     15.1880    116.2700
   744.7500     15.8066    114.8373
   745.0000     16.5301    111.4043
   745.2500     17.3947    108.2981
   745.5000     18.4426    103.2422
   745.7500     19.7100    100.7746
   746.0000     21.2161    100.5428
   746.2500     22.9579    102.9502
   746.5000     24.9116    108.3479
   746.7500     27.0409    111.2810
   747.0000     29.3012    112.5947
   747.2500     31.6354    111.2502
   747.5000     33.9674    106.4058
   747.7500     36.2120    101.5565
   748.0000     38.3094     92.6933
   748.2500     40.2543     86.6867
   748.5000     42.0843     79.0760
   748.7500     43.8407     75.1183
   749.0000     45.5477     70.2196
   749.2500     47.2303     67.3956
   749.5000     48.9336     64.0020
   749.7500     50.7003     62.3699
   750.0000     52.5232     60.4875
   750.2500     54.3239     59.3318
   750.5000     55.9994     57.5122
   750.7500     57.5224     56.0836
   751.0000     59.0106     53.2614
   751.2500     60.6960     51.0121
   751.5000     62.8039     47.9732
   751.7500     65.4253     46.6611
   752.0000     68.4618     45.7423
   752.2500     71.6766     45.5113
   752.5000     74.8290     45.5134
   752.7500     77.7998     45.8208
   753.0000     80.6287     46.5821
   753.2500     83.4606     46.9174
   753.5000     86.4822     46.5908
   753.7500     89.8964     45.8131
   754.0000     93.8951     44.2405
   754.2500     98.5581     43.1970
   754.5000    103.6792     41.9836
   754.7500    108.6653     41.5671
   755.0000    112.7313     41.6065
   755.2500    115.3686     41.8782
   755.5000    116.6527     42.0932
   755.7500    117.0176     41.9623
   756.0000    116.7878     41.6458
   756.2500    115.9791     41.6688
   756.5000    114.4716     42.4535
   756.7500    112.2775     43.5284
   757.0000    109.6127     45.7758
   757.2500    106.7423     47.6127
   757.5000    103.7661     50.9602
   757.7500    100.5300     53.4411
   758.0000     96.7515     56.2999
   758.2500     92.2814     56.7102
   758.5000     87.2753     54.7754
   758.7500     82.1081     52.6175
   759.0000     77.1424     49.8765
   759.2500     72.5741     48.7921
   759.5000     68.4352     47.9420
   759.7500     64.6730     47.8392
   760.0000     61.2117     49.3553
   760.2500     57.9790     52.2886
   760.5000     54.9255     59.9606
   760.7500     52.0526     66.5439
   761.0000     49.4119     76.4160
   761.2500     47.0544     81.8695
   761.5000     44.9628     87.8133
   761.7500     43.0279     90.7289
   762.0000     41.0930     94.3085
   762.2500     39.0364     96.0958
   762.5000     36.8291     97.4691
   762.7500     34.5339     97.7555
   763.0000     32.2633     98.2997
   763.2500     30.1302     99.0126
   763.5000     28.2151     99.8835
   763.7500     26.5511     99.6898
   764.0000     25.1238     98.2568
   764.2500     23.8842     97.5103
   764.5000     22.7686     98.9275
   764.7500     21.7236    102.2040
   765.0000     20.7228    109.9233
   765.2500     19.7702    116.0303
   765.5000     18.8868    125.3656
   765.7500     18.0928    131.1814
   766.0000     17.3948    138.2926
   766.2500     16.7860    141.3987
   766.5000     16.2530    143.4304
   766.7500     15.7850    143.5356
   767.0000     15.3783    143.1426
   767.2500     15.0354    143.0374
   767.5000     14.7599    142.9838
   767.7500     14.5524    142.4812
   768.0000     14.4114    140.4580
   768.2500     14.3351    138.7434
   768.5000     14.3229    137.7130
   768.7500     14.3735    139.1342
   769.0000     14.4818    144.2152
   769.2500     14.6379    148.2021
   769.5000     14.8288    152.7207
   769.7500     15.0419    154.3517
