~Version Information
VERS.                      2.0: CWLS Log ASCII Standard - VERSION 2.0
WRAP.                       NO: One line per depth step
~Well Information Block
STRT.FT               230.0000: 
STOP.FT               707.5000: 
STEP.FT                 0.2500: 
NULL.                -999.2500: 
COMP.          Pioneer Natural Resources: COMPANY
WELL.          Razor Clam 23-27: WELL
FLD.           Purgatoire River: FIELD
LOC.           2499' FSL & 2636' FWL: LOCATION
CNTY.               Las Animas: COUNTY
SRVC.                Patterson: SERVICE COMPANY
DATE.          Sun Feb 12 15:35:16 2006: LOG DATE
UWI.           05 071 08667 00: UNIQUE WELL ID
STAT.                 Colorado: STATE
~Curve Information Block
DEPT.FT            0 000 00 00: Depth
SN.Ohm-m                      : IEL Short Normal
SP.mV                         : IEL Spontaneous Potential
DIR.Ohm-m                     : IEL Induction Resistivity
GR.GAPI                       : Gamma Ray
~Parameter Information Block
~A  Depth        SN          SP         DIR          GR     
# ...
   330.5000   2000.0000   2000.0000     17.4371     75.7945
   330.7500   2000.0000   2000.0000     17.5847     72.8297
   331.0000   2000.0000   2000.0000     17.7373     69.9069
   331.2500   2000.0000   2000.0000     17.8738     69.2407
   331.5000   2000.0000   2000.0000     17.9770     70.3273
   331.7500   2000.0000   2000.0000     18.0383     72.2428
   332.0000   2000.0000   2000.0000     18.0611     76.0297
   332.2500   2000.0000   2000.0000     18.0609     78.5073
   332.5000   2000.0000   2000.0000     18.0569     81.1314
   332.7500   2000.0000   2000.0000     18.0625     81.8224
   333.0000   2000.0000   2000.0000     18.0769     81.4547
   333.2500   2000.0000   2000.0000     18.0876     80.6544
   333.5000   2000.0000   2000.0000     18.0812     79.0963
   333.7500   2000.0000   2000.0000     18.0563     77.9426
   334.0000   2000.0000   2000.0000     18.0261     76.5191
   334.2500   2000.0000   2000.0000     18.0094     76.2107
   334.5000   2000.0000   2000.0000     18.0181     76.9697
   334.7500   2000.0000   2000.0000     18.0530     77.8978
   335.0000   2000.0000   2000.0000     18.1085     78.7791
   335.2500   2000.0000   2000.0000     18.1813     78.5554
   335.5000   2000.0000   2000.0000     18.2740     77.0194
   335.7500   2000.0000   2000.0000     18.3924     75.6131
   336.0000   2000.0000   2000.0000     18.5384     73.7464
   336.2500   2000.0000   2000.0000     18.7035     72.8845
   336.5000   2000.0000   2000.0000     18.8701     72.0574
   336.7500   2000.0000   2000.0000     19.0202     71.6829
   337.0000   2000.0000   2000.0000     19.1469     71.3397
   337.2500   2000.0000   2000.0000     19.2592     71.2914
   337.5000   2000.0000   2000.0000     19.3761     71.3407
   337.7500   2000.0000   2000.0000     19.5181     71.1559
   338.0000   2000.0000   2000.0000     19.7021     69.9794
   338.2500   2000.0000   2000.0000     19.9396     68.5300
   338.5000   2000.0000   2000.0000     20.2335     65.9520
   338.7500   2000.0000   2000.0000     20.5738     64.5826
   339.0000   2000.0000   2000.0000     20.9379     63.9179
   339.2500   2000.0000   2000.0000     21.2996     64.3554
   339.5000   2000.0000   2000.0000     21.6363     65.1144
   339.7500   2000.0000   2000.0000     21.9294     64.8010
   340.0000   2000.0000   2000.0000     22.1593     62.4616
   340.2500   2000.0000   2000.0000     22.3100     59.9924
   340.5000   2000.0000   2000.0000     22.3845     56.2187
   340.7500   2000.0000   2000.0000     22.4168     54.3697
   341.0000   2000.0000   2000.0000     22.4623     52.8598
   341.2500   2000.0000   2000.0000     22.5732     52.2010
   341.5000   2000.0000   2000.0000     22.7736     50.7999
   341.7500   2000.0000   2000.0000     23.0506     49.6317
   342.0000   2000.0000   2000.0000     23.3602     48.4577
   342.2500   2000.0000   2000.0000     23.6450     48.4706
   342.5000   2000.0000   2000.0000     23.8586     49.3859
   342.7500   2000.0000   2000.0000     23.9902     50.0260
   343.0000   2000.0000   2000.0000     24.0772     50.3098
   343.2500   2000.0000   2000.0000     24.1909     50.0294
   343.5000   2000.0000   2000.0000     24.4004     49.1486
   343.7500   2000.0000   2000.0000     24.7339     48.2641
   344.0000   2000.0000   2000.0000     25.1630     46.4166
   344.2500   2000.0000   2000.0000     25.6128     45.0224
   344.5000   2000.0000   2000.0000     25.9903     43.3515
   344.7500   2000.0000   2000.0000     26.2072     42.6834
   345.0000   2000.0000   2000.0000     26.1907     41.6830
   345.2500   2000.0000   2000.0000     25.8883     40.3697
   345.5000   2000.0000   2000.0000     25.2831     37.1079
   345.7500   2000.0000   2000.0000     24.4113     34.6407
   346.0000   2000.0000   2000.0000     23.3558     32.0633
   346.2500   2000.0000   2000.0000     22.2137     31.7377
   346.5000   2000.0000   2000.0000     21.0582     33.6783
   346.7500   2000.0000   2000.0000     19.9277     36.7252
   347.0000   2000.0000   2000.0000     18.8378     44.8242
   347.2500   2000.0000   2000.0000     17.7959     53.3386
   347.5000   2000.0000   2000.0000     16.8030     71.1819
   347.7500   2000.0000   2000.0000     15.8491     85.6249
   348.0000   2000.0000   2000.0000     14.9182    108.2655
   348.2500   2000.0000   2000.0000     14.0037    122.1976
   348.5000   2000.0000   2000.0000     13.1202    138.9455
   348.7500   2000.0000   2000.0000     12.2984    146.6351
   349.0000   2000.0000   2000.0000     11.5666    153.1461
   349.2500   2000.0000   2000.0000     10.9376    154.8249
   349.5000   2000.0000   2000.0000     10.4084    154.6951
   349.7500   2000.0000   2000.0000      9.9676    153.5036
   350.0000   2000.0000   2000.0000      9.6052    150.9951
   350.2500   2000.0000   2000.0000      9.3157    149.2573
   350.5000   2000.0000   2000.0000      9.0978    147.1119
   350.7500   2000.0000   2000.0000      8.9507    146.3226
   351.0000   2000.0000   2000.0000      8.8712    146.4508
   351.2500   2000.0000   2000.0000      8.8524    147.1797
   351.5000   2000.0000   2000.0000      8.8850    148.0609
   351.7500   2000.0000   2000.0000      8.9592    147.9004
   352.0000   2000.0000   2000.0000      9.0677    146.5422
   352.2500   2000.0000   2000.0000      9.2057    145.3939
   352.5000   2000.0000   2000.0000      9.3708    143.9514
   352.7500   2000.0000   2000.0000      9.5612    143.0385
   353.0000   2000.0000   2000.0000      9.7733    141.1190
   353.2500   2000.0000   2000.0000     10.0008    139.5550
   353.5000   2000.0000   2000.0000     10.2351    138.0725
   353.7500   2000.0000   2000.0000     10.4670    138.3784
   354.0000   2000.0000   2000.0000     10.6886    140.4320
   354.2500   2000.0000   2000.0000     10.8960    141.8969
   354.5000   2000.0000   2000.0000     11.0891    142.9937
   354.7500   2000.0000   2000.0000     11.2703    143.0515
   355.0000   2000.0000   2000.0000     11.4421    143.0109
   355.2500   2000.0000   2000.0000     11.6055    143.3774
   355.5000   2000.0000   2000.0000     11.7613    145.0207
   355.7500   2000.0000   2000.0000     11.9122    146.8452
   356.0000   2000.0000   2000.0000     12.0627    149.8082
   356.2500   2000.0000   2000.0000     12.2132    151.0172
   356.5000   2000.0000   2000.0000     12.3550    150.4707
   356.7500   2000.0000   2000.0000     12.4716    148.5366
   357.0000   2000.0000   2000.0000     12.5482    144.4469
   357.2500   2000.0000   2000.0000     12.5806    141.8846
   357.5000   2000.0000   2000.0000     12.5787    139.8130
   357.7500   2000.0000   2000.0000     12.5601    140.1764
   358.0000   2000.0000   2000.0000     12.5415    143.0740
   358.2500   2000.0000   2000.0000     12.5334    145.6174
   358.5000   2000.0000   2000.0000     12.5430    148.5582
   358.7500   2000.0000   2000.0000     12.5817    149.6181
   359.0000   2000.0000   2000.0000     12.6693    150.4971
   359.2500   2000.0000   2000.0000     12.8257    150.9516
   359.5000   2000.0000   2000.0000     13.0560    151.1379
   359.7500   2000.0000   2000.0000     13.3412    150.4272
   360.0000   2000.0000   2000.0000     13.6473    147.4477
   360.2500   2000.0000   2000.0000     13.9482    144.3009
   360.5000   2000.0000   2000.0000     14.2437    139.0446
   360.7500   2000.0000   2000.0000     14.5590    136.0583
   361.0000   2000.0000   2000.0000     14.9285    132.7678
   361.2500   2000.0000   2000.0000     15.3764    130.6160
   361.5000   2000.0000   2000.0000     15.9060    125.4182
   361.7500   2000.0000   2000.0000     16.5005    119.8688
   362.0000   2000.0000   2000.0000     17.1356    108.3329
   362.2500   2000.0000   2000.0000     17.7963     99.0613
   362.5000   2000.0000   2000.0000     18.4837     84.7403
   362.7500   2000.0000   2000.0000     19.2085     76.3396
   363.0000   2000.0000   2000.0000     19.9768     66.8959
   363.2500   2000.0000   2000.0000     20.7825     62.5743
   363.5000   2000.0000   2000.0000     21.6113     58.2506
   363.7500   2000.0000   2000.0000     22.4472     56.6727
