~Version Information
VERS.                      2.0: CWLS Log ASCII Standard - VERSION 2.0
WRAP.                       NO: One line per depth step
~Well Information Block
STRT.FT                10.0000: 
STOP.FT               959.2500: 
STEP.FT                 0.2500: 
NULL.                -999.2500: 
COMP.          XTO Energy Inc.: COMPANY
WELL.          Golden Eagle 20-04: WELL
FLD.           Purgatrorie River: FIELD
LOC.           702' FNL & 487' FWL--: LOCATION
STAT.                       CO: State
CNTY.               Las Animas: COUNTY
CTRY. USA : Country
SECT. 20 : Section
TOWN. 33S : Township
RANG. 67W : Range
SRVC.          Patterson Wireline: SERVICE COMPANY
DATE.          Mon Dec 05 08:42:44 2005: LOG DATE
API.           05 071 08599 00: UNIQUE WELL ID
~Curve Information Block
DEPT.FT            0 000 00 00: Depth
TEMP.degF                     : Downhole Temperature
DTMP.degF                     : Delta Temperature
~Parameter Information Block
~A  Depth       TEMP        DTMP    
# ...
   344.5000     60.3205     -0.0606
   344.7500     60.3034     -0.0621
   345.0000     60.2860     -0.0652
   345.2500     60.2727     -0.0639
   345.5000     60.2548     -0.0645
   345.7500     60.2368     -0.0651
   346.0000     60.2188     -0.0654
   346.2500     60.2051     -0.0655
   346.5000     60.1915     -0.0655
   346.7500     60.1733     -0.0632
   347.0000     60.1552     -0.0630
   347.2500     60.1417     -0.0648
   347.5000     60.1238     -0.0645
   347.7500     60.1104     -0.0639
   348.0000     60.0929     -0.0632
   348.2500     60.0755     -0.0628
   348.5000     60.0625     -0.0620
   348.7500     60.0456     -0.0614
   349.0000     60.0288     -0.0607
   349.2500     60.0162     -0.0600
   349.5000     59.9998     -0.0613
   349.7500     59.9875     -0.0587
   350.0000     59.9715     -0.0580
   350.2500     59.9556     -0.0575
   350.5000     59.9398     -0.0569
   350.7500     59.9282     -0.0582
   351.0000     59.9127     -0.0558
   351.2500     59.9012     -0.0551
   351.5000     59.8861     -0.0545
   351.7500     59.8710     -0.0540
   352.0000     59.8600     -0.0534
   352.2500     59.8453     -0.0529
   352.5000     59.8309     -0.0523
   352.7500     59.8201     -0.0500
   353.0000     59.8060     -0.0514
   353.2500     59.7954     -0.0510
   353.5000     59.7814     -0.0507
   353.7500     59.7710     -0.0505
   354.0000     59.7571     -0.0503
   354.2500     59.7434     -0.0503
   354.5000     59.7295     -0.0502
   354.7500     59.7191     -0.0520
   355.0000     59.7053     -0.0504
   355.2500     59.6949     -0.0505
   355.5000     59.6810     -0.0506
   355.7500     59.6670     -0.0526
   356.0000     59.6564     -0.0511
   356.2500     59.6423     -0.0531
   356.5000     59.6282     -0.0516
   356.7500     59.6140     -0.0519
   357.0000     59.6032     -0.0521
   357.2500     59.5888     -0.0525
   357.5000     59.5778     -0.0530
   357.7500     59.5632     -0.0517
   358.0000     59.5522     -0.0540
   358.2500     59.5373     -0.0527
   358.5000     59.5221     -0.0551
   358.7500     59.5106     -0.0558
   359.0000     59.4952     -0.0585
   359.2500     59.4834     -0.0573
   359.5000     59.4677     -0.0581
   359.7500     59.4515     -0.0587
   360.0000     59.4352     -0.0597
   360.2500     59.4227     -0.0625
   360.5000     59.4059     -0.0613
   360.7500     59.3932     -0.0623
   361.0000     59.3759     -0.0632
   361.2500     59.3583     -0.0638
   361.5000     59.3450     -0.0647
   361.7500     59.3270     -0.0678
   362.0000     59.3089     -0.0663
   362.2500     59.2952     -0.0671
   362.5000     59.2765     -0.0677
   362.7500     59.2576     -0.0683
   363.0000     59.2433     -0.0691
   363.2500     59.2241     -0.0695
   363.5000     59.2096     -0.0701
   363.7500     59.1903     -0.0680
   364.0000     59.1707     -0.0707
   364.2500     59.1561     -0.0711
   364.5000     59.1364     -0.0712
   364.7500     59.1215     -0.0715
   365.0000     59.1018     -0.0715
   365.2500     59.0819     -0.0740
   365.5000     59.0672     -0.0715
   365.7500     59.0473     -0.0738
   366.0000     59.0277     -0.0713
   366.2500     59.0081     -0.0709
   366.5000     58.9933     -0.0731
   366.7500     58.9739     -0.0703
   367.0000     58.9593     -0.0699
   367.2500     58.9401     -0.0695
   367.5000     58.9210     -0.0691
   367.7500     58.9066     -0.0686
   368.0000     58.8878     -0.0681
   368.2500     58.8692     -0.0676
   368.5000     58.8551     -0.0669
   368.7500     58.8368     -0.0664
   369.0000     58.8230     -0.0658
   369.2500     58.8049     -0.0629
   369.5000     58.7871     -0.0645
   369.7500     58.7739     -0.0637
   370.0000     58.7563     -0.0632
   370.2500     58.7433     -0.0624
   370.5000     58.7262     -0.0617
   370.7500     58.7093     -0.0631
   371.0000     58.6966     -0.0602
   371.2500     58.6801     -0.0617
   371.5000     58.6638     -0.0590
   371.7500     58.6478     -0.0583
   372.0000     58.6358     -0.0576
   372.2500     58.6199     -0.0568
   372.5000     58.6082     -0.0561
   372.7500     58.5927     -0.0536
   373.0000     58.5815     -0.0548
   373.2500     58.5664     -0.0539
   373.5000     58.5516     -0.0533
   373.7500     58.5406     -0.0524
   374.0000     58.5262     -0.0536
   374.2500     58.5120     -0.0510
   374.5000     58.5016     -0.0501
   374.7500     58.4879     -0.0510
   375.0000     58.4743     -0.0485
   375.2500     58.4644     -0.0477
   375.5000     58.4514     -0.0470
   375.7500     58.4386     -0.0461
   376.0000     58.4292     -0.0452
   376.2500     58.4167     -0.0446
   376.5000     58.4076     -0.0437
   376.7500     58.3956     -0.0414
   377.0000     58.3839     -0.0421
   377.2500     58.3752     -0.0411
   377.5000     58.3640     -0.0404
   377.7500     58.3557     -0.0394
   378.0000     58.3450     -0.0384
   378.2500     58.3345     -0.0377
   378.5000     58.3267     -0.0366
   378.7500     58.3168     -0.0359
   379.0000     58.3071     -0.0349
   379.2500     58.2999     -0.0338
   379.5000     58.2907     -0.0340
   379.7500     58.2840     -0.0320
   380.0000     58.2752     -0.0309
   380.2500     58.2668     -0.0310
   380.5000     58.2588     -0.0291
   380.7500     58.2528     -0.0291
   381.0000     58.2452     -0.0280
   381.2500     58.2379     -0.0262
   381.5000     58.2325     -0.0244
   381.7500     58.2257     -0.0244
   382.0000     58.2191     -0.0233
   382.2500     58.2144     -0.0222
   382.5000     58.2099     -0.0214
   382.7500     58.2041     -0.0204
   383.0000     58.1986     -0.0188
   383.2500     58.1934     -0.0185
   383.5000     58.1897     -0.0182
   383.7500     58.1850     -0.0167
   384.0000     58.1816     -0.0157
   384.2500     58.1774     -0.0143
   384.5000     58.1735     -0.0140
   384.7500     58.1707     -0.0130
   385.0000     58.1672     -0.0123
   385.2500     58.1648     -0.0113
   385.5000     58.1617     -0.0102
   385.7500     58.1590     -0.0096
   386.0000     58.1571     -0.0082
   386.2500     58.1549     -0.0073
   386.5000     58.1531     -0.0060
   386.7500     58.1516     -0.0046
   387.0000     58.1508     -0.0036
   387.2500     58.1501     -0.0021
   387.5000     58.1498     -0.0007
   387.7500     58.1498      0.0004
   388.0000     58.1499      0.0017
   388.2500     58.1506      0.0027
   388.5000     58.1516      0.0039
   388.7500     58.1525      0.0052
   389.0000     58.1541      0.0061
   389.2500     58.1555      0.0072
   389.5000     58.1577      0.0083
   389.7500     58.1601      0.0096
   390.0000     58.1621      0.0103
   390.2500     58.1651      0.0116
   390.5000     58.1683      0.0122
   390.7500     58.1718      0.0134
   391.0000     58.1746      0.0142
   391.2500     58.1787      0.0155
   391.5000     58.1820      0.0168
   391.7500     58.1868      0.0174
   392.0000     58.1906      0.0193
   392.2500     58.1961      0.0208
   392.5000     58.2019      0.0219
   392.7500     58.2065      0.0234
   393.0000     58.2132      0.0257
   393.2500     58.2202      0.0262
   393.5000     58.2258      0.0279
   393.7500     58.2337      0.0291
   394.0000     58.2420      0.0308
   394.2500     58.2486      0.0324
   394.5000     58.2577      0.0336
   394.7500     58.2648      0.0353
   395.0000     58.2747      0.0354
   395.2500     58.2850      0.0381
   395.5000     58.2931      0.0397
   395.7500     58.3042      0.0426
   396.0000     58.3128      0.0425
   396.2500     58.3247      0.0442
   396.5000     58.3371      0.0471
   396.7500     58.3499      0.0469
   397.0000     58.3597      0.0500
   397.2500     58.3734      0.0496
   397.5000     58.3874      0.0511
   397.7500     58.3980      0.0505
   398.0000     58.4128      0.0534
   398.2500     58.4240      0.0545
   398.5000     58.4394      0.0555
   398.7500     58.4509      0.0562
   399.0000     58.4665      0.0568
   399.2500     58.4823      0.0573
   399.5000     58.4984      0.0576
   399.7500     58.5104      0.0599
   400.0000     58.5264      0.0581
