~Version Information
VERS.                      2.0: CWLS Log ASCII Standard - VERSION 2.0
WRAP.                       NO: One line per depth step
~Well Information Block
STRT.FT                 0.0000: 
STOP.FT               787.2500: 
STEP.FT                 0.2500: 
NULL.                -999.2500: 
COMP.          Pioneer Natural Resources: COMPANY
WELL.             Veedol 34-28: WELL
FLD.           Purgatorie River: FIELD
LOC.           357' FSL & 2520' FEL: LOCATION
PROV.                 Colorado: PROVINCE
CNTY.               Las Animas: COUNTRY
SRVC.                Patterson: SERVICE COMPANY
DATE.          Wed Dec 28 10:10:37 2005: LOG DATE
UWI.                          : UNIQUE WELL ID
~Curve Information Block
DEPT.FT            0 000 00 00: Depth
CCL.                          : Casing Collar Locator
TT3.usec                      : CBL 3' Travel Time
AMP3.mV                       : CBL 3' Amplitude
GR.GAPI                       : Gamma Ray
~Parameter Information Block
~A  Depth       CCL         TT3         AMP3         GR     
# ...
   703.5000      0.0000    676.8693     12.4494    113.0059
   703.7500      0.0000    679.4916     12.4296    114.9470
   704.0000      0.0000    675.1851     12.4019    115.0183
   704.2500      0.0000    671.6871     12.3621    114.5911
   704.5000      0.0000    670.3758     12.3216    115.3127
   704.7500      0.0000    670.1989     12.3050    117.8868
   705.0000      0.0000    670.3682     12.3069    121.4483
   705.2500      0.0000    670.5425     12.3094    124.3674
   705.5000      0.0000    670.6196     12.3351    125.6767
   705.7500      0.0000    670.6407     12.4136    125.7669
   706.0000      0.0000    670.6307     12.5238    126.0344
   706.2500      0.0000    670.5632     12.6326    127.8755
   706.5000      0.0000    670.4500     12.7424    131.4685
   706.7500      0.0000    670.3348     12.8609    135.2820
   707.0000      0.0000    670.2337     12.9695    137.2392
   707.2500      0.0000    670.0994     13.0528    136.4337
   707.5000      0.0000    669.8837     13.1302    133.1232
   707.7500      0.0000    669.6252     13.2316    127.3856
   708.0000      0.0000    669.1955     13.3686    118.9391
   708.2500      0.0000    667.0844     13.5139    108.3119
   708.5000      0.0000    657.8238     13.5820     97.2359
   708.7500      0.0000    633.1105     13.4526     87.6806
   709.0000      0.0000    596.0394     13.0177     80.9061
   709.2500      0.0000    569.7208     12.3147     77.1582
   709.5000      0.0000    567.3641     11.7203     75.7401
   709.7500      0.0000    574.5478     11.5930     75.5392
   710.0000      0.0000    588.9441     11.5459     75.7295
   710.2500      0.0000    624.1664     10.9997     75.7459
   710.5000      0.0000    666.3041     10.2555     74.7282
   710.7500      0.0000    687.3585      9.8905     71.7036
   711.0000      2.0000    685.7720      9.8759     66.6744
   711.2500      0.0000    680.1124      9.9128     61.1022
   711.5000     -2.0000    678.9762      9.8973     56.8822
   711.7500      0.0000    671.9551      9.8772     55.0349
   712.0000      0.0000    649.9492      9.9186     55.4327
   712.2500      0.0000    624.9898     10.1368     57.2325
   712.5000      0.0000    616.5812     10.5803     59.2974
   712.7500      0.0000    630.4612     10.9410     60.6720
   713.0000      0.0000    659.6972     10.9217     61.1019
   713.2500      0.0000    690.3331     10.7615     61.0443
   713.5000      0.0000    711.2955     10.7623     61.1439
   713.7500      0.0000    718.4691     10.8875     61.8104
   714.0000      0.0000    710.7437     11.0357     63.0525
   714.2500      0.0000    694.4515     11.1938     64.4028
   714.5000      0.0000    680.5650     11.3881     65.2128
   714.7500      0.0000    673.6378     11.6269     65.3148
   715.0000      0.0000    671.3754     11.8744     65.2412
   715.2500      0.0000    670.7811     12.0844     65.5209
   715.5000      0.0000    670.5810     12.2393     65.9549
   715.7500      0.0000    670.4980     12.3577     65.9070
   716.0000      0.0000    670.5153     12.4702     65.1564
   716.2500      0.0000    670.7119     12.5817     64.1471
   716.5000      0.0000    671.2952     12.6771     63.4962
   716.7500      0.0000    672.8847     12.7575     63.5137
   717.0000      0.0000    676.4803     12.8345     64.1120
   717.2500      0.0000    681.7471     12.8944     64.9895
   717.5000      0.0000    686.1199     12.8962     65.9844
   717.7500      0.0000    688.9917     12.8114     67.3130
   718.0000      0.0000    693.7323     12.6592     69.2993
   718.2500      0.0000    700.7180     12.4884     71.7888
   718.5000      0.0000    704.1093     12.3346     73.9074
   718.7500      0.0000    699.4793     12.1997     74.6177
   719.0000      0.0000    689.8209     12.0550     73.7293
   719.2500      0.0000    682.0950     11.8829     72.2340
   719.5000      0.0000    680.4351     11.7162     71.3082
   719.7500      0.0000    683.3150     11.6058     71.0226
   720.0000      0.0000    685.6499     11.5506     70.3608
   720.2500      0.0000    685.0108     11.4805     68.4876
   720.5000      0.0000    685.3975     11.3316     65.7926
   720.7500      0.0000    691.2405     11.1288     63.6716
   721.0000      0.0000    699.9179     10.9564     63.3450
   721.2500      0.0000    703.9278     10.8690     65.0027
   721.5000      0.0000    699.2166     10.8755     68.0734
   721.7500      0.0000    689.2742     10.9931     71.8910
   722.0000      0.0000    681.2430     11.2675     75.7874
   722.2500      0.0000    679.3509     11.7019     78.9320
   722.5000      0.0000    682.0816     12.1788     80.5624
   722.7500      0.0000    684.0359     12.5154     80.3830
   723.0000      0.0000    681.6400     12.6126     78.7278
   723.2500      0.0000    676.9010     12.5283     76.6446
   723.5000      0.0000    673.4628     12.4175     75.7091
   723.7500      0.0000    672.1373     12.4135     77.0806
   724.0000      0.0000    671.8225     12.5084     80.4153
   724.2500      0.0000    671.6902     12.5460     84.0461
   724.5000      0.0000    671.6807     12.4079     86.4528
   724.7500      0.0000    671.9892     12.1632     87.2992
   725.0000      0.0000    672.5453     11.9502     87.0378
   725.2500      0.0000    673.0065     11.7965     86.0777
   725.5000      0.0000    673.2969     11.6464     84.5764
   725.7500      0.0000    674.3174     11.4830     82.6447
   726.0000      0.0000    677.7653     11.3330     80.5287
   726.2500      0.0000    684.1204     11.1913     78.6289
   726.5000      0.0000    691.4203     11.0037     77.1965
   726.7500      0.0000    697.6143     10.7576     75.9197
   727.0000      0.0000    701.7624     10.5276     74.1157
   727.2500      0.0000    703.3687     10.3702     71.5169
   727.5000      0.0000    704.4333     10.2716     68.5850
   727.7500      0.0000    707.7635     10.2040     65.9926
   728.0000      0.0000    712.0588     10.1380     64.1785
   728.2500      0.0000    713.5953     10.0397     63.4262
   728.5000      0.0000    709.9982      9.8798     63.8591
   728.7500      0.0000    701.0411      9.6405     65.1481
   729.0000      0.0000    689.5854      9.3626     66.5581
   729.2500      0.0000    680.3302      9.1499     67.5775
   729.5000      0.0000    675.5441      9.0654     68.4766
   729.7500      0.0000    674.0297      9.0532     70.1091
   730.0000      0.0000    673.7842      9.0066     73.0160
   730.2500      0.0000    673.7519      8.8984     76.6915
   730.5000      0.0000    673.9113      8.8109     79.8789
   730.7500      0.0000    675.1828      8.8279     81.6911
   731.0000      0.0000    679.3685      8.9333     82.3004
   731.2500      0.0000    687.5387      9.0552     82.3312
   731.5000      0.0000    696.9517      9.1681     81.8769
   731.7500      0.0000    701.5234      9.2930     80.6753
   732.0000      0.0000    697.7076      9.4432     79.1051
   732.2500      0.0000    688.5750      9.6133     78.3215
   732.5000      0.0000    680.4662      9.8047     79.2238
   732.7500      0.0000    677.0728     10.0736     81.6634
   733.0000      0.0000    678.4263     10.5094     84.7629
   733.2500      0.0000    682.5468     11.1129     87.6549
   733.5000      0.0000    686.3114     11.7741     89.6629
   733.7500      0.0000    688.9511     12.3571     90.0532
   734.0000      0.0000    693.6653     12.7625     88.1339
   734.2500      0.0000    701.5906     12.9985     83.8291
   734.5000      0.0000    709.1180     13.1922     78.0240
   734.7500      0.0000    713.3964     13.4765     72.2408
   735.0000      0.0000    715.0640     13.8877     67.8716
   735.2500      0.0000    715.7271     14.3735     65.4368
   735.5000      0.0000    716.1339     14.8662     64.3416
   735.7500      0.0000    716.3745     15.3006     63.4580
   736.0000      0.0000    716.4453     15.5588     62.2574
   736.2500      0.0000    716.4185     15.5045     61.4258
   736.5000      0.0000    716.3744     15.1363     62.1906
   736.7500      0.0000    716.3503     14.6094     65.0603
