~Version Information
VERS.                      2.0: CWLS Log ASCII Standard - VERSION 2.0
WRAP.                       NO: One line per depth step
~Well Information Block
STRT.FT               673.2000: 
STOP.FT              1510.5000: 
STEP.FT                 0.1000: 
NULL.                -999.2500: 
COMP.          Pioneer Natural Resources: COMPANY
WELL.          Hammerhead 24-24 Tr: WELL
FLD.           Purgatoire River: FIELD
LOC.           953' FSL & 1922' FWL: LOCATION
PROV.                 Colorado: PROVINCE
CNTY.               Las Animas: COUNTRY
SRVC.                Patterson: SERVICE COMPANY
DATE.          Mon Jan 30 07:27:57 2006: LOG DATE
UWI.           05 071 08669 00: UNIQUE WELL ID
~Curve Information Block
DEPT.FT            0 000 00 00: Depth
DCAL.in                       : CDL Caliper
RHOB.g/cc                     : CDL Bulk Density
RHOC.g/cc                     : CDL Density Correction
DPOR.pu                       : CDL Density Porosity
GR.GAPI                       : Gamma Ray
~Parameter Information Block
~A  Depth       DCAL        RHOB        RHOC        DPOR         GR     
# ...
   852.4000      7.8812      2.5249      0.0480      7.5804    125.9029
   852.5000      7.8822      2.5045      0.0330      8.8210    127.1630
   852.6000      7.8822      2.4851      0.0384      9.9947    129.7796
   852.7000      7.8822      2.4730      0.0568     10.7245    142.8101
   852.8000      7.8828      2.4596      0.0383     11.5409    154.9388
   852.9000      7.8828      2.4435     -0.0152     12.5134    152.4852
   853.0000      7.8838      2.4392     -0.0214     12.7762    143.3042
   853.1000      7.8838      2.4482      0.0291     12.2316    137.8920
   853.2000      7.8838      2.4609     -0.0077     11.4635    135.9968
   853.3000      7.8845      2.4753      0.0108     10.5906    137.8205
   853.4000      7.8845      2.4843      0.0273     10.0400    143.3718
   853.5000      7.8838      2.4790      0.0247     10.3643    147.9392
   853.6000      7.8838      2.4659     -0.0062     11.1552    148.3037
   853.7000      7.8838      2.4505      0.0362     12.0920    147.5108
   853.8000      7.8831      2.4233      0.0590     13.7379    151.1444
   853.9000      7.8831      2.3923      0.0339     15.6191    155.1123
   854.0000      7.8837      2.3838      0.0264     16.1311    151.1161
   854.1000      7.8837      2.3972      0.0553     15.3202    142.3135
   854.2000      7.8837      2.4096      0.0633     14.5671    135.0843
   854.3000      7.8845      2.4197      0.0689     13.9574    132.3079
   854.4000      7.8845      2.4369      0.1399     12.9130    135.2097
   854.5000      7.8848      2.4575      0.1631     11.6650    140.0795
   854.6000      7.8848      2.4777      0.1907     10.4410    141.4955
   854.7000      7.8848      2.4941      0.2470      9.4455    137.6152
   854.8000      7.8841      2.4963      0.2263      9.3146    132.4608
   854.9000      7.8841      2.4836      0.1744     10.0866    130.2203
   855.0000      7.8824      2.4711      0.1208     10.8409    130.0058
   855.1000      7.8824      2.4702      0.1199     10.8957    132.2353
   855.2000      7.8824      2.4786      0.1344     10.3886    134.2591
   855.3000      7.8809      2.4860      0.1616      9.9406    132.4708
   855.4000      7.8809      2.4873      0.1308      9.8632    131.6851
   855.5000      7.8814      2.4863      0.1335      9.9223    135.4531
   855.6000      7.8814      2.4819      0.1073     10.1858    140.5678
   855.7000      7.8814      2.4674      0.1338     11.0670    143.6358
   855.8000      7.8824      2.4432      0.0664     12.5333    143.3722
   855.9000      7.8824      2.4237      0.0422     13.7159    141.2306
   856.0000      7.8827      2.4223      0.0394     13.7990    142.3849
   856.1000      7.8827      2.4438      0.0299     12.4949    148.2565
   856.2000      7.8827      2.4807      0.1072     10.2606    153.6575
   856.3000      7.8824      2.5064      0.1093      8.7018    155.7512
   856.4000      7.8824      2.5017      0.0561      8.9855    154.4912
   856.5000      7.8825      2.4726      0.0504     10.7524    150.3099
   856.6000      7.8825      2.4334      0.0154     13.1295    146.3295
   856.7000      7.8825      2.3970     -0.0013     15.3308    147.0829
   856.8000      7.8836      2.3737     -0.0118     16.7469    152.8502
   856.9000      7.8836      2.3668     -0.0250     17.1641    154.3941
   857.0000      7.8838      2.3772     -0.0322     16.5337    144.0422
   857.1000      7.8838      2.4078      0.0141     14.6803    130.5079
   857.2000      7.8838      2.4455      0.0860     12.3918    124.8859
   857.3000      7.8829      2.4705      0.0623     10.8779    129.0719
   857.4000      7.8829      2.4847      0.1416     10.0180    140.9810
   857.5000      7.8824      2.4958      0.1473      9.3445    152.3063
   857.6000      7.8824      2.5066      0.0871      8.6932    154.1113
   857.7000      7.8824      2.5186      0.0924      7.9616    147.5398
   857.8000      7.8821      2.5308      0.0735      7.2216    140.0310
   857.9000      7.8821      2.5530      0.0338      5.8782    134.6460
   858.0000      7.8815      2.5967      0.1120      3.2296    129.6205
   858.1000      7.8815      2.6510      0.1328     -0.0605    123.6126
   858.2000      7.8815      2.7031      0.0689     -3.2208    114.5198
   858.3000      7.8810      2.7536      0.1130     -6.2794    101.3695
   858.4000      7.8810      2.7935      0.1595     -8.6945     88.8453
   858.5000      7.8802      2.8056      0.1333     -9.4278     80.1588
   858.6000      7.8802      2.7885      0.0658     -8.3968     75.8432
   858.7000      7.8802      2.7644     -0.0213     -6.9356     76.3769
   858.8000      7.8790      2.7532     -0.0280     -6.2574     80.6597
   858.9000      7.8790      2.7489     -0.0254     -5.9912     85.2374
   859.0000      7.8781      2.7397     -0.1061     -5.4345     84.0411
   859.1000      7.8781      2.7323     -0.0846     -4.9886     77.5804
   859.2000      7.8781      2.7240     -0.0222     -4.4821     76.3288
   859.3000      7.8782      2.6977     -0.0249     -2.8891     82.2282
   859.4000      7.8782      2.6625     -0.0303     -0.7565     88.4770
   859.5000      7.8789      2.6425     -0.0082      0.4573     94.6702
   859.6000      7.8789      2.6341      0.0458      0.9638    101.8721
   859.7000      7.8789      2.6102      0.0462      2.4134    106.7887
   859.8000      7.8779      2.5643     -0.0356      5.1962    109.8108
   859.9000      7.8779      2.5246     -0.0381      7.5984    115.6773
   860.0000      7.8753      2.5199     -0.0518      7.8833    123.1243
   860.1000      7.8753      2.5514      0.0256      5.9754    124.5717
   860.2000      7.8753      2.5875      0.0556      3.7885    119.6975
   860.3000      7.8734      2.5983      0.0492      3.1356    116.4944
   860.4000      7.8734      2.5875      0.0384      3.7897    116.0217
   860.5000      7.8731      2.5699      0.0772      4.8540    113.3248
   860.6000      7.8731      2.5600     -0.0102      5.4545    110.5642
   860.7000      7.8731      2.5702      0.0226      4.8338    112.8417
   860.8000      7.8749      2.5922      0.0623      3.5040    116.6035
   860.9000      7.8749      2.6107      0.0548      2.3838    114.8017
   861.0000      7.8772      2.6181      0.0482      1.9345    110.9076
   861.1000      7.8772      2.6099      0.0543      2.4286    110.7383
   861.2000      7.8772      2.5843      0.0722      3.9840    112.0279
   861.3000      7.8784      2.5470      0.0021      6.2408    113.0021
   861.4000      7.8784      2.5178     -0.0408      8.0115    115.2398
   861.5000      7.8792      2.5180     -0.0651      8.0010    118.1539
   861.6000      7.8792      2.5422     -0.0371      6.5345    120.6928
   861.7000      7.8792      2.5577      0.0022      5.5944    122.6785
   861.8000      7.8788      2.5496     -0.0201      6.0864    122.7007
   861.9000      7.8788      2.5407     -0.0531      6.6259    121.0078
   862.0000      7.8764      2.5516     -0.0190      5.9641    119.7416
   862.1000      7.8764      2.5698      0.0164      4.8617    121.3797
   862.2000      7.8764      2.5747      0.0203      4.5664    127.6738
   862.3000      7.8730      2.5729     -0.0297      4.6729    133.3550
   862.4000      7.8730      2.5819      0.0093      4.1279    131.6351
   862.5000      7.8676      2.5969      0.0725      3.2181    123.6697
   862.6000      7.8676      2.6116      0.0496      2.3301    117.2588
   862.7000      7.8676      2.6300      0.0911      1.2140    117.5029
   862.8000      7.8605      2.6476      0.0899      0.1435    120.2952
   862.9000      7.8605      2.6653      0.0442     -0.9301    122.3216
   863.0000      7.8578      2.6892      0.1216     -2.3784    124.2479
   863.1000      7.8578      2.7112      0.1618     -3.7105    124.7647
   863.2000      7.8578      2.7212      0.1582     -4.3127    125.2561
   863.3000      7.8633      2.7160      0.1519     -4.0001    129.4985
   863.4000      7.8633      2.6912      0.1188     -2.4993    133.4717
   863.5000      7.8795      2.6541      0.0027     -0.2503    132.5557
