~Version Information
VERS.                      2.0: CWLS Log ASCII Standard - VERSION 2.0
WRAP.                       NO: One line per depth step
~Well Information Block
STRT.FT                -7.2500: 
STOP.FT              1273.5000: 
STEP.FT                 0.2500: 
NULL.                -999.2500: 
COMP.          Pioneer Natural Resources: COMPANY
WELL.            Keiko 14-6 Tr: WELL
FLD.           Purgatorie River: FIELD
LOC.           462' FSL & 1202' FWL--: LOCATION
PROV.                       CO: PROVINCE
CNTY.               Las Animas: COUNTRY
SRVC.          Patterson Wireline: SERVICE COMPANY
DATE.          Wed Jan 04 09:22:19 2006: LOG DATE
UWI.           05 071 08629 00: UNIQUE WELL ID
~Curve Information Block
DEPT.FT            0 000 00 00: Depth
CCL.                          : Casing Collar Locator
TT3.usec                      : CBL 3' Travel Time
AMP3.mV                       : CBL 3' Amplitude
GR.GAPI                       : Gamma Ray
~Parameter Information Block
~A  Depth       CCL         TT3         AMP3         GR     
# ...
   897.2500      0.0000    445.3549      9.6622     82.2734
   897.5000      0.0000    437.7763      9.6555     85.5958
   897.7500      0.0000    451.9523      9.5669     92.4794
   898.0000      0.0000    484.1897      9.4358    102.0589
   898.2500      0.0000    522.1907      9.3176    111.6967
   898.5000      0.0000    547.5101      9.2500    118.8317
   898.7500      0.0000    545.9736      9.2175    122.6469
   899.0000      0.0000    518.6120      9.1474    124.3250
   899.2500      0.0000    481.7655      8.9527    125.7029
   899.5000      0.0000    455.3011      8.6058    127.3767
   899.7500      0.0000    449.4196      8.1883    127.8606
   900.0000      0.0000    460.1738      7.8465    124.7414
   900.2500      0.0000    475.6233      7.6607    117.1092
   900.5000      0.0000    486.0432      7.5761    106.9316
   900.7500      0.0000    488.8490      7.5045     97.6961
   901.0000      0.0000    487.5185      7.4554     91.7135
   901.2500      0.0000    490.0222      7.5067     88.9559
   901.5000      0.0000    504.9606      7.6815     88.0574
   901.7500     -2.0000    531.9269      7.9136     87.8904
   902.0000      2.0000    557.1803      8.1085     88.5245
   902.2500      0.0000    565.4680      8.2172     91.3034
   902.5000      0.0000    554.7990      8.2766     97.6069
   902.7500      0.0000    534.1389      8.3684    106.6486
   903.0000      0.0000    510.3048      8.5132    114.7308
   903.2500      0.0000    484.5747      8.6446    117.7797
   903.5000      0.0000    459.2516      8.7335    114.9180
   903.7500      0.0000    439.9095      8.8650    109.1142
   904.0000      0.0000    431.0941      9.1156    104.5278
   904.2500      0.0000    433.6786      9.4197    103.5983
   904.5000      0.0000    447.0180      9.6296    106.1088
   904.7500      0.0000    471.8521      9.6664    110.1606
   905.0000      0.0000    509.9385      9.5652    113.8398
   905.2500      0.0000    560.5276      9.4109    116.2898
   905.5000      0.0000    617.3423      9.2729    117.6689
   905.7500      0.0000    669.2111      9.1882    118.4921
   906.0000      0.0000    703.4787      9.1690    119.0373
   906.2500      0.0000    709.5908      9.2100    119.2243
   906.5000      0.0000    683.1262      9.2902    118.9632
   906.7500      0.0000    630.3823      9.3784    118.6208
   907.0000      0.0000    569.0054      9.4412    119.0745
   907.2500      0.0000    520.2712      9.4507    121.1707
   907.5000      0.0000    498.2130      9.3890    125.0393
   907.7500      0.0000    505.8289      9.2520    129.9382
   908.0000      0.0000    539.0055      9.0573    134.5240
   908.2500      0.0000    589.4359      8.8536    137.1374
   908.5000      0.0000    644.0172      8.7128    136.3326
   908.7500      0.0000    686.7047      8.6935    131.7734
   909.0000      0.0000    704.7292      8.7986    124.5869
   909.2500      0.0000    693.8708      8.9745    116.5907
   909.5000      0.0000    659.4205      9.1583    109.3098
   909.7500      0.0000    613.5519      9.3184    103.9662
   910.0000      0.0000    570.1793      9.4463    102.0126
   910.2500      0.0000    540.2579      9.5250    104.6577
   910.5000      0.0000    530.8620      9.5226    111.2945
   910.7500      0.0000    545.5449      9.4186    118.9436
   911.0000      0.0000    581.6638      9.2323    123.9430
   911.2500      0.0000    628.2860      9.0213    124.2843
   911.5000      0.0000    671.3243      8.8406    120.4977
   911.7500      0.0000    702.5703      8.6989    114.7262
   912.0000      0.0000    723.0175      8.5628    108.8424
   912.2500      0.0000    738.3156      8.4083    102.9387
   912.5000      0.0000    752.7950      8.2629     95.5714
   912.7500      0.0000    767.2078      8.1911     85.7050
   913.0000      0.0000    779.8683      8.2420     74.3132
   913.2500      0.0000    788.6076      8.4082     63.9541
   913.5000      0.0000    792.0244      8.6264     56.9660
   913.7500      0.0000    789.8581      8.8165     54.2255
   914.0000      0.0000    782.9318      8.9258     55.3525
   914.2500      0.0000    772.7238      8.9443     59.6354
   914.5000      0.0000    760.4241      8.8929     66.5982
   914.7500      0.0000    746.3224      8.8058     75.8695
   915.0000      0.0000    730.6398      8.7153     86.7585
   915.2500      0.0000    714.9012      8.6391     98.1196
   915.5000      0.0000    701.6901      8.5747    108.7056
   915.7500      0.0000    692.7983      8.5062    117.6724
   916.0000      0.0000    688.1381      8.4221    124.7461
   916.2500      0.0000    686.5767      8.3263    129.8400
   916.5000      0.0000    687.2734      8.2360    132.5883
   916.7500      0.0000    689.8577      8.1708    132.5646
   917.0000      0.0000    693.1621      8.1442    130.0638
   917.2500      0.0000    694.2448      8.1611    126.3235
   917.5000      0.0000    690.2856      8.2145    122.6801
   917.7500      0.0000    682.7159      8.2810    119.6673
   918.0000      0.0000    677.8960      8.3271    117.0983
   918.2500      0.0000    681.3134      8.3298    114.7770
   918.5000      0.0000    691.9343      8.2940    112.7681
   918.7500      0.0000    704.0074      8.2525    111.1852
   919.0000      0.0000    713.0903      8.2489    110.2835
   919.2500      0.0000    718.6141      8.3146    110.6538
   919.5000      0.0000    721.8185      8.4485    112.6185
   919.7500      0.0000    723.2217      8.6154    115.2886
   920.0000      0.0000    722.4829      8.7673    116.9830
   920.2500      0.0000    719.9739      8.8692    117.0807
   920.5000      0.0000    717.5264      8.9054    117.0028
   920.7500      0.0000    717.2685      8.8759    118.8251
   921.0000      0.0000    720.0875      8.7932    123.1919
   921.2500      0.0000    725.3475      8.6794    128.9485
   921.5000      0.0000    731.1446      8.5577    134.3003
   921.7500      0.0000    734.2982      8.4442    137.6950
   922.0000      0.0000    730.8776      8.3481    138.0017
   922.2500      0.0000    717.7365      8.2765    134.8655
   922.5000      0.0000    694.0477      8.2364    129.3116
   922.7500      0.0000    662.6600      8.2308    123.6501
   923.0000      0.0000    631.7435      8.2544    120.3129
   923.2500      0.0000    613.8350      8.2951    120.3227
   923.5000      0.0000    618.5102      8.3400    122.5506
   923.7500      0.0000    643.6003      8.3767    124.5474
   924.0000      0.0000    676.0428      8.3911    124.4130
   924.2500      0.0000    702.8723      8.3721    121.9219
   924.5000      0.0000    719.6558      8.3276    118.1145
   924.7500      0.0000    728.5961      8.2839    114.4018
   925.0000      0.0000    732.3427      8.2673    112.1185
   925.2500      0.0000    731.6028      8.2885    112.1392
   925.5000      0.0000    726.5247      8.3436    114.4199
   925.7500      0.0000    717.4650      8.4229    118.1275
   926.0000      0.0000    704.5206      8.5190    122.3649
   926.2500      0.0000    688.6341      8.6296    126.6239
   926.5000      0.0000    674.1077      8.7516    130.5444
   926.7500      0.0000    667.9708      8.8750    133.4537
   927.0000      0.0000    674.6080      8.9889    134.5508
   927.2500      0.0000    691.4777      9.0960    133.8640
   927.5000      0.0000    710.8381      9.2126    132.7577
   927.7500      0.0000    724.4912      9.3510    132.9355
   928.0000      0.0000    726.3364      9.5080    134.8778
   928.2500      0.0000    712.4130      9.6715    137.5217
   928.5000      0.0000    681.2158      9.8307    139.3324
   928.7500      0.0000    635.5621      9.9750    139.3606
   929.0000      0.0000    583.7283     10.0882    137.3329
   929.2500      0.0000    536.2419     10.1516    133.2056
   929.5000      0.0000    499.7237     10.1587    127.1656
   929.7500      0.0000    474.2181     10.1220    120.2084
   930.0000      0.0000    456.6635     10.0649    114.2654
   930.2500      0.0000    445.1326     10.0068    111.1189
   930.5000      0.0000    438.7094      9.9557    111.0110
