~Version Information
VERS.                      2.0: CWLS Log ASCII Standard - VERSION 2.0
WRAP.                       NO: One line per depth step
~Well Information Block
STRT.FT               580.0000: 
STOP.FT              1179.0000: 
STEP.FT                 0.1000: 
NULL.                -999.2500: 
COMP.          Pioneer Natural Resources: COMPANY
WELL.          Tin Barn 14-20 TR: WELL
FLD.           Purgatorie River: FIELD
LOC.           925 FSL & 1151 FWL: LOCATION
PROV.                 Colorado: PROVINCE
CNTY.               Las Animas: COUNTRY
SRVC.                Patterson: SERVICE COMPANY
DATE.          Thu Jan 12 12:02:37 2006: LOG DATE
UWI.                          : UNIQUE WELL ID
~Curve Information Block
DEPT.FT            0 000 00 00: Depth
DCAL.in                       : CDL Caliper
RHOB.g/cc                     : CDL Bulk Density
RHOC.g/cc                     : CDL Density Correction
DPOR.pu                       : CDL Density Porosity
GR.GAPI                       : Gamma Ray
~Parameter Information Block
~A  Depth       DCAL        RHOB        RHOC        DPOR         GR     
# ...
   736.8000      7.9354      2.7039      0.2357     -3.2642    103.7454
   736.9000      7.9354      2.6814      0.1755     -1.9039    101.6548
   737.0000      7.9350      2.6603      0.1693     -0.6243     97.0664
   737.1000      7.9350      2.6432      0.1058      0.4115     92.0328
   737.2000      7.9350      2.6390      0.0978      0.6690     88.8711
   737.3000      7.9106      2.6468      0.0961      0.1959     86.9000
   737.4000      7.9106      2.6532      0.0640     -0.1956     85.4182
   737.5000      7.8849      2.6515      0.0566     -0.0930     85.8817
   737.6000      7.8849      2.6470      0.0384      0.1791     88.4191
   737.7000      7.8849      2.6408      0.0796      0.5565     91.1789
   737.8000      7.9206      2.6267      0.0504      1.4127     93.5083
   737.9000      7.9206      2.6120      0.0221      2.3008     96.5182
   738.0000      7.9412      2.6012      0.0346      2.9606    100.6404
   738.1000      7.9412      2.5819      0.0249      4.1289    105.1996
   738.2000      7.9412      2.5562     -0.0185      5.6848    110.1109
   738.3000      7.9334      2.5401      0.0166      6.6601    115.0158
   738.4000      7.9334      2.5344      0.0477      7.0037    119.1757
   738.5000      7.9144      2.5320      0.0196      7.1536    122.9065
   738.6000      7.9144      2.5321      0.0604      7.1467    126.3575
   738.7000      7.9144      2.5295      0.0566      7.3015    128.1328
   738.8000      7.9311      2.5204      0.0382      7.8534    128.2057
   738.9000      7.9311      2.5129      0.0608      8.3121    128.2280
   739.0000      7.9351      2.5115      0.0454      8.3914    127.2008
   739.1000      7.9351      2.5137     -0.0142      8.2636    124.2411
   739.2000      7.9351      2.5153      0.0458      8.1612    122.3472
   739.3000      7.9506      2.5147      0.0234      8.2001    121.9270
   739.4000      7.9506      2.5160      0.0314      8.1233    121.2285
   739.5000      7.9396      2.5227      0.0303      7.7132    121.6769
   739.6000      7.9396      2.5300      0.0569      7.2735    123.6574
   739.7000      7.9396      2.5270      0.0619      7.4529    124.8775
   739.8000      7.9458      2.5125      0.0580      8.3309    125.0631
   739.9000      7.9458      2.5023     -0.0075      8.9541    125.4473
   740.0000      7.9446      2.5111      0.0313      8.4190    127.1077
   740.1000      7.9446      2.5337      0.0497      7.0505    129.1288
   740.2000      7.9446      2.5514      0.0703      5.9766    127.6987
   740.3000      7.9364      2.5479      0.0807      6.1854    123.3151
   740.4000      7.9364      2.5274      0.0364      7.4285    121.2622
   740.5000      7.9435      2.5125      0.0393      8.3307    123.6024
   740.6000      7.9435      2.5147      0.0461      8.2008    128.8983
   740.7000      7.9435      2.5174      0.1118      8.0347    134.7231
   740.8000      7.9371      2.5050      0.0279      8.7863    138.8177
   740.9000      7.9371      2.4916      0.0271      9.6000    141.2407
   741.0000      7.9329      2.4964     -0.0053      9.3075    143.1801
   741.1000      7.9329      2.5173      0.0347      8.0443    143.5823
   741.2000      7.9329      2.5378      0.0320      6.7979    141.5928
   741.3000      7.9315      2.5487      0.0605      6.1375    137.6301
   741.4000      7.9315      2.5541      0.0623      5.8132    132.4762
   741.5000      7.9330      2.5632      0.0598      5.2602    128.0603
   741.6000      7.9330      2.5774      0.0706      4.4009    126.2361
   741.7000      7.9330      2.5861      0.0687      3.8757    126.5850
   741.8000      7.9367      2.5830      0.0537      4.0588    126.8505
   741.9000      7.9367      2.5702      0.0708      4.8392    126.5491
   742.0000      7.9340      2.5478      0.0816      6.1951    126.6383
   742.1000      7.9340      2.5188      0.0317      7.9498    126.8798
   742.2000      7.9340      2.4935      0.0010      9.4866    127.2528
   742.3000      7.9399      2.4819     -0.0016     10.1891    129.6032
   742.4000      7.9399      2.4864      0.0380      9.9148    132.2146
   742.5000      7.9422      2.4961      0.0394      9.3251    131.1743
   742.6000      7.9422      2.4991      0.0467      9.1455    128.4051
   742.7000      7.9422      2.4973      0.0432      9.2537    128.5170
   742.8000      7.9382      2.4951      0.0718      9.3888    133.2256
   742.9000      7.9382      2.4931      0.0619      9.5113    140.1323
   743.0000      7.9360      2.4967      0.0443      9.2924    143.9913
   743.1000      7.9360      2.5076      0.0759      8.6297    143.2324
   743.2000      7.9360      2.5142      0.0669      8.2318    142.6768
   743.3000      7.9311      2.5035      0.0619      8.8797    143.8703
   743.4000      7.9311      2.4778      0.0582     10.4344    143.1824
   743.5000      7.9329      2.4586      0.0346     11.6017    140.0395
   743.6000      7.9329      2.4594      0.0998     11.5542    137.4666
   743.7000      7.9329      2.4633      0.1081     11.3170    137.5800
   743.8000      7.9295      2.4500      0.1118     12.1208    142.1223
   743.9000      7.9295      2.4228      0.0874     13.7669    149.7002
   744.0000      7.9307      2.3939      0.0971     15.5221    155.3907
   744.1000      7.9307      2.3617      0.0864     17.4700    156.9716
   744.2000      7.9307      2.3298      0.0423     19.4033    154.7576
   744.3000      7.9307      2.3230      0.0064     19.8197    150.4924
   744.4000      7.9307      2.3536      0.0866     17.9615    146.3596
   744.5000      7.9426      2.4031      0.0928     14.9643    142.9190
   744.6000      7.9426      2.4535      0.1299     11.9079    140.6758
   744.7000      7.9426      2.4989      0.1891      9.1546    139.2093
   744.8000      7.9285      2.5307      0.2815      7.2318    136.6170
   744.9000      7.9285      2.5450      0.2286      6.3632    133.1299
   745.0000      7.8762      2.5502      0.2386      6.0489    131.3650
   745.1000      7.8762      2.5477      0.2285      6.1975    131.1707
   745.2000      7.8762      2.5309      0.1952      7.2173    128.3937
   745.3000      7.8622      2.4992      0.1495      9.1374    122.2301
   745.4000      7.8622      2.4622      0.0778     11.3845    115.7479
   745.5000      7.9417      2.4331      0.0391     13.1437    110.3675
   745.6000      7.9417      2.4182      0.0164     14.0484    105.3107
   745.7000      7.9417      2.4192      0.0141     13.9858     97.9510
   745.8000      7.9393      2.4383     -0.0087     12.8324     87.1107
   745.9000      7.9393      2.4640      0.0424     11.2730     76.3882
   746.0000      7.8833      2.4843     -0.0209     10.0434     68.4679
   746.1000      7.8833      2.5038      0.0501      8.8615     63.0148
   746.2000      7.8833      2.5170      0.0250      8.0591     59.4395
   746.3000      7.9233      2.5049      0.0222      8.7966     57.1925
   746.4000      7.9233      2.4618      0.0452     11.4084     54.9634
   746.5000      7.9214      2.4011      0.0478     15.0836     52.3344
   746.6000      7.9214      2.3370     -0.0315     18.9699     50.8402
   746.7000      7.9214      2.2692     -0.0646     23.0815     50.6579
   746.8000      7.9190      2.1918     -0.0980     27.7707     50.2806
   746.9000      7.9190      2.1160     -0.1147     32.3651     49.2910
   747.0000      7.8677      2.0512     -0.0548     36.2898     47.4900
   747.1000      7.8677      1.9888     -0.0792     40.0738     44.3662
   747.2000      7.8677      1.9237     -0.0448     44.0204     40.9974
   747.3000      7.8219      1.8551     -0.0082     48.1730     39.4029
   747.4000      7.8219      1.7792      0.0540     52.7739     39.3393
   747.5000      7.8292      1.6977      0.0127     57.7130     38.9343
   747.6000      7.8292      1.6228     -0.0073     62.2532     37.2803
   747.7000      7.8292      1.5691     -0.0359     65.5071     35.4093
   747.8000      7.8821      1.5423     -0.0429     67.1306     34.5485
   747.9000      7.8821      1.5306      0.0156     67.8413     33.7450
