~Version Information
VERS.                      2.0: CWLS Log ASCII Standard - VERSION 2.0
WRAP.                       NO: One line per depth step
~Well Information Block
STRT.FT                 0.0000: 
STOP.FT              1871.2500: 
STEP.FT                 0.2500: 
NULL.                -999.2500: 
COMP.          Petrogulf Corporation: COMPANY
WELL.             Norton 9-14R: WELL
FLD.           Purgatorie River: FIELD
LOC.           725' FSL & 1103' FWL: LOCATION
STAT.                 Colorado: State
CNTY.               Las Animas: COUNTY
CTRY. USA : Country
SECT. 9 : Section
TOWN. 33S : Township
RANG. 67W : Range
SRVC.                Patterson: SERVICE COMPANY
DATE.          Thu Nov 10 13:05:53 2005: LOG DATE
API. 05-071-08444                         : UNIQUE WELL ID
~Curve Information Block
DEPT.FT            0 000 00 00: Depth
CCL.                          : Casing Collar Locator
TT3.usec                      : CBL 3' Travel Time
AMP3.mV                       : CBL 3' Amplitude
GR.GAPI                       : Gamma Ray
~Parameter Information Block
~A  Depth       CCL         TT3         AMP3         GR     
# ...
  1474.0000      0.0000    639.1905      6.3247     53.6811
  1474.2500      0.0000    636.3973      6.1903     54.2919
  1474.5000      0.0000    636.1963      6.0586     55.0823
  1474.7500      0.0000    638.0070      5.9549     56.3916
  1475.0000      0.0000    640.8636      5.9104     58.2694
  1475.2500      0.0000    642.5573      5.9324     60.1782
  1475.5000      0.0000    641.5757      5.9834     61.1326
  1475.7500      0.0000    639.1610      6.0121     60.4370
  1476.0000      0.0000    637.3278      6.0202     58.4653
  1476.2500      0.0000    636.4026      6.0559     56.5194
  1476.5000      0.0000    635.0883      6.1415     55.8236
  1476.7500      0.0000    631.6904      6.2574     56.7561
  1477.0000      0.0000    626.6652      6.3846     58.8820
  1477.2500      0.0000    624.0928      6.5193     61.3584
  1477.5000      0.0000    627.2668      6.6582     63.3634
  1477.7500      0.0000    634.4456      6.7861     64.7072
  1478.0000      0.0000    641.6409      6.8652     66.4165
  1478.2500      0.0000    645.2862      6.8545     70.4752
  1478.5000      0.0000    643.3796      6.7549     78.4877
  1478.7500      0.0000    638.3965      6.6032     90.2587
  1479.0000      0.0000    634.8168      6.4253    103.5972
  1479.2500      0.0000    632.4647      6.2308    115.7361
  1479.5000      0.0000    626.3274      6.0459    125.3422
  1479.7500      0.0000    611.8248      5.9121    133.1804
  1480.0000      0.0000    589.7063      5.8571    140.6457
  1480.2500      0.0000    567.4888      5.8688    147.7695
  1480.5000      0.0000    554.0988      5.8842    152.9542
  1480.7500      0.0000    551.5421      5.8544    154.5106
  1481.0000      0.0000    554.2850      5.8152    152.2457
  1481.2500      0.0000    557.0651      5.8221    147.8329
  1481.5000      0.0000    559.7657      5.8588    143.8541
  1481.7500      0.0000    564.9862      5.8683    142.2175
  1482.0000      0.0000    572.1618      5.8418    143.0999
  1482.2500      0.0000    575.0717      5.8378    145.1964
  1482.5000      0.0000    569.8123      5.9179    146.8417
  1482.7500      0.0000    562.0104      6.0760    146.9289
  1483.0000      0.0000    559.5516      6.2369    145.2855
  1483.2500      0.0000    563.4655      6.3242    142.7954
  1483.5000      0.0000    568.3716      6.3199    141.0228
  1483.7500      0.0000    568.4476      6.2642    141.2622
  1484.0000      0.0000    563.3477      6.2088    143.7903
  1484.2500      0.0000    557.5232      6.1805    147.7005
  1484.5000      0.0000    554.1388      6.1766    151.1637
  1484.7500      0.0000    552.6744      6.1731    152.3511
  1485.0000      0.0000    551.0220      6.1507    150.8892
  1485.2500      0.0000    546.8933      6.1110    148.2777
  1485.5000      0.0000    538.9059      6.0728    146.3547
  1485.7500      0.0000    529.0013      6.0580    145.5988
  1486.0000      0.0000    522.0917      6.0586    145.2926
  1486.2500      0.0000    521.6545      6.0350    144.7373
  1486.5000      0.0000    527.2367      5.9603    143.6473
  1486.7500      0.0000    537.2087      5.8290    141.8954
  1487.0000      0.0000    553.2123      5.6401    139.7676
  1487.2500      0.0000    576.9285      5.4256    138.2441
  1487.5000      0.0000    602.3529      5.2590    138.3450
  1487.7500      0.0000    621.1653      5.1923    140.4028
  1488.0000      0.0000    632.4093      5.2141    144.1745
  1488.2500      0.0000    638.8994      5.2849    148.9796
  1488.5000      0.0000    643.0063      5.3882    153.4146
  1488.7500      0.0000    648.4590      5.5223    155.8447
  1489.0000      0.0000    658.4381      5.6499    155.7710
  1489.2500      0.0000    672.2799      5.7035    154.2231
  1489.5000      0.0000    685.3932      5.6666    152.4345
  1489.7500      0.0000    691.7178      5.6076    150.5824
  1490.0000      0.0000    689.1042      5.6092    148.2636
  1490.2500      0.0000    682.3645      5.7178    145.8521
  1490.5000      0.0000    677.2728      5.9365    144.6080
  1490.7500      0.0000    672.6851      6.1990    145.2157
  1491.0000      0.0000    664.2918      6.3961    146.9612
  1491.2500      0.0000    653.2933      6.4550    148.8751
  1491.5000      0.0000    644.4674      6.3616    151.0670
  1491.7500      0.0000    639.4329      6.1804    154.0812
  1492.0000      0.0000    636.9201      6.0759    157.1553
  1492.2500      0.0000    637.1283      6.1166    158.1495
  1492.5000      0.0000    641.5612      6.0801    155.6627
  1492.7500      0.0000    648.5865      5.7869    150.7881
  1493.0000      0.0000    655.1516      5.4282    146.3077
  1493.2500      0.0000    662.0365      5.2190    144.2703
  1493.5000      0.0000    671.2373      5.1129    144.5618
  1493.7500     -2.0000    682.7950      5.0175    145.5897
  1494.0000      2.0000    695.7898      4.9212    145.9403
  1494.2500      0.0000    709.3517      4.7950    145.3922
  1494.5000      0.0000    722.3803      4.5864    144.6638
  1494.7500      0.0000    729.0362      4.3188    144.4439
  1495.0000      0.0000    720.2269      4.0658    144.7538
  1495.2500      0.0000    698.7540      3.8031    145.0352
  1495.5000      0.0000    682.1412      3.4799    144.6887
  1495.7500      0.0000    680.4241      3.1794    143.6476
  1496.0000      0.0000    688.7657      2.9765    142.4299
  1496.2500      0.0000    699.3064      2.8261    141.3573
  1496.5000      0.0000    701.4805      2.6816    139.6594
  1496.7500      0.0000    687.6993      2.5480    135.8684
  1497.0000      0.0000    665.3701      2.4292    129.6211
  1497.2500      0.0000    646.1504      2.3032    122.8836
  1497.5000      0.0000    631.7344      2.1616    118.8286
  1497.7500      0.0000    619.2892      2.0447    119.4263
  1498.0000      0.0000    609.4264      1.9875    124.1733
  1498.2500      0.0000    603.8168      1.9696    130.7168
  1498.5000      0.0000    601.7873      1.9666    136.2765
  1498.7500      0.0000    601.7701      1.9865    138.7226
  1499.0000      0.0000    603.6445      2.0241    137.2315
  1499.2500      0.0000    609.4219      2.0544    132.6807
  1499.5000      0.0000    621.2156      2.0844    127.2284
  1499.7500      0.0000    638.0505      2.1483    122.8111
  1500.0000      0.0000    656.6973      2.2434    119.9110
  1500.2500      0.0000    673.6887      2.3251    118.0087
  1500.5000      0.0000    684.4111      2.3645    116.9783
  1500.7500      0.0000    686.8331      2.3579    117.5301
  1501.0000      0.0000    684.9283      2.3137    120.4140
  1501.2500      0.0000    681.8441      2.2676    125.8405
  1501.5000      0.0000    676.4351      2.2672    133.5719
  1501.7500      0.0000    668.8657      2.3338    142.7172
  1502.0000      0.0000    662.2845      2.4540    151.4293
  1502.2500      0.0000    658.5126      2.5908    157.8695
  1502.5000      0.0000    655.8537      2.7049    161.7580
  1502.7500      0.0000    650.7819      2.7742    164.2061
  1503.0000      0.0000    641.4009      2.7914    165.9243
  1503.2500      0.0000    630.5317      2.7750    166.3728
  1503.5000      0.0000    623.0768      2.7743    164.8681
  1503.7500      0.0000    620.0300      2.8257    161.8957
  1504.0000      0.0000    620.1612      2.9256    159.0703
  1504.2500      0.0000    625.5547      3.0520    158.0627
  1504.5000      0.0000    639.6180      3.1807    159.5906
  1504.7500      0.0000    660.4479      3.2916    163.0082
  1505.0000      0.0000    677.5568      3.3698    166.5159
  1505.2500      0.0000    680.0177      3.4017    167.9312
  1505.5000      0.0000    671.9356      3.3885    165.7837
  1505.7500      0.0000    669.7189      3.3581    160.1410
  1506.0000      0.0000    678.7632      3.3386    152.3748
  1506.2500      0.0000    685.1017      3.3157    144.0302
  1506.5000      0.0000    677.2747      3.2474    136.1515
  1506.7500      0.0000    662.5723      3.1214    129.5945
  1507.0000      0.0000    651.9415      2.9667    125.2251
  1507.2500      0.0000    645.3087      2.8123    123.4562
