~Version Information
VERS.                      2.0: CWLS Log ASCII Standard - VERSION 2.0
WRAP.                       NO: One line per depth step
~Well Information Block
STRT.FT               -14.7500: 
STOP.FT              1106.0000: 
STEP.FT                 0.2500: 
NULL.                -999.2500: 
COMP.          Pioneer Natural Resources: COMPANY
WELL.          Black Cat 13-32 Tr: WELL
FLD.           Purgatorie River: FIELD
LOC.           1679' FSL & 1150' FWL--: LOCATION
CNTY.               Las Animas: COUNTY
SRVC.          Patterson Wireline: SERVICE COMPANY
DATE.          Wed Mar 15 15:59:24 2006: LOG DATE
UWI.           05 071 08721 00: UNIQUE WELL ID
STAT.                       CO: STATE
~Curve Information Block
DEPT.FT            0 000 00 00: Depth
CCL.                          : Casing Collar Locator
TT3.usec                      : CBL 3' Travel Time
AMP3.mV                       : CBL 3' Amplitude
GR.GAPI                       : Gamma Ray
~Parameter Information Block
~A  Depth       CCL         TT3         AMP3         GR     
# ...
   755.7500      0.0000    475.0899      5.9490    143.2150
   756.0000      0.0000    434.0554      5.9711    134.3247
   756.2500      0.0000    398.4882      6.0015    124.9802
   756.5000      0.0000    373.8260      6.0280    115.8205
   756.7500      0.0000    358.8685      6.0436    107.7436
   757.0000      0.0000    351.1318      6.0443    102.3136
   757.2500      0.0000    349.6848      6.0238    100.9178
   757.5000      0.0000    354.8496      5.9735    103.5551
   757.7500      0.0000    366.9424      5.8892    108.6751
   758.0000      0.0000    384.9821      5.7811    114.4107
   758.2500      0.0000    406.1435      5.6728    119.9346
   758.5000      0.0000    427.1147      5.5865    125.4820
   758.7500      0.0000    447.2791      5.5286    131.1385
   759.0000      0.0000    470.5788      5.4889    136.0576
   759.2500      0.0000    502.3461      5.4548    139.0748
   759.5000      0.0000    542.0244      5.4229    139.6929
   759.7500      0.0000    579.0746      5.4007    138.4058
   760.0000      0.0000    599.3510      5.3955    136.6175
   760.2500      0.0000    598.3824      5.4058    136.4125
   760.5000      0.0000    587.4191      5.4215    139.5919
   760.7500      0.0000    584.0592      5.4345    146.1498
   761.0000      0.0000    597.6904      5.4463    153.7457
   761.2500      0.0000    624.9793      5.4639    159.2993
   761.5000      0.0000    656.0470      5.4911    161.4968
   761.7500      0.0000    681.6549      5.5220    161.5037
   762.0000      0.0000    696.8117      5.5446    161.1462
   762.2500      0.0000    701.7974      5.5508    160.9478
   762.5000      0.0000    700.7273      5.5470    160.2700
   762.7500      0.0000    697.8572      5.5512    158.7129
   763.0000      0.0000    693.6262      5.5750    156.6050
   763.2500      0.0000    683.1691      5.6086    154.2688
   763.5000      0.0000    659.5431      5.6252    151.5714
   763.7500      0.0000    621.8539      5.5993    148.6041
   764.0000      0.0000    581.9399      5.5206    146.4104
   764.2500      0.0000    559.5681      5.3951    146.4696
   764.5000      0.0000    566.8081      5.2389    149.2867
   764.7500      0.0000    596.6411      5.0708    153.6035
   765.0000      0.0000    628.0255      4.9123    157.0538
   765.2500      0.0000    642.5251      4.7915    157.8580
   765.5000      0.0000    638.3986      4.7326    156.1673
   765.7500      0.0000    632.3719      4.7250    153.5887
   766.0000      0.0000    647.1097      4.7157    151.3397
   766.2500      0.0000    691.9982      4.6592    149.0942
   766.5000      0.0000    752.6617      4.5759    145.5396
   766.7500      0.0000    800.2996      4.5392    139.9492
   767.0000      0.0000    814.5021      4.5979    133.5647
   767.2500      0.0000    798.8577      4.7280    129.4876
   767.5000      0.0000    775.0471      4.8635    130.4363
   767.7500     -2.0000    763.6597      4.9571    136.0463
   768.0000      0.0000    770.6884      5.0097    142.7617
   768.2500      0.0000    787.3651      5.0673    146.8441
   768.5000      0.0000    799.0873      5.1986    147.4112
   768.7500      0.0000    796.0298      5.4496    146.4934
   769.0000      0.0000    776.7031      5.7944    146.4993
   769.2500      0.0000    742.0947      6.1437    148.0368
   769.5000      0.0000    690.6162      6.4180    150.1117
   769.7500      0.0000    622.6479      6.5960    151.7296
   770.0000      0.0000    547.9046      6.6895    152.7834
   770.2500      0.0000    483.7820      6.7050    153.7032
   770.5000      0.0000    445.3910      6.6474    155.0086
   770.7500      0.0000    437.8682      6.5399    157.2867
   771.0000      0.0000    456.3083      6.4262    160.7366
   771.2500      0.0000    490.4929      6.3478    164.2928
   771.5000      0.0000    530.7302      6.3180    165.9319
   771.7500      0.0000    571.4410      6.3121    164.3855
   772.0000      0.0000    609.8286      6.2875    160.1520
   772.2500      0.0000    642.5601      6.2148    154.7461
   772.5000      0.0000    666.0907      6.0956    149.6028
   772.7500      0.0000    679.6457      5.9535    145.7351
   773.0000      0.0000    685.7105      5.8135    143.6242
   773.2500      0.0000    687.6564      5.6901    143.0475
   773.5000      0.0000    687.7629      5.5963    143.4017
   773.7500      0.0000    686.9536      5.5513    144.2649
   774.0000      0.0000    685.4068      5.5679    145.2552
   774.2500      0.0000    683.2869      5.6333    145.4758
   774.5000      0.0000    681.3165      5.7121    143.7764
   774.7500      0.0000    680.5709      5.7752    139.8625
   775.0000      0.0000    681.5779      5.8184    135.2008
   775.2500      0.0000    683.7449      5.8556    132.7952
   775.5000      0.0000    685.9240      5.9013    135.5282
   775.7500      0.0000    687.3943      5.9605    143.9118
   776.0000      0.0000    688.1576      6.0308    155.3976
   776.2500      0.0000    688.5464      6.1094    166.4180
   776.5000      0.0000    688.8237      6.1935    175.0278
   776.7500      0.0000    689.1003      6.2768    181.1575
   777.0000      0.0000    689.3997      6.3478    184.8067
   777.2500      0.0000    689.6499      6.3962    185.1042
   777.5000      0.0000    689.3630      6.4217    181.4840
   777.7500      0.0000    686.8547      6.4333    175.2200
   778.0000      0.0000    678.1391      6.4463    169.2549
   778.2500      0.0000    657.0372      6.4805    166.2437
   778.5000      0.0000    619.1137      6.5511    166.4312
   778.7500      0.0000    569.1619      6.6429    167.3911
   779.0000      0.0000    524.8104      6.6968    166.0830
   779.2500      0.0000    507.7908      6.6395    161.1884
   779.5000      0.0000    527.2078      6.4395    153.5700
   779.7500      0.0000    571.4689      6.1354    145.1012
   780.0000      0.0000    617.8737      5.8094    137.5370
   780.2500      0.0000    649.4069      5.5301    131.9608
   780.5000      0.0000    663.0359      5.3075    128.3165
   780.7500      0.0000    666.3924      5.0991    125.3990
   781.0000      0.0000    670.4185      4.8717    122.0866
   781.2500      0.0000    683.2076      4.6613    118.8208
   781.5000      0.0000    705.2927      4.5563    117.2444
   781.7500      0.0000    728.3979      4.6150    118.0378
   782.0000      0.0000    741.0652      4.8084    119.7819
   782.2500      0.0000    737.0033      5.0440    120.6394
   782.5000      0.0000    716.0276      5.2391    120.7908
   782.7500     -2.0000    677.9810      5.3687    122.5296
   783.0000      2.0000    621.7038      5.4604    127.8761
   783.2500      0.0000    551.9918      5.5725    136.3778
   783.5000      0.0000    482.2776      5.7749    145.1866
   783.7500      0.0000    426.5682      6.1038    151.0264
   784.0000      0.0000    390.4190      6.4930    152.1589
   784.2500      0.0000    370.6327      6.7760    149.0838
   784.5000      0.0000    360.7825      6.8160    144.1094
   784.7500      0.0000    355.4539      6.6350    140.2104
   785.0000      0.0000    351.6528      6.3771    139.4709
   785.2500      0.0000    348.7585      6.1606    142.0243
   785.5000      0.0000    347.9599      6.0036    146.2274
   785.7500      0.0000    351.6817      5.8695    149.6187
   786.0000      0.0000    363.6635      5.7321    150.0409
   786.2500      0.0000    388.4254      5.5891    146.6576
   786.5000      0.0000    428.5998      5.4469    140.3563
   786.7500      0.0000    481.6370      5.3187    133.1830
   787.0000      0.0000    539.6010      5.2278    127.2862
   787.2500      0.0000    592.1954      5.1968    123.9425
   787.5000      0.0000    628.9026      5.2261    122.8689
   787.7500      0.0000    639.9318      5.2909    122.4845
   788.0000      0.0000    619.9952      5.3599    121.4937
   788.2500      0.0000    574.3048      5.4123    120.2538
   788.5000      0.0000    519.8062      5.4393    119.9514
   788.7500      0.0000    477.6574      5.4394    120.4800
   789.0000      0.0000    461.1861      5.4158    119.9119
