~Version Information
VERS.                      2.0: CWLS Log ASCII Standard - VERSION 2.0
WRAP.                       NO: One line per depth step
~Well Information Block
STRT.FT                -7.0000: 
STOP.FT              2517.5000: 
STEP.FT                 0.2500: 
NULL.                -999.2500: 
COMP.          Pioneer Natural Resources: COMPANY
WELL.          Horsefeathers 24-34: WELL
FLD.           Purgatoire River: FIELD
LOC.           183' FSL & 1570' FWL: LOCATION
CNTY.               Las Animas: COUNTY
SRVC.                         : SERVICE COMPANY
DATE.          Fri Mar 17 10:06:37 2006: LOG DATE
UWI.           05 071 08675 00: UNIQUE WELL ID
STAT.                       CO: STATE
~Curve Information Block
DEPT.FT            0 000 00 00: Depth
GR.GAPI                       : Gamma Ray
CCL.                          : Casing Collar Locator
TT3.usec                      : CBL 3' Travel Time
AMP3.mV                       : CBL 3' Amplitude
~Parameter Information Block
~A  Depth        GR         CCL         TT3         AMP3    
# ...
   663.0000    147.0316      0.0000    264.6579     56.4265
   663.2500    144.8562      0.0000    268.0414     52.0044
   663.5000    143.8668      0.0000    274.3818     47.4422
   663.7500    144.1709      0.0000    285.5609     42.6251
   664.0000    145.0858      0.0000    305.2758     37.5072
   664.2500    145.3999      0.0000    339.9419     32.2305
   664.5000    143.8343      0.0000    395.8951     27.1066
   664.7500    139.9528      0.0000    472.0617     22.4972
   665.0000    134.5344      0.0000    555.3066     18.6842
   665.2500    128.9773      0.0000    626.6470     15.7714
   665.5000    124.6621      0.0000    673.8668     13.6608
   665.7500    122.6630      0.0000    697.2823     12.1425
   666.0000    123.1956      0.0000    704.6812     11.0356
   666.2500    125.0521      0.0000    703.7903     10.2471
   666.5000    126.2411      0.0000    699.3345      9.7270
   666.7500    125.7814      0.0000    693.7576      9.4120
   667.0000    124.5145      0.0000    688.3874      9.2252
   667.2500    123.7217      0.0000    684.3101      9.1045
   667.5000    123.3696      0.0000    683.2191      9.0185
   667.7500    122.3596      0.0000    687.2240      8.9663
   668.0000    120.1549      0.0000    697.2753      8.9649
   668.2500    117.4364      0.0000    711.9943      9.0270
   668.5000    115.2441      0.0000    728.3719      9.1422
   668.7500    113.8165      0.0000    743.2786      9.2807
   669.0000    112.1983      0.0000    754.0765      9.4143
   669.2500    109.1424      0.0000    759.2060      9.5311
   669.5000    104.6441      0.0000    760.0456      9.6295
   669.7500    100.4506      0.0000    762.2833      9.7063
   670.0000     98.9791      0.0000    772.6547      9.7589
   670.2500    101.7016      0.0000    791.6779      9.7949
   670.5000    107.9759      0.0000    810.7847      9.8277
   670.7500    114.9551      0.0000    819.1520      9.8531
   671.0000    119.4150      0.0000    813.2079      9.8359
   671.2500    120.6074      0.0000    798.5349      9.7388
   671.5000    120.9254      0.0000    783.7166      9.5686
   671.7500    123.1746      0.0000    773.8605      9.3813
   672.0000    127.7458      0.0000    769.2670      9.2354
   672.2500    132.9615      0.0000    767.9162      9.1486
   672.5000    137.3507      0.0000    767.8279      9.0971
   672.7500    140.5319      0.0000    767.6326      9.0422
   673.0000    142.3274      0.0000    765.9899      8.9567
   673.2500    142.3436      0.0000    761.2652      8.8378
   673.5000    140.5885      0.0000    752.3088      8.7047
   673.7500    137.6526      0.0000    740.3568      8.5844
   674.0000    134.0683      0.0000    730.2086      8.5005
   674.2500    130.0154      0.0000    728.2867      8.4716
   674.5000    125.7781      0.0000    738.0096      8.5106
   674.7500    122.1464      0.0000    756.5724      8.6111
   675.0000    120.2104      0.0000    776.6808      8.7362
   675.2500    120.7324      0.0000    791.7798      8.8350
   675.5000    123.5121      0.0000    799.7073      8.8721
   675.7500    127.3367      0.0000    801.7442      8.8411
   676.0000    130.8951      0.0000    799.1925      8.7543
   676.2500    133.8155      0.0000    791.7839      8.6260
   676.5000    136.5523      0.0000    779.3676      8.4681
   676.7500    139.3489      0.0000    764.0984      8.3019
   677.0000    141.5963      0.0000    750.0848      8.1632
   677.2500    142.2101      0.0000    740.9339      8.0776
   677.5000    140.5706      0.0000    737.7765      8.0256
   677.7500    137.3421      0.0000    739.0336      7.9437
   678.0000    134.5188      0.0000    741.8662      7.7663
   678.2500    134.3122      0.0000    744.7824      7.4773
   678.5000    137.4430      0.0000    749.1970      7.1338
   678.7500    142.4306      0.0000    757.6519      6.8366
   679.0000    146.6181      0.0000    770.9980      6.6549
   679.2500    147.6462      0.0000    788.8198      6.5829
   679.5000    144.1688      0.0000    812.2343      6.5804
   679.7500    136.3326      0.0000    843.2159      6.6315
   680.0000    126.3441      0.0000    879.0385      6.7324
   680.2500    118.0502      0.0000    908.9479      6.8505
   680.5000    114.8617     -2.0000    920.3419      6.9357
   680.7500    117.3772      0.0000    910.0129      6.9661
   681.0000    122.9858      0.0000    886.9566      6.9714
   681.2500    128.1798      0.0000    862.8179      7.0202
   681.5000    131.3885      0.0000    842.3297      7.1685
   681.7500    133.3583      0.0000    824.0021      7.3887
   682.0000    135.1192      0.0000    806.3602      7.5654
   682.2500    136.5512      0.0000    790.7349      7.6105
   682.5000    137.1459      0.0000    779.3048      7.5651
   682.7500    137.1177      0.0000    772.5980      7.5428
   683.0000    136.8838      0.0000    769.1956      7.6006
   683.2500    136.1309      0.0000    766.8261      7.7056
   683.5000    134.3776      0.0000    763.5108      7.7960
   683.7500    132.1927      0.0000    758.6208      7.8312
   684.0000    131.1427      0.0000    753.6261      7.7973
   684.2500    132.4759      0.0000    751.2804      7.7001
   684.5000    135.9351      0.0000    753.4127      7.5630
   684.7500    139.7809      0.0000    759.5953      7.4242
   685.0000    142.0298      0.0000    768.0976      7.3233
   685.2500    141.7945      0.0000    777.6236      7.2786
   685.5000    139.5461      0.0000    787.5800      7.2727
   685.7500    136.3813      0.0000    797.0373      7.2671
   686.0000    133.3411      0.0000    804.2978      7.2347
   686.2500    131.1987      0.0000    807.7783      7.1784
   686.5000    130.2447      0.0000    807.0977      7.1219
   686.7500    129.9923      0.0000    803.4052      7.0893
   687.0000    129.3868      0.0000    798.8176      7.0933
   687.2500    127.5812      0.0000    795.3041      7.1334
   687.5000    124.5355      0.0000    793.8561      7.2013
   687.7500    121.0035      0.0000    794.5741      7.2866
   688.0000    117.9776      0.0000    797.0013      7.3800
   688.2500    115.9437      0.0000    800.1010      7.4684
   688.5000    114.6542      0.0000    802.6069      7.5338
   688.7500    113.7892      0.0000    804.0455      7.5614
   689.0000    113.5994      0.0000    805.0647      7.5510
   689.2500    114.4882      0.0000    806.3301      7.5152
   689.5000    116.2321      0.0000    807.3368      7.4666
   689.7500    118.1837      0.0000    806.5739      7.4095
   690.0000    120.0801      0.0000    802.7852      7.3436
   690.2500    122.0877      0.0000    796.1168      7.2699
   690.5000    124.1487      0.0000    788.1955      7.1883
   690.7500    125.7843      0.0000    780.8311      7.0958
   691.0000    126.6033      0.0000    774.3526      6.9948
   691.2500    126.8091      0.0000    767.7177      6.9015
   691.5000    127.1869      0.0000    760.8984      6.8351
   691.7500    128.5823      0.0000    756.5956      6.8026
   692.0000    131.2890      0.0000    758.1256      6.8005
   692.2500    134.8724      0.0000    765.5073      6.8257
   692.5000    138.5274      0.0000    775.0345      6.8765
   692.7500    141.5113      0.0000    783.0346      6.9461
   693.0000    143.3220      0.0000    788.8828      7.0207
   693.2500    143.6667      0.0000    794.0337      7.0880
   693.5000    142.3769      0.0000    799.1936      7.1477
   693.7500    139.4517      0.0000    803.2912      7.2094
   694.0000    135.2676      0.0000    804.8598      7.2754
   694.2500    130.6126      0.0000    803.4705      7.3269
   694.5000    126.3129      0.0000    799.3241      7.3297
   694.7500    122.9189      0.0000    791.8857      7.2555
   695.0000    120.7607      0.0000    780.0242      7.1007
   695.2500    119.9116      0.0000    764.2829      6.8895
   695.5000    119.8249      0.0000    748.6191      6.6620
   695.7500    119.2480      0.0000    738.8045      6.4558
   696.0000    116.9107      0.0000    738.2798      6.2921
   696.2500    112.5079      0.0000    745.5131      6.1719
