~Version Information
VERS.                      2.0: CWLS Log ASCII Standard - VERSION 2.0
WRAP.                       NO: One line per depth step
~Well Information Block
STRT.FT               370.0000: 
STOP.FT              2832.5000: 
STEP.FT                 0.1000: 
NULL.                -999.2500: 
COMP.          Pioneer Natural Resources: COMPANY
WELL.          Black Cat 13-32: WELL
FLD.           Purgatoire River: FIELD
LOC.           1865' FSL & 1120' FWL--: LOCATION
PROV.                 Colorado: PROVINCE
CNTY.               Las Animas: COUNTRY
SRVC.                Patterson: SERVICE COMPANY
DATE.          Sun Jul 31 08:38:44 2005: LOG DATE
UWI.           05 071 08450 00: UNIQUE WELL ID
~Curve Information Block
DEPT.FT            0 000 00 00: Depth
DCAL.in                       : CDL Caliper
DPOR.pu                       : CDL Density Porosity
NPOR.pu                       : Neutron Porosity
RHOB.g/cc                     : CDL Bulk Density
RHOC.g/cc                     : CDL Density Correction
GR.GAPI                       : Gamma Ray
~Parameter Information Block
~A  Depth       DCAL        DPOR        NPOR        RHOB        RHOC         GR     
   370.0000      8.1854     12.8445     26.4636      2.4381     -0.1423    116.3461
   370.1000      8.1854     13.3431     27.1229      2.4298     -0.1628    118.7187
   370.2000      8.1854     13.5686     27.5892      2.4261     -0.1520    123.5489
   370.3000      8.1852     13.2553     27.3742      2.4313     -0.1908    131.1989
   370.4000      8.1852     13.3706     26.8845      2.4294     -0.1665    138.7428
   370.5000      8.1845     15.1470     26.9400      2.4001     -0.1685    143.6849
   370.6000      8.1845     17.7125     27.4609      2.3577     -0.2632    144.4794
   370.7000      8.1845     19.0288     27.8559      2.3360     -0.2142    139.9603
   370.8000      8.1844     18.8355     27.7837      2.3392     -0.2323    133.3890
   370.9000      8.1844     17.7751     27.1227      2.3567     -0.2311    126.4762
   371.0000      8.1853     16.1290     26.4074      2.3839     -0.2029    119.5534
   371.1000      8.1853     14.2157     26.3559      2.4154     -0.1726    117.2107
   371.2000      8.1853     12.6000     26.6775      2.4421     -0.1649    122.5787
   371.3000      8.1827     12.0455     26.8303      2.4512     -0.1188    129.9156
   371.4000      8.1827     12.6443     27.0158      2.4414     -0.1941    132.9565
   371.5000      8.1816     13.6084     27.1760      2.4255     -0.2020    133.7639
   371.6000      8.1816     14.1696     26.6958      2.4162     -0.1857    134.9545
   371.7000      8.1816     13.7336     25.9103      2.4234     -0.2283    137.2465
   371.8000      8.1835     12.4646     25.7930      2.4443     -0.1624    137.4985
   371.9000      8.1835     11.6377     26.2254      2.4580     -0.1729     88.1930
   372.0000      8.1848     11.9405     26.4623      2.4530     -0.1568     83.4714
   372.1000      8.1848     12.8457     26.4016      2.4380     -0.2079     81.1359
   372.2000      8.1848     13.6877     26.4792      2.4242     -0.1965     81.7043
   372.3000      8.1867     14.2012     26.8049      2.4157     -0.2194     84.7730
   372.4000      8.1867     14.2126     26.8011      2.4155     -0.2061     91.2436
   372.5000      8.1882     13.9766     26.3491      2.4194     -0.1829     98.4219
   372.6000      8.1882     14.0841     26.2413      2.4176     -0.1712     98.7465
   372.7000      8.1882     14.3983     26.6423      2.4124     -0.2191     90.5878
   372.8000      8.1891     14.1002     26.7830      2.4173     -0.1952     81.2998
   372.9000      8.1891     13.1452     26.4626      2.4331     -0.1819     77.5938
   373.0000      8.1905     12.2045     26.2535      2.4486     -0.1635     77.6041
   373.1000      8.1905     11.8164     26.1127      2.4550     -0.1238     77.0113
   373.2000      8.1905     12.3335     25.6407      2.4465     -0.1368     78.0843
   373.3000      8.1924     13.5845     25.1723      2.4259     -0.1925     80.6568
   373.4000      8.1924     14.7495     25.1850      2.4066     -0.2145     79.3288
   373.5000      8.1923     15.5164     25.6190      2.3940     -0.1971     74.5416
   373.6000      8.1923     16.1330     25.8109      2.3838     -0.2047     71.8617
   373.7000      8.1923     16.3880     25.4740      2.3796     -0.2182     73.3365
   373.8000      8.1907     16.4641     25.2531      2.3783     -0.1916     76.8506
   373.9000      8.1907     17.1506     25.3772      2.3670     -0.2061     79.2645
   374.0000      8.1921     18.2193     25.7149      2.3494     -0.2320     78.2257
   374.1000      8.1921     18.1008     26.1796      2.3513     -0.2351     75.2507
   374.2000      8.1921     16.0707     26.1863      2.3848     -0.1856     72.8242
   374.3000      8.1984     13.8268     25.6989      2.4219     -0.1363     72.7874
   374.4000      8.1984     13.1576     25.1106      2.4329     -0.1489     73.4384
   374.5000      8.2058     13.3086     24.5026      2.4304     -0.1481     71.6095
   374.6000      8.2058     12.9567     24.1723      2.4362     -0.1378     69.5556
   374.7000      8.2058     12.4836     24.1508      2.4440     -0.1527     71.1824
   374.8000      8.2105     12.9865     24.0153      2.4357     -0.1460     74.3141
   374.9000      8.2105     14.6078     23.7423      2.4090     -0.1947     76.1477
   375.0000      8.2108     16.1336     23.7330      2.3838     -0.2222     77.6299
   375.1000      8.2108     17.0466     24.1473      2.3687     -0.1824     78.0040
   375.2000      8.2108     17.9217     24.4963      2.3543     -0.1911     75.4479
   375.3000      8.2081     18.1631     24.4939      2.3503     -0.2393     71.4337
   375.4000      8.2081     17.2639     24.4339      2.3651     -0.1748     65.5257
   375.5000      8.2027     16.3649     24.5089      2.3800     -0.1862     57.8718
   375.6000      8.2027     15.9071     24.6811      2.3875     -0.1758     53.7752
   375.7000      8.2027     15.3902     24.4924      2.3961     -0.1647     56.5751
   375.8000      8.1963     15.1815     23.6017      2.3995     -0.1465     63.4112
   375.9000      8.1963     15.7934     22.7526      2.3894     -0.1878     70.0969
   376.0000      8.1931     16.4723     22.8954      2.3782     -0.2095     75.2054
   376.1000      8.1931     16.4335     23.6369      2.3788     -0.1808     80.0196
   376.2000      8.1931     16.2185     23.9774      2.3824     -0.1197     83.6003
   376.3000      8.1933     16.3113     23.9075      2.3809     -0.1848     83.3859
   376.4000      8.1933     16.2668     24.2565      2.3816     -0.2343     80.9570
   376.5000      8.1954     16.2694     25.3323      2.3816     -0.1600     76.6618
   376.6000      8.1954     17.0458     26.2441      2.3687     -0.2065     70.9607
   376.7000      8.1954     18.3796     26.2417      2.3467     -0.1901     66.4705
   376.8000      8.1986     19.1168     25.7098      2.3346     -0.2330     62.5478
   376.9000      8.1986     18.5420     25.3615      2.3441     -0.1995     60.4113
   377.0000      8.2037     17.4750     25.2841      2.3617     -0.1900     62.1420
   377.1000      8.2037     16.8728     25.4657      2.3716     -0.1923     65.2632
   377.2000      8.2037     16.3978     26.1646      2.3794     -0.1908     68.4099
   377.3000      8.2086     15.4871     26.8943      2.3945     -0.1906     71.9973
   377.4000      8.2086     14.5078     42.5478      2.4106     -0.1524     74.5754
   377.5000      8.2109     14.2985     42.1891      2.4141     -0.1491     76.1324
   377.6000      8.2109     14.5063     41.7637      2.4106     -0.1722     79.8269
   377.7000      8.2109     13.9419     41.7468      2.4200     -0.1780     86.8645
   377.8000      8.2122     12.8034     42.2109      2.4387     -0.1615     94.9731
   377.9000      8.2122     12.4453     42.6657      2.4447     -0.1132    100.5938
   378.0000      8.2135     13.5651     42.8007      2.4262     -0.1476    101.8989
   378.1000      8.2135     15.5778     42.6478      2.3930     -0.1813     99.6431
   378.2000      8.2135     17.1516     42.2252      2.3670     -0.2517     94.5225
   378.3000      8.2147     17.4737     41.5019      2.3617     -0.2441     89.8223
   378.4000      8.2147     17.6922     40.7105      2.3581     -0.1818     89.3479
   378.5000      8.2166     19.7097     40.0773      2.3248     -0.2127     92.3918
   378.6000      8.2166     23.4461     39.5899      2.2631     -0.2390     95.0035
   378.7000      8.2166     27.0011     39.1191      2.2045     -0.2754     94.1034
   378.8000      8.2175     28.6699     38.5118      2.1769     -0.3130     92.0833
   378.9000      8.2175     28.4691     37.7951      2.1803     -0.2372     90.9539
   379.0000      8.2148     27.4381     36.9896      2.1973     -0.2512     91.1277
   379.1000      8.2148     25.7461     35.9539      2.2252     -0.2433     97.3930
   379.2000      8.2148     23.5983     34.5803      2.2606     -0.1528    110.6554
   379.3000      8.2115     22.5267     32.8433      2.2783     -0.0559    122.5241
   379.4000      8.2115     23.4042     30.5474      2.2638     -0.0635    124.1514
   379.5000      8.2134     24.8464     27.6744      2.2400     -0.0525    116.8342
