~Version Information
 VERS.                                  2.0 : CWLS LAS VERSION
 WRAP.                                   NO : WRAPING MODE
 SWARE .                MController 2.5.0QA : SOFTWARE VERSION
~Well Information
 WELL.                        Fleming 11-02 : WELL
 COMP.    Pioneer Natural Resources USA Inc : COMPANY
 FLD.                      Purgatoire River : FIELD
 LOC.                 NW/NW Sec02 T33S R66W : LOCATION
 DATE.                          06/25-27/06 : DATE(S) LOGGED
 SRVC.       Blanco Geological Services LLC : SERVICE COMPANY
 STAT.                             Colorado : STATE
 CNTY.                           Las Animas : COUNTY
 CTRY.                                  USA : COUNTRY
 API.                       05-071-08491-00 : API NUMBER
 STRT.FT                             347.00 : START DEPTH
 STOP.FT                            2080.00 : STOP DEPTH
 STEP.FT                               1.00 : DEPTH INCREMENT
 NULL.                                -9999 : NULL VALUE
~Curve information
 DEPTH.FT                                   :
 ROP.MIN/FT                                 :
 GAS.UNITS                                  :
~ASCII Log data
# ...
       747.0         0.28          5.1 
       748.0         0.27          4.8 
       749.0         0.23          4.7 
       750.0         0.27          5.2 
       751.0         0.27          4.7 
       752.0         0.27          4.3 
       753.0         0.30          4.8 
       754.0         0.27          5.0 
       755.0         0.33          4.3 
       756.0         0.33          5.0 
       757.0         0.40          5.2 
       758.0         0.38          5.2 
       759.0         0.23          5.3 
       760.0         0.20          5.9 
       761.0         0.20          6.7 
       762.0         0.17          7.4 
       763.0         0.20          7.7 
       764.0         0.17          7.8 
       765.0         0.23          8.1 
       766.0         0.20          8.1 
       767.0         0.20          8.1 
       768.0         0.17          9.4 
       769.0         0.17          8.8 
       770.0         0.13          8.8 
       771.0         0.37          8.1 
       772.0         5.17         13.0 
       773.0         0.33          6.5 
       774.0         0.30          6.8 
       775.0         0.30          6.7 
       776.0         0.30          6.1 
       777.0         0.30          6.3 
       778.0         0.23          6.0 
       779.0         0.17          6.5 
       780.0         0.18          6.4 
       781.0         0.20          6.4 
       782.0         0.27          6.0 
       783.0         0.23          5.5 
       784.0         0.27          6.4 
       785.0         0.20          5.6 
       786.0         0.27          5.6 
       787.0         0.27          5.9 
       788.0         0.23          5.1 
       789.0         0.23          5.1 
       790.0         0.20          4.8 
       791.0         0.23          5.4 
       792.0         0.27          4.8 
       793.0         0.20          4.6 
       794.0         0.25          4.8 
       795.0         0.23          5.5 
       796.0         0.20          5.1 
       797.0         0.23          5.6 
       798.0         0.20          5.6 
       799.0         0.23          5.6 
       800.0         0.20          4.7 
       801.0         0.37          5.0 
       802.0         4.08         11.9 
       803.0         0.30          5.8 
       804.0         0.33          5.4 
       805.0         0.32          5.2 
       806.0         0.27          5.8 
       807.0         0.40          5.7 
       808.0         0.37          4.9 
       809.0         0.37          5.4 
       810.0         0.30          4.9 
       811.0         0.23          5.3 
       812.0         0.23          6.3 
       813.0         0.20          7.9 
       814.0         0.17          8.0 
       815.0         0.23          8.3 
       816.0         0.20          7.5 
       817.0         0.20          6.5 
       818.0         0.18          7.1 
       819.0         0.20          6.0 
       820.0         0.20          6.1 
       821.0         0.20          5.8 
       822.0         0.20          6.5 
       823.0         0.20          5.5 
       824.0         0.20          6.3 
       825.0         0.20          6.3 
       826.0         0.20          6.1 
       827.0         0.20          6.0 
       828.0         0.20          6.0 
       829.0         0.10          7.0 
       830.0         0.17          7.0 
       831.0         0.30          6.1 
       832.0         4.60         13.5 
       833.0         0.33          6.7 
       834.0         0.23          7.7 
       835.0         0.17          8.5 
       836.0         0.17          9.3 
       837.0         0.27          9.0 
       838.0         0.23          8.7 
       839.0         0.27          7.8 
       840.0         0.27          7.3 
       841.0         0.27          7.5 
       842.0         0.23          6.3 
       843.0         0.27          6.0 
       844.0         0.28          5.4 
       845.0         0.27          5.5 
       846.0         0.30          5.1 
       847.0         0.27          5.0 
       848.0         0.27          4.5 
       849.0         0.27          4.9 
       850.0         0.27          4.7 
       851.0         0.30          4.5 
       852.0         0.30          5.0 
       853.0         0.27          5.4 
       854.0         0.30          4.9 
       855.0         0.27          5.1 
       856.0         0.32          4.6 
       857.0         0.27          5.1 
       858.0         0.37          4.7 
       859.0         0.37          4.6 
       860.0         0.27          4.5 
       861.0         0.33          4.4 
       862.0         4.75         14.7 
       863.0         0.42          5.3 
       864.0         0.33          5.2 
       865.0         0.30          5.4 
       866.0         0.30          5.1 
       867.0         0.30          5.1 
       868.0         0.30          4.4 
       869.0         0.30          5.1 
       870.0         0.37          4.4 
       871.0         0.30          4.5 
       872.0         0.33          4.6 
       873.0         0.32          5.4 
       874.0         0.30          5.5 
       875.0         0.33          5.4 
       876.0         0.30          4.8 
       877.0         0.27          4.6 
       878.0         0.33          5.1 
       879.0         0.30          4.7 
       880.0         0.33          4.7 
       881.0         0.27          4.6 
       882.0         0.27          5.3 
       883.0         0.30          5.0 
       884.0         0.32          5.1 
       885.0         0.53          5.7 
       886.0         0.37          5.2 
       887.0         0.27          5.7 
       888.0         0.33          6.1 
       889.0         0.30          6.5 
       890.0         0.27          6.0 
       891.0         0.37          6.6 
       892.0         4.80         16.8 
       893.0         0.27          8.2 
       894.0         0.20          8.2 
       895.0         0.13          7.8 
       896.0         0.20          7.9 
       897.0         0.23          8.6 
       898.0         0.20          8.6 
       899.0         0.23          8.0 
       900.0         0.27          8.0 
       901.0         0.23          7.1 
       902.0         0.23          6.5 
       903.0         0.27          7.0 
       904.0         0.23          5.8 
       905.0         0.22          5.3 
       906.0         0.30          5.8 
       907.0         0.27          5.2 
       908.0         0.27          5.5 
       909.0         0.23          5.5 
       910.0         0.17          6.8 
       911.0         0.13          6.4 
       912.0         0.17          6.7 
       913.0         0.30          6.7 
       914.0         0.23          7.5 
       915.0         0.27          6.4 
       916.0         0.23          6.2 
       917.0         0.23          6.2 
       918.0         0.17          5.2 
       919.0         0.20          5.4 
       920.0         0.22          5.3 
       921.0         0.20          5.5 
       922.0         6.47         23.2 
       923.0         0.27          7.6 
       924.0         0.17          7.7 
       925.0         0.20          9.6 
       926.0         0.17         11.3 
       927.0         0.27         10.9 
       928.0         0.33         10.1 
       929.0         0.27          8.5 
       930.0         0.27          9.5 
       931.0         0.30          7.6 
       932.0         0.30          8.0 
       933.0         0.23          7.5 
       934.0         0.23          7.2 
       935.0         0.32          6.0 
       936.0         0.27          6.0 
       937.0         0.30          5.4 
       938.0         0.27          5.0 
       939.0         0.27          5.1 
       940.0         0.23          4.4 
       941.0         0.27          4.5 
       942.0         0.23          5.0 
       943.0         0.27          5.0 
       944.0         0.27          6.5 
       945.0         0.23          9.6 
       946.0         0.23         10.0 
