~Version Information
VERS.                      2.0: CWLS Log ASCII Standard - VERSION 2.0
WRAP.                       NO: One line per depth step
~Well Information Block
STRT.FT               294.3000: 
STOP.FT              1461.0000: 
STEP.FT                 0.1000: 
NULL.                -999.2500: 
COMP.          Pioneer Natural Resources: COMPANY
WELL.              Lucky 21-36: WELL
FLD.           Purgatoire River: FIELD
CDN. :
PROV. :
UWI. :
STAT. :
CNTY. :
CTRY. :
API. :
COMP. :
WELL. :
FLD. :
LOC. :
DATE. :
SRVC. :
LOC.           799' FNL & 1578' FWL--: LOCATION
CNTY.               Las Animas: COUNTY
SRVC.          Superior Well Services: SERVICE COMPANY
DATE.          Tue Jul 08 08-29-33 2008: LOG DATE
UWI.           05 071 08456 00: UNIQUE WELL ID
STAT.                 Colorado: STATE
~Curve Information Block
DEPT.FT            0 000 00 00: Depth
DCAL.in                       : CDL Caliper
RHOB.g/cc                     : CDL Bulk Density
RHOC.g/cc                     : CDL Density Correction
DPOR.pu                       : CDL Density Porosity
NPOR.pu                       : Neutron Porosity
GR.GAPI                       : Gamma Ray
~Parameter Information Block
~A  Depth       DCAL        RHOB        RHOC        DPOR        NPOR         GR     
# ...
   678.3000      7.9874      2.5126      0.0095      8.3299     24.5891    106.3127
   678.4000      7.9877      2.5129      0.0424      8.3106     24.5258    104.3512
   678.5000      7.9878      2.5175      0.0383      8.0291     24.5318    103.7697
   678.6000      7.9877      2.5115      0.0615      8.3934     24.5260    105.6620
   678.7000      7.9873      2.4943      0.0388      9.4334     24.3541    113.9264
   678.8000      7.9865      2.4913      0.0214      9.6191     24.1048    123.4604
   678.9000      7.9856      2.5150      0.0824      8.1845     23.9224    124.4981
   679.0000      7.9848      2.5414      0.0916      6.5830     23.6604    119.8099
   679.1000      7.9841      2.5465      0.0779      6.2736     23.1967    117.5266
   679.2000      7.9837      2.5360      0.0397      6.9088     22.4633    117.7139
   679.3000      7.9835      2.5240      0.0775      7.6362     21.5183    115.4166
   679.4000      7.9832      2.5158      0.0444      8.1357     20.7844    108.5723
   679.5000      7.9830      2.5201      0.0449      7.8750     20.4896    101.6904
   679.6000      7.9831      2.5395      0.1105      6.6989     20.3999     96.1960
   679.7000      7.9837      2.5626      0.1052      5.2999     20.3063     87.7657
   679.8000      7.9846      2.5815      0.0958      4.1525     20.3460     78.6567
   679.9000      7.9858      2.5977      0.0909      3.1689     20.5079     73.7928
   680.0000      7.9869      2.6090      0.0958      2.4819     20.5211     72.4575
   680.1000      7.9875      2.6073      0.0753      2.5907     20.6461     72.4227
   680.2000      7.9876      2.5922      0.0562      3.5036     21.1721     71.1597
   680.3000      7.9872      2.5723      0.0485      4.7093     21.6982     67.8115
   680.4000      7.9866      2.5563      0.0438      5.6770     21.7819     64.6668
   680.5000      7.9861      2.5481      0.0238      6.1750     21.3703     63.5787
   680.6000      7.9859      2.5425      0.0231      6.5134     20.7047     65.1903
   680.7000      7.9862      2.5375      0.0204      6.8177     20.1282     68.3860
   680.8000      7.9869      2.5413      0.0061      6.5893     19.8934     69.5695
   680.9000      7.9880      2.5546      0.0218      5.7847     19.9501     65.6152
   681.0000      7.9891      2.5659      0.0393      5.0943     19.8943     59.0989
   681.1000      7.9899      2.5700      0.0470      4.8510     19.5827     55.6577
   681.2000      7.9903      2.5797      0.0130      4.2626     19.6992     55.8778
   681.3000      7.9900      2.6002      0.0778      3.0193     20.6142     56.0929
   681.4000      7.9891      2.6096      0.0778      2.4456     21.6987     56.3754
   681.5000      7.9880      2.5975      0.0501      3.1825     22.4751     59.6186
   681.6000      7.9868      2.5814      0.0280      4.1606     22.8588     65.4427
   681.7000      7.9857      2.5828      0.0128      4.0731     22.9238     70.8653
   681.8000      7.9849      2.6069      0.0640      2.6146     23.2424     74.5807
   681.9000      7.9843      2.6380      0.0554      0.7245     24.1613     77.9094
   682.0000      7.9839      2.6496      0.1065      0.0220     25.1003     83.7199
   682.1000      7.9839      2.6308      0.0268      1.1639     25.5460     92.8378
   682.2000      7.9843      2.5956      0.0871      3.2957     25.9104    102.1431
   682.3000      7.9850      2.5606      0.0354      5.4202     26.5125    107.3465
   682.4000      7.9858      2.5482     -0.0076      6.1720     26.8967    109.0730
   682.5000      7.9865      2.5678      0.0632      4.9833     26.6943    110.7527
   682.6000      7.9870      2.5940      0.0955      3.3964     26.2363    114.7896
   682.7000      7.9872      2.6037      0.0675      2.8031     25.9215    121.6718
   682.8000      7.9870      2.5996      0.0697      3.0526     25.7076    125.6306
   682.9000      7.9866      2.5913      0.0659      3.5580     25.5623    121.8178
   683.0000      7.9859      2.5824      0.0738      4.0982     25.7056    115.6759
   683.1000      7.9851      2.5733      0.0453      4.6486     26.0820    115.6076
   683.2000      7.9843      2.5670      0.0469      5.0330     26.1813    122.8826
   683.3000      7.9836      2.5586      0.0934      5.5377     25.7898    132.6843
   683.4000      7.9832      2.5441      0.0410      6.4207     25.5994    138.5077
   683.5000      7.9833      2.5377      0.0513      6.8056     26.0473    137.4138
   683.6000      7.9839      2.5505      0.0180      6.0333     26.4453    132.4191
   683.7000      7.9848      2.5707      0.0469      4.8042     26.1568    126.3493
   683.8000      7.9858      2.5836      0.0464      4.0222     25.4554    121.9860
   683.9000      7.9865      2.5833      0.0690      4.0407     24.9018    122.3791
   684.0000      7.9868      2.5693      0.0322      4.8927     24.6194    125.5441
   684.1000      7.9867      2.5510      0.0227      6.0020     24.3500    125.8501
   684.2000      7.9865      2.5394      0.0283      6.7037     24.0612    121.5470
   684.3000      7.9863      2.5347      0.0601      6.9862     23.8855    119.2523
   684.4000      7.9865      2.5349      0.0392      6.9775     23.8019    122.4166
   684.5000      7.9870      2.5464      0.0468      6.2774     23.9663    123.9727
   684.6000      7.9880      2.5689      0.0964      4.9145     24.3306    120.2162
   684.7000      7.9891      2.5884      0.0926      3.7337     24.4164    115.4493
   684.8000      7.9903      2.6032      0.0695      2.8355     24.1268    113.0720
   684.9000      7.9912      2.6229      0.0641      1.6421     23.8361    112.6810
   685.0000      7.9916      2.6441      0.1109      0.3568     23.7271    113.9501
   685.1000      7.9912      2.6528      0.0581     -0.1719     23.6470    116.3268
   685.2000      7.9901      2.6431      0.0751      0.4169     23.6320    115.5045
   685.3000      7.9886      2.6229      0.0476      1.6432     23.8918    108.7990
   685.4000      7.9871      2.6076      0.0585      2.5700     24.3700    100.1872
   685.5000      7.9860      2.6017      0.0582      2.9245     24.6948     96.3326
   685.6000      7.9857      2.5967      0.0446      3.2308     24.5753     97.3544
   685.7000      7.9861      2.5891      0.0573      3.6889     24.1587     97.0963
   685.8000      7.9869      2.5821      0.0511      4.1160     23.8527     93.4401
   685.9000      7.9879      2.5771      0.0161      4.4178     23.9057     91.2928
   686.0000      7.9886      2.5754      0.0260      4.5242     24.2052     93.1109
   686.1000      7.9889      2.5777      0.0034      4.3845     24.4752     95.7510
   686.2000      7.9887      2.5869      0.0222      3.8271     24.6447     96.3344
   686.3000      7.9882      2.5983      0.0623      3.1335     24.7345     97.7499
   686.4000      7.9872      2.5980      0.0244      3.1513     24.5676    104.0099
   686.5000      7.9860      2.5827      0.0354      4.0765     24.2417    110.2762
   686.6000      7.9846      2.5719     -0.0362      4.7328     24.1580    108.0361
   686.7000      7.9831      2.5778      0.0579      4.3751     24.3591     99.3383
   686.8000      7.9818      2.5829      0.0338      4.0666     24.6442     93.7860
   686.9000      7.9808      2.5808      0.0167      4.1966     24.8500     96.3176
   687.0000      7.9805      2.5844      0.0114      3.9785     24.8363    103.6292
   687.1000      7.9807      2.5957      0.0046      3.2908     24.7887    107.1397
   687.2000      7.9810      2.6052      0.0495      2.7128     25.1051    101.3330
   687.3000      7.9813      2.6073      0.0660      2.5892     25.5164     91.9136
   687.4000      7.9811      2.6071      0.0462      2.6030     25.4605     89.4473
   687.5000      7.9804      2.6100      0.0793      2.4219     25.1815     92.7687
   687.6000      7.9794      2.6109      0.0396      2.3698     25.1453     93.0716
   687.7000      7.9782      2.6024      0.0521      2.8830     25.1490     90.8052
   687.8000      7.9771      2.5918     -0.0017      3.5246     25.0026     92.2526
