~Version Information
VERS.                      2.0: CWLS Log ASCII Standard - VERSION 2.0
WRAP.                       NO: One line per depth step
~Well Information Block
STRT.FT               538.0000: 
STOP.FT              1769.0000: 
STEP.FT                 0.1000: 
NULL.                -999.2500: 
COMP.          Pioneer Natural Resources: COMPANY
WELL.            Dude 43-34 Tr: WELL
FLD.           Purgatoire River: FIELD
LOC.           2083' FSL & 1042' FEL: LOCATION
PROV.                 Colorado: PROVINCE
CNTY.               Las Animas: COUNTRY
SRVC.                Patterson: SERVICE COMPANY
DATE.          Thu Jan 26 07:02:09 2006: LOG DATE
UWI.           05 071 08676 00: UNIQUE WELL ID
~Curve Information Block
DEPT.FT            0 000 00 00: Depth
DCAL.in                       : CDL Caliper
RHOB.g/cc                     : CDL Bulk Density
RHOC.g/cc                     : CDL Density Correction
DPOR.pu                       : CDL Density Porosity
GR.GAPI                       : Gamma Ray
~Parameter Information Block
~A  Depth       DCAL        RHOB        RHOC        DPOR         GR     
# ...
   795.6000      8.1957      2.3904      0.0879     15.7330    145.3268
   795.7000      8.1957      2.3639      0.0617     17.3385    141.0834
   795.8000      8.2070      2.3377      0.0108     18.9301    135.5793
   795.9000      8.2070      2.3176      0.0107     20.1474    127.3320
   796.0000      8.1757      2.3175     -0.0515     20.1530    122.1741
   796.1000      8.1757      2.3380      0.0319     18.9076    125.9157
   796.2000      8.1757      2.3643      0.0766     17.3176    135.6117
   796.3000      8.1761      2.3934      0.0712     15.5492    147.4119
   796.4000      8.1761      2.4294      0.1744     13.3674    155.7391
   796.5000      8.1318      2.4550      0.2749     11.8162    155.3814
   796.6000      8.1318      2.4553      0.2292     11.8027    150.9958
   796.7000      8.1318      2.4488      0.2069     12.1959    149.8813
   796.8000      8.1120      2.4488      0.2649     12.1914    151.9762
   796.9000      8.1120      2.4379      0.2309     12.8543    154.8144
   797.0000      8.1234      2.4131      0.1254     14.3582    154.6204
   797.1000      8.1234      2.3950      0.0874     15.4535    146.6188
   797.2000      8.1234      2.3899      0.1187     15.7656    132.4353
   797.3000      8.1829      2.3904      0.0890     15.7360    123.3090
   797.4000      8.1829      2.3903      0.1103     15.7396    126.2718
   797.5000      8.1828      2.3824      0.1061     16.2207    134.6997
   797.6000      8.1828      2.3651      0.0986     17.2658    142.6991
   797.7000      8.1828      2.3443      0.0776     18.5249    149.0017
   797.8000      8.1462      2.3283      0.0509     19.4990    150.7137
   797.9000      8.1462      2.3190      0.1004     20.0584    147.4159
   798.0000      8.1316      2.3136     -0.0013     20.3876    142.2046
   798.1000      8.1316      2.3118      0.0290     20.4962    140.2481
   798.2000      8.1316      2.3144      0.0674     20.3409    143.1023
   798.3000      8.1651      2.3303      0.0909     19.3766    145.9561
   798.4000      8.1651      2.3680      0.1501     17.0929    146.0625
   798.5000      8.1603      2.4153      0.2222     14.2241    148.9107
   798.6000      8.1603      2.4500      0.2198     12.1225    155.8121
   798.7000      8.1603      2.4615      0.1484     11.4249    157.5067
   798.8000      8.1737      2.4597      0.0791     11.5348    148.9762
   798.9000      8.1737      2.4718      0.0952     10.8019    137.8708
   799.0000      8.1767      2.5136      0.1311      8.2681    132.8212
   799.1000      8.1767      2.5620      0.1816      5.3322    132.8885
   799.2000      8.1767      2.5838      0.1326      4.0144    132.9377
   799.3000      8.2103      2.5779      0.0961      4.3707    130.8599
   799.4000      8.2103      2.5667      0.0043      5.0472    128.2193
   799.5000      8.2099      2.5596      0.0709      5.4813    129.4362
   799.6000      8.2099      2.5489      0.0306      6.1286    136.6563
   799.7000      8.2099      2.5350      0.0437      6.9725    145.1828
   799.8000      8.0957      2.5205     -0.0059      7.8501    149.4704
   799.9000      8.0957      2.5038     -0.0202      8.8604    148.3804
   800.0000      8.0773      2.4882     -0.0023      9.8069    142.2754
   800.1000      8.0773      2.4773      0.0360     10.4684    134.3589
   800.2000      8.0773      2.4737     -0.0042     10.6874    131.9279
   800.3000      8.1064      2.4769      0.0513     10.4919    139.3449
   800.4000      8.1064      2.4787      0.0316     10.3788    148.4345
   800.5000      8.1062      2.4782      0.0209     10.4135    148.6012
   800.6000      8.1062      2.4821      0.0475     10.1749    144.9384
   800.7000      8.1062      2.4939      0.0110      9.4617    147.1498
   800.8000      8.1382      2.5039      0.0687      8.8546    152.7580
   800.9000      8.1382      2.4986      0.0385      9.1770    156.1143
   801.0000      8.2320      2.4873      0.0563      9.8611    156.5619
   801.1000      8.2320      2.4889      0.0496      9.7611    153.2513
   801.2000      8.2320      2.5110      0.0160      8.4244    146.9037
   801.3000      8.2048      2.5465      0.0591      6.2732    139.0578
   801.4000      8.2048      2.5733      0.0759      4.6488    134.6365
   801.5000      8.2037      2.5718      0.0851      4.7369    137.2182
   801.6000      8.2037      2.5424      0.0344      6.5237    137.9121
   801.7000      8.2037      2.5073     -0.0189      8.6502    131.4336
   801.8000      8.2489      2.4963     -0.0637      9.3137    130.6443
   801.9000      8.2489      2.5104      0.0181      8.4607    139.6237
   802.0000      8.1808      2.5210     -0.0044      7.8186    142.7862
   802.1000      8.1808      2.5109      0.0114      8.4306    134.8456
   802.2000      8.1808      2.4920      0.0123      9.5733    124.8561
   802.3000      8.0974      2.4910      0.0254      9.6384    116.6032
   802.4000      8.0974      2.5149      0.0601      8.1882    110.4054
   802.5000      8.0891      2.5449      0.1496      6.3684    107.5063
   802.6000      8.0891      2.5598      0.1278      5.4658    104.9912
   802.7000      8.0891      2.5562      0.1821      5.6834    101.2681
   802.8000      7.9669      2.5416      0.2310      6.5694    101.6456
   802.9000      7.9669      2.5333      0.1661      7.0712    106.7075
   803.0000      7.8748      2.5600      0.1269      5.4527    109.5856
   803.1000      7.8748      2.6301      0.1827      1.2032    107.5271
   803.2000      7.8748      2.7187      0.2369     -4.1608    105.4403
   803.3000      7.8694      2.7892      0.2822     -8.4335    105.8805
   803.4000      7.8694      2.8136      0.3179     -9.9132    106.9081
   803.5000      7.8933      2.7927      0.2882     -8.6491    109.0315
   803.6000      7.8933      2.7495      0.2728     -6.0326    115.7924
   803.7000      7.8933      2.6995      0.1921     -2.9980    123.6135
   803.8000      7.9427      2.6479      0.1585      0.1261    125.6000
   803.9000      7.9427      2.5993      0.0357      3.0750    122.8768
   804.0000      7.9742      2.5580     -0.0019      5.5760    121.5371
   804.1000      7.9742      2.5232     -0.0235      7.6827    124.5320
   804.2000      7.9742      2.4986     -0.0033      9.1748    128.2662
   804.3000      7.9780      2.4922      0.0626      9.5659    130.8485
   804.4000      7.9780      2.4986      0.0579      9.1785    133.6460
   804.5000      8.0314      2.5172      0.0718      8.0485    135.7811
   804.6000      8.0314      2.5542      0.1340      5.8037    139.5928
   804.7000      8.0314      2.6011      0.1604      2.9640    145.9022
   804.8000      8.0392      2.6409      0.2441      0.5503    148.5735
   804.9000      8.0392      2.6562      0.2568     -0.3764    149.1420
   805.0000      7.9938      2.6390      0.2145      0.6680    152.5452
   805.1000      7.9938      2.5997      0.1660      3.0496    158.5302
   805.2000      7.9938      2.5550      0.1330      5.7568    166.8268
   805.3000      7.9517      2.5153      0.1121      8.1652    176.5530
   805.4000      7.9517      2.4870      0.1037      9.8765    186.8451
   805.5000      7.9667      2.4826      0.0658     10.1431    194.7890
   805.6000      7.9667      2.5047      0.1148      8.8038    194.8361
   805.7000      7.9667      2.5212      0.1363      7.8087    188.3803
   805.8000      8.0335      2.4997      0.1382      9.1108    182.0398
   805.9000      8.0335      2.4531      0.1137     11.9306    175.1721
   806.0000      8.0343      2.4137      0.1650     14.3207    164.3413
   806.1000      8.0343      2.4007      0.1151     15.1080    158.8300
   806.2000      8.0343      2.4268      0.1600     13.5291    164.8934
   806.3000      8.0613      2.5004      0.1581      9.0682    172.3527
   806.4000      8.0613      2.6211      0.2445      1.7509    173.2366
   806.5000      7.9558      2.7607      0.2886     -6.7108    171.0361
   806.6000      7.9558      2.8714      0.3719    -13.4207    168.5754
   806.7000      7.9558      2.9248      0.4176    -16.6531    163.9162
