~Version Information
VERS.                      2.0: CWLS Log ASCII Standard - VERSION 2.0
WRAP.                       NO: One line per depth step
~Well Information Block
STRT.FT               615.0000: 
STOP.FT              2815.0000: 
STEP.FT                 0.2500: 
NULL.                -999.2500: 
COMP.          Pioneer Natural Resources: COMPANY
WELL.              Loews 41-32: WELL
FLD.           Purgatoire River: FIELD
LOC.           751' FNL & 128' FEL: LOCATION
CNTY.               Las Animas: COUNTY
SRVC.                Patterson: SERVICE COMPANY
DATE.          Sun Feb 12 02:27:11 2006: LOG DATE
UWI.           05 071 08693 00: UNIQUE WELL ID
STAT.                 Colorado: STATE
~Curve Information Block
DEPT.FT            0 000 00 00: Depth
SN.Ohm-m                      : IEL Short Normal
SP.mV                         : IEL Spontaneous Potential
DIR.Ohm-m                     : IEL Induction Resistivity
GR.GAPI                       : Gamma Ray
~Parameter Information Block
~A  Depth        SN          SP         DIR          GR     
# ...
  1352.0000    130.0755    -21.2768     46.4636     43.0898
  1352.2500    129.4349    -21.5236     46.8935     41.9650
  1352.5000    124.6288    -22.0183     46.0139     43.2485
  1352.7500    115.5231    -22.7910     44.1172     46.0354
  1353.0000    102.5878    -23.8615     41.6613     53.3871
  1353.2500     87.1264    -25.2212     39.0937     60.7642
  1353.5000     71.3855    -26.8220     36.7456     75.7520
  1353.7500     57.5492    -28.5750     34.7985     87.6675
  1354.0000     46.5889    -30.3611     33.2990    105.7845
  1354.2500     38.4093    -32.0541     32.1942    116.3941
  1354.5000     32.6135    -33.5457     31.3731    128.6165
  1354.7500     28.7745    -34.7660     30.7031    134.2336
  1355.0000     26.3793    -35.6926     30.0684    139.1622
  1355.2500     24.9561    -36.3464     29.4066    140.1956
  1355.5000     24.1767    -36.7756     28.7213    138.4572
  1355.7500     23.7560    -37.0389     28.0497    135.3286
  1356.0000     23.5050    -37.1947     27.4052    128.5598
  1356.2500     23.4366    -37.2925     26.7504    123.3916
  1356.5000     23.5727    -37.3667     26.0311    115.9397
  1356.7500     23.7751    -37.4313     25.2394    111.8282
  1357.0000     23.8541    -37.4828     24.4281    107.8931
  1357.2500     23.6837    -37.5101     23.6611    107.1097
  1357.5000     23.2678    -37.5053     22.9613    108.6967
  1357.7500     22.7414    -37.4661     22.3132    111.3904
  1358.0000     22.1774    -37.3911     21.7084    117.5890
  1358.2500     21.5212    -37.2776     21.1784    122.8992
  1358.5000     20.7931    -37.1261     20.7807    131.4830
  1358.7500     20.1568    -36.9491     20.5548    136.6890
  1359.0000     19.7635    -36.7761     20.4881    142.5127
  1359.2500     19.6037    -36.6459     20.5156    144.7374
  1359.5000     19.5092    -36.5876     20.5523    145.3423
  1359.7500     19.3284    -36.6047     20.5386    143.9262
  1360.0000     19.0773    -36.6728     20.4683    139.4807
  1360.2500     18.8877    -36.7545     20.3789    135.5337
  1360.5000     18.8308    -36.8171     20.3219    129.7540
  1360.7500     18.7738    -36.8434     20.3380    127.1629
  1361.0000     18.5294    -36.8321     20.4475    126.4502
  1361.2500     18.2535    -36.7946     20.6509    127.6555
  1361.5000     18.4116    -36.7524     20.9322    129.1309
  1361.7500     19.2254    -36.7298     21.2653    128.0657
  1362.0000     20.4029    -36.7410     21.6212    122.5006
  1362.2500     21.4468    -36.7831     21.9737    117.2052
  1362.5000     22.0869    -36.8411     22.2993    109.5827
  1362.7500     22.4100    -36.9027     22.5767    105.8200
  1363.0000     22.6146    -36.9662     22.7924    103.1326
  1363.2500     22.7711    -37.0372     22.9487    103.5926
  1363.5000     22.8770    -37.1154     23.0618    107.3020
  1363.7500     22.9533    -37.1882     23.1468    110.8682
  1364.0000     22.9689    -37.2360     23.1983    115.8361
  1364.2500     22.8443    -37.2444     23.1850    118.2559
  1364.5000     22.5978    -37.2119     23.0671    121.0960
  1364.7500     22.2539    -37.1511     22.8228    123.3479
  1365.0000     21.7000    -37.0838     22.4647    128.3426
  1365.2500     20.9165    -37.0355     22.0323    132.7219
  1365.5000     20.1517    -37.0275     21.5692    139.9931
  1365.7500     19.6565    -37.0692     21.1077    144.6673
  1366.0000     19.3938    -37.1525     20.6663    150.4958
  1366.2500     19.1164    -37.2561     20.2549    153.3120
  1366.5000     18.6382    -37.3568     19.8793    155.8823
  1366.7500     17.9827    -37.4431     19.5461    156.4587
  1367.0000     17.3124    -37.5212     19.2699    155.2259
  1367.2500     16.7585    -37.6129     19.0752    152.8387
  1367.5000     16.3930    -37.7481     18.9878    147.3836
  1367.7500     16.3024    -37.9542     19.0169    143.1261
  1368.0000     16.5847    -38.2427     19.1444    136.5043
  1368.2500     17.2573    -38.6027     19.3301    131.7941
  1368.5000     18.1723    -39.0026     19.5352    123.7265
  1368.7500     19.1216    -39.4011     19.7462    117.7784
  1369.0000     20.0177    -39.7546     19.9778    109.2089
  1369.2500     20.8144    -40.0187     20.2501    104.6075
  1369.5000     21.3383    -40.1517     20.5554    100.0694
  1369.7500     21.4090    -40.1278     20.8467     98.4304
  1370.0000     21.0466    -39.9495     21.0619     97.6959
  1370.2500     20.4532    -39.6516     21.1622     98.6833
  1370.5000     19.9281    -39.2960     21.1474    103.4046
  1370.7500     19.8323    -38.9585     21.0332    108.7896
  1371.0000     20.3274    -38.7064     20.8232    118.9038
  1371.2500     21.0443    -38.5769     20.5087    125.8539
  1371.5000     21.3698    -38.5722     20.0897    134.9578
  1371.7500     21.0642    -38.6705     19.5842    139.5438
  1372.0000     20.3140    -38.8406     19.0137    143.8010
  1372.2500     19.3656    -39.0472     18.3871    145.1407
  1372.5000     18.3587    -39.2537     17.7058    146.2002
  1372.7500     17.3860    -39.4268     16.9862    147.3018
  1373.0000     16.5121    -39.5436     16.2698    150.9110
  1373.2500     15.7419    -39.5951     15.6067    154.6136
  1373.5000     15.0370    -39.5841     15.0296    160.3567
  1373.7500     14.3677    -39.5214     14.5424    162.9065
  1374.0000     13.7540    -39.4223     14.1281    163.7699
  1374.2500     13.2534    -39.3059     13.7669    163.0013
  1374.5000     12.8981    -39.1908     13.4486    161.5947
  1374.7500     12.6434    -39.0855     13.1714    160.7847
  1375.0000     12.4252    -38.9849     12.9319    158.8692
  1375.2500     12.2478    -38.8771     12.7172    156.8395
  1375.5000     12.1831    -38.7511     12.5087    153.9473
  1375.7500     12.2486    -38.5983     12.2931    153.2202
  1376.0000     12.2963    -38.4127     12.0715    153.9876
  1376.2500     12.1956    -38.1947     11.8591    154.5456
  1376.5000     12.0543    -37.9547     11.6766    153.8583
  1376.7500     12.0245    -37.7129     11.5420    152.9589
  1377.0000     12.0886    -37.4934     11.4656    153.4595
  1377.2500     12.1708    -37.3148     11.4500    155.6839
  1377.5000     12.2262    -37.1822     11.4918    160.2804
  1377.7500     12.2367    -37.0855     11.5838    162.6157
  1378.0000     12.2373    -37.0067     11.7164    163.3902
  1378.2500     12.2675    -36.9303     11.8778    161.9127
  1378.5000     12.3350    -36.8481     12.0539    156.8424
  1378.7500     12.4874    -36.7588     12.2326    151.7132
  1379.0000     12.7808    -36.6656     12.4097    142.2677
  1379.2500     13.1336    -36.5771     12.5941    135.7965
  1379.5000     13.3823    -36.5062     12.8055    127.8381
  1379.7500     13.5133    -36.4653     13.0655    124.6733
  1380.0000     13.6855    -36.4597     13.3861    124.1912
  1380.2500     13.9994    -36.4868     13.7632    126.8410
  1380.5000     14.3356    -36.5403     14.1786    134.2072
  1380.7500     14.4921    -36.6153     14.6080    139.9194
  1381.0000     14.4189    -36.7066     15.0314    146.5256
  1381.2500     14.1913    -36.8047     15.4406    148.2092
  1381.5000     13.8676    -36.8938     15.8405    146.2534
  1381.7500     13.5762    -36.9547     16.2455    142.9655
  1382.0000     13.6616    -36.9701     16.6751    137.7814
  1382.2500     14.4785    -36.9323     17.1514    135.5885
  1382.5000     15.9993    -36.8486     17.6983    135.5927
  1382.7500     17.7615    -36.7372     18.3375    137.7745
  1383.0000     19.2200    -36.6122     19.0825    142.5567
  1383.2500     20.1131    -36.4705     19.9326    144.9098
  1383.5000     20.6059    -36.2905     20.8706    144.1382
  1383.7500     21.1872    -36.0427     21.8695    139.9627
  1384.0000     22.3053    -35.7030     22.9045    129.0224
  1384.2500     24.0946    -35.2635     23.9634    119.8885
  1384.5000     26.4537    -34.7383     25.0440    105.8200
  1384.7500     29.1699    -34.1630     26.1392     97.3089
  1385.0000     32.0011    -33.5902     27.2284     86.9884
  1385.2500     34.7775    -33.0770     28.2813     82.0101
