~Version Information
VERS.                      2.0: CWLS Log ASCII Standard - VERSION 2.0
WRAP.                       NO: One line per depth step
~Well Information Block
STRT.FT                -3.2500: 
STOP.FT               989.2500: 
STEP.FT                 0.2500: 
NULL.                -999.2500: 
COMP.          Pioneer Natural Resources: COMPANY
WELL.                Doc 34-30: WELL
FLD.           Purgatoire River: FIELD
LOC.           454' FSL & 1386' FEL: LOCATION
CNTY.               Las Animas: COUNTY
SRVC.                         : SERVICE COMPANY
DATE.          Wed Mar 08 14:28:55 2006: LOG DATE
UWI.           05 071 08694 00: UNIQUE WELL ID
STAT.                       CO: STATE
~Curve Information Block
DEPT.FT            0 000 00 00: Depth
GR.GAPI                       : Gamma Ray
CCL.                          : Casing Collar Locator
TT3.usec                      : CBL 3' Travel Time
AMP3.mV                       : CBL 3' Amplitude
~Parameter Information Block
~A  Depth        GR         CCL         TT3         AMP3    
# ...
   700.2500    105.7826      0.0000    605.0238      6.0744
   700.5000    107.8102      0.0000    630.6124      6.1526
   700.7500    107.9884      0.0000    646.6085      6.1912
   701.0000    105.6311      0.0000    656.8021      6.1868
   701.2500    102.1369      0.0000    664.9642      6.1521
   701.5000     99.6305      0.0000    672.5952      6.0975
   701.7500     98.9377      0.0000    677.9249      6.0288
   702.0000     98.9835      0.0000    675.8376      5.9585
   702.2500     97.8142      0.0000    659.9917      5.9086
   702.5000     94.0697      0.0000    627.4952      5.8968
   702.7500     87.9950      0.0000    582.7383      5.9225
   703.0000     81.4358      0.0000    536.0090      5.9676
   703.2500     76.5710      0.0000    497.5374      6.0104
   703.5000     74.3496      0.0000    472.8980      6.0399
   703.7500     74.1545      0.0000    462.9082      6.0574
   704.0000     74.7551      0.0000    465.0317      6.0660
   704.2500     75.2994      0.0000    473.9236      6.0638
   704.5000     75.6425      0.0000    483.5945      6.0470
   704.7500     76.1936      0.0000    491.9658      6.0171
   705.0000     77.5585      0.0000    502.4661      5.9816
   705.2500     80.0874      0.0000    519.2529      5.9508
   705.5000     83.4351      0.0000    541.5771      5.9379
   705.7500     86.4078      0.0000    564.2927      5.9555
   706.0000     87.5423      0.0000    582.9418      6.0063
   706.2500     86.1714      0.0000    596.6068      6.0739
   706.5000     82.8951      0.0000    606.5223      6.1258
   706.7500     79.0164      0.0000    614.2224      6.1273
   707.0000     75.7647      0.0000    621.4608      6.0547
   707.2500     73.9614      0.0000    629.8216      5.9040
   707.5000     73.8892      0.0000    639.0267      5.6910
   707.7500     75.2206      0.0000    646.6988      5.4394
   708.0000     77.3209      0.0000    650.7642      5.1634
   708.2500     79.8169      0.0000    651.2278      4.8674
   708.5000     82.7213      0.0000    648.7536      4.5753
   708.7500     85.8958      0.0000    642.6603      4.3579
   709.0000     88.5279      0.0000    632.2800      4.3020
   709.2500     89.3228      0.0000    620.1150      4.4318
   709.5000     87.4455      0.0000    611.4234      4.6673
   709.7500     83.5221      1.4719    610.0509      4.8721
   710.0000     79.5686      0.0000    616.5338      4.9418
   710.2500     77.5762      0.0000    629.8134      4.8608
   710.5000     78.0896      0.0000    647.6487      4.7106
   710.7500     80.0387      0.0000    665.4855      4.6310
   711.0000     81.6470      0.0000    677.9386      4.7307
   711.2500     81.5252      0.0000    681.7756      5.0062
   711.5000     79.3193      0.0000    676.6176      5.3545
   711.7500     75.6561      0.0000    663.8801      5.6718
   712.0000     71.6027      0.0000    645.9342      5.9203
   712.2500     68.0753      0.0000    625.4626      6.1032
   712.5000     65.3563      0.0000    604.6002      6.2212
   712.7500     62.9576      0.0000    584.1353      6.2756
   713.0000     60.1538      0.0000    563.3570      6.2855
   713.2500     56.7512      0.0000    541.4178      6.2793
   713.5000     53.2661      0.0000    519.9244      6.2754
   713.7500     50.4771      0.0000    504.1118      6.2783
   714.0000     48.8612      0.0000    500.4482      6.2907
   714.2500     48.2199      0.0000    512.1959      6.3201
   714.5000     47.8006      0.0000    536.7922      6.3725
   714.7500     47.0371      0.0000    567.4321      6.4410
   715.0000     46.2861      0.0000    597.3369      6.5065
   715.2500     46.6755      0.0000    622.4636      6.5499
   715.5000     49.1139      0.0000    641.0303      6.5613
   715.7500     53.3906      0.0000    652.3549      6.5390
   716.0000     58.1430      0.0000    656.5341      6.4861
   716.2500     61.6117      0.0000    654.1199      6.4091
   716.5000     62.5665      0.0000    645.8943      6.3178
   716.7500     60.8617      0.0000    633.6180      6.2229
   717.0000     57.3912      0.0000    620.7758      6.1327
   717.2500     53.5192      0.0000    611.2234      6.0544
   717.5000     50.3383      0.0000    606.3349      5.9952
   717.7500     48.1947      0.0000    603.8476      5.9593
   718.0000     46.7606      0.0000    599.8101      5.9431
   718.2500     45.5674      0.0000    591.2615      5.9362
   718.5000     44.4994      0.0000    576.9957      5.9284
   718.7500     43.7833      0.0000    557.5983      5.9166
   719.0000     43.6918      0.0000    536.9410      5.9042
   719.2500     44.4136      0.0000    522.8773      5.8959
   719.5000     46.0986      0.0000    523.0060      5.8936
   719.7500     48.8082      0.0000    537.8288      5.8994
   720.0000     52.2575      0.0000    558.5638      5.9175
   720.2500     55.5672      0.0000    571.7645      5.9509
   720.5000     57.5748      0.0000    566.4691      5.9963
   720.7500     57.7257      0.0000    540.1779      6.0487
   721.0000     56.6568      0.0000    500.8747      6.1067
   721.2500     55.7835      0.0000    462.1754      6.1675
   721.5000     56.2080      0.0000    434.3739      6.2178
   721.7500     57.8795      0.0000    419.7335      6.2371
   722.0000     59.8222      0.0000    415.5234      6.2078
   722.2500     61.3300      0.0000    420.0579      6.1175
   722.5000     62.7976      0.0000    435.6925      5.9589
   722.7500     65.0921      0.0000    466.4725      5.7472
   723.0000     68.3220      0.0000    512.0247      5.5396
   723.2500     71.5943      0.0000    563.1068      5.4036
   723.5000     73.8400      0.0000    604.0416      5.3431
   723.7500     74.6057      0.0000    620.7014      5.2917
   724.0000     74.2113      0.0000    607.4971      5.2107
   724.2500     73.3694      0.0000    569.4514      5.1552
   724.5000     72.6331      0.0000    519.6227      5.2017
   724.7500     72.0916      0.0000    473.1996      5.3440
   725.0000     71.5512     -1.0678    441.2782      5.4954
   725.2500     70.9336      0.0000    428.8695      5.5719
   725.5000     70.4577      0.0000    437.2640      5.5615
   725.7500     70.4807      0.0000    465.2324      5.5336
   726.0000     71.2178      0.0000    506.2250      5.5789
   726.2500     72.6865      0.0000    547.2127      5.7105
   726.5000     74.8821      0.0000    574.9068      5.8385
   726.7500     77.7389      0.0000    584.3433      5.8794
   727.0000     80.8144      0.0000    579.4017      5.8731
   727.2500     83.3337      0.0000    565.3367      5.9448
   727.5000     84.8546      0.0000    544.1617      6.1624
   727.7500     85.7354      0.0000    517.5861      6.4672
   728.0000     86.7107      0.0000    490.2321      6.7378
   728.2500     88.1017      0.0000    467.5953      6.8916
   728.5000     89.5592      0.0000    452.4219      6.9259
   728.7500     90.5145      0.0000    443.9223      6.8925
   729.0000     90.7220      0.0000    439.3732      6.8539
   729.2500     90.2877      0.0000    436.0933      6.8519
   729.5000     89.4745      0.0000    432.6070      6.8963
   729.7500     88.8194      0.0000    428.7758      6.9742
   730.0000     89.0857      0.0000    425.4922      7.0671
   730.2500     90.5041      0.0000    424.2737      7.1602
   730.5000     92.2858      0.0000    426.2481      7.2407
   730.7500     93.4221      0.0000    430.9122      7.2957
   731.0000     93.6430      0.0000    436.1230      7.3172
   731.2500     93.0846      0.0000    439.4109      7.3102
   731.5000     91.5676      0.0000    439.1179      7.2929
   731.7500     89.0294      0.0000    434.6820      7.2879
   732.0000     86.3943      0.0000    426.7127      7.3081
   732.2500     85.1709      0.0000    417.0001      7.3502
   732.5000     85.9641      0.0000    407.8808      7.3995
   732.7500     87.8052      0.0000    401.1903      7.4408
   733.0000     89.2290      0.0000    397.7968      7.4631
   733.2500     89.6916      0.0000    397.7729      7.4573
   733.5000     89.5945      0.0000    400.3628      7.4174
