~Version Information
VERS.                      2.0: CWLS Log ASCII Standard - VERSION 2.0
WRAP.                       NO: One line per depth step
~Well Information Block
STRT.FT               340.0000: 
STOP.FT              2342.7000: 
STEP.FT                 0.1000: 
NULL.                -999.2500: 
COMP.          Pioneer Natural Resources: COMPANY
WELL.          Pinkerton 41-12: WELL
FLD.           Purgatoire River: FIELD
LOC.           1222' FNL & 670' FEL--: LOCATION
CNTY.               Las Animas: COUNTY
SRVC.                Patterson: SERVICE COMPANY
DATE.          Thu Mar 16 06:39:17 2006: LOG DATE
UWI.           05 071 08500 00: UNIQUE WELL ID
STAT.                 Colorado: STATE
~Curve Information Block
DEPT.FT            0 000 00 00: Depth
DCAL.in                       : CDL Caliper
RHOB.g/cc                     : CDL Bulk Density
RHOC.g/cc                     : CDL Density Correction
DPOR.pu                       : CDL Density Porosity
NPOR.pu                       : Neutron Porosity
GR.GAPI                       : Gamma Ray
~Parameter Information Block
~A  Depth       DCAL        RHOB        RHOC        DPOR        NPOR         GR     
# ...
  1655.2000      7.9174      2.5101     -0.0066      8.4796     26.6790    128.8800
  1655.3000      7.9042      2.5011     -0.0100      9.0217     27.2422    127.4294
  1655.4000      7.9042      2.5149     -0.0041      8.1871     27.9943    126.8380
  1655.5000      7.9047      2.5356      0.0699      6.9357     27.8752    131.0839
  1655.6000      7.9047      2.5457      0.0263      6.3191     26.9221    137.8807
  1655.7000      7.9047      2.5500      0.0544      6.0602     26.4093    140.7489
  1655.8000      7.9121      2.5428      0.0906      6.4949     26.8418    139.0757
  1655.9000      7.9121      2.5165      0.0750      8.0893     27.6589    138.6600
  1656.0000      7.9204      2.4876      0.0480      9.8426     28.2894    138.7044
  1656.1000      7.9204      2.4681      0.0635     11.0243     28.4063    139.3743
  1656.2000      7.9204      2.4466      0.0669     12.3273     28.0114    142.5142
  1656.3000      7.9264      2.4121      0.0536     14.4202     27.6141    145.4989
  1656.4000      7.9264      2.3746     -0.0071     16.6920     27.8055    146.2936
  1656.5000      7.9280      2.3559     -0.0220     17.8224     28.5413    144.5236
  1656.6000      7.9280      2.3612      0.0284     17.5059     29.1694    138.4336
  1656.7000      7.9280      2.3796      0.0033     16.3906     29.3687    130.0235
  1656.8000      7.9290      2.4040      0.0560     14.9063     29.3752    127.1480
  1656.9000      7.9290      2.4336      0.0504     13.1152     29.2769    133.2522
  1657.0000      7.9329      2.4642      0.1384     11.2616     29.0011    142.7358
  1657.1000      7.9329      2.4785      0.1703     10.3949     28.6111    147.5751
  1657.2000      7.9329      2.4670      0.1650     11.0915     28.3282    144.5035
  1657.3000      7.9378      2.4501      0.0780     12.1139     28.3521    137.3088
  1657.4000      7.9378      2.4565      0.1019     11.7256     28.5829    130.7034
  1657.5000      7.9422      2.4875      0.1138      9.8507     28.7532    125.7567
  1657.6000      7.9422      2.5183      0.1392      7.9809     28.8747    122.5396
  1657.7000      7.9422      2.5194      0.1458      7.9154     29.1439    119.3858
  1657.8000      7.9459      2.4804      0.0962     10.2790     29.6002    116.1902
  1657.9000      7.9459      2.4185      0.0468     14.0284     30.0139    117.1093
  1658.0000      7.9484      2.3550      0.0284     17.8797     30.0311    122.1875
  1658.1000      7.9484      2.3132     -0.0005     20.4110     29.8081    126.0539
  1658.2000      7.9484      2.3122      0.0132     20.4703     29.8343    130.2672
  1658.3000      7.9484      2.3342      0.0882     19.1386     30.1742    139.8480
  1658.4000      7.9484      2.3437      0.0709     18.5637     30.4876    145.7631
  1658.5000      7.9410      2.3341      0.0188     19.1452     30.5396    139.7295
  1658.6000      7.9410      2.3232      0.0569     19.8033     30.2615    131.6332
  1658.7000      7.9410      2.3215      0.0985     19.9107     29.8224    129.5211
  1658.8000      7.9264      2.3332      0.1111     19.1979     29.6344    129.6800
  1658.9000      7.9264      2.3635      0.1115     17.3614     29.9101    129.9200
  1659.0000      7.9121      2.4060      0.1201     14.7852     30.2489    135.1581
  1659.1000      7.9121      2.4433      0.1554     12.5283     30.2762    141.7303
  1659.2000      7.9121      2.4668      0.1093     11.1021     30.0244    139.4720
  1659.3000      7.9018      2.4901      0.1092      9.6889     29.5910    133.1824
  1659.4000      7.9018      2.5204      0.1287      7.8525     29.1634    132.7189
  1659.5000      7.8941      2.5456      0.1058      6.3291     28.9558    140.6730
  1659.6000      7.8941      2.5583      0.0955      5.5595     29.0287    150.5106
  1659.7000      7.8941      2.5601      0.1026      5.4456     29.2555    149.6349
  1659.8000      7.8994      2.5454      0.1106      6.3384     29.4315    140.2163
  1659.9000      7.8994      2.5106      0.0787      8.4479     29.5878    137.6864
  1660.0000      7.9180      2.4705      0.0248     10.8799     29.9261    142.4301
  1660.1000      7.9180      2.4424      0.0235     12.5845     30.1346    143.9072
  1660.2000      7.9180      2.4185      0.0450     14.0303     30.1814    141.6152
  1660.3000      7.9363      2.3720      0.0439     16.8455     30.8833    140.1928
  1660.4000      7.9363      2.2939      0.0015     21.5792     32.1758    142.3889
  1660.5000      7.9588      2.1945      0.0003     27.6035     32.9854    147.2162
  1660.6000      7.9588      2.0758     -0.0550     34.7970     32.9748    148.5268
  1660.7000      7.9588      1.9405     -0.1072     43.0016     32.9436    146.0441
  1660.8000      7.9967      1.8139     -0.1628     50.6755     33.2890    144.5513
  1660.9000      7.9967      1.7317     -0.1278     55.6543     33.4528    141.8064
  1661.0000      8.0184      1.7046     -0.0460     57.2947     33.1937    134.8244
  1661.1000      8.0184      1.7149     -0.0171     56.6756     32.7488    128.4032
  1661.2000      8.0184      1.7503     -0.0035     54.5277     32.2887    125.3807
  1661.3000      8.0159      1.8121      0.0551     50.7798     31.9395    121.4018
  1661.4000      8.0159      1.8952      0.1685     45.7433     31.7594    113.6441
  1661.5000      8.0279      1.9901      0.1934     39.9954     31.6425    105.1355
  1661.6000      8.0279      2.0900      0.2314     33.9399     31.3696    103.5094
  1661.7000      8.0279      2.1838      0.2587     28.2526     30.9995    110.9351
  1661.8000      8.0180      2.2671      0.2057     23.2031     30.7603    121.9450
  1661.9000      8.0180      2.3469      0.1696     18.3716     30.6387    132.3186
  1662.0000      7.9594      2.4160      0.1520     14.1832     30.5009    139.2398
  1662.1000      7.9594      2.4526      0.1599     11.9615     30.2981    142.0590
  1662.2000      7.9594      2.4533      0.1353     11.9188     30.0225    144.0217
  1662.3000      7.9215      2.4507      0.0923     12.0794     29.4964    148.2266
  1662.4000      7.9215      2.4783      0.1227     10.4063     28.5872    151.0466
  1662.5000      7.9296      2.5267      0.2088      7.4733     27.6006    148.0728
  1662.6000      7.9296      2.5671      0.2058      5.0264     26.8844    142.7800
  1662.7000      7.9296      2.5938      0.1642      3.4073     26.2449    139.1110
  1662.8000      7.9434      2.6079      0.1861      2.5528     25.3976    134.2155
  1662.9000      7.9434      2.6069      0.1180      2.6136     24.4453    127.4897
  1663.0000      7.9190      2.6013      0.1016      2.9540     23.9242    122.8495
  1663.1000      7.9190      2.6015      0.1116      2.9421     24.3655    121.2278
  1663.2000      7.9190      2.6074      0.0567      2.5821     25.3611    121.7943
  1663.3000      7.8711      2.6062      0.0949      2.6545     26.0412    119.8044
  1663.4000      7.8711      2.5787      0.1081      4.3223     26.2782    111.0282
  1663.5000      7.8369      2.5369     -0.0294      6.8531     26.3037    105.5302
  1663.6000      7.8369      2.5132     -0.0058      8.2932     26.2591    114.5824
  1663.7000      7.8369      2.5087      0.0034      8.5660     26.2021    130.3195
  1663.8000      7.8233      2.5068      0.0267      8.6783     26.1969    139.6283
  1663.9000      7.8233      2.5087     -0.0179      8.5638     26.2651    140.9339
  1664.0000      7.8220      2.5209      0.0496      7.8255     26.4407    136.8945
  1664.1000      7.8220      2.5392      0.0195      6.7125     26.7784    130.2868
  1664.2000      7.8220      2.5614      0.0824      5.3677     27.0713    127.2669
  1664.3000      7.8201      2.5841      0.0904      3.9959     26.9370    130.5643
  1664.4000      7.8201      2.5999      0.0878      3.0391     26.2417    134.0649
  1664.5000      7.8116      2.6027      0.0895      2.8686     25.4610    131.1723
  1664.6000      7.8116      2.5863      0.0892      3.8636     25.1142    121.0047
  1664.7000      7.8116      2.5546      0.0459      5.7794     25.1718    112.0625
