~Version Information
VERS.                      2.0: CWLS Log ASCII Standard - VERSION 2.0
WRAP.                       NO: One line per depth step
~Well Information Block
STRT.FT                -6.0000: 
STOP.FT              1295.2500: 
STEP.FT                 0.2500: 
NULL.                -999.2500: 
COMP.          Pioneer Natural Resources: COMPANY
WELL.            Erin 21-15 Tr: WELL
FLD.           Purgatoire River: FIELD
LOC.           1217' FNL & 2284' FWL--: LOCATION
CNTY.               Las Animas: COUNTY
SRVC.                         : SERVICE COMPANY
DATE.          Fri Mar 10 09:14:17 2006: LOG DATE
UWI.           05 071 08712 00: UNIQUE WELL ID
STAT.                       CO: STATE
~Curve Information Block
DEPT.FT            0 000 00 00: Depth
GR.GAPI                       : Gamma Ray
CCL.                          : Casing Collar Locator
TT3.usec                      : CBL 3' Travel Time
AMP3.mV                       : CBL 3' Amplitude
~Parameter Information Block
~A  Depth        GR         CCL         TT3         AMP3    
# ...
   932.0000    102.4689      0.0000    810.9357      7.1460
   932.2500    108.5421      0.0000    808.9734      7.4101
   932.5000    111.9437      0.0000    804.7761      7.8165
   932.7500    112.5852      0.0000    798.9789      8.2361
   933.0000    111.2083      0.0000    792.7256      8.5515
   933.2500    109.2809      0.0000    787.0664      8.7816
   933.5000    108.8722      0.0000    782.4780      9.0230
   933.7500    111.3830      0.0000    778.9014      9.2964
   934.0000    116.0706      0.0000    775.6223      9.5056
   934.2500    120.6189      0.0000    771.4149      9.5398
   934.5000    123.4811      0.0000    765.5716      9.3757
   934.7500    125.1211      0.0000    758.7507      9.0806
   935.0000    126.8751      0.0000    752.4698      8.7495
   935.2500    129.3165      0.0000    747.8388      8.4520
   935.5000    132.0330      0.0000    744.9387      8.2158
   935.7500    134.2852      0.0000    743.2065      8.0370
   936.0000    135.3375      0.0000    742.0795      7.8967
   936.2500    134.5570      0.0000    741.2880      7.7745
   936.5000    131.6685      0.0000    740.8438      7.6521
   936.7500    127.0066      0.0000    741.0132      7.5126
   937.0000    121.5887      0.0000    742.2121      7.3467
   937.2500    116.8601      0.0000    744.6224      7.1626
   937.5000    114.0162      0.0000    747.6929      6.9854
   937.7500    113.2970      0.0000    750.0955      6.8408
   938.0000    113.7903      0.0000    750.4256      6.7418
   938.2500    113.8829      0.0000    748.1427      6.6877
   938.5000    112.2101      0.0000    743.9320      6.6656
   938.7500    108.6556      0.0000    739.1225      6.6547
   939.0000    104.5926      0.0000    734.5977      6.6390
   939.2500    102.0481      0.0000    730.2364      6.6201
   939.5000    102.4986      0.0000    725.4412      6.6115
   939.7500    106.0487      0.0000    720.0836      6.6174
   940.0000    111.1584      0.0000    714.8671      6.6278
   940.2500    115.2344      0.0000    711.0000      6.6315
   940.5000    116.2299      0.0000    709.6511      6.6254
   940.7500    113.8871      0.0000    711.3257      6.6096
   941.0000    109.1764      0.0000    715.3199      6.5883
   941.2500    102.9177      0.0000    719.9980      6.5734
   941.5000     95.5305      0.0000    724.0006      6.5798
   941.7500     87.8552      0.0000    727.2304      6.6105
   942.0000     81.3833      0.0000    730.6382      6.6514
   942.2500     77.2800      0.0000    735.0396      6.6809
   942.5000     75.4541      0.0000    739.9321      6.6864
   942.7500     74.9249      0.0000    743.5789      6.6707
   943.0000     75.0026      0.0000    744.9036      6.6403
   943.2500     75.8339      0.0000    745.6259      6.5919
   943.5000     77.6944      0.0000    749.8470      6.5177
   943.7500     79.9758      0.0000    760.5626      6.4216
   944.0000     81.3667      0.0000    776.1860      6.3197
   944.2500     81.1965      0.0000    790.6267      6.2229
   944.5000     80.2107      0.0000    797.1360      6.1260
   944.7500     79.8255      0.0000    792.5995      6.0163
   945.0000     81.0625      0.0000    779.1680      5.8850
   945.2500     84.3940      0.0000    762.5392      5.7302
   945.5000     89.8647      0.0000    747.9666      5.5553
   945.7500     96.8089      0.0000    736.7602      5.3684
   946.0000    103.8091      0.0000    726.8296      5.1810
   946.2500    109.3694      0.0000    716.8947      5.0066
   946.5000    112.6356      0.0000    708.9674      4.8583
   946.7500    113.5335      0.0000    705.9266      4.7460
   947.0000    112.5607      0.0000    707.8616      4.6719
   947.2500    110.6398      0.0000    711.7957      4.6279
   947.5000    108.8205      0.0000    714.2036      4.6021
   947.7500    107.4243      0.0000    713.1271      4.5872
   948.0000    105.2661      0.0000    708.7709      4.5789
   948.2500    100.2751      0.0000    703.2287      4.5674
   948.5000     91.4065      0.0000    699.7934      4.5380
   948.7500     79.7760      0.0000    701.9586      4.4812
   949.0000     67.7682      0.0000    712.2052      4.3990
   949.2500     57.3833      0.0000    730.4297      4.3077
   949.5000     49.4551      0.0000    752.7998      4.2366
   949.7500     43.8909      0.0000    772.8309      4.2255
   950.0000     40.2331      0.0000    784.9916      4.3133
   950.2500     38.0775      0.0000    787.9862      4.5225
   950.5000     37.1726      0.0000    784.8586      4.8450
   950.7500     37.3180      0.0000    780.4517      5.2439
   951.0000     38.3843      0.0000    778.9197      5.6719
   951.2500     40.5264      0.0000    782.3677      6.0931
   951.5000     44.3384      0.0000    789.9954      6.4912
   951.7500     50.5901      0.0000    798.1907      6.8683
   952.0000     59.4696      0.0000    802.6476      7.2427
   952.2500     69.8089      0.0000    801.2604      7.6423
   952.5000     79.1016      0.0000    795.1644      8.0879
   952.7500     84.6570      0.0000    787.1818      8.5799
   953.0000     85.1979      0.0000    779.5527      9.0995
   953.2500     81.7703      0.0000    773.2117      9.6129
   953.5000     77.2951      0.0000    768.4070     10.0708
   953.7500     74.9528      0.0000    764.8467     10.4146
   954.0000     76.3576      0.0000    761.6210     10.6032
   954.2500     80.8103      0.0000    758.2972     10.6432
   954.5000     86.1831      0.0000    756.0830     10.5906
   954.7500     90.6776      0.0000    756.8161     10.5171
   955.0000     94.0349      0.0000    760.7344     10.4647
   955.2500     97.4038      0.0000    765.9908     10.4243
   955.5000    102.2095      0.0000    770.3835     10.3564
   955.7500    108.8505      0.0000    772.9614     10.2319
   956.0000    116.0582      0.0000    774.0363     10.0556
   956.2500    121.6102      0.0000    774.3112      9.8584
   956.5000    124.0513      0.0000    774.2769      9.6704
   956.7500    123.8084      0.0000    774.1465      9.5006
   957.0000    122.5724      0.0000    773.9938      9.3347
   957.2500    121.8755      0.0000    773.8469      9.1512
   957.5000    122.4654      0.0000    773.7108      8.9402
   957.7500    124.5980      0.0000    773.5780      8.7125
   958.0000    128.2114      0.0000    773.4446      8.4956
   958.2500    132.8488      0.0000    773.3118      8.3194
   958.5000    137.9354      0.0000    773.1761      8.2051
   958.7500    143.1388      0.0000    773.0071      8.1685
   959.0000    148.1349      0.0000    772.7009      8.2226
   959.2500    152.2873      0.0000    771.9847      8.3664
   959.5000    154.9039      0.0000    770.4037      8.5724
   959.7500    155.6079      0.0000    767.5506      8.7976
   960.0000    154.4035      0.0000    763.3885      9.0102
   960.2500    151.7138      0.0000    758.2213      9.2038
   960.5000    148.2678      0.0000    752.2967      9.3905
   960.7500    144.5060      0.0000    745.6078      9.5865
   961.0000    140.1916      0.0000    738.1388      9.7942
   961.2500    135.0958      0.0000    730.2603      9.9852
   961.5000    129.9483      0.0000    723.0439     10.0965
   961.7500    126.1173      0.0000    718.1100     10.0590
   962.0000    124.2657      0.0000    716.5598      9.8440
   962.2500    123.7716      0.0000    717.7294      9.4852
   962.5000    123.5539      0.0000    719.4289      9.0554
   962.7500    123.0916      0.0000    719.7925      8.6209
   963.0000    122.4962      0.0000    718.8008      8.2143
   963.2500    121.9494      0.0000    717.8690      7.8407
   963.5000    121.3668      0.0000    718.1475      7.5017
   963.7500    120.4063      0.0000    719.4753      7.2055
   964.0000    118.5806      0.0000    720.9005      6.9573
   964.2500    115.6350      0.0000    721.7618      6.7495
   964.5000    112.2282      0.0000    722.0898      6.5687
   964.7500    109.9846      0.0000    722.3297      6.4095
   965.0000    110.3657      0.0000    723.0818      6.2777
   965.2500    113.5954      0.0000    724.9852      6.1816
