~Version Information
VERS.                      2.0: CWLS Log ASCII Standard - VERSION 2.0
WRAP.                       NO: One line per depth step
~Well Information Block
STRT.FT               795.0000: 
STOP.FT              2279.7500: 
STEP.FT                 0.2500: 
NULL.                -999.2500: 
COMP.          Pioneer Natural Resources: COMPANY
WELL.            Wildcard 31-5: WELL
FLD.           Purgatoire River: FIELD
LOC.           624' FNL & 1852' FEL--: LOCATION
CNTY.               Las Animas: COUNTY
SRVC.                Patterson: SERVICE COMPANY
DATE.          Tue Mar 07 07:02:36 2006: LOG DATE
UWI.           05 071 08707 00: UNIQUE WELL ID
STAT.                 Colorado: STATE
~Curve Information Block
DEPT.FT            0 000 00 00: Depth
DIR.Ohm-m                     : IEL Induction Resistivity
SN.Ohm-m                      : IEL Short Normal
SP.mV                         : IEL Spontaneous Potential
GR.GAPI                       : Gamma Ray
~Parameter Information Block
~A  Depth       DIR          SN          SP          GR     
# ...
  2235.5000     22.8785     25.8169     55.8033    115.9029
  2235.7500     22.4567     25.5044     55.9292    115.7956
  2236.0000     21.9490     25.0166     56.0451    116.8617
  2236.2500     21.3872     24.3615     56.1321    118.1221
  2236.5000     20.8159     23.5880     56.1731    119.9328
  2236.7500     20.2920     22.7908     56.1565    120.8582
  2237.0000     19.8720     22.0803     56.0794    121.9736
  2237.2500     19.5942     21.5334     55.9514    122.5754
  2237.5000     19.4656     21.1624     55.7952    123.2434
  2237.7500     19.4583     20.9196     55.6459    123.8630
  2238.0000     19.5175     20.7299     55.5467    126.3414
  2238.2500     19.5768     20.5288     55.5439    129.4841
  2238.5000     19.5726     20.2875     55.6805    135.3073
  2238.7500     19.4571     20.0142     55.9896    138.3875
  2239.0000     19.2075     19.7338     56.4909    139.5996
  2239.2500     18.8306     19.4607     57.1888    137.8047
  2239.5000     18.3606     19.1895     58.0737    132.1363
  2239.7500     17.8487     18.9066     59.1250    127.4787
  2240.0000     17.3484     18.6066     60.3146    121.3055
  2240.2500     16.9002     18.2888     61.6097    118.6273
  2240.5000     16.5193     17.9429     62.9741    117.5925
  2240.7500     16.1910     17.5464     64.3694    119.1367
  2241.0000     15.8797     17.0822     65.7562    124.1941
  2241.2500     15.5484     16.5609     67.0959    127.9669
  2241.5000     15.1816     16.0326     68.3549    130.9748
  2241.7500     14.7964     15.5770     69.5068    130.3291
  2242.0000     14.4344     15.2753     70.5349    127.0007
  2242.2500     14.1412     15.1670     71.4324    125.1192
  2242.5000     13.9462     15.2214     72.2000    124.8059
  2242.7500     13.8520     15.3503     72.8434    126.1134
  2243.0000     13.8360     15.4578     73.3703    129.1679
  2243.2500     13.8614     15.4864     73.7893    131.4669
  2243.5000     13.8910     15.4282     74.1095    134.9223
  2243.7500     13.8994     15.3080     74.3414    136.9954
  2244.0000     13.8795     15.1647     74.4974    139.2224
  2244.2500     13.8412     15.0358     74.5924    139.8077
  2244.5000     13.8044     14.9452     74.6425    139.1779
  2244.7500     13.7871     14.8984     74.6634    138.2094
  2245.0000     13.7973     14.8904     74.6686    137.6227
  2245.2500     13.8317     14.9194     74.6673    138.6868
  2245.5000     13.8817     14.9922     74.6640    142.2647
  2245.7500     13.9427     15.1179     74.6582    144.6859
  2246.0000     14.0177     15.2994     74.6451    145.7725
  2246.2500     14.1161     15.5319     74.6170    144.2383
  2246.5000     14.2481     15.8021     74.5649    139.8449
  2246.7500     14.4191     16.0871     74.4802    136.6803
  2247.0000     14.6278     16.3563     74.3563    132.3284
  2247.2500     14.8680     16.5816     74.1902    129.2809
  2247.5000     15.1317     16.7532     73.9836    123.7433
  2247.7500     15.4126     16.8871     73.7432    119.7777
  2248.0000     15.7074     17.0192     73.4811    115.3730
  2248.2500     16.0131     17.1892     73.2135    114.2972
  2248.5000     16.3236     17.4232     72.9595    114.4866
  2248.7500     16.6275     17.7203     72.7385    114.1437
  2249.0000     16.9080     18.0492     72.5676    111.0363
  2249.2500     17.1444     18.3580     72.4591    107.7317
  2249.5000     17.3135     18.5903     72.4180    103.4166
  2249.7500     17.3923     18.6983     72.4409    102.0618
  2250.0000     17.3642     18.6502     72.5166    102.7700
  2250.2500     17.2248     18.4419     72.6277    104.8734
  2250.5000     16.9857     18.1060     72.7535    109.6824
  2250.7500     16.6736     17.7064     72.8736    113.2802
  2251.0000     16.3261     17.3129     72.9714    118.3184
  2251.2500     15.9838     16.9734     73.0364    121.4968
  2251.5000     15.6806     16.7000     73.0658    126.8069
  2251.7500     15.4359     16.4761     73.0641    130.9433
  2252.0000     15.2528     16.2785     73.0420    137.3167
  2252.2500     15.1227     16.0987     73.0141    140.8380
  2252.5000     15.0325     15.9467     72.9952    143.6954
  2252.7500     14.9732     15.8390     72.9974    143.5075
  2253.0000     14.9437     15.7865     73.0272    140.0859
  2253.2500     14.9492     15.7906     73.0838    136.3344
  2253.5000     14.9931     15.8423     73.1587    130.3214
  2253.7500     15.0713     15.9222     73.2380    127.1223
  2254.0000     15.1722     16.0076     73.3051    124.7251
  2254.2500     15.2827     16.0872     73.3457    124.8168
  2254.5000     15.3964     16.1714     73.3513    126.2304
  2254.7500     15.5184     16.2878     73.3229    126.6084
  2255.0000     15.6632     16.4652     73.2721    124.1213
  2255.2500     15.8452     16.7140     73.2198    120.0946
  2255.5000     16.0658     17.0107     73.1932    111.9755
  2255.7500     16.3074     17.2987     73.2215    106.7554
  2256.0000     16.5376     17.5148     73.3301    101.7984
  2256.2500     16.7230     17.6233     73.5375    101.1455
  2256.5000     16.8433     17.6310     73.8515    103.3023
  2256.7500     16.8951     17.5717     74.2691    105.4027
  2257.0000     16.8864     17.4806     74.7772    107.3458
  2257.2500     16.8274     17.3763     75.3553    107.5775
  2257.5000     16.7230     17.2548     75.9773    107.6996
  2257.7500     16.5708     17.0920     76.6151    108.9061
  2258.0000     16.3625     16.8553     77.2398    114.1668
  2258.2500     16.0875     16.5227     77.8238    120.1749
  2258.5000     15.7399     16.0992     78.3422    131.5098
  2258.7500     15.3261     15.6224     78.7732    139.0569
  2259.0000     14.8700     15.1534     79.0996    147.3390
  2259.2500     14.4099     14.7578     79.3088    149.4020
  2259.5000     13.9883     14.4813     79.3941    146.2959
  2259.7500     13.6412     14.3333     79.3544    140.1830
  2260.0000     13.3899     14.2862     79.1950    124.7361
  2260.2500     13.2400     14.2914     78.9273    109.6955
  2260.5000     13.1829     14.3035     78.5684     80.5357
  2260.7500     13.2007     14.2968     78.1403     59.1257
  2261.0000     13.2717     14.2677     77.6677     30.6613
  2261.2500     13.3736     14.2257     77.1761     17.0946
  2261.5000     13.4855     14.1843     76.6889      5.5860
  2261.7500     13.5908     14.1581     76.2250      2.2333
  2262.0000     13.6806     14.1603     75.7972      0.4300
  2262.2500     13.7568     14.1990     75.4114      0.1181
  2262.5000     13.8271     14.2730     75.0677      0.0109
  2262.7500     13.8966     14.3729     74.7618      0.0000
  2263.0000     13.9603     14.4890     74.4881   -999.2500
  2263.2500     14.0051     14.6175     74.2413   -999.2500
  2263.5000     14.0183     14.7546     74.0190   -999.2500
  2263.7500     13.9948     14.8840     73.8221   -999.2500
  2264.0000     13.9380     14.9733     73.6545   -999.2500
  2264.2500     13.8544     14.9868     73.5215   -999.2500
  2264.5000     13.7473     14.9061     73.4277   -999.2500
  2264.7500     13.6151     14.7396     73.3744   -999.2500
  2265.0000     13.4567     14.5185     73.3579   -999.2500
  2265.2500     13.2768     14.2832     73.3682   -999.2500
  2265.5000     13.0870     14.0719     73.3887   -999.2500
  2265.7500     12.9009     13.9127     73.3974   -999.2500
  2266.0000     12.7290     13.8189     73.3692   -999.2500
  2266.2500     12.5786     13.7859     73.2786   -999.2500
  2266.5000     12.4565     13.7949     73.1027   -999.2500
  2266.7500     12.4244     13.8210     72.8241   -999.2500
  2267.0000     12.3864     13.8415     72.4328   -999.2500
  2267.2500     12.4041     13.8428     71.9275   -999.2500
  2267.5000     12.4810     13.8237     71.3158   -999.2500
  2267.7500     12.6157     13.7958     70.6141   -999.2500
  2268.0000     12.8034     13.7787     69.8466   -999.2500
  2268.2500     13.0400     13.7936     69.0444   -999.2500
  2268.5000     13.3256     13.8590     68.2431   -999.2500
  2268.7500     13.6703     13.9883     67.4806   -999.2500
