~Version Information
 VERS.                                  2.0 : CWLS LAS VERSION
 WRAP.                                   NO : WRAPING MODE
 SWARE .                 MController 2.5.0J : SOFTWARE VERSION
~Well Information
 WELL.                    Buena Vista 31-03 : WELL
 COMP.    Pioneer Natural Resources USA Inc : COMPANY
 FLD.                      Purgatoire River : FIELD
 LOC.                  NWNE Sec03 T35S R65W : LOCATION
 DATE.                             01/24/06 : DATE(S) LOGGED
 SRVC.       Blanco Geological Services LLC : SERVICE COMPANY
 STAT.                             Colorado : STATE
 CNTY.                           Las Animas : COUNTY
 CTRY.                                  USA : COUNTRY
 API.                          05-071-08663 : API NUMBER
 STRT.FT                             175.00 : START DEPTH
 STOP.FT                            1165.00 : STOP DEPTH
 STEP.FT                               1.00 : DEPTH INCREMENT
 NULL.                                -9999 : NULL VALUE
~Curve information
 DEPTH.FT                                   :
 ROP.MIN/FT                                 :
 GAS.UNITS                                  :
~ASCII Log data
       175.0     -9999.00          1.5 
       176.0         0.37          1.8 
       177.0         0.17          1.4 
       178.0         0.17          1.5 
       179.0         0.17          1.5 
       180.0         0.13          1.3 
       181.0         0.13          1.3 
       182.0         0.17          1.4 
       183.0         0.13          1.6 
       184.0         0.10          1.4 
       185.0         0.10          2.0 
       186.0         0.10          1.4 
       187.0         0.07          1.2 
       188.0         0.10          1.4 
       189.0         0.10          1.2 
       190.0         0.10          1.8 
       191.0         0.08          1.2 
       192.0         0.10          1.2 
       193.0         0.10          1.2 
       194.0         0.10          1.3 
       195.0         0.10          1.3 
       196.0         0.10          1.3 
       197.0         0.07          1.6 
       198.0         0.10          1.6 
       199.0         0.10          1.6 
       200.0         0.10          1.4 
       201.0         0.10          1.1 
       202.0         0.10          1.1 
       203.0         0.10          0.7 
       204.0         0.10          0.7 
       205.0         0.20          0.6 
       206.0         2.18          1.8 
       207.0         0.07          1.7 
       208.0         0.10          1.4 
       209.0         0.07          1.4 
       210.0         0.10          1.2 
       211.0         0.10          1.9 
       212.0         0.10          1.3 
       213.0         0.10          1.5 
       214.0         0.07          1.5 
       215.0         0.10          1.7 
       216.0         0.10          1.5 
       217.0         0.07          1.5 
       218.0         0.10          1.6 
       219.0         0.10          1.8 
       220.0         0.10          1.9 
       221.0         0.07          1.7 
       222.0         0.10          1.7 
       223.0         0.10          1.7 
       224.0         0.10          1.7 
       225.0         0.10          1.7 
       226.0         0.10          1.3 
       227.0         0.07          1.3 
       228.0         0.10          1.3 
       229.0         0.10          1.2 
       230.0         0.10          1.2 
       231.0         0.10          1.2 
       232.0         0.10          1.3 
       233.0         0.10          1.3 
       234.0         0.10          1.3 
       235.0         0.10          1.0 
       236.0         2.82          1.5 
       237.0         0.07          0.9 
       238.0         0.10          1.5 
       239.0         0.13          1.3 
       240.0         0.10          1.4 
       241.0         0.10          1.3 
       242.0         0.10          1.1 
       243.0         0.10          1.4 
       244.0         0.07          1.0 
       245.0         0.12          1.1 
       246.0         0.10          1.4 
       247.0         0.10          1.8 
       248.0         0.07          1.1 
       249.0         0.10          1.9 
       250.0         0.10          1.2 
       251.0         0.10          1.2 
       252.0         0.07          1.4 
       253.0         0.10          1.4 
       254.0         0.07          1.4 
       255.0         0.10          1.2 
       256.0         0.07          1.2 
       257.0         0.10          1.0 
       258.0         0.07          0.8 
       259.0         0.10          1.0 
       260.0         0.10          1.0 
       261.0         0.10          1.0 
       262.0         0.07          1.3 
       263.0         0.10          0.4 
       264.0         0.07          0.4 
       265.0         0.10          0.4 
       266.0         2.55          1.4 
       267.0         0.13          0.9 
       268.0         0.13          0.9 
       269.0         0.13          0.9 
       270.0         0.17          0.8 
       271.0         0.13          1.3 
       272.0         0.17          1.3 
       273.0         0.13          1.3 
       274.0         0.17          1.3 
       275.0         0.17          1.3 
       276.0         0.13          0.8 
       277.0         0.17          0.8 
       278.0         0.27          1.1 
       279.0         0.27          1.4 
       280.0         0.25          0.8 
       281.0         0.27          1.2 
       282.0         0.30          0.9 
       283.0         0.23          1.0 
       284.0         0.23          0.8 
       285.0         0.23          0.8 
       286.0         0.27          0.6 
       287.0         0.23          0.7 
       288.0         0.27          1.3 
       289.0         0.20          1.9 
       290.0         0.20          2.7 
       291.0         0.20          2.7 
       292.0         0.17          3.2 
       293.0         0.17          1.8 
       294.0         0.23          1.0 
       295.0         0.22          0.4 
       296.0         2.13         10.4 
       297.0         0.13          4.5 
       298.0         0.13          3.8 
       299.0         0.23          3.0 
       300.0         0.20          2.6 
       301.0         0.17          2.3 
       302.0         0.22          2.3 
       303.0         0.20          2.6 
       304.0         0.17          2.6 
       305.0         0.23          2.8 
       306.0         0.17          2.5 
       307.0         0.20          2.5 
       308.0         0.20          2.7 
       309.0         0.23          2.4 
       310.0         0.23          3.4 
       311.0         0.27          6.7 
       312.0         0.27         12.7 
       313.0         0.20         14.5 
       314.0         0.17         14.1 
       315.0         0.17         14.1 
       316.0         0.17         13.2 
       317.0         0.20         11.7 
       318.0         0.17         10.7 
       319.0         0.22         10.3 
       320.0         0.17          8.9 
       321.0         0.20          8.9 
       322.0         0.20          8.0 
       323.0         0.20          7.3 
       324.0         0.20          5.8 
       325.0         0.23          1.6 
       326.0         2.42         15.2 
       327.0         0.17          6.8 
       328.0         0.17          5.9 
       329.0         0.27          6.0 
       330.0         0.23          4.5 
       331.0         0.20          3.3 
       332.0         0.23          3.4 
       333.0         0.23          3.2 
       334.0         0.23          3.2 
       335.0         0.20          3.5 
       336.0         0.23          3.1 
       337.0         0.23          2.8 
       338.0         0.30          2.8 
       339.0         0.28          3.0 
       340.0         0.27          2.9 
       341.0         0.30          3.1 
       342.0         0.20          3.1 
       343.0         0.23          3.1 
       344.0         0.20          2.7 
       345.0         0.20          2.5 
       346.0         0.23          2.6 
       347.0         0.20          2.9 
       348.0         0.20          3.3 
       349.0         0.17          3.0 
       350.0         0.17          3.0 
       351.0         0.17          2.6 
       352.0         0.17          2.0 
       353.0         0.33          1.4 
       354.0         0.20          0.1 
       355.0         0.22          0.6 
       356.0         2.43          9.4 
       357.0         0.20          7.9 
       358.0         0.17          6.9 
       359.0         0.17          5.7 
       360.0         0.42          4.8 
       361.0         0.33          3.7 
       362.0         0.33          3.2 
       363.0         0.27          2.3 
       364.0         0.30          2.6 
       365.0         0.30          3.0 
       366.0         0.27          2.7 
       367.0         0.30          3.0 
       368.0         0.33          2.5 
       369.0         0.20          2.0 
       370.0         0.23          2.1 
       371.0         0.28          2.5 
       372.0         0.23          1.9 
       373.0         0.20          2.5 
       374.0         0.20          2.9 
