~Version Information
VERS.                      2.0: CWLS Log ASCII Standard - VERSION 2.0
WRAP.                       NO: One line per depth step
~Well Information Block
STRT.FT               240.0000: 
STOP.FT              1677.0000: 
STEP.FT                 0.1000: 
NULL.                -999.2500: 
COMP.          Pioneer Natural Resources: COMPANY
WELL.          Lorencito 8-1-34-67: WELL
FLD.           Purgatoire River: FIELD
LOC.           1567' FNL & 500' FEL: LOCATION
STAT.                 Colorado: State
CTRY. USA : Country 
CNTY.               Las Animas: COUNTY
SECT. 1 : Section 
TOWN. 34S : Township
RANG. 67W : Range
SRVC.                Patterson: SERVICE COMPANY
DATE.          Fri Aug 26 09:30:14 2005: LOG DATE
API.           05 071 08506 00: UNIQUE WELL ID
~Curve Information Block
DEPT.FT            0 000 00 00: Depth
DCAL.in                       : CDL Caliper
RHOB.g/cc                     : CDL Bulk Density
RHOC.g/cc                     : CDL Density Correction
DPOR.pu                       : CDL Density Porosity
GR.GAPI                       : Gamma Ray
NPOR.pu                       : Neutron Porosity
~Parameter Information Block
~A  Depth       DCAL        RHOB        RHOC        DPOR         GR         NPOR    
# ...
  1094.4000      8.1173      2.5252      0.1429      7.5614    134.5798     24.0302
  1094.5000      8.1149      2.5318      0.1813      7.1610    129.1898     23.7614
  1094.6000      8.1149      2.5289      0.1690      7.3421    127.3107     23.9386
  1094.7000      8.1149      2.5265      0.1304      7.4845    127.7784     24.5590
  1094.8000      8.0810      2.5428      0.0731      6.4948    127.0411     25.0319
  1094.9000      8.0810      2.5709      0.1409      4.7916    125.3700     24.8390
  1095.0000      8.1008      2.5790      0.1820      4.3011    127.6255     24.3486
  1095.1000      8.1008      2.5568      0.1142      5.6505    135.0906     24.1020
  1095.2000      8.1008      2.5289      0.0949      7.3413    140.8756     24.1178
  1095.3000      8.0873      2.5112      0.0840      8.4144    139.1449     24.1625
  1095.4000      8.0873      2.4935      0.0886      9.4833    136.8810     24.3204
  1095.5000      8.1259      2.4750      0.0041     10.6072    140.9636     24.6888
  1095.6000      8.1259      2.4709      0.0065     10.8560    146.7266     24.9157
  1095.7000      8.1259      2.4811      0.0460     10.2338    145.8937     24.7551
  1095.8000      8.1335      2.4957     -0.0021      9.3530    137.4004     24.4341
  1095.9000      8.1335      2.5039      0.0406      8.8556    128.1665     24.1764
  1096.0000      8.1536      2.4943      0.0184      9.4368    122.3529     24.2595
  1096.1000      8.1536      2.4738      0.0395     10.6800    122.7296     24.7545
  1096.2000      8.1536      2.4636      0.0294     11.2971    131.7367     24.9826
  1096.3000      8.1675      2.4703      0.0906     10.8927    142.9788     24.6595
  1096.4000      8.1675      2.4731      0.1110     10.7236    146.8575     24.3013
  1096.5000      8.1588      2.4590      0.0391     11.5771    143.7620     24.1117
  1096.6000      8.1588      2.4398      0.0591     12.7422    141.2800     23.7413
  1096.7000      8.1588      2.4276      0.0193     13.4805    144.5368     23.1978
  1096.8000      8.2010      2.4266      0.0478     13.5406    150.0370     22.9418
  1096.9000      8.2010      2.4386      0.1176     12.8092    153.5956     22.9448
  1097.0000      8.2406      2.4754      0.1163     10.5839    155.0314     22.9402
  1097.1000      8.2406      2.5350      0.1899      6.9695    153.8444     23.0690
  1097.2000      8.2406      2.5742      0.2849      4.5940    154.0235     23.4294
  1097.3000      8.2509      2.5664      0.1941      5.0658    157.5215     23.7171
  1097.4000      8.2509      2.5433      0.1987      6.4641    156.1356     23.5771
  1097.5000      8.2335      2.5330      0.2174      7.0917    149.3063     23.2557
  1097.6000      8.2335      2.5287      0.1869      7.3505    146.6980     23.2512
  1097.7000      8.2335      2.5249      0.1707      7.5812    148.6032     23.6073
  1097.8000      8.3452      2.5173      0.2188      8.0425    149.0410     24.1988
  1097.9000      8.3452      2.4987      0.0968      9.1687    148.8944     24.8563
  1098.0000      8.4281      2.4803      0.0910     10.2861    150.3664     25.1657
  1098.1000      8.4281      2.4749      0.0725     10.6139    150.9043     25.0145
  1098.2000      8.4281      2.4759      0.0982     10.5508    151.1372     24.7124
  1098.3000      8.4282      2.4707      0.0551     10.8640    152.0791     24.4247
  1098.4000      8.4282      2.4547      0.0780     11.8369    151.9182     24.3001
  1098.5000      8.3376      2.4293      0.1046     13.3753    151.9307     24.4118
  1098.6000      8.3376      2.4014      0.1234     15.0639    151.2097     24.5803
  1098.7000      8.3376      2.3857      0.0200     16.0152    150.2261     24.6619
  1098.8000      8.2874      2.4012      0.0154     15.0760    150.9698     24.5724
  1098.9000      8.2874      2.4442      0.0827     12.4714    151.1506     24.2544
  1099.0000      8.1855      2.4915      0.0813      9.6073    149.8234     23.8092
  1099.1000      8.1855      2.5351      0.1690      6.9648    147.5653     23.4205
  1099.2000      8.1855      2.5780      0.2126      4.3621    146.4442     23.0370
  1099.3000      8.2177      2.6089      0.3298      2.4886    148.8670     22.5354
  1099.4000      8.2177      2.6038      0.3985      2.8021    152.7540     22.2695
  1099.5000      8.3349      2.5670      0.1625      5.0297    151.3671     22.4991
  1099.6000      8.3349      2.5288      0.1402      7.3467    142.7047     22.9988
  1099.7000      8.3349      2.4960      0.1284      9.3349    134.9578     23.6621
  1099.8000      8.3681      2.4701      0.0063     10.9058    135.2893     24.1726
  1099.9000      8.3681      2.4634      0.0029     11.3067    142.0278     24.2514
  1100.0000      8.4017      2.4743     -0.0219     10.6461    147.8672     24.3013
  1100.1000      8.4017      2.4894      0.0237      9.7341    149.5750     24.6868
  1100.2000      8.4017      2.4965      0.0336      9.3020    150.7614     25.1595
  1100.3000      8.4212      2.4974      0.0230      9.2463    151.7545     25.3739
  1100.4000      8.4212      2.5050      0.0274      8.7872    147.8996     25.4417
  1100.5000      8.4281      2.5220      0.0408      7.7595    138.7675     25.6037
  1100.6000      8.4281      2.5368      0.0312      6.8598    129.4624     25.8551
  1100.7000      8.4281      2.5460      0.0260      6.3039    125.1355     25.7484
  1100.8000      8.4568      2.5531      0.0177      5.8757    128.0453     24.9066
  1100.9000      8.4568      2.5486      0.0622      6.1476    134.7327     24.0002
  1101.0000      8.3998      2.5237     -0.0122      7.6574    139.1335     23.9818
  1101.1000      8.3998      2.4943     -0.0415      9.4365    140.0514     24.7971
  1101.2000      8.3998      2.4845     -0.0557     10.0330    139.4534     25.5891
  1101.3000      8.3086      2.5007     -0.0404      9.0484    133.9130     25.6106
  1101.4000      8.3086      2.5300     -0.0388      7.2700    123.6964     25.1561
  1101.5000      8.2568      2.5509      0.0335      6.0039    118.5194     25.1062
  1101.6000      8.2568      2.5522      0.0334      5.9299    123.5654     25.7067
  1101.7000      8.2568      2.5427      0.0174      6.5026    134.3393     26.3968
  1101.8000      8.2436      2.5337      0.0113      7.0482    141.1636     26.5282
  1101.9000      8.2436      2.5233      0.0125      7.6795    138.0164     26.0035
  1102.0000      8.2242      2.4998      0.0057      9.1033    128.5530     25.3910
  1102.1000      8.2242      2.4525      0.0109     11.9668    121.3831     25.2895
  1102.2000      8.2242      2.3926     -0.0408     15.5974    121.2984     25.6344
  1102.3000      8.2015      2.3517     -0.0999     18.0772    128.8313     25.9417
  1102.4000      8.2015      2.3445     -0.0757     18.5151    142.7283     25.9895
  1102.5000      8.2150      2.3541     -0.0584     17.9342    155.1193     25.8268
  1102.6000      8.2150      2.3567     -0.0521     17.7768    157.5068     25.2740
  1102.7000      8.2150      2.3432     -0.0448     18.5928    156.3659     24.3491
  1102.8000      8.2090      2.3217      0.0190     19.8957    160.8861     23.5739
  1102.9000      8.2090      2.3038      0.0109     20.9830    163.4377     23.3250
  1103.0000      8.2276      2.2900      0.0693     21.8185    158.4211     23.3747
  1103.1000      8.2276      2.2726      0.0873     22.8713    155.2442     23.2860
  1103.2000      8.2276      2.2536      0.1503     24.0247    157.3085     22.9286
  1103.3000      8.3185      2.2420      0.1226     24.7251    159.7930     22.5426
  1103.4000      8.3185      2.2435      0.1272     24.6362    161.7796     22.3224
  1103.5000      8.2935      2.2686      0.1360     23.1140    164.4131     22.1832
  1103.6000      8.2935      2.3308      0.2202     19.3471    167.0962     22.0982
  1103.7000      8.2935      2.4293      0.2945     13.3788    166.9757     22.0904
  1103.8000      8.2977      2.5496      0.3873      6.0827    161.7632     22.1594
  1103.9000      8.2977      2.6640      0.5687     -0.8497    155.5670     22.2352
