~Version Information
VERS.                      2.0: CWLS Log ASCII Standard - VERSION 2.0
WRAP.                       NO: One line per depth step
~Well Information Block
STRT.FT                -8.7500: 
STOP.FT              1727.2500: 
STEP.FT                 0.2500: 
NULL.                -999.2500: 
COMP.          XTO Energy Inc.: COMPANY
WELL.          Apache Canyon 34-08: WELL
FLD.              Vermejo Coal: FIELD
LOC.           1668' FNL & 275' FEL: LOCATION
STAT.                       CO: State
CNTY.               Las Animas: COUNTY
CTRY. USA : Country
SECT. 34 : Section
TOWN. 33S : Township
RANG. 67W : Range
SRVC.          Patterson Wireline: SERVICE COMPANY
DATE.          Mon Jan 09 09:34:21 2006: LOG DATE
API.           05 071 08541 00: UNIQUE WELL ID
~Curve Information Block
DEPT.FT            0 000 00 00: Depth
CCL.                          : Casing Collar Locator
TT3.usec                      : CBL 3' Travel Time
AMP3.mV                       : CBL 3' Amplitude
GR.GAPI                       : Gamma Ray
~Parameter Information Block
~A  Depth       CCL         TT3         AMP3         GR     
# ...
   560.7500      0.0000    721.5168      4.6600    100.5177
   561.0000      0.0000    722.8829      4.6652    101.3141
   561.2500      0.0000    722.0978      4.6460    103.6561
   561.5000      0.0000    719.7179      4.6109    105.3639
   561.7500      0.0000    716.8489      4.5872    104.1549
   562.0000      0.0000    713.9420      4.6109     99.3004
   562.2500      0.0000    710.3629      4.7105     91.7912
   562.5000      0.0000    704.7993      4.8976     83.1463
   562.7500      0.0000    695.4064      5.1686     74.4745
   563.0000      0.0000    679.5965      5.5102     66.5243
   563.2500      0.0000    654.9584      5.8983     60.0095
   563.5000      0.0000    622.0165      6.2888     55.7456
   563.7500      0.0000    586.5978      6.6185     54.6972
   564.0000      0.0000    559.2032      6.8291     57.6241
   564.2500      0.0000    551.1541      6.9036     64.2250
   564.5000      0.0000    568.1876      6.8800     72.7793
   564.7500      0.0000    604.8983      6.8240     81.0961
   565.0000      0.0000    646.8750      6.7835     88.0141
   565.2500      0.0000    680.6049      6.7587     93.8938
   565.5000      0.0000    701.0911      6.7091     99.5039
   565.7500      0.0000    710.8616      6.5901    104.4823
   566.0000      0.0000    714.7332      6.3900    107.2174
   566.2500      0.0000    716.4163      6.1363    106.3894
   566.5000      0.0000    717.8580      5.8728    102.3501
   566.7500      0.0000    719.4429      5.6328     96.7605
   567.0000      0.0000    720.4619      5.4312     91.2967
   567.2500      0.0000    720.0954      5.2722     87.1675
   567.5000      0.0000    718.4822      5.1561     85.4740
   567.7500      0.0000    716.6974      5.0763     87.1610
   568.0000      0.0000    715.6256      5.0167     92.2981
   568.2500      0.0000    715.2632      4.9585     99.6516
   568.5000      0.0000    715.1171      4.8898    107.1875
   568.7500      0.0000    714.8350      4.8088    113.1034
   569.0000      0.0000    714.3479      4.7212    116.6775
   569.2500      0.0000    713.7214      4.6358    118.6138
   569.5000      0.0000    713.0598      4.5607    120.5995
   569.7500      0.0000    712.4814      4.5007    123.8742
   570.0000      0.0000    712.0750      4.4554    127.8981
   570.2500      0.0000    711.8733      4.4196    130.8017
   570.5000      0.0000    711.8640      4.3881    131.4462
   570.7500      0.0000    712.0131      4.3604    130.7612
   571.0000      0.0000    712.2634      4.3428    130.7950
   571.2500      0.0000    712.5436      4.3436    132.4363
   571.5000      0.0000    712.8162      4.3645    134.0319
   571.7500      0.0000    713.1155      4.3978    132.4304
   572.0000      0.0000    713.5062      4.4322    125.7077
   572.2500      0.0000    713.9776      4.4585    114.8540
   572.5000      0.0000    714.3943      4.4717    102.8278
   572.7500      0.0000    714.6007      4.4713     92.5604
   573.0000      0.0000    714.5803      4.4619     86.1110
   573.2500      0.0000    714.4567      4.4529     85.0398
   573.5000      0.0000    714.3290      4.4590     90.5310
   573.7500      0.0000    714.1943      4.5019    102.3828
   574.0000      0.0000    714.1247      4.6098    117.8325
   574.2500      0.0000    714.5934      4.8098    131.9064
   574.5000      0.0000    716.7098      5.1170    139.5867
   574.7500      0.0000    722.0732      5.5279    138.3002
   575.0000      0.0000    731.7544      6.0244    129.0867
   575.2500      0.0000    744.5671      6.5862    115.7778
   575.5000      0.0000    756.4885      7.1978    102.7891
   575.7500      0.0000    762.7689      7.8516     93.0160
   576.0000      0.0000    759.9579      8.5455     87.0763
   576.2500      0.0000    744.3642      9.2760     83.9191
   576.5000      0.0000    710.9775     10.0279     82.1964
   576.7500      0.0000    660.1009     10.7632     81.6504
   577.0000      0.0000    606.4084     11.4062     83.2977
   577.2500      0.0000    575.1614     11.8363     87.9069
   577.5000      0.0000    583.7265     11.9208     94.3788
   577.7500      0.0000    626.8193     11.5890    100.0178
   578.0000      0.0000    681.0222     10.8873    102.5149
   578.2500      0.0000    722.5712      9.9714    101.6540
   578.5000      0.0000    741.1661      9.0445     99.2092
   578.7500      0.0000    740.9147      8.2831     97.4031
   579.0000      0.0000    732.2760      7.7811     97.5702
   579.2500      0.0000    723.7053      7.5346     99.8152
   579.5000      0.0000    718.4969      7.4717    103.0980
   579.7500      0.0000    716.4500      7.5042    105.5826
   580.0000      0.0000    716.7112      7.5689    105.5671
   580.2500      0.0000    719.3212      7.6373    102.3882
   580.5000      0.0000    724.9308      7.6996     96.5498
   580.7500      0.0000    733.2057      7.7404     89.4440
   581.0000      0.0000    741.4650      7.7328     83.1934
   581.2500      0.0000    745.9255      7.6577     80.2461
   581.5000      0.0000    745.4045      7.5238     82.5263
   581.7500      0.0000    743.0600      7.3535     90.7301
   582.0000      0.0000    743.0629      7.1481    104.0529
   582.2500      0.0000    745.8050      6.8765    120.0659
   582.5000      0.0000    747.5878      6.5116    135.0547
   582.7500      0.0000    745.0953      6.0774    145.4524
   583.0000      0.0000    739.1937      5.6522    149.6978
   583.2500      0.0000    734.4924      5.3131    148.7794
   583.5000      0.0000    736.1442      5.0766    144.9933
   583.7500      0.0000    746.5468      4.9041    140.3461
   584.0000      0.0000    763.4059      4.7585    135.9469
   584.2500      0.0000    780.7186      4.6398    132.2927
   584.5000      0.0000    792.4883      4.5700    129.5931
   584.7500     -2.0000    795.6367      4.5654    127.6958
   585.0000      0.0000    790.0255      4.6246    126.0210
   585.2500      0.0000    777.6979      4.7347    124.1540
   585.5000      0.0000    762.7759      4.8800    122.5466
   585.7500      0.0000    750.3615      5.0385    122.0760
   586.0000      0.0000    743.8822      5.1729    122.7892
   586.2500      0.0000    743.3298      5.2425    123.6301
   586.5000      0.0000    746.7722      5.2395    123.6042
   586.7500      0.0000    753.2927      5.2005    122.7214
   587.0000      0.0000    763.0255      5.1680    121.4829
   587.2500      0.0000    774.2711      5.1539    120.0200
   587.5000      0.0000    782.6924      5.1448    118.3691
   587.7500      0.0000    784.6456      5.1266    117.1162
   588.0000      0.0000    780.0804      5.0944    116.9721
   588.2500      0.0000    771.2358      5.0513    117.9010
   588.5000      0.0000    759.8837      5.0032    119.3565
   588.7500      0.0000    747.1479      4.9529    121.2876
   589.0000      0.0000    734.8492      4.8947    124.2538
   589.2500      0.0000    725.1666      4.8178    128.5215
   589.5000      0.0000    719.0580      4.7174    133.5089
   589.7500      0.0000    715.9078      4.6040    138.1283
   590.0000      0.0000    714.5623      4.5000    141.3491
   590.2500      0.0000    714.2443      4.4261    142.4864
   590.5000      0.0000    714.7687      4.3928    141.3261
   590.7500      0.0000    716.5009      4.4019    138.3111
   591.0000      0.0000    720.2708      4.4490    134.7452
   591.2500      0.0000    726.9081      4.5196    132.5593
   591.5000      0.0000    736.4948      4.5888    133.2025
   591.7500      0.0000    747.7977      4.6334    136.3379
   592.0000      0.0000    758.0991      4.6504    139.8562
   592.2500      0.0000    763.6032      4.6601    141.4721
   592.5000      0.0000    761.3028      4.6895    140.3898
   592.7500      0.0000    751.8174      4.7458    137.5865
   593.0000      0.0000    739.9497      4.8055    134.7315
   593.2500      0.0000    731.5561      4.8312    132.8772
   593.5000      0.0000    729.8422      4.8032    131.9301
   593.7500      0.0000    734.0019      4.7353    131.0988
   594.0000      0.0000    740.0143      4.6613    129.8216
