~Version Information
VERS.                      2.0: CWLS Log ASCII Standard - VERSION 2.0
WRAP.                       NO: One line per depth step
~Well Information Block
STRT.FT                -8.0000: 
STOP.FT              1472.2500: 
STEP.FT                 0.2500: 
NULL.                -999.2500: 
COMP.          Pioneer Natural Resources: COMPANY
WELL.           Amore 32-09 Tr: WELL
FLD.           Purgatoire River: FIELD
LOC.           1941' FNL & 2297' FEL--: LOCATION
PROV.                       CO: PROVINCE
CNTY.               Las Animas: COUNTRY
SRVC.          Patterson Wireline: SERVICE COMPANY
DATE.          Tue Nov 22 11:37:00 2005: LOG DATE
UWI.           05 071 08584 00: UNIQUE WELL ID
~Curve Information Block
DEPT.FT            0 000 00 00: Depth
CCL.                          : Casing Collar Locator
TT3.usec                      : CBL 3' Travel Time
AMP3.mV                       : CBL 3' Amplitude
GR.GAPI                       : Gamma Ray
~Parameter Information Block
~A  Depth       CCL         TT3         AMP3         GR     
# ...
  1064.0000      0.0000    740.9407      9.1691     99.0079
  1064.2500      0.0000    742.9624      9.1126     97.5167
  1064.5000      0.0000    746.1484      9.1198    100.2025
  1064.7500      0.0000    749.5807      9.1807    106.1682
  1065.0000      0.0000    750.7236      9.2566    113.9405
  1065.2500      0.0000    745.4568      9.3362    122.4469
  1065.5000      0.0000    729.5975      9.4356    130.8069
  1065.7500      0.0000    702.5497      9.5543    137.5689
  1066.0000      0.0000    670.8486      9.6494    140.9699
  1066.2500      0.0000    645.9681      9.6661    140.2386
  1066.5000      0.0000    635.3242      9.5969    136.1685
  1066.7500      0.0000    634.9089      9.4984    130.3591
  1067.0000      0.0000    631.5807      9.4397    124.2750
  1067.2500      0.0000    612.4667      9.4399    118.7944
  1067.5000      0.0000    573.9722      9.4701    113.9997
  1067.7500      0.0000    525.2362      9.5048    109.4006
  1068.0000      0.0000    483.7357      9.5543    104.7024
  1068.2500      0.0000    465.5767      9.6445    100.3795
  1068.5000      0.0000    477.4768      9.7789     97.5887
  1068.7500      0.0000    514.4831      9.9264     97.6436
  1069.0000      0.0000    562.9344     10.0405    101.1854
  1069.2500      0.0000    607.4473     10.0923    107.4488
  1069.5000      0.0000    638.8169     10.0906    114.5387
  1069.7500      0.0000    657.1670     10.0711    120.6936
  1070.0000      0.0000    668.6618     10.0598    125.1601
  1070.2500      0.0000    679.8225     10.0432    127.8701
  1070.5000      0.0000    693.6944      9.9756    128.6267
  1070.7500      0.0000    709.1685      9.8148    126.6940
  1071.0000      0.0000    723.1310      9.5530    121.1223
  1071.2500      0.0000    733.5612      9.2221    111.7945
  1071.5000      0.0000    740.9299      8.8773    100.5385
  1071.7500      0.0000    746.9093      8.5767     91.0191
  1072.0000      0.0000    752.1279      8.3647     86.9882
  1072.2500      0.0000    755.2755      8.2637     90.1544
  1072.5000      0.0000    754.3403      8.2690     99.1410
  1072.7500      0.0000    748.4024      8.3477    109.9686
  1073.0000      0.0000    738.2475      8.4445    118.1148
  1073.2500      0.0000    726.0766      8.5037    121.2570
  1073.5000      0.0000    715.0757      8.4972    120.4854
  1073.7500      0.0000    707.5406      8.4363    118.8155
  1074.0000      0.0000    702.1162      8.3581    118.6761
  1074.2500      0.0000    695.1169      8.2926    120.5968
  1074.5000      0.0000    686.7170      8.2294    123.6416
  1074.7500      0.0000    683.1768      8.1215    126.7768
  1075.0000      0.0000    689.9236      7.9350    129.7756
  1075.2500      0.0000    704.6411      7.6951    132.7816
  1075.5000      0.0000    719.8417      7.4718    135.1991
  1075.7500      0.0000    730.2173      7.3248    135.6046
  1076.0000      0.0000    735.3919      7.2695    133.2972
  1076.2500      0.0000    737.4583      7.2884    129.6928
  1076.5000      0.0000    738.2622      7.3626    127.3405
  1076.7500      0.0000    738.6774      7.4867    127.3098
  1077.0000      0.0000    738.9929      7.6563    128.2144
  1077.2500      0.0000    739.2819      7.8413    128.1152
  1077.5000      0.0000    739.5504      7.9759    126.6518
  1077.7500      0.0000    739.7524      7.9873    124.7387
  1078.0000      0.0000    739.8871      7.8438    122.8686
  1078.2500      0.0000    740.1221      7.5839    120.6692
  1078.5000      0.0000    740.8802      7.3047    117.9648
  1078.7500      0.0000    742.7640      7.1131    115.2569
  1079.0000      0.0000    746.2079      7.0712    112.9448
  1079.2500      0.0000    751.0010      7.1717    110.8541
  1079.5000      0.0000    756.0972      7.3578    108.8110
  1079.7500      0.0000    759.9172      7.5617    107.2189
  1080.0000      0.0000    760.9535      7.7326    106.8630
  1080.2500      0.0000    758.5573      7.8427    108.3083
  1080.5000      0.0000    753.5695      7.8785    111.4261
  1080.7500      0.0000    747.9846      7.8318    115.4429
  1081.0000      0.0000    743.6218      7.7047    119.5507
  1081.2500      0.0000    741.1058      7.5234    123.3465
  1081.5000      0.0000    740.0173      7.3360    126.5343
  1081.7500      0.0000    739.6403      7.1905    128.5665
  1082.0000      0.0000    739.4664      7.1129    129.0223
  1082.2500      0.0000    739.2935      7.1030    128.2460
  1082.5000      0.0000    739.1477      7.1392    127.2576
  1082.7500      0.0000    739.1411      7.1867    127.1565
  1083.0000      0.0000    739.3226      7.2136    128.8947
  1083.2500      0.0000    739.6429      7.2060    133.0645
  1083.5000      0.0000    740.0944      7.1667    139.0435
  1083.7500      0.0000    740.9018      7.1042    144.4272
  1084.0000      0.0000    742.4847      7.0272    146.2894
  1084.2500      0.0000    745.0690      6.9448    143.4983
  1084.5000      0.0000    748.3209      6.8655    137.4972
  1084.7500      0.0000    751.5327      6.7991    130.6501
  1085.0000      0.0000    754.1022      6.7589    124.0927
  1085.2500      0.0000    755.3871      6.7593    117.3400
  1085.5000      0.0000    754.1917      6.8066    109.7382
  1085.7500      0.0000    749.4009      6.8936    101.8693
  1086.0000      0.0000    741.1843      7.0045     95.3017
  1086.2500      0.0000    730.7281      7.1234     91.2632
  1086.5000      0.0000    719.5497      7.2354     89.9664
  1086.7500      0.0000    710.8658      7.3215     90.8976
  1087.0000      0.0000    710.1591      7.3573     93.0070
  1087.2500      0.0000    720.8372      7.3244     94.7937
  1087.5000      0.0000    739.5210      7.2278     95.1237
  1087.7500      0.0000    758.2769      7.1022     94.2161
  1088.0000      0.0000    771.1322      6.9935     93.2840
  1088.2500      0.0000    776.8610      6.9301     92.9437
  1088.5000      0.0000    776.8198      6.9082     92.4239
  1088.7500      0.0000    772.4639      6.9017     90.6562
  1089.0000      0.0000    765.1110      6.8862     87.8058
  1089.2500      0.0000    756.6170      6.8563     85.2938
  1089.5000      0.0000    749.1372      6.8209     84.3543
  1089.7500      0.0000    744.0877      6.7877     84.7817
  1090.0000      0.0000    741.5635      6.7559     85.0815
  1090.2500      0.0000    740.8237      6.7212     83.7833
  1090.5000      0.0000    741.2026      6.6837     80.6838
  1090.7500      0.0000    742.7939      6.6466     76.9436
  1091.0000      0.0000    746.6836      6.6103     74.0969
  1091.2500      0.0000    754.4800      6.5744     72.9999
  1091.5000      0.0000    766.9982      6.5462     73.5409
  1091.7500      0.0000    782.8712      6.5417     75.1015
  1092.0000      0.0000    798.6208      6.5736     77.0694
  1092.2500      0.0000    810.5219      6.6406     78.8948
  1092.5000      0.0000    816.6519      6.7315     79.9788
  1092.7500      0.0000    817.4037      6.8294     79.9326
  1093.0000      0.0000    814.5928      6.9096     78.9238
  1093.2500      0.0000    810.2302      6.9449     77.5293
  1093.5000      0.0000    805.7523      6.9240     76.3147
  1093.7500      0.0000    802.0426      6.8624     75.6690
  1094.0000      0.0000    799.8328      6.7875     75.7587
  1094.2500      0.0000    799.2639      6.7127     76.2322
  1094.5000      0.0000    798.6452      6.6280     76.0823
  1094.7500      0.0000    794.7280      6.5173     74.2411
  1095.0000      0.0000    785.6498      6.3824     70.4351
  1095.2500      0.0000    773.4664      6.2479     65.4123
  1095.5000      0.0000    762.7372      6.1404     60.5177
  1095.7500      0.0000    756.6989      6.0625     57.1137
  1096.0000      0.0000    755.7051      5.9901     56.0752
  1096.2500      0.0000    759.0248      5.8961     57.4800
  1096.5000      0.0000    766.7378      5.7753     60.6915
  1096.7500      0.0000    779.2408      5.6462     64.7580
  1097.0000      0.0000    795.4628      5.5335     68.7457
  1097.2500      0.0000    812.1120      5.4467     71.8651
