~Version Information
VERS.                      2.0: CWLS Log ASCII Standard - VERSION 2.0
WRAP.                       NO: One line per depth step
~Well Information Block
STRT.FT                -8.2500: 
STOP.FT              1729.7500: 
STEP.FT                 0.2500: 
NULL.                -999.2500: 
COMP.          Pioneer Natural Resources: COMPANY
WELL.            Dude 43-34 Tr: WELL
FLD.           Purgatorie River: FIELD
LOC.           2083' FSL & 1042' FEL--: LOCATION
PROV.                       CO: PROVINCE
CNTY.               Las Animas: COUNTRY
SRVC.          Patterson Wireline: SERVICE COMPANY
DATE.          Tue Jan 31 09:23:54 2006: LOG DATE
UWI.           05 071 08676 00: UNIQUE WELL ID
~Curve Information Block
DEPT.FT            0 000 00 00: Depth
CCL.                          : Casing Collar Locator
TT3.usec                      : CBL 3' Travel Time
AMP3.mV                       : CBL 3' Amplitude
GR.GAPI                       : Gamma Ray
~Parameter Information Block
~A  Depth       CCL         TT3         AMP3         GR     
# ...
  1700.2500      0.0000    566.9944      3.8133    147.6557
  1700.5000      0.0000    549.1365      3.8707    146.8901
  1700.7500      0.0000    536.0687      3.8506    146.9469
  1701.0000      0.0000    530.4394      3.8008    148.0761
  1701.2500      0.0000    528.5291      3.7619    149.5888
  1701.5000      0.0000    524.2586      3.7444    150.5286
  1701.7500      0.0000    515.2354      3.7432    150.4685
  1702.0000      0.0000    504.6530      3.7550    149.4676
  1702.2500      0.0000    498.7939      3.7789    147.3191
  1702.5000      0.0000    503.4637      3.8102    143.4413
  1702.7500      0.0000    521.1409      3.8396    137.7312
  1703.0000      0.0000    548.2601      3.8598    131.1666
  1703.2500      0.0000    574.6682      3.8706    125.3710
  1703.5000      0.0000    588.4444      3.8778    121.6378
  1703.7500      0.0000    583.7300      3.8890    120.4599
  1704.0000      0.0000    564.1185      3.9112    121.8996
  1704.2500      0.0000    539.4690      3.9493    125.8755
  1704.5000      0.0000    521.1099      4.0029    131.6597
  1704.7500      0.0000    517.4750      4.0622    137.5764
  1705.0000      0.0000    528.6644      4.1103    141.9147
  1705.2500      0.0000    544.3031      4.1333    144.1439
  1705.5000      0.0000    550.9673      4.1288    144.7925
  1705.7500      0.0000    543.6757      4.1011    144.2724
  1706.0000      0.0000    528.5329      4.0500    142.5278
  1706.2500      0.0000    514.2573      3.9692    140.0205
  1706.5000      0.0000    503.5892      3.8563    138.2976
  1706.7500      0.0000    493.3016      3.7213    138.8922
  1707.0000      0.0000    479.8706      3.5828    141.9137
  1707.2500      0.0000    463.3605      3.4588    146.0481
  1707.5000      0.0000    447.1842      3.3600    149.8735
  1707.7500      0.0000    436.5145      3.2871    153.1459
  1708.0000      0.0000    436.3020      3.2337    156.7462
  1708.2500      0.0000    448.0615      3.1961    161.2972
  1708.5000      0.0000    468.0127      3.1818    166.0358
  1708.7500      0.0000    490.2390      3.2018    168.9832
  1709.0000      0.0000    512.2128      3.2562    167.8548
  1709.2500      0.0000    536.0494      3.3314    161.1086
  1709.5000      0.0000    564.2222      3.4101    148.9241
  1709.7500      0.0000    595.1805      3.4814    133.4512
  1710.0000      0.0000    623.5041      3.5444    117.7943
  1710.2500      0.0000    643.5313      3.6054    104.4375
  1710.5000      0.0000    652.2258      3.6713     94.4119
  1710.7500      0.0000    649.5729      3.7403     87.6912
  1711.0000      0.0000    638.6473      3.8016     84.0279
  1711.2500      0.0000    626.0229      3.8441     83.1607
  1711.5000      0.0000    619.2637      3.8639     84.5140
  1711.7500      0.0000    620.7023      3.8622     87.4100
  1712.0000      0.0000    624.1030      3.8423     91.9443
  1712.2500      0.0000    619.7451      3.8085     99.1112
  1712.5000      0.0000    603.2104      3.7670    109.5367
  1712.7500      0.0000    578.7812      3.7233    122.2707
  1713.0000      0.0000    555.0562      3.6846    135.0123
  1713.2500      0.0000    538.3371      3.6624    145.1723
  1713.5000      0.0000    529.9744      3.6660    150.8041
  1713.7500      0.0000    528.4841      3.6923    151.4100
  1714.0000      0.0000    532.6421      3.7239    148.3002
  1714.2500      0.0000    542.3483      3.7414    143.7771
  1714.5000      0.0000    557.3978      3.7392    139.5681
  1714.7500      0.0000    576.4671      3.7270    135.6053
  1715.0000      0.0000    597.3896      3.7185    129.6270
  1715.2500      0.0000    617.5812      3.7204    118.0795
  1715.5000      0.0000    633.7318      3.7327     98.6616
  1715.7500      0.0000    641.7581      3.7542     72.9656
  1716.0000      0.0000    638.0639      3.7828     46.3890
  1716.2500      0.0000    621.5767      3.8129     24.7848
  1716.5000      0.0000    595.3054      3.8344     10.9354
  1716.7500      0.0000    566.0930      3.8377      3.9304
  1717.0000      0.0000    541.9808      3.8203      1.1384
  1717.2500      0.0000    528.7134      3.7873      0.2630
  1717.5000      0.0000    527.8666      3.7470      0.0473
  1717.7500      0.0000    537.1585      3.7058      0.0059
  1718.0000      0.0000    551.5228      3.6668      0.0000
  1718.2500      0.0000    564.3957      3.6298   -999.2500
  1718.5000      0.0000    570.0223      3.5938   -999.2500
  1718.7500      0.0000    566.2041      3.5598   -999.2500
  1719.0000      0.0000    555.0576      3.5332   -999.2500
  1719.2500      0.0000    541.0295      3.5224   -999.2500
  1719.5000      0.0000    528.2438      3.5342   -999.2500
  1719.7500      0.0000    519.1247      3.5684   -999.2500
  1720.0000      0.0000    513.8091      3.6114   -999.2500
  1720.2500      0.0000    509.0724      3.6291   -999.2500
  1720.5000      0.0000    496.9198      3.5520   -999.2500
  1720.7500      0.0000    465.2251      3.2729   -999.2500
  1721.0000      0.0000    403.4117      2.6926   -999.2500
  1721.2500      0.0000    312.1628      1.8161   -999.2500
  1721.5000      0.0000    208.3665      0.8080   -999.2500
  1721.7500      0.0000    116.7102     -0.0874   -999.2500
  1722.0000      0.0000     53.7264     -0.7045   -999.2500
  1722.2500      0.0000     20.0225     -1.0352   -999.2500
  1722.5000      0.0000      5.9747     -1.1732   -999.2500
  1722.7500      0.0000      1.4147     -1.2180   -999.2500
  1723.0000      0.0000      0.2618     -1.2293   -999.2500
  1723.2500      0.0000      0.0348     -1.2315   -999.2500
  1723.5000      0.0000   -999.2500   -999.2500   -999.2500
  1723.7500      0.0000   -999.2500   -999.2500   -999.2500
  1724.0000      0.0000   -999.2500   -999.2500   -999.2500
  1724.2500      0.0000   -999.2500   -999.2500   -999.2500
  1724.5000      0.0000   -999.2500   -999.2500   -999.2500
  1724.7500      0.0000   -999.2500   -999.2500   -999.2500
  1725.0000      0.0000   -999.2500   -999.2500   -999.2500
  1725.2500      0.0000   -999.2500   -999.2500   -999.2500
  1725.5000      0.0000   -999.2500   -999.2500   -999.2500
  1725.7500      0.0000   -999.2500   -999.2500   -999.2500
  1726.0000      0.0000   -999.2500   -999.2500   -999.2500
  1726.2500      0.0000   -999.2500   -999.2500   -999.2500
  1726.5000      0.0000   -999.2500   -999.2500   -999.2500
  1726.7500      0.0000   -999.2500   -999.2500   -999.2500
  1727.0000      0.0000   -999.2500   -999.2500   -999.2500
  1727.2500      0.0000   -999.2500   -999.2500   -999.2500
  1727.5000      0.0000   -999.2500   -999.2500   -999.2500
  1727.7500      0.0000   -999.2500   -999.2500   -999.2500
  1728.0000      0.0000   -999.2500   -999.2500   -999.2500
  1728.2500      0.0000   -999.2500   -999.2500   -999.2500
  1728.5000      0.0000   -999.2500   -999.2500   -999.2500
  1728.7500      0.0000   -999.2500   -999.2500   -999.2500
  1729.0000      0.0000   -999.2500   -999.2500   -999.2500
  1729.2500   -999.2500   -999.2500   -999.2500   -999.2500
  1729.5000   -999.2500   -999.2500   -999.2500   -999.2500
  1729.7500   -999.2500   -999.2500   -999.2500   -999.2500
