~Version Information
VERS.                      2.0: CWLS Log ASCII Standard - VERSION 2.0
WRAP.                       NO: One line per depth step
~Well Information Block
STRT.FT               687.7500: 
STOP.FT              1252.7500: 
STEP.FT                 0.2500: 
NULL.                -999.2500: 
COMP.          Pioneer Natural Resources: COMPANY
WELL.          Rock Island 44-24 Tr: WELL
FLD.           Purgatoire River: FIELD
LOC.           814' FSL & 761' FEL--: LOCATION
CNTY.               Las Animas: COUNTY
SRVC.                Patterson: SERVICE COMPANY
DATE.          Wed Apr 19 21:31:44 2006: LOG DATE
UWI.           05 071 08680 00: UNIQUE WELL ID
STAT.                 Colorado: STATE
~Curve Information Block
DEPT.FT            0 000 00 00: Depth
DIR.Ohm-m                     : IEL Induction Resistivity
GR.GAPI                       : Gamma Ray
~Parameter Information Block
~A  Depth       DIR          GR     
# ...
  1022.2500     36.5726     39.9901
  1022.5000     36.1429     40.2446
  1022.7500     35.1577     41.2626
  1023.0000     33.6773     44.4524
  1023.2500     31.9130     47.9535
  1023.5000     30.1276     55.4595
  1023.7500     28.5315     61.9537
  1024.0000     27.2381     73.7104
  1024.2500     26.2736     82.4375
  1024.5000     25.6100     95.0820
  1024.7500     25.2001    101.7976
  1025.0000     25.0009    107.5150
  1025.2500     24.9847    108.2987
  1025.5000     25.1371    105.9670
  1025.7500     25.4508    102.8405
  1026.0000     25.9172     96.9216
  1026.2500     26.5201     92.7816
  1026.5000     27.2315     87.2941
  1026.7500     28.0111     84.5035
  1027.0000     28.8096     81.8857
  1027.2500     29.5670     81.2740
  1027.5000     30.2106     82.0320
  1027.7500     30.6625     83.2066
  1028.0000     30.8680     84.4575
  1028.2500     30.8266     84.3227
  1028.5000     30.5967     83.2759
  1028.7500     30.2639     83.0921
  1029.0000     29.8999     84.8317
  1029.2500     29.5391     87.0704
  1029.5000     29.1839     90.5762
  1029.7500     28.8249     92.4531
  1030.0000     28.4568     94.9061
  1030.2500     28.0798     96.7921
  1030.5000     27.6933     99.8048
  1030.7500     27.2933    100.9384
  1031.0000     26.8827     99.4322
  1031.2500     26.4862     96.2076
  1031.5000     26.1543     90.3206
  1031.7500     25.9462     87.6053
  1032.0000     25.8976     87.2749
  1032.2500     25.9921     89.2296
  1032.5000     26.1562     92.9921
  1032.7500     26.2856     94.5116
  1033.0000     26.2952     94.1920
  1033.2500     26.1616     92.6937
  1033.5000     25.9286     90.0466
  1033.7500     25.6721     88.7323
  1034.0000     25.4545     88.3367
  1034.2500     25.2944     89.5925
  1034.5000     25.1657     93.8577
  1034.7500     25.0178     97.5295
  1035.0000     24.8103    102.0424
  1035.2500     24.5426    103.3882
  1035.5000     24.2623    102.9480
  1035.7500     24.0459    101.9332
  1036.0000     23.9648    100.9869
  1036.2500     24.0589    100.9767
  1036.5000     24.3285    100.8646
  1036.7500     24.7399     99.9363
  1037.0000     25.2358     96.9275
  1037.2500     25.7503     94.4033
  1037.5000     26.2266     91.4083
  1037.7500     26.6305     90.7292
  1038.0000     26.9524     92.1856
  1038.2500     27.1969     94.4185
  1038.5000     27.3738     97.9697
  1038.7500     27.4975     99.3344
  1039.0000     27.5904     98.8170
  1039.2500     27.6787     96.9440
  1039.5000     27.7808     92.9165
  1039.7500     27.8966     90.0218
  1040.0000     28.0007     86.2205
  1040.2500     28.0405     84.5419
  1040.5000     27.9379     83.8275
  1040.7500     27.6029     84.3789
  1041.0000     26.9613     85.7007
  1041.2500     25.9876     86.2944
  1041.5000     24.7223     86.5036
  1041.7500     23.2604     86.6101
  1042.0000     21.7204     87.8165
  1042.2500     20.2131     89.7457
  1042.5000     18.8206     94.3502
  1042.7500     17.5871     98.2465
  1043.0000     16.5204    104.5289
  1043.2500     15.6029    108.5306
  1043.5000     14.8070    113.7451
  1043.7500     14.1092    116.7027
  1044.0000     13.4984    120.6046
  1044.2500     12.9755    122.8273
  1044.5000     12.5460    125.2234
  1044.7500     12.2102    126.0893
  1045.0000     11.9567    126.5561
  1045.2500     11.7608    126.4903
  1045.5000     11.5885    125.8576
  1045.7500     11.4048    125.1717
  1046.0000     11.1829    124.5025
  1046.2500     10.9132    124.8805
  1046.5000     10.6063    126.9970
  1046.7500     10.2878    128.9996
  1047.0000      9.9875    131.6699
  1047.2500      9.7295    132.7707
  1047.5000      9.5280    133.3816
  1047.7500      9.3881    133.2334
  1048.0000      9.3081    131.9093
  1048.2500      9.2818    129.7001
  1048.5000      9.3008    123.2261
  1048.7500      9.3562    116.6693
  1049.0000      9.4403    105.0451
  1049.2500      9.5486     97.8636
  1049.5000      9.6793     90.9071
  1049.7500      9.8319     89.6839
  1050.0000     10.0040     92.4825
  1050.2500     10.1877     96.3395
  1050.5000     10.3669    103.0378
  1050.7500     10.5195    107.3244
  1051.0000     10.6240    112.9646
  1051.2500     10.6708    116.0603
  1051.5000     10.6662    119.4396
  1051.7500     10.6280    120.8378
  1052.0000     10.5755    122.0660
  1052.2500     10.5217    122.5460
  1052.5000     10.4741    122.7754
  1052.7500     10.4377    122.5734
  1053.0000     10.4193    122.1117
  1053.2500     10.4280    122.0084
  1053.5000     10.4723    122.2914
  1053.7500     10.5565    122.7343
  1054.0000     10.6785    124.0507
  1054.2500     10.8297    125.5356
  1054.5000     10.9959    128.0822
  1054.7500     11.1598    129.0838
  1055.0000     11.3039    128.1814
  1055.2500     11.4150    125.9517
  1055.5000     11.4884    121.4764
  1055.7500     11.5287    118.7518
  1056.0000     11.5453    116.2218
  1056.2500     11.5455    115.7302
  1056.5000     11.5309    116.2884
  1056.7500     11.4991    117.0396
  1057.0000     11.4499    118.1537
  1057.2500     11.3923    118.8279
  1057.5000     11.3443    119.7377
  1057.7500     11.3285    120.0504
  1058.0000     11.3644    119.3555
  1058.2500     11.4617    117.8463
  1058.5000     11.6182    114.2482
  1058.7500     11.8193    111.3281
  1059.0000     12.0404    106.5512
  1059.2500     12.2515    103.1433
  1059.5000     12.4255     98.0994
  1059.7500     12.5455     95.4625
  1060.0000     12.6086     93.9745
  1060.2500     12.6226     94.9257
  1060.5000     12.5989     98.3993
  1060.7500     12.5462    101.1349
  1061.0000     12.4693    104.6222
  1061.2500     12.3732    106.3136
  1061.5000     12.2685    108.0030
  1061.7500     12.1730    108.5581
  1062.0000     12.1077    108.3444
  1062.2500     12.0890    107.5576
  1062.5000     12.1238    105.9129
  1062.7500     12.2069    104.6956
  1063.0000     12.3198    102.4033
  1063.2500     12.4301    100.3640
  1063.5000     12.4957     96.9938
  1063.7500     12.4761     95.1796
  1064.0000     12.3476     93.8885
  1064.2500     12.1125     94.0357
  1064.5000     11.7964     95.7412
  1064.7500     11.4351     98.0499
  1065.0000     11.0613    103.4787
  1065.2500     10.6965    108.0001
  1065.5000     10.3508    114.3866
  1065.7500     10.0269    117.2595
  1066.0000      9.7256    118.7028
  1066.2500      9.4484    118.2420
  1066.5000      9.1977    117.1789
  1066.7500      8.9753    117.1283
  1067.0000      8.7816    118.5587
  1067.2500      8.6148    120.1970
  1067.5000      8.4721    122.6182
  1067.7500      8.3508    123.6757
  1068.0000      8.2476    123.9925
  1068.2500      8.1585    123.3204
  1068.5000      8.0785    121.1759
  1068.7500      8.0038    119.3116
  1069.0000      7.9325    116.7635
  1069.2500      7.8649    115.7237
  1069.5000      7.8035    115.4506
  1069.7500      7.7527    115.9369
  1070.0000      7.7189    116.9713
  1070.2500      7.7094    117.3972
  1070.5000      7.7320    116.9834
  1070.7500      7.7925    115.7879
  1071.0000      7.8951    112.6729
  1071.2500      8.0417    110.1678
  1071.5000      8.2317    107.2354
  1071.7500      8.4617    106.5904
  1072.0000      8.7243    107.6845
  1072.2500      9.0073    109.1956
  1072.5000      9.2936    111.5236
  1072.7500      9.5634    112.8004
  1073.0000      9.7983    114.2533
  1073.2500      9.9878    114.9728
  1073.5000     10.1324    115.6999
  1073.7500     10.2436    115.9071
  1074.0000     10.3374    115.8159
  1074.2500     10.4286    115.6448
  1074.5000     10.5264    115.5972
  1074.7500     10.6341    115.7455
  1075.0000     10.7508    115.8448
  1075.2500     10.8739    115.5436
  1075.5000     11.0024    114.4914
  1075.7500     11.1398    113.6065
  1076.0000     11.2972    112.1808
  1076.2500     11.4915    110.9537
  1076.5000     11.7403    108.3559
  1076.7500     12.0557    106.3495
  1077.0000     12.4415    103.8464
  1077.2500     12.8928    102.7796
  1077.5000     13.3976    101.4158
  1077.7500     13.9358     99.8143
