~Version Information
VERS.                      2.0: CWLS Log ASCII Standard - VERSION 2.0
WRAP.                       NO: One line per depth step
~Well Information Block
STRT.FT               795.0000: 
STOP.FT              2279.7500: 
STEP.FT                 0.2500: 
NULL.                -999.2500: 
COMP.          Pioneer Natural Resources: COMPANY
WELL.            Wildcard 31-5: WELL
FLD.           Purgatoire River: FIELD
LOC.           624' FNL & 1852' FEL--: LOCATION
CNTY.               Las Animas: COUNTY
SRVC.                Patterson: SERVICE COMPANY
DATE.          Tue Mar 07 07:02:36 2006: LOG DATE
UWI.           05 071 08707 00: UNIQUE WELL ID
STAT.                 Colorado: STATE
~Curve Information Block
DEPT.FT            0 000 00 00: Depth
DIR.Ohm-m                     : IEL Induction Resistivity
SN.Ohm-m                      : IEL Short Normal
SP.mV                         : IEL Spontaneous Potential
GR.GAPI                       : Gamma Ray
~Parameter Information Block
~A  Depth       DIR          SN          SP          GR     
# ...
  1867.0000      6.8205      7.6444    -94.5741    139.2968
  1867.2500      6.8867      7.6846    -94.7119    139.0051
  1867.5000      6.9412      7.6996    -94.8275    137.8693
  1867.7500      6.9847      7.6854    -94.9161    137.3158
  1868.0000      7.0179      7.6375    -94.9754    137.9780
  1868.2500      7.0398      7.5465    -95.0046    139.6129
  1868.5000      7.0460      7.3990    -95.0038    142.6243
  1868.7500      7.0287      7.1868    -94.9724    143.4936
  1869.0000      6.9787      6.9189    -94.9084    140.8196
  1869.2500      6.8904      6.6258    -94.8087    136.6026
  1869.5000      6.7656      6.3503    -94.6690    130.1821
  1869.7500      6.6154      6.1331    -94.4855    128.0681
  1870.0000      6.4573      6.0004    -94.2561    128.2870
  1870.2500      6.3100      5.9616    -93.9822    128.7084
  1870.5000      6.1884      6.0132    -93.6694    127.0102
  1870.7500      6.1010      6.1411    -93.3280    124.7616
  1871.0000      6.0490      6.3173    -92.9714    122.7637
  1871.2500      6.0282      6.5023    -92.6148    123.9736
  1871.5000      6.0309      6.6577    -92.2721    130.6035
  1871.7500      6.0487      6.7640    -91.9545    137.4153
  1872.0000      6.0752      6.8247    -91.6684    147.2090
  1872.2500      6.1068      6.8566    -91.4158    150.4333
  1872.5000      6.1437      6.8779    -91.1951    147.0444
  1872.7500      6.1879      6.9036    -91.0026    139.6749
  1873.0000      6.2415      6.9453    -90.8351    125.4751
  1873.2500      6.3041      7.0087    -90.6904    117.8385
  1873.5000      6.3712      7.0891    -90.5690    114.5446
  1873.7500      6.4344      7.1712    -90.4731    118.1329
  1874.0000      6.4825      7.2359    -90.4067    127.6333
  1874.2500      6.5063      7.2706    -90.3739    133.3749
  1874.5000      6.5028      7.2751    -90.3778    139.0368
  1874.7500      6.4776      7.2597    -90.4192    141.9455
  1875.0000      6.4446      7.2388    -90.4961    146.9381
  1875.2500      6.4217      7.2240    -90.6029    150.1817
  1875.5000      6.4254      7.2196    -90.7307    152.6996
  1875.7500      6.4674      7.2215    -90.8683    152.4632
  1876.0000      6.5518      7.2193    -91.0037    150.4694
  1876.2500      6.6750      7.1975    -91.1262    148.5565
  1876.5000      6.8260      7.1401    -91.2281    144.3754
  1876.7500      6.9895      7.0373    -91.3059    140.4005
  1877.0000      7.1498      6.8931    -91.3608    132.9235
  1877.2500      7.2947      6.7309    -91.3981    127.3886
  1877.5000      7.4188      6.5953    -91.4255    119.5412
  1877.7500      7.5235      6.5475    -91.4515    115.6072
  1878.0000      7.6156      6.6503    -91.4834    112.3495
  1878.2500      7.7031      6.9443    -91.5262    111.1648
  1878.5000      7.7926      7.4236    -91.5822    109.1367
  1878.7500      7.8870      8.0257    -91.6511    107.6200
  1879.0000      7.9862      8.6486    -91.7306    106.0821
  1879.2500      8.0893      9.1928    -91.8173    105.3237
  1879.5000      8.1985      9.6031    -91.9069    102.7630
  1879.7500      8.3208      9.8833    -91.9953     99.6910
  1880.0000      8.4680     10.0759    -92.0789     95.0473
  1880.2500      8.6529     10.2310    -92.1543     93.6707
  1880.5000      8.8853     10.3845    -92.2190     95.1253
  1880.7500      9.1682     10.5526    -92.2713     97.4350
  1881.0000      9.4957     10.7348    -92.3104    100.4265
  1881.2500      9.8528     10.9197    -92.3363    101.1581
  1881.5000     10.2170     11.0934    -92.3501     99.8281
  1881.7500     10.5620     11.2497    -92.3536     97.4596
  1882.0000     10.8655     11.3949    -92.3501     92.3463
  1882.2500     11.1154     11.5444    -92.3436     88.4737
  1882.5000     11.3133     11.7142    -92.3390     83.7438
  1882.7500     11.4698     11.9099    -92.3416     82.8477
  1883.0000     11.5966     12.1213    -92.3562     86.7000
  1883.2500     11.7018     12.3231    -92.3864     92.1293
  1883.5000     11.7877     12.4861    -92.4339    101.1024
  1883.7500     11.8527     12.5905    -92.4977    105.7827
  1884.0000     11.8930     12.6330    -92.5741    109.6904
  1884.2500     11.9042     12.6227    -92.6569    110.1995
  1884.5000     11.8827     12.5709    -92.7385    108.0632
  1884.7500     11.8269     12.4843    -92.8104    105.6082
  1885.0000     11.7379     12.3667    -92.8647    103.7275
  1885.2500     11.6192     12.2228    -92.8952    105.5448
  1885.5000     11.4759     12.0589    -92.8977    113.3055
  1885.7500     11.3126     11.8793    -92.8709    120.3227
  1886.0000     11.1340     11.6858    -92.8161    130.0251
  1886.2500     10.9449     11.4815    -92.7375    134.2474
  1886.5000     10.7520     11.2733    -92.6411    135.2409
  1886.7500     10.5622     11.0694    -92.5349    131.7965
  1887.0000     10.3821     10.8752    -92.4274    121.8348
  1887.2500     10.2168     10.6952    -92.3272    114.3512
  1887.5000     10.0713     10.5372    -92.2427    106.1448
  1887.7500      9.9537     10.4153    -92.1812    103.7992
  1888.0000      9.8759     10.3486    -92.1495    104.2507
  1888.2500      9.8523     10.3557    -92.1539    106.0447
  1888.5000      9.8962     10.4494    -92.2004    108.6579
  1888.7500     10.0158     10.6375    -92.2951    109.2595
  1889.0000     10.2138     10.9286    -92.4440    108.6488
  1889.2500     10.4897     11.3327    -92.6523    108.9322
  1889.5000     10.8433     11.8551    -92.9240    113.8676
  1889.7500     11.2774     12.4915    -93.2609    120.5365
  1890.0000     11.7982     13.2339    -93.6621    131.9909
  1890.2500     12.4158     14.0827    -94.1232    137.3910
  1890.5000     13.1431     15.0474    -94.6361    138.9911
  1890.7500     13.9928     16.1310    -95.1886    136.3521
  1891.0000     14.9721     17.3158    -95.7648    130.2227
  1891.2500     16.0775     18.5725    -96.3460    125.9994
  1891.5000     17.2936     19.8880    -96.9116    118.9022
  1891.7500     18.5964     21.2859    -97.4416    112.6942
  1892.0000     19.9599     22.8160    -97.9181    101.0669
  1892.2500     21.3627     24.5071    -98.3274     92.8574
  1892.5000     22.7853     26.3125    -98.6615     82.1929
  1892.7500     24.1960     28.0943    -98.9179     77.2634
  1893.0000     25.5348     29.6688    -99.0999     74.1229
  1893.2500     26.7175     30.8845    -99.2146     74.4102
  1893.5000     27.6676     31.6778    -99.2716     75.5290
  1893.7500     28.3507     32.0745    -99.2816     74.9325
  1894.0000     28.7785     32.1514    -99.2547     71.5576
  1894.2500     28.9839     31.9917    -99.2002     69.1414
  1894.5000     28.9970     31.6597    -99.1254     68.2793
  1894.7500     28.8410     31.1979    -99.0362     70.0888
  1895.0000     28.5426     30.6355    -98.9362     74.8258
  1895.2500     28.1354     30.0009    -98.8272     78.0369
  1895.5000     27.6517     29.3338    -98.7084     81.9464
  1895.7500     27.1142     28.6830    -98.5768     83.9853
  1896.0000     26.5376     28.0841    -98.4272     85.7959
  1896.2500     25.9368     27.5347    -98.2526     85.5046
  1896.5000     25.3307     26.9902    -98.0457     82.3459
  1896.7500     24.7341     26.3904    -97.7992     79.0399
  1897.0000     24.1450     25.6944    -97.5079     74.1089
  1897.2500     23.5420     24.8997    -97.1693     71.6766
  1897.5000     22.8945     24.0377    -96.7847     69.7787
  1897.7500     22.1833     23.1558    -96.3596     69.5554
  1898.0000     21.4159     22.3009    -95.9036     70.6137
  1898.2500     20.6262     21.5070    -95.4296     72.4358
  1898.5000     19.8589     20.7862    -94.9528     77.2001
  1898.7500     19.1481     20.1261    -94.4890     81.4593
  1899.0000     18.5065     19.4979    -94.0540     87.9094
  1899.2500     17.9262     18.8766    -93.6613     91.0603
  1899.5000     17.3901     18.2600    -93.3224     92.7179
  1899.7500     16.8841     17.6697    -93.0454     91.9398
  1900.0000     16.4070     17.1367    -92.8353     89.8317
  1900.2500     15.9729     16.6861    -92.6937     89.0165
