~Version Information
VERS.                      2.0: CWLS Log ASCII Standard - VERSION 2.0
WRAP.                       NO: One line per depth step
~Well Information Block
STRT.FT               440.0000: 
STOP.FT              1702.7500: 
STEP.FT                 0.2500: 
NULL.                -999.2500: 
COMP.          Pioneer Natural Resources: COMPANY
WELL.          Culver 14-12 Tr: WELL
FLD.           Purgatoire River: FIELD
LOC.           915' FSL & 1048' FWL--: LOCATION
STAT.                 Colorado: State
CNTY.               Las Animas: COUNTY
CTRY. USA : Country
SECT. 12 : Section
TOWN. 32S : Township
RANG. 66W : Range
SRVC.                Patterson: SERVICE COMPANY
DATE.          Tue Sep 27 23:38:23 2005: LOG DATE
API.           05 071 08520 00: UNIQUE WELL ID
~Curve Information Block
DEPT.FT            0 000 00 00: Depth
SN.Ohm-m                      : IEL Short Normal
SP.mV                         : IEL Spontaneous Potential
DIR.Ohm-m                     : IEL Induction Resistivity
GR.GAPI                       : Gamma Ray
~Parameter Information Block
~A  Depth        SN          SP         DIR          GR     
# ...
  1679.5000     35.4606     86.4552     32.9367   -999.2500
  1679.7500     35.6419     86.0209     33.0044   -999.2500
  1680.0000     35.8353     85.6317     33.0312   -999.2500
  1680.2500     36.0330     85.2568     33.0088   -999.2500
  1680.5000     36.2256     84.8648     32.9357   -999.2500
  1680.7500     36.4114     84.4329     32.8314   -999.2500
  1681.0000     36.5969     83.9531     32.7456   -999.2500
  1681.2500     36.7890     83.4326     32.7486   -999.2500
  1681.5000     36.9880     82.8906     32.9006   -999.2500
  1681.7500     37.1871     82.3513     33.2161   -999.2500
  1682.0000     37.3810     81.8375     33.6470   -999.2500
  1682.2500     37.5738     81.3656     34.0988   -999.2500
  1682.5000     37.7797     80.9442     34.4738   -999.2500
  1682.7500     38.0147     80.5749     34.7172   -999.2500
  1683.0000     38.2872     80.2537     34.8354   -999.2500
  1683.2500     38.5935     79.9739     34.8818   -999.2500
  1683.5000     38.9225     79.7269     34.9296   -999.2500
  1683.7500     39.2635     79.5040     35.0488   -999.2500
  1684.0000     39.6082     79.2970     35.2911   -999.2500
  1684.2500     39.9498     79.0982     35.6779   -999.2500
  1684.5000     40.2864     78.9020     36.1901   -999.2500
  1684.7500     40.6257     78.7044     36.7701   -999.2500
  1685.0000     40.9846     78.5036     37.3435   -999.2500
  1685.2500     41.3817     78.2993     37.8574   -999.2500
  1685.5000     41.8300     78.0924     38.3089   -999.2500
  1685.7500     42.3318     77.8841     38.7385   -999.2500
  1686.0000     42.8789     77.6752     39.1912   -999.2500
  1686.2500     43.4546     77.4666     39.6728   -999.2500
  1686.5000     44.0382     77.2596     40.1313   -999.2500
  1686.7500     44.6106     77.0570     40.4797   -999.2500
  1687.0000     45.1589     76.8638     40.6528   -999.2500
  1687.2500     45.6784     76.6875     40.6603   -999.2500
  1687.5000     46.1711     76.5380     40.5923   -999.2500
  1687.7500     46.6452     76.4260     40.5712   -999.2500
  1688.0000     47.1135     76.3612     40.6901   -999.2500
  1688.2500     47.5902     76.3507     40.9695   -999.2500
  1688.5000     48.0857     76.3974     41.3364   -999.2500
  1688.7500     48.6031     76.4993     41.6372   -999.2500
  1689.0000     49.1373     76.6496     41.7006   -999.2500
  1689.2500     49.6778     76.8379     41.4414   -999.2500
  1689.5000     50.2114     77.0516     40.9245   -999.2500
  1689.7500     50.7254     77.2781     40.7350   -999.2500
  1690.0000     51.2088     77.5060     40.2051   -999.2500
  1690.2500     51.6533     77.7266     39.8488   -999.2500
  1690.5000     52.0519     77.9342     39.6598   -999.2500
  1690.7500     52.3981     78.1264     39.5761   -999.2500
  1691.0000     52.6866     78.3034     39.5249   -999.2500
  1691.2500     52.9175     78.4669     39.4462   -999.2500
  1691.5000     53.0975     78.6204     39.2919   -999.2500
  1691.7500     53.2352     78.7687     39.0391   -999.2500
  1692.0000     53.3324     78.9209     38.7341   -999.2500
  1692.2500     53.3764     79.0923     38.5647   -999.2500
  1692.5000     53.3331     79.3083     38.9328   -999.2500
  1692.7500     53.1380     79.6065     40.5273   -999.2500
  1693.0000     52.6892     80.0373     44.4879   -999.2500
  1693.2500     51.8522     80.6612     52.0986   -999.2500
  1693.5000     50.4805     81.5436     69.1450   -999.2500
  1693.7500     48.4481     82.7472    107.8651   -999.2500
  1694.0000     45.6905     84.3194    223.1321   -999.2500
  1694.2500     42.2535     86.2897   1339.2465   -999.2500
  1694.5000     38.3274     88.6557 100000.0000   -999.2500
  1694.7500     34.2219     91.3756 100000.0000   -999.2500
  1695.0000     30.2645     94.3605 100000.0000   -999.2500
  1695.2500     26.6751     97.4644 100000.0000   -999.2500
  1695.5000     23.5112    100.4767 100000.0000   -999.2500
  1695.7500     20.7138    103.1169 100000.0000   -999.2500
  1696.0000     18.2033    105.0380 100000.0000   -999.2500
  1696.2500     15.9476    105.8467 100000.0000   -999.2500
  1696.5000     13.9721    105.1438 100000.0000   -999.2500
  1696.7500     12.3264    102.5883 100000.0000   -999.2500
  1697.0000     11.0377     97.9753 100000.0000   -999.2500
  1697.2500     10.0602     91.3085 100000.0000   -999.2500
  1697.5000      9.2254     82.8442 100000.0000   -999.2500
  1697.7500      8.2346     73.0830 100000.0000   -999.2500
  1698.0000      6.7792     62.7030 100000.0000   -999.2500
  1698.2500      4.7803     52.4461 100000.0000   -999.2500
  1698.5000      2.5344     42.9879 100000.0000   -999.2500
  1698.7500      0.5474     34.8289 100000.0000   -999.2500
  1699.0000     -0.8239     28.2349 100000.0000   -999.2500
  1699.2500     -1.5606     23.2375 100000.0000   -999.2500
  1699.5000     -1.8686     19.6838 100000.0000   -999.2500
  1699.7500     -1.9688     17.3118 100000.0000   -999.2500
  1700.0000     -1.9942     15.8253 100000.0000   -999.2500
  1700.2500     -1.9992     14.9505 100000.0000   -999.2500
  1700.5000   -999.2500     14.4670 100000.0000   -999.2500
  1700.7500   -999.2500     14.2160 100000.0000   -999.2500
  1701.0000   -999.2500     14.0936   9288.9648   -999.2500
  1701.2500   -999.2500     14.0376   5543.1836   -999.2500
  1701.5000   -999.2500     14.0134   4634.0713   -999.2500
  1701.7500   -999.2500     14.0037   4339.2676   -999.2500
  1702.0000   -999.2500   -999.2500   4243.9839   -999.2500
  1702.2500   -999.2500   -999.2500   4216.1099   -999.2500
  1702.5000   -999.2500   -999.2500   4209.0293   -999.2500
  1702.7500   -999.2500   -999.2500 100000.0000   -999.2500
