~Version Information
VERS.                      2.0: CWLS Log ASCII Standard - VERSION 2.0
WRAP.                       NO: One line per depth step
~Well Information Block
STRT.FT               520.0000: 
STOP.FT              1373.0000: 
STEP.FT                 0.1000: 
NULL.                -999.2500: 
COMP.          Pioneer Natural Resources: COMPANY
WELL.            Gamma 13-3 Tr: WELL
FLD.           Purgatoire River: FIELD
LOC.           2127' FSL & 738' FWL: LOCATION
STAT.                 Colorado: State
CNTY.               Las Animas: COUNTY
CTRY.                      USA: Country
SECT.                        3: Section
TOWN.                       33S: Township
RANG.                       67W: Range
SRVC.                Patterson: SERVICE COMPANY
DATE.          Mon Sep 19 09:58:04 2005: LOG DATE
API.           05 071 08524 00: API
~Curve Information Block
DEPT.FT            0 000 00 00: Depth
DPOR.pu                       : CDL Density Porosity
GR.GAPI                       : Gamma Ray
NPOR.pu                       : Neutron Porosity
RHOB.g/cc                     : CDL Bulk Density
RHOC.g/cc                     : CDL Density Correction
DCAL.in                       : CDL Caliper
~Parameter Information Block
~A  Depth       DPOR         GR         NPOR        RHOB        RHOC        DCAL    
# ...
   856.0000      9.9235    136.3716     25.4350      2.4863      0.0650      8.0522
   856.1000     10.3271    137.7821     25.4069      2.4796      0.0777      8.0522
   856.2000     11.7118    141.4070     25.4642      2.4568      0.0514      8.0522
   856.3000     12.7351    148.3382     25.4938      2.4399     -0.0118      8.0471
   856.4000     11.8757    154.3197     25.2524      2.4541      0.0216      8.0471
   856.5000      9.2717    155.0031     24.8711      2.4970      0.1065      8.0731
   856.6000      6.5788    151.8506     24.7431      2.5415      0.1654      8.0731
   856.7000      5.2209    150.7979     24.7839      2.5639      0.1862      8.0731
   856.8000      5.0245    153.0182     24.7543      2.5671      0.1660      8.1085
   856.9000      5.4188    153.5443     24.7195      2.5606      0.1501      8.1085
   857.0000      6.8320    153.2408     24.7771      2.5373      0.1796      8.1104
   857.1000      9.8610    155.0858     24.9182      2.4873      0.2174      8.1104
   857.2000     13.6516    154.7602     25.0971      2.4247      0.1235      8.1104
   857.3000     16.1716    148.6342     25.3049      2.3832      0.0735      8.0803
   857.4000     16.2676    141.3817     25.5259      2.3816      0.0906      8.0803
   857.5000     13.8693    136.2914     25.6650      2.4212      0.1200      8.0494
   857.6000      8.9164    133.4228     25.4144      2.5029      0.1183      8.0494
   857.7000      1.7135    135.6510     24.7835      2.6217      0.1825      8.0494
   857.8000     -5.6796    145.4823     24.1586      2.7437      0.2512      8.0302
   857.9000     -9.8788    157.4038     23.7015      2.8130      0.3611      8.0302
   858.0000     -9.0950    160.8073     23.5918      2.8001      0.3869      8.0378
   858.1000     -4.5117    154.2788     23.9225      2.7244      0.3268      8.0378
   858.2000      1.1450    147.3902     24.4009      2.6311      0.1825      8.0378
   858.3000      5.2144    148.0062     24.6646      2.5640      0.0366      8.0828
   858.4000      6.7685    152.9360     24.7975      2.5383     -0.0167      8.0828
   858.5000      6.8356    156.2287     25.1935      2.5372     -0.1255      8.1557
   858.6000      6.5488    157.5990     25.8729      2.5419     -0.0701      8.1557
   858.7000      6.5470    160.4197     26.4153      2.5420     -0.0354      8.1557
   858.8000      7.1874    165.9654     26.4737      2.5314     -0.0277      8.2215
   858.9000      8.1338    169.4534     26.1895      2.5158      0.0738      8.2215
   859.0000      8.2524    167.3402     25.9334      2.5138      0.1118      8.2398
   859.1000      7.2948    162.0107     25.7737      2.5296      0.2028      8.2398
   859.2000      6.9670    158.2490     25.6958      2.5350      0.1767      8.2398
   859.3000      8.1411    154.6029     25.6372      2.5157      0.1120      8.2207
   859.4000      9.0682    147.6223     25.2540      2.5004      0.0465      8.2207
   859.5000      8.2657    139.9960     24.4415      2.5136      0.0852      8.1895
   859.6000      6.7331    137.2808     23.6365      2.5389      0.1299      8.1895
   859.7000      5.7375    141.0868     23.1250      2.5553      0.1072      8.1895
   859.8000      5.1813    146.6832     22.4313      2.5645      0.1150      8.1502
   859.9000      5.1879    149.3465     21.1388      2.5644      0.1437      8.1502
   860.0000     13.1939    148.0342     20.9686      2.4323     -0.0030      8.1138
   860.1000     17.8259    144.2077     19.4175      2.3559     -0.0330      8.1138
   860.2000     23.9325    136.5064     17.8420      2.2551     -0.0244      8.1138
   860.3000     32.0520    125.4204     16.8996      2.1211     -0.0411      8.0925
   860.4000     41.1583    119.5908     16.5866      1.9709     -0.0189      8.0925
   860.5000     49.5399    121.1519     16.5267      1.8326     -0.0785      8.0783
   860.6000     55.8165    122.0747     16.6637      1.7290     -0.1095      8.0783
   860.7000     58.6807    119.7030     17.1987      1.6818     -0.0835      8.0783
   860.8000     57.1889    118.0771     18.2033      1.7064     -0.0271      8.0583
   860.9000     51.6704    116.4137     19.4793      1.7974      0.1067      8.0583
   861.0000     43.7419    112.0095     20.7088      1.9283      0.2098      8.0727
   861.1000     35.1962    106.0751     21.6320      2.0693      0.3291      8.0727
   861.2000     26.9348     99.3476     22.4146      2.2056      0.3393      8.0727
   861.3000     19.2524     95.3234     23.4412      2.3323      0.3571      8.1550
   861.4000     13.0540    100.6373     24.4991      2.4346      0.3380      8.1550
   861.5000      8.8438    110.1601     25.1238      2.5041      0.2172      8.2368
   861.6000      5.8791    114.2976     25.2466      2.5530      0.1172      8.2368
   861.7000      3.9966    113.8256     25.1259      2.5841      0.0900      8.2368
   861.8000      3.5849    113.4049     25.0406      2.5908      0.0781      8.2305
   861.9000      3.9502    114.4289     25.0309      2.5848      0.0270      8.2305
   862.0000      4.6272    117.2474     24.9675      2.5737      0.0961      8.1774
   862.1000      6.2870    122.9592     24.8168      2.5463      0.0661      8.1774
   862.2000      8.3427    127.3699     24.4526      2.5123     -0.0557      8.1774
   862.3000      9.1887    123.8066     23.9037      2.4984     -0.0268      8.1313
   862.4000      8.7240    113.3265     23.5546      2.5061     -0.0364      8.1313
   862.5000      7.7476    104.0379     23.4004      2.5222      0.0233      8.0987
   862.6000      6.9679    102.5320     23.2081      2.5350      0.0429      8.0987
   862.7000      6.9299    106.6164     23.0010      2.5357      0.0451      8.0987
   862.8000      7.1475    109.2428     22.7617      2.5321     -0.0058      8.0827
   862.9000      6.6007    106.5210     22.2556      2.5411      0.0042      8.0827
   863.0000      5.5680     99.1792     21.5416      2.5581      0.0417      8.0755
   863.1000      5.4171     90.5476     21.2827      2.5606      0.0609      8.0755
   863.2000      6.4501     84.1575     21.5382      2.5436      0.0132      8.0755
   863.3000      7.2161     84.1816     21.4080      2.5309     -0.0353      8.0607
   863.4000      6.7891     91.5563     20.7888      2.5380      0.0390      8.0607
   863.5000      5.7094    101.5980     20.5858      2.5558      0.0206      8.0420
   863.6000      4.6134    106.7202     20.9072      2.5739      0.0755      8.0420
   863.7000      3.7968    103.0061     21.1124      2.5874      0.0688      8.0420
   863.8000      2.9701     96.0182     21.1581      2.6010      0.0201      8.0244
   863.9000      2.0920     91.6908     21.0137      2.6155      0.1228      8.0244
   864.0000      2.1131     89.4814     20.4691      2.6151      0.0920      8.0112
   864.1000      3.1555     87.4835     19.9248      2.5979      0.0736      8.0112
   864.2000      4.5923     87.4109     19.9370      2.5742      0.0867      8.0112
   864.3000      6.2836     91.1725     20.3804      2.5463      0.0663      8.0069
   864.4000      7.7989     94.0964     20.7141      2.5213      0.0508      8.0069
   864.5000      8.5141     91.0938     20.7246      2.5095      0.0363      8.0086
   864.6000      8.4492     83.9993     20.5097      2.5106      0.0789      8.0086
   864.7000      7.5603     78.4270     20.3143      2.5253      0.0069      8.0086
   864.8000      5.7063     79.4100     20.3137      2.5558      0.0385      8.0101
   864.9000      3.9328     85.2951     20.2619      2.5851      0.1184      8.0101
   865.0000      3.2598     88.2736     19.8060      2.5962      0.0921      8.0155
   865.1000      3.1598     85.8050     18.8729      2.5979      0.1057      8.0155
   865.2000      3.3426     80.1780     17.8565      2.5948      0.1519      8.0155
   865.3000      4.3492     72.6021     17.3943      2.5782      0.1338      8.0278
   865.4000      5.6524     66.6994     17.6319      2.5567      0.0486      8.0278
   865.5000      6.2542     66.0991     18.2358      2.5468      0.0743      8.0391
