~Version Information
VERS.                      2.0: CWLS Log ASCII Standard - VERSION 2.0
WRAP.                       NO: One line per depth step
~Well Information Block
STRT.FT               410.0000: 
STOP.FT              1253.0000: 
STEP.FT                 0.1000: 
NULL.                -999.2500: 
COMP.          Petrogulf Corporation: COMPANY
WELL.           Parsons 15-23R: WELL
FLD.           Purgatorie River: FIELD
LOC.           2244' FSL & 1932' FWL: LOCATION
PROV.                 Colorado: PROVINCE
CNTY.               Las Animas: COUNTRY
SRVC.                Patterson: SERVICE COMPANY
DATE.          Mon Sep 12 10:28:25 2005: LOG DATE
UWI.                          : UNIQUE WELL ID
~Curve Information Block
DEPT.FT            0 000 00 00: Depth
DCAL.in                       : CDL Caliper
RHOB.g/cc                     : CDL Bulk Density
RHOC.g/cc                     : CDL Density Correction
DPOR.pu                       : CDL Density Porosity
GR.GAPI                       : Gamma Ray
NPOR.pu                       : Neutron Porosity
~Parameter Information Block
~A  Depth       DCAL        RHOB        RHOC        DPOR         GR         NPOR    
# ...
   909.2000      7.8756      2.5850      0.0272      3.9421     71.4156     13.6543
   909.3000      7.8621      2.5847      0.0106      3.9588     74.1436     13.6416
   909.4000      7.8621      2.5974      0.0585      3.1849     77.7804     14.5685
   909.5000      7.8331      2.6077      0.1020      2.5631     83.8288     16.1528
   909.6000      7.8331      2.6021      0.0937      2.9024     89.7153     17.7427
   909.7000      7.8331      2.5906      0.1004      3.6007     93.5761     18.5551
   909.8000      7.7908      2.5939      0.1095      3.4002     96.7695     18.6451
   909.9000      7.7908      2.6144      0.1507      2.1574     99.4758     18.4241
   910.0000      7.7818      2.6416      0.1041      0.5069    101.1431     17.9023
   910.1000      7.7818      2.6706      0.1357     -1.2472    102.1515     17.4113
   910.2000      7.7818      2.6887      0.1780     -2.3444    104.5526     17.6945
   910.3000      7.8153      2.6825      0.1486     -1.9719    109.9317     18.9762
   910.4000      7.8153      2.6563      0.1652     -0.3828    115.6314     20.5977
   910.5000      7.8904      2.6314      0.0740      1.1252    119.5723     21.8066
   910.6000      7.8904      2.6298      0.1079      1.2248    121.8512     22.4490
   910.7000      7.8904      2.6391      0.0916      0.6636    120.9407     22.4682
   910.8000      7.9056      2.6359      0.0492      0.8532    116.6224     21.6905
   910.9000      7.9056      2.6270      0.0300      1.3913    114.5383     20.4068
   911.0000      7.9220      2.6259      0.0823      1.4632    117.3213     19.3852
   911.1000      7.9220      2.6225      0.1032      1.6637    117.8121     19.0979
   911.2000      7.9220      2.6018      0.0970      2.9218    113.9642     19.3080
   911.3000      7.9069      2.5733      0.0573      4.6464    110.8788     19.5535
   911.4000      7.9069      2.5601      0.0447      5.4477    109.7475     19.7804
   911.5000      7.8587      2.5695      0.0676      4.8812    109.5310     20.0777
   911.6000      7.8587      2.5926      0.0534      3.4776    109.7372     20.3159
   911.7000      7.8587      2.6223      0.0696      1.6789    110.0145     20.5115
   911.8000      7.8514      2.6524      0.0914     -0.1437    110.5042     20.9250
   911.9000      7.8514      2.6742      0.0843     -1.4674    111.9520     21.4906
   912.0000      7.9036      2.6778      0.1193     -1.6867    115.1266     21.7827
   912.1000      7.9036      2.6581      0.1107     -0.4881    120.7424     21.7358
   912.2000      7.9036      2.6220      0.0845      1.6972    127.2020     21.8082
   912.3000      7.9157      2.5806      0.0604      4.2075    131.4370     22.3919
   912.4000      7.9157      2.5506      0.0335      6.0230    133.3033     23.5387
   912.5000      7.9248      2.5531      0.0072      5.8753    135.9864     24.7635
   912.6000      7.9248      2.5750      0.0946      4.5427    142.0556     25.3826
   912.7000      7.9248      2.5811      0.0337      4.1787    149.0874     25.3486
   912.8000      7.9424      2.5695      0.0684      4.8786    153.6110     24.9618
   912.9000      7.9424      2.5580      0.1092      5.5732    156.2252     24.4676
   913.0000      7.9469      2.5512      0.0771      5.9850    161.0376     24.3841
   913.1000      7.9469      2.5453      0.0654      6.3453    169.0240     25.0265
   913.2000      7.9469      2.5322      0.0833      7.1364    174.8850     26.0235
   913.3000      7.9508      2.5106      0.0608      8.4491    175.6604     27.0752
   913.4000      7.9508      2.4970      0.0186      9.2720    173.6521     27.8464
   913.5000      7.9783      2.5079      0.0471      8.6137    171.5855     27.9426
   913.6000      7.9783      2.5385      0.0665      6.7556    169.5911     27.6580
   913.7000      7.9783      2.5726      0.1026      4.6926    166.1054     27.2679
   913.8000      8.0425      2.5946      0.1089      3.3548    162.2837     26.7810
   913.9000      8.0425      2.6002      0.0942      3.0201    162.4052     26.5987
   914.0000      8.0220      2.5981      0.0767      3.1432    167.6064     26.8062
   914.1000      8.0220      2.5924      0.0950      3.4910    172.5887     26.9579
   914.2000      8.0220      2.5761      0.0929      4.4760    172.3231     26.9208
   914.3000      7.9926      2.5521      0.0607      5.9319    166.7109     26.9018
   914.4000      7.9926      2.5334      0.0075      7.0687    157.8893     26.8743
   914.5000      7.9889      2.5250      0.0168      7.5773    151.4484     26.7066
   914.6000      7.9889      2.5179      0.0336      8.0059    151.9494     26.3513
   914.7000      7.9889      2.5085      0.0326      8.5765    156.9585     25.9891
   914.8000      7.9879      2.5065      0.0159      8.6986    162.5603     25.9443
   914.9000      7.9879      2.5141      0.0557      8.2353    167.7998     26.1899
   915.0000      7.9986      2.5203      0.0611      7.8619    169.2904     26.5294
   915.1000      7.9986      2.5167      0.0459      8.0780    165.4046     27.1052
   915.2000      7.9986      2.5100      0.0415      8.4821    161.5817     27.8758
   915.3000      8.0196      2.5144      0.0926      8.2185    164.4634     28.4857
   915.4000      8.0196      2.5345      0.0493      6.9985    175.4912     28.8799
   915.5000      8.0277      2.5570      0.1620      5.6371    186.9618     29.0484
   915.6000      8.0277      2.5618      0.1434      5.3443    190.8990     28.8298
   915.7000      8.0277      2.5572      0.1054      5.6214    187.8621     28.4976
   915.8000      8.0389      2.5640      0.0983      5.2120    180.4055     28.4703
   915.9000      8.0389      2.5768      0.1310      4.4393    174.6560     28.5667
   916.0000      7.9404      2.5891      0.1162      3.6887    174.3655     28.5186
   916.1000      7.9404      2.6067      0.1422      2.6235    171.8084     28.4314
   916.2000      7.9404      2.6144      0.1698      2.1590    165.2127     28.4600
   916.3000      7.9300      2.5962      0.1326      3.2576    163.1149     28.7194
   916.4000      7.9300      2.5722      0.1112      4.7147    165.2983     29.1351
   916.5000      7.9273      2.5667      0.0823      5.0513    164.5952     29.4278
   916.6000      7.9273      2.5763      0.0712      4.4640    162.0487     29.3841
   916.7000      7.9273      2.5815      0.0888      4.1539    162.4836     29.0397
   916.8000      7.9400      2.5696      0.0889      4.8710    163.6752     28.7335
   916.9000      7.9400      2.5521      0.0684      5.9336    162.4754     28.6388
   917.0000      7.9323      2.5561      0.0382      5.6915    160.3528     28.6529
   917.1000      7.9323      2.5854      0.1327      3.9158    159.3527     28.7227
   917.2000      7.9323      2.6086      0.1336      2.5088    160.2520     28.5977
   917.3000      7.9256      2.6035      0.1116      2.8190    164.7059     28.1528
   917.4000      7.9256      2.5852      0.0750      3.9257    169.7529     27.7950
   917.5000      7.9624      2.5841      0.0272      3.9925    168.5580     27.7888
   917.6000      7.9624      2.6056      0.0250      2.6889    161.7789     27.8771
   917.7000      7.9624      2.6299      0.0475      1.2184    154.3550     27.9490
   917.8000      7.9866      2.6431      0.0796      0.4184    149.3995     28.1536
   917.9000      7.9866      2.6461      0.0571      0.2366    149.1786     28.2527
   918.0000      7.9644      2.6469      0.0414      0.1896    153.5521     28.1204
   918.1000      7.9644      2.6492      0.0582      0.0499    157.7850     28.0704
   918.2000      7.9644      2.6533      0.0438     -0.1978    155.0468     28.2283
   918.3000      7.9569      2.6630      0.0706     -0.7858    144.4883     28.3225
   918.4000      7.9569      2.6750      0.0924     -1.5164    132.6048     27.9808
   918.5000      7.9483      2.6731      0.0703     -1.4018    126.5298     27.3602
   918.6000      7.9483      2.6511      0.0244     -0.0667    128.9386     26.9085
   918.7000      7.9483      2.6289     -0.0082      1.2775    136.3895     26.8314
