~Version Information
VERS.                      2.0: CWLS Log ASCII Standard - VERSION 2.0
WRAP.                       NO: One line per depth step
~Well Information Block
STRT.FT                -6.7500: 
STOP.FT              1250.5000: 
STEP.FT                 0.2500: 
NULL.                -999.2500: 
COMP.          Pioneer Natural Resources: COMPANY
WELL.          Irish Eyes 33-21: WELL
FLD.           Purgatorie River: FIELD
LOC.           1379' FSL & 2544' FEL--: LOCATION
PROV.                       CO: PROVINCE
CNTY.               Las Animas: COUNTRY
SRVC.          Patterson Wireline: SERVICE COMPANY
DATE.          Mon Jan 23 11:57:23 2006: LOG DATE
UWI.           05 071 08658 00: UNIQUE WELL ID
~Curve Information Block
DEPT.FT            0 000 00 00: Depth
CCL.                          : Casing Collar Locator
TT3.usec                      : CBL 3' Travel Time
AMP3.mV                       : CBL 3' Amplitude
GR.GAPI                       : Gamma Ray
~Parameter Information Block
~A  Depth       CCL         TT3         AMP3         GR     
# ...
   160.7500      0.0000    357.2945     26.7416     39.3633
   161.0000      0.0000    406.4450     26.3892     41.4520
   161.2500      0.0000    465.8894     25.8852     42.8795
   161.5000      0.0000    510.6015     25.3370     41.9645
   161.7500      0.0000    517.1262     24.8387     38.8785
   162.0000      0.0000    484.3068     24.4424     35.4401
   162.2500      0.0000    433.8519     24.1560     33.6684
   162.5000      0.0000    390.3844     23.9496     34.6552
   162.7500      0.0000    365.0795     23.7613     38.6263
   163.0000      0.0000    357.1421     23.5157     45.4446
   163.2500      0.0000    364.3291     23.1633     54.5908
   163.5000      0.0000    388.5288     22.7177     64.8832
   163.7500      0.0000    430.9948     22.2495     74.7092
   164.0000      0.0000    482.6291     21.8352     82.6888
   164.2500      0.0000    522.6209     21.5087     88.1720
   164.5000      0.0000    534.1488     21.2522     91.3167
   164.7500      0.0000    523.0049     21.0201     92.8097
   165.0000      0.0000    514.4390     20.7640     93.3590
   165.2500      0.0000    528.9310     20.4420     93.2128
   165.5000      0.0000    564.1377     20.0311     92.1263
   165.7500      0.0000    599.0778     19.5537     89.9724
   166.0000      0.0000    610.7651     19.0906     87.4112
   166.2500      0.0000    590.4300     18.7468     85.6383
   166.5000      0.0000    551.5114     18.5859     85.3733
   166.7500      0.0000    520.3967     18.5952     86.3151
   167.0000      0.0000    514.6483     18.7076     87.5300
   167.2500      0.0000    532.7880     18.8500     88.0120
   167.5000      0.0000    565.0937     18.9752     87.0362
   167.7500      0.0000    604.2039     19.0657     84.4978
   168.0000      0.0000    640.2155     19.1234     80.9860
   168.2500      0.0000    655.2785     19.1605     77.3361
   168.5000      0.0000    633.5067     19.1995     74.1010
   168.7500      0.0000    575.5998     19.2793     71.5012
   169.0000      0.0000    500.3634     19.4538     69.6756
   169.2500      0.0000    431.7781     19.7718     68.7041
   169.5000      0.0000    384.4349     20.2410     68.3865
   169.7500      0.0000    359.0872     20.8056     68.2521
   170.0000      0.0000    348.4364     21.3687     67.9580
   170.2500      0.0000    344.8785     21.8547     67.6457
   170.5000      0.0000    343.9323     22.2569     67.7605
   170.7500      0.0000    343.7482     22.6295     68.3425
   171.0000      0.0000    343.6776     23.0392     68.6159
   171.2500      0.0000    343.3926     23.5266     67.6133
   171.5000      0.0000    342.5673     24.0982     65.3837
   171.7500      0.0000    340.9243     24.7358     63.3793
   172.0000      0.0000    338.4537     25.4033     63.3791
   172.2500      0.0000    335.5739     26.0513     65.9862
   172.5000      0.0000    332.7971     26.6265     70.1339
   172.7500      0.0000    330.1603     27.0910     73.8763
   173.0000      0.0000    327.3040     27.4455     75.7094
   173.2500      0.0000    324.1344     27.7377     75.6106
   173.5000      0.0000    320.9129     28.0358     75.0798
   173.7500      0.0000    317.7229     28.3673     75.9105
   174.0000      0.0000    314.4719     28.6704     78.5263
   174.2500      0.0000    311.4462     28.8207     81.5700
   174.5000      0.0000    309.3774     28.7222     83.3370
   174.7500      0.0000    308.9715     28.3717     83.4018
   175.0000      0.0000    310.6178     27.8507     82.5640
   175.2500      0.0000    314.2482     27.2831     81.4820
   175.5000      0.0000    319.0212     26.7989     79.9747
   175.7500      0.0000    323.3243     26.4823     77.7949
   176.0000      0.0000    325.6706     26.3176     75.5431
   176.2500      0.0000    325.8578     26.1953     74.2197
   176.5000      0.0000    325.1938     25.9999     73.9779
   176.7500      0.0000    325.5868     25.6959     73.9416
   177.0000      0.0000    328.2185     25.3299     73.4001
   177.2500      0.0000    332.7122     24.9720     72.7348
   177.5000      0.0000    337.5033     24.6774     72.9393
   177.7500      0.0000    341.1302     24.4888     74.4161
   178.0000      0.0000    343.1542     24.4311     76.3252
   178.2500      0.0000    344.0301     24.4776     77.1596
   178.5000      0.0000    344.5231     24.5389     76.0828
   178.7500      0.0000    345.7586     24.5067     73.7054
   179.0000      0.0000    350.3662     24.3058     71.3976
   179.2500      0.0000    364.4209     23.9139     69.9039
   179.5000      0.0000    397.9729     23.3572     68.8941
   179.7500      0.0000    460.3605     22.6902     67.8247
   180.0000      0.0000    550.4084     21.9662     66.7973
   180.2500      0.0000    650.7293     21.2262     66.3125
   180.5000      0.0000    735.5721     20.5227     66.3990
   180.7500      0.0000    786.3868     19.9380     66.3787
   181.0000      0.0000    798.4391     19.5530     65.6809
   181.2500      0.0000    774.1259     19.3974     64.8228
   181.5000      0.0000    716.3306     19.4335     65.3328
   181.7500      0.0000    632.3618     19.5778     68.3556
   182.0000      0.0000    541.0718     19.7320     73.2144
   182.2500      0.0000    469.9998     19.8145     77.5672
   182.5000      0.0000    442.9131     19.7903     79.2091
   182.7500      0.0000    468.8257     19.6812     77.8099
   183.0000      0.0000    538.2432     19.5490     74.9492
   183.2500      0.0000    626.4319     19.4668     72.6315
   183.5000      0.0000    703.6641     19.5006     71.8560
   183.7500      0.0000    747.4163     19.7069     72.2934
   184.0000      0.0000    747.3252     20.1264     72.8501
   184.2500      0.0000    703.2118     20.7486     72.5396
   184.5000      0.0000    624.6572     21.4783     71.2063
   184.7500      0.0000    531.7755     22.1651     69.6675
   185.0000      0.0000    448.3981     22.6941     69.1218
   185.2500      0.0000    389.3735     23.0531     70.1990
   185.5000      0.0000    354.8914     23.3098     72.5324
   185.7500      0.0000    336.7776     23.5184     75.2158
   186.0000      0.0000    327.7360     23.6456     77.3542
   186.2500      0.0000    324.6859     23.5958     78.1103
   186.5000      0.0000    326.5181     23.3172     76.9163
   186.7500      0.0000    331.4615     22.8763     74.1058
   187.0000      0.0000    336.9707     22.4069     70.8889
   187.2500      0.0000    341.1249     21.9941     68.3360
   187.5000      0.0000    343.4409     21.6298     66.6916
   187.7500      0.0000    344.4426     21.2755     65.7576
   188.0000      0.0000    344.9410     20.9249     65.4318
   188.2500      0.0000    346.1014     20.5895     65.7523
   188.5000      0.0000    350.5997     20.2541     66.8481
   188.7500      0.0000    364.5751     19.8726     68.9527
   189.0000      0.0000    397.8407     19.4049     72.1655
   189.2500      0.0000    458.5369     18.8514     76.0878
   189.5000      0.0000    542.3121     18.2641     79.9146
   189.7500      0.0000    626.6352     17.7328     82.9332
   190.0000      0.0000    681.8325     17.3376     84.6410
   190.2500      0.0000    691.9780     17.0894     84.4610
   190.5000      0.0000    664.5037     16.9188     82.0592
   190.7500      0.0000    620.8276     16.7336     78.0557
   191.0000      0.0000    581.3831     16.5004     73.7600
   191.2500      0.0000    558.1198     16.2636     70.1265
   191.5000      0.0000    556.9420     16.0551     67.3763
   191.7500      0.0000    584.4856     15.7663     65.4420
   192.0000      0.0000    646.1591     15.1869     64.2316
   192.2500      0.0000    732.6387     14.2499     63.3951
   192.5000      0.0000    815.5220     13.1797     62.1885
   192.7500      0.0000    866.0510     12.3117     59.9725
   193.0000      0.0000    877.0302     11.8036     57.0294
   193.2500      2.0000    864.4415     11.5749     54.7290
   193.5000      0.0000    851.5128     11.4666     54.5976
   193.7500      0.0000    852.1053     11.4119     57.1011
   194.0000      0.0000    863.8345     11.4911     61.2582
