~Version Information
VERS.                      2.0: CWLS Log ASCII Standard - VERSION 2.0
WRAP.                       NO: One line per depth step
~Well Information Block
STRT.FT               555.0000: 
STOP.FT              1158.0000: 
STEP.FT                 0.1000: 
NULL.                -999.2500: 
COMP.          Pioneer Natural Resources: COMPANY
WELL.              Draco 31-21: WELL
FLD.           Purgatoire River: FIELD
LOC.           491' FNL & 2446' FEL: LOCATION
CNTY.               Las Animas: COUNTY
SRVC.                Patterson: SERVICE COMPANY
DATE.          Wed Feb 01 07:01:32 2006: LOG DATE
UWI.           05 071 08672 00: UNIQUE WELL ID
STAT.                 Colorado: STATE
~Curve Information Block
DEPT.FT            0 000 00 00: Depth
DCAL.in                       : CDL Caliper
RHOB.g/cc                     : CDL Bulk Density
RHOC.g/cc                     : CDL Density Correction
DPOR.pu                       : CDL Density Porosity
GR.GAPI                       : Gamma Ray
NPOR.pu                       : Neutron Porosity
~Parameter Information Block
~A  Depth       DCAL        RHOB        RHOC        DPOR         GR         NPOR    
# ...
   593.4000      7.9310      2.4024     -0.0236     15.0052    173.0540     24.9616
   593.5000      7.9388      2.4028     -0.0021     14.9806    162.5659     23.1608
   593.6000      7.9388      2.4152      0.0092     14.2317    158.9675     21.3541
   593.7000      7.9388      2.4340      0.0383     13.0894    160.3224     19.4277
   593.8000      7.9364      2.4619      0.0570     11.3982    163.3909     17.2600
   593.9000      7.9364      2.4881      0.1375      9.8093    167.2186     15.1712
   594.0000      7.9357      2.4746      0.2186     10.6310    171.9786     13.8088
   594.1000      7.9357      2.3839      0.2109     16.1248    177.5482     13.6105
   594.2000      7.9357      2.2242      0.1444     25.8068    181.5824     14.1319
   594.3000      7.9364      2.0483      0.0421     36.4682    181.7781     14.9522
   594.4000      7.9364      1.9213      0.0019     44.1631    176.5356     16.2744
   594.5000      7.9441      1.8794      0.0282     46.7041    170.0043     17.9515
   594.6000      7.9441      1.9110      0.0379     44.7874    170.3712     19.5010
   594.7000      7.9441      1.9849      0.1096     40.3098    176.3124     20.7219
   594.8000      8.0337      2.0866      0.1371     34.1435    181.9195     21.7768
   594.9000      8.0337      2.2144      0.3238     26.4029    182.5075     23.3063
   595.0000      8.0522      2.3478      0.4374     18.3178    175.3822     25.7041
   595.1000      8.0522      2.4619      0.4455     11.4028    166.5704     28.3291
   595.2000      8.0522      2.5460      0.4025      6.3035    161.8883     30.1673
   595.3000      7.9953      2.5951      0.3122      3.3248    160.6231     31.0744
   595.4000      7.9953      2.6119      0.2464      2.3117    163.8295     31.5010
   595.5000      7.9878      2.6074      0.1614      2.5825    170.0073     31.5971
   595.6000      7.9878      2.6000      0.0545      3.0290    170.0261     31.7979
   595.7000      7.9878      2.6047      0.0717      2.7467    161.1459     32.1917
   595.8000      7.9817      2.6135      0.0833      2.2105    153.1917     31.8226
   595.9000      7.9817      2.6082      0.0415      2.5323    151.9055     30.5052
   596.0000      7.9793      2.5853      0.0002      3.9242    151.6931     28.9597
   596.1000      7.9793      2.5569     -0.0167      5.6420    148.8701     27.4140
   596.2000      7.9793      2.5297     -0.0040      7.2906    147.0245     25.3485
   596.3000      7.9776      2.4956     -0.0045      9.3558    147.9066     23.1243
   596.4000      7.9776      2.4527     -0.0234     11.9587    148.2931     21.8855
   596.5000      7.9703      2.4063      0.0071     14.7667    148.6365     21.2646
   596.6000      7.9703      2.3520     -0.0283     18.0615    151.3581     20.4057
   596.7000      7.9703      2.2876     -0.0534     21.9651    154.4247     19.7156
   596.8000      7.9798      2.2257     -0.0917     25.7175    155.4028     19.4131
   596.9000      7.9798      2.1838     -0.0848     28.2528    154.8456     19.0603
   597.0000      7.9901      2.1713     -0.0417     29.0123    155.9896     18.3078
   597.1000      7.9901      2.1886     -0.0196     27.9631    156.7519     17.3757
   597.2000      7.9901      2.2284      0.1034     25.5538    150.4599     16.8848
   597.3000      7.9919      2.2622      0.2196     23.5043    139.0519     16.6541
   597.4000      7.9919      2.2581      0.2397     23.7490    131.5570     15.8939
   597.5000      7.9893      2.2123      0.1945     26.5258    132.2122     14.8539
   597.6000      7.9893      2.1403      0.1735     30.8907    136.6138     14.3203
   597.7000      7.9893      2.0484      0.1493     36.4609    138.8381     14.3560
   597.8000      7.9934      1.9330      0.0296     43.4538    137.9348     14.6654
   597.9000      7.9934      1.8001     -0.0632     51.5080    135.0035     14.7851
   598.0000      8.0199      1.6667     -0.1425     59.5949    131.5387     14.4891
   598.1000      8.0199      1.5519     -0.1582     66.5523    128.5533     14.4354
   598.2000      8.0199      1.4798     -0.1947     70.9234    123.9196     15.3874
   598.3000      8.0260      1.4772     -0.1130     71.0760    114.2874     17.3898
   598.4000      8.0260      1.5450      0.0453     66.9705    102.9572     19.3967
   598.5000      8.0300      1.6526      0.1314     60.4492     97.8844     20.2695
   598.6000      8.0300      1.7807      0.1523     52.6872     99.7805     20.3936
   598.7000      8.0300      1.9314      0.2783     43.5489    103.9908     21.0207
   598.8000      8.0587      2.0982      0.4013     33.4439    108.1612     22.6845
   598.9000      8.0587      2.2631      0.4374     23.4462    113.0859     24.7954
   599.0000      8.0604      2.4110      0.4296     14.4850    117.9460     26.9098
   599.1000      8.0604      2.5202      0.4020      7.8691    120.7631     28.7486
   599.2000      8.0604      2.5763      0.2605      4.4656    122.1754     29.7895
   599.3000      7.9505      2.5935      0.1871      3.4253    122.2004     30.2365
   599.4000      7.9505      2.5973      0.1151      3.1954    122.4742     30.3986
   599.5000      7.9445      2.6034      0.1137      2.8268    124.3913     29.8629
   599.6000      7.9445      2.6044      0.1172      2.7639    122.7453     28.7531
   599.7000      7.9445      2.5871      0.0740      3.8125    115.7816     27.8033
   599.8000      7.9430      2.5595      0.0509      5.4869    109.9720     26.7418
   599.9000      7.9430      2.5387      0.0516      6.7448    109.5785     25.2625
   600.0000      7.9383      2.5328      0.0167      7.1050    115.2992     24.1626
   600.1000      7.9383      2.5418      0.0391      6.5605    124.3719     23.9617
   600.2000      7.9383      2.5524      0.0843      5.9125    129.2451     24.0739
   600.3000      7.9348      2.5470      0.0399      6.2424    129.1328     23.9710
   600.4000      7.9348      2.5305      0.0248      7.2411    132.4291     23.7180
   600.5000      7.9404      2.5243      0.0445      7.6209    139.3067     23.4118
   600.6000      7.9404      2.5341      0.0933      7.0252    142.1158     23.4304
   600.7000      7.9404      2.5495      0.0980      6.0898    137.5454     24.2482
   600.8000      7.9468      2.5637      0.1129      5.2301    131.0166     25.2247
   600.9000      7.9468      2.5743      0.1303      4.5855    130.2473     25.5111
   601.0000      7.9497      2.5823      0.1361      4.1030    134.9599     25.3116
   601.1000      7.9497      2.5927      0.1074      3.4722    138.5969     25.2329
   601.2000      7.9497      2.6046      0.1268      2.7487    136.4196     25.3890
   601.3000      7.9481      2.6133      0.0854      2.2239    130.0779     25.1813
   601.4000      7.9481      2.6170      0.1150      1.9998    122.6949     24.3942
   601.5000      7.9387      2.6090      0.1266      2.4837    113.3567     23.7738
   601.6000      7.9387      2.5894      0.0702      3.6746    102.1658     23.8020
   601.7000      7.9387      2.5756      0.0293      4.5109     94.1531     24.0033
   601.8000      7.9371      2.5789      0.0476      4.3068     92.7112     23.9670
   601.9000      7.9371      2.5887      0.0506      3.7169     92.3855     23.6889
   602.0000      7.9368      2.5911      0.0276      3.5671     89.4407     23.0304
   602.1000      7.9368      2.5847      0.0432      3.9593     88.9064     22.4385
   602.2000      7.9368      2.5816      0.0206      4.1474     91.0282     22.5460
   602.3000      7.9360      2.5983      0.0610      3.1336     90.1821     22.9646
   602.4000      7.9360      2.6252      0.0875      1.5054     87.4748     22.7737
   602.5000      7.9310      2.6331      0.0931      1.0255     84.6439     22.1638
   602.6000      7.9310      2.6190      0.0420      1.8807     79.4269     22.1228
   602.7000      7.9310      2.6073      0.0040      2.5865     75.2499     23.0135
   602.8000      7.9357      2.6101      0.0588      2.4177     74.6499     24.2705
   602.9000      7.9357      2.6151      0.0727      2.1138     74.1016     24.8001
