~Version Information
VERS.                      2.0: CWLS Log ASCII Standard - VERSION 2.0
WRAP.                       NO: One line per depth step
~Well Information Block
STRT.FT               665.0000: 
STOP.FT              2193.5000: 
STEP.FT                 0.1000: 
NULL.                -999.2500: 
COMP.          Pioneer Natural Resources: COMPANY
WELL.          Bear Cub Federal 11-23: WELL
FLD.           Purgatoire River: FIELD
LOC.           1225' FNL & 1268' FWL--: LOCATION
CNTY.               Las Animas: COUNTY
SRVC.                Patterson: SERVICE COMPANY
DATE.          Tue Jun 20 09:14:02 2006: LOG DATE
UWI.           05 071 08509 00: UNIQUE WELL ID
STAT.                 Colorado: STATE
~Curve Information Block
DEPT.FT            0 000 00 00: Depth
DCAL.in                       : CDL Caliper
RHOB.g/cc                     : CDL Bulk Density
RHOC.g/cc                     : CDL Density Correction
DPOR.pu                       : CDL Density Porosity
NPOR.pu                       : Neutron Porosity
GR.GAPI                       : Gamma Ray
~Parameter Information Block
~A  Depth       DCAL        RHOB        RHOC        DPOR        NPOR         GR     
# ...
   866.6000      7.8975      2.5706      0.1376      4.8132     20.9874     86.2268
   866.7000      7.8975      2.5907      0.1518      3.5951     20.8790     85.6014
   866.8000      7.8958      2.5987      0.1417      3.1111     21.0319     81.2864
   866.9000      7.8958      2.6006      0.0950      2.9936     21.2098     75.8851
   867.0000      7.8953      2.6105      0.1024      2.3943     21.2253     71.6459
   867.1000      7.8953      2.6275      0.0810      1.3640     20.9824     68.6117
   867.2000      7.8953      2.6434      0.1315      0.4008     20.7609     65.1414
   867.3000      7.8938      2.6543      0.1172     -0.2587     20.9330     59.9114
   867.4000      7.8938      2.6631      0.0937     -0.7959     21.4009     55.4049
   867.5000      7.8936      2.6737      0.0981     -1.4381     21.7785     53.6695
   867.6000      7.8936      2.6792      0.1090     -1.7718     21.9482     53.8863
   867.7000      7.8936      2.6727      0.0763     -1.3733     22.0060     53.5319
   867.8000      7.8971      2.6617      0.0869     -0.7121     22.1238     53.0182
   867.9000      7.8971      2.6553      0.0495     -0.3200     22.4571     55.5837
   868.0000      7.9018      2.6455      0.1210      0.2707     22.8099     58.0758
   868.1000      7.9018      2.6289      0.0199      1.2789     22.9498     56.9265
   868.2000      7.9018      2.6181      0.0692      1.9346     23.1566     55.4730
   868.3000      7.9048      2.6085      0.0207      2.5153     23.7757     55.8052
   868.4000      7.9048      2.5916      0.0173      3.5424     24.6182     57.7924
   868.5000      7.9053      2.5798     -0.0168      4.2550     25.2946     60.1781
   868.6000      7.9053      2.5816      0.0115      4.1442     25.8689     60.9017
   868.7000      7.9053      2.5763      0.0792      4.4653     26.5021     61.9341
   868.8000      7.9043      2.5440      0.0305      6.4230     27.0855     66.2255
   868.9000      7.9043      2.5077      0.0020      8.6238     27.4991     73.6013
   869.0000      7.9029      2.4977      0.0187      9.2327     27.5840     83.0906
   869.1000      7.9029      2.5037      0.0242      8.8667     27.2550     95.2893
   869.2000      7.9029      2.5037      0.0288      8.8646     26.7148    107.7997
   869.3000      7.8998      2.5052     -0.0136      8.7741     26.2919    115.1300
   869.4000      7.8998      2.5198      0.0977      7.8914     26.0077    116.2012
   869.5000      7.8946      2.5344      0.1196      7.0069     25.5732    116.2959
   869.6000      7.8946      2.5403      0.0954      6.6492     24.9037    117.9188
   869.7000      7.8946      2.5446      0.0988      6.3907     24.1896    117.1983
   869.8000      7.8920      2.5491      0.1261      6.1152     23.6597    114.2320
   869.9000      7.8920      2.5449      0.1176      6.3680     23.4424    113.3110
   870.0000      7.8929      2.5295      0.0619      7.3010     23.6002    113.7705
   870.1000      7.8929      2.5134      0.0653      8.2803     24.0316    114.0238
   870.2000      7.8929      2.5052      0.0587      8.7742     24.4800    114.3173
   870.3000      7.8935      2.5071      0.0269      8.6635     24.7057    112.2134
   870.4000      7.8935      2.5086      0.0730      8.5672     24.6591    110.9561
   870.5000      7.8944      2.4955      0.0423      9.3666     24.6625    114.4869
   870.6000      7.8944      2.4663      0.0636     11.1335     24.7211    116.6130
   870.7000      7.8944      2.4186      0.0288     14.0238     24.5428    113.6627
   870.8000      7.8938      2.3456      0.0225     18.4496     24.2468    107.3715
   870.9000      7.8938      2.2542     -0.0099     23.9885     24.0045     97.1582
   871.0000      7.8908      2.1615     -0.0605     29.6035     23.6443     87.4836
   871.1000      7.8908      2.0718     -0.0282     35.0431     22.9601     85.0426
   871.2000      7.8908      1.9746     -0.0353     40.9335     22.0077     87.6185
   871.3000      7.8868      1.8768     -0.0952     46.8625     20.9913     90.0522
   871.4000      7.8868      1.7999     -0.0778     51.5223     20.0529     90.3472
   871.5000      7.8821      1.7463     -0.0455     54.7709     19.1018     87.1713
   871.6000      7.8821      1.7016      0.0073     57.4817     17.9029     81.2276
   871.7000      7.8821      1.6555      0.0407     60.2744     16.5913     77.0884
   871.8000      7.8753      1.6041      0.0584     63.3891     15.5102     76.6352
   871.9000      7.8753      1.5464      0.0329     66.8849     14.7041     76.1356
   872.0000      7.8654      1.4854      0.0360     70.5830     14.2309     73.1878
   872.1000      7.8654      1.4258      0.0309     74.1937     14.0542     68.7205
   872.2000      7.8654      1.3803      0.0038     76.9540     13.9429     65.8414
   872.3000      7.8567      1.3756     -0.0714     77.2366     13.9727     67.8531
   872.4000      7.8567      1.4347     -0.0894     73.6546     14.1430     73.7376
   872.5000      7.8539      1.5495     -0.0685     66.6941     14.1453     81.1780
   872.6000      7.8539      1.6887     -0.0086     58.2608     14.0943     89.3095
   872.7000      7.8539      1.8198      0.1021     50.3128     14.2628     95.7703
   872.8000      7.8562      1.9232      0.1686     44.0490     14.6341     99.3137
   872.9000      7.8562      2.0024      0.1922     39.2476     15.1519    102.5303
   873.0000      7.8650      2.0748      0.2127     34.8596     15.6457    108.5873
   873.1000      7.8650      2.1509      0.2078     30.2496     16.0300    114.5694
   873.2000      7.8650      2.2295      0.2146     25.4823     16.5032    115.6000
   873.3000      7.8928      2.2973      0.2623     21.3765     16.9781    113.5752
   873.4000      7.8928      2.3396      0.2009     18.8139     17.0812    113.4642
   873.5000      7.9485      2.3620      0.1917     17.4526     16.8490    115.3299
   873.6000      7.9485      2.3781      0.2097     16.4816     16.7327    115.8694
   873.7000      7.9485      2.3915      0.1822     15.6652     17.1008    115.7319
   873.8000      8.0073      2.4076      0.1511     14.6892     18.0431    115.8647
   873.9000      8.0073      2.4390      0.0941     12.7872     19.2600    113.9696
   874.0000      8.0404      2.4823      0.1317     10.1607     20.0708    110.4438
   874.1000      8.0404      2.5100      0.1360      8.4821     20.2957    108.4235
   874.2000      8.0404      2.5105      0.0995      8.4530     20.6440    110.9685
   874.3000      8.0522      2.5039      0.0734      8.8552     21.3990    118.5122
   874.4000      8.0522      2.5077      0.1195      8.6245     21.9657    125.7177
   874.5000      8.0541      2.5237      0.0861      7.6556     21.9554    125.4990
   874.6000      8.0541      2.5433      0.1432      6.4683     21.7426    119.9699
   874.7000      8.0541      2.5490      0.1199      6.1197     21.6429    118.3507
   874.8000      8.0511      2.5383      0.0822      6.7712     21.4628    121.4520
   874.9000      8.0511      2.5275      0.0710      7.4242     21.2350    121.4791
   875.0000      8.0469      2.5227      0.0747      7.7131     21.2495    117.3435
   875.1000      8.0469      2.5154      0.0928      8.1556     21.3172    114.3826
   875.2000      8.0469      2.5017      0.0815      8.9905     21.1240    114.0148
   875.3000      8.0423      2.4884      0.0416      9.7942     20.8707    112.3707
   875.4000      8.0423      2.4839      0.0529     10.0691     20.8032    109.1409
   875.5000      8.0392      2.4919      0.0594      9.5830     21.0000    110.3568
   875.6000      8.0392      2.5137      0.0831      8.2583     21.4538    115.2123
   875.7000      8.0392      2.5415      0.1294      6.5749     22.0609    115.9706
   875.8000      8.0389      2.5601      0.1057      5.4508     22.7732    112.6088
   875.9000      8.0389      2.5652      0.1232      5.1416     23.3623    110.8233
   876.0000      8.0385      2.5655      0.1130      5.1220     23.6661    110.6122
   876.1000      8.0385      2.5711      0.0988      4.7828     23.9846    107.4800
