~Version Information
VERS.                      2.0: CWLS Log ASCII Standard - VERSION 2.0
WRAP.                       NO: One line per depth step
~Well Information Block
STRT.FT                 0.0000: 
STOP.FT              1871.2500: 
STEP.FT                 0.2500: 
NULL.                -999.2500: 
COMP.          Petrogulf Corporation: COMPANY
WELL.             Norton 9-14R: WELL
FLD.           Purgatorie River: FIELD
LOC.           725' FSL & 1103' FWL: LOCATION
STAT.                 Colorado: State
CNTY.               Las Animas: COUNTY
CTRY. USA : Country
SECT. 9 : Section
TOWN. 33S : Township
RANG. 67W : Range
SRVC.                Patterson: SERVICE COMPANY
DATE.          Thu Nov 10 13:05:53 2005: LOG DATE
API. 05-071-08444                         : UNIQUE WELL ID
~Curve Information Block
DEPT.FT            0 000 00 00: Depth
CCL.                          : Casing Collar Locator
TT3.usec                      : CBL 3' Travel Time
AMP3.mV                       : CBL 3' Amplitude
GR.GAPI                       : Gamma Ray
~Parameter Information Block
~A  Depth       CCL         TT3         AMP3         GR     
# ...
   971.5000      0.0000    583.0829      6.5074     70.5206
   971.7500      0.0000    568.9129      6.4931     68.8225
   972.0000      0.0000    562.7822      6.4706     68.7872
   972.2500      0.0000    569.5104      6.4469     70.8235
   972.5000      0.0000    570.4391      6.4020     74.4608
   972.7500      0.0000    545.6675      6.3484     78.7524
   973.0000      0.0000    500.9928      6.3203     82.7386
   973.2500      0.0000    459.0736      6.3142     85.8641
   973.5000      0.0000    433.2206      6.3102     88.2363
   973.7500      0.0000    420.0546      6.3103     90.2790
   974.0000      0.0000    411.6946      6.3026     91.9309
   974.2500      0.0000    405.4849      6.2553     92.3400
   974.5000      0.0000    402.0204      6.1873     90.5666
   974.7500      0.0000    400.8587      6.1607     86.5817
   975.0000      0.0000    400.7492      6.1851     81.4684
   975.2500      0.0000    400.9210      6.2135     76.6352
   975.5000      0.0000    401.1196      6.2249     73.0286
   975.7500      0.0000    401.3321      6.2292     71.1880
   976.0000      0.0000    401.6167      6.2173     71.5258
   976.2500      0.0000    402.0247      6.1773     73.8410
   976.5000      0.0000    402.5517      6.1331     76.8129
   976.7500      0.0000    403.0113      6.1201     78.7945
   977.0000      0.0000    403.0965      6.1339     79.2070
   977.2500      0.0000    402.5801      6.1290     78.6851
   977.5000      0.0000    400.9922      6.0792     77.9539
   977.7500      0.0000    397.1226      6.0113     77.1153
   978.0000      0.0000    389.9568      5.9505     76.0648
   978.2500      0.0000    380.5903      5.8880     75.0529
   978.5000      0.0000    371.3588      5.8281     74.5555
   978.7500      0.0000    362.4695      5.7988     74.8890
   979.0000      0.0000    352.3390      5.7940     76.2178
   979.2500      0.0000    341.6045      5.7618     78.6703
   979.5000      0.0000    333.3869      5.6766     81.9903
   979.7500      0.0000    329.4698      5.5643     85.1598
   980.0000      0.0000    329.4851      5.4392     86.7998
   980.2500      0.0000    333.3424      5.2804     86.1690
   980.5000      0.0000    341.2740      5.0872     83.7410
   980.7500      0.0000    351.4978      4.9192     80.8006
   981.0000      0.0000    361.0964      4.8421     78.6248
   981.2500      0.0000    369.7768      4.8310     78.1163
   981.5000      0.0000    379.3192      4.7888     79.7740
   981.7500      0.0000    389.3490      4.6723     83.3039
   982.0000      0.0000    397.7624      4.5372     87.3231
   982.2500      0.0000    405.8328      4.4430     90.1373
   982.5000      0.0000    418.9185      4.3707     90.9467
   982.7500      0.0000    438.5817      4.2649     90.0402
   983.0000      0.0000    456.2214      4.1200     88.0787
   983.2500      0.0000    460.0359      3.9793     85.5299
   983.5000      0.0000    445.0598      3.8588     82.5824
   983.7500      0.0000    416.7121      3.7172     79.2192
   984.0000      0.0000    389.0367      3.5205     75.2991
   984.2500      0.0000    372.5047      3.3015     70.7820
   984.5000      0.0000    366.0713      3.1195     66.0321
   984.7500      0.0000    364.1725      2.9871     61.8804
   985.0000      0.0000    363.7789      2.8848     59.2009
   985.2500      0.0000    365.0054      2.8140     58.2528
   985.5000      0.0000    370.4546      2.7846     58.5011
   985.7500      0.0000    385.3708      2.7713     59.2174
   986.0000      0.0000    417.1186      2.7385     60.0977
   986.2500      0.0000    469.9322      2.7111     61.1456
   986.5000      0.0000    535.4989      2.7586     62.2652
   986.7500      0.0000    594.3696      2.8956     63.3551
   987.0000      0.0000    631.9158      3.0618     64.6577
   987.2500      0.0000    647.8207      3.2057     66.6288
   987.5000      0.0000    651.7444      3.3313     69.3009
   987.7500      0.0000    654.0489      3.4561     71.9396
   988.0000      0.0000    658.4915      3.5702     73.5052
   988.2500      0.0000    662.9587      3.6743     73.4464
   988.5000      0.0000    665.4514      3.8074     72.0360
   988.7500      0.0000    666.3602      3.9827     70.1191
   989.0000      0.0000    666.6402      4.1552     68.6523
   989.2500      0.0000    666.5067      4.2858     68.4365
   989.5000      0.0000    665.9656      4.3731     70.1868
   989.7500      0.0000    665.9901      4.4166     74.4442
   990.0000      0.0000    667.4207      4.4203     80.8291
   990.2500      0.0000    668.3290      4.4252     87.4667
   990.5000      0.0000    666.5627      4.4808     91.9137
   990.7500      0.0000    663.4512      4.5929     92.9876
   991.0000      0.0000    661.0740      4.7219     91.4614
   991.2500      0.0000    660.4436      4.8363     88.9843
   991.5000      0.0000    661.9153      4.9438     86.5426
   991.7500      0.0000    664.1491      5.0461     83.9365
   992.0000      0.0000    665.4541      5.1065     80.5361
   992.2500      0.0000    665.7565      5.1098     76.4974
   992.5000      0.0000    665.7708      5.1129     73.1368
   992.7500      0.0000    665.7747      5.1974     71.8618
   993.0000      0.0000    665.6706      5.3998     72.7144
   993.2500      0.0000    665.4234      5.7035     74.3208
   993.5000      0.0000    665.1274      6.0605     75.5272
   993.7500      0.0000    664.9072      6.4104     76.7705
   994.0000      0.0000    664.8566      6.7002     79.4453
   994.2500      0.0000    664.9578      6.8938     84.1453
   994.5000      0.0000    664.7994      6.9960     89.9359
   994.7500      0.0000    662.7121      7.0765     95.1556
   995.0000      0.0000    655.3914      7.2043     98.5644
   995.2500      0.0000    641.4627      7.3499     99.7730
   995.5000      0.0000    626.5392      7.4030     99.0183
   995.7500      0.0000    618.1243      7.2697     97.0015
   996.0000      0.0000    615.6342      6.9385     94.9400
   996.2500      0.0000    616.1417      6.4670     94.1309
   996.5000      0.0000    623.1356      5.9062     95.0238
   996.7500      0.0000    637.5026      5.2774     96.9354
   997.0000      0.0000    651.2048      4.6180     98.8035
   997.2500      0.0000    655.7295      3.9806     99.9481
   997.5000      0.0000    648.7113      3.3913    100.1220
   997.7500      0.0000    635.5435      2.8603     99.2326
   998.0000      0.0000    626.2958      2.4124     97.2577
   998.2500      0.0000    625.9563      2.0789     94.4124
   998.5000      0.0000    630.8840      1.8601     91.3592
   998.7500      0.0000    636.3410      1.7058     89.0591
   999.0000      0.0000    643.4540      1.5646     88.1816
   999.2500      0.0000    655.4868      1.4643     88.6000
   999.5000      0.0000    667.2542      1.4913     89.5397
   999.7500      0.0000    667.9291      1.6699     90.1956
  1000.0000      0.0000    657.6943      1.9322     90.2892
  1000.2500      0.0000    648.3827      2.2199     90.1710
  1000.5000      0.0000    646.4057      2.5205     90.4168
  1000.7500      0.0000    647.3387      2.8073     91.4096
  1001.0000      0.0000    646.1996      3.0700     93.3133
  1001.2500      0.0000    645.7147      3.3905     96.0175
  1001.5000      0.0000    651.9777      3.8866     98.9605
  1001.7500     -2.0000    663.2062      4.6100    101.6031
  1002.0000      2.0000    670.4584      5.5039    104.1278
  1002.2500      2.0000    668.6013      6.4124    106.8745
  1002.5000      0.0000    656.2223      7.1566    109.1294
  1002.7500      0.0000    635.3632      7.6577    109.5862
  1003.0000      0.0000    621.1276      8.0078    108.1801
  1003.2500      0.0000    624.7206      8.4202    106.4493
  1003.5000      0.0000    628.6592      9.0833    105.9634
  1003.7500      0.0000    608.3981     10.1084    107.0876
  1004.0000      0.0000    566.2501     11.5468    109.1611
  1004.2500      0.0000    526.3817     13.2547    111.0406
  1004.5000      0.0000    500.6417     14.8811    111.4369
  1004.7500      0.0000    475.7623     16.1584    109.5301
