~Version Information
VERS.                      2.0: CWLS Log ASCII Standard - VERSION 2.0
WRAP.                       NO: One line per depth step
~Well Information Block
STRT.FT               575.0000: 
STOP.FT              1557.5000: 
STEP.FT                 0.1000: 
NULL.                -999.2500: 
COMP.          Pioneer Natural Resources: COMPANY
WELL.          McClaren 13-34 Tr: WELL
FLD.           Purgatoire River: FIELD
LOC.           1934' FSL & 826' FWL: LOCATION
PROV.                 Colorado: PROVINCE
CNTY.               Las Animas: COUNTRY
SRVC.                Patterson: SERVICE COMPANY
DATE.          Tue Jul 12 07:15:27 2005: LOG DATE
UWI.           05 071 08437 00: UNIQUE WELL ID
~Curve Information Block
DEPT.FT            0 000 00 00: Depth
DCAL.in                       : CDL Caliper
RHOB.g/cc                     : CDL Bulk Density
RHOC.g/cc                     : CDL Density Correction
DPOR.pu                       : CDL Density Porosity
GR.GAPI                       : Gamma Ray
NPOR.pu                       : Neutron Porosity
~Parameter Information Block
~A  Depth       DCAL        RHOB        RHOC        DPOR         GR         NPOR    
# ...
   699.8000      7.9051      2.4376      0.0007     12.8739    108.7375     22.1023
   699.9000      7.9051      2.4141     -0.0236     14.2985    110.1747     22.3981
   700.0000      7.9224      2.4185      0.0416     14.0275    112.0616     23.4177
   700.1000      7.9224      2.4451      0.0907     12.4163    115.1949     24.7481
   700.2000      7.9224      2.4857      0.1173      9.9563    116.9107     25.3202
   700.3000      7.9379      2.5468      0.1460      6.2566    119.8395     25.0432
   700.4000      7.9379      2.6221      0.2050      1.6936    122.3355     24.5047
   700.5000      7.9495      2.6785      0.2334     -1.7250    123.4359     24.1302
   700.6000      7.9495      2.6919      0.2156     -2.5402    127.8258     23.9909
   700.7000      7.9495      2.6719      0.1868     -1.3245    132.6660     23.7972
   700.8000      7.9557      2.6367      0.1653      0.8074    133.1946     23.3776
   700.9000      7.9557      2.5998      0.1001      3.0447    131.5934     22.9868
   701.0000      7.9577      2.5703      0.0684      4.8317    129.3176     23.1376
   701.1000      7.9577      2.5406      0.0275      6.6299    123.9508     23.9131
   701.2000      7.9577      2.4999     -0.0100      9.0959    118.1393     24.7109
   701.3000      7.9586      2.4653     -0.0206     11.1948    117.5596     25.1175
   701.4000      7.9586      2.4621      0.0787     11.3869    120.8199     25.2245
   701.5000      7.9579      2.4824      0.1062     10.1586    125.4430     25.1138
   701.6000      7.9579      2.4972      0.1460      9.2616    131.6045     24.8558
   701.7000      7.9579      2.4966      0.0582      9.2956    135.7881     24.4416
   701.8000      7.9538      2.4997      0.0740      9.1071    136.0649     23.8116
   701.9000      7.9538      2.5245      0.1081      7.6071    139.2377     23.4561
   702.0000      7.9506      2.5674      0.1413      5.0078    144.9220     23.7759
   702.1000      7.9506      2.6051      0.2071      2.7239    145.8969     24.1626
   702.2000      7.9506      2.6214      0.1483      1.7359    141.3520     24.2540
   702.3000      7.9587      2.6235      0.1572      1.6083    134.5046     24.5060
   702.4000      7.9587      2.6124      0.1473      2.2774    129.2437     24.8714
   702.5000      7.9732      2.5817      0.0973      4.1377    128.7545     25.0464
   702.6000      7.9732      2.5443      0.0304      6.4082    132.5087     24.8105
   702.7000      7.9732      2.5203      0.0016      7.8621    138.2034     24.2173
   702.8000      7.9807      2.5034      0.0192      8.8877    144.9874     24.0404
   702.9000      7.9807      2.4777     -0.0192     10.4428    149.5981     24.4959
   703.0000      7.9871      2.4517     -0.0460     12.0155    149.8966     24.8382
   703.1000      7.9871      2.4361     -0.0308     12.9607    148.6469     24.8580
   703.2000      7.9871      2.4247     -0.0173     13.6573    147.3063     24.8908
   703.3000      7.9986      2.4159     -0.0134     14.1888    146.4321     25.0749
   703.4000      7.9986      2.4172      0.0149     14.1092    147.1739     25.1182
   703.5000      8.0066      2.4265      0.0456     13.5481    146.7524     24.9447
   703.6000      8.0066      2.4339      0.0435     13.0976    142.5277     25.0338
   703.7000      8.0066      2.4372      0.0099     12.8961    138.9356     25.1570
   703.8000      8.0095      2.4406      0.0796     12.6917    141.9065     24.4806
   703.9000      8.0095      2.4394      0.1322     12.7647    148.3837     23.0457
   704.0000      8.0098      2.4280      0.0645     13.4574    151.1692     21.8774
   704.1000      8.0098      2.4217      0.0359     13.8387    149.4784     21.9599
   704.2000      8.0098      2.4373      0.0557     12.8935    147.7538     22.9891
   704.3000      8.0105      2.4578      0.1707     11.6511    149.5949     23.4910
   704.4000      8.0105      2.4572      0.1030     11.6844    152.1321     23.2663
   704.5000      8.0137      2.4406      0.1100     12.6893    151.4899     23.1569
   704.6000      8.0137      2.4225      0.1075     13.7853    151.6971     22.9388
   704.7000      8.0137      2.4001      0.1277     15.1466    157.2105     22.1783
   704.8000      8.0161      2.3682      0.0755     17.0806    160.3952     21.5942
   704.9000      8.0161      2.3379      0.0318     18.9173    155.3135     21.7660
   705.0000      8.0178      2.3211      0.0349     19.9320    149.3193     21.8816
   705.1000      8.0178      2.3209      0.0292     19.9428    146.3402     21.1050
   705.2000      8.0178      2.3302      0.0469     19.3796    146.0716     19.6301
   705.3000      8.0198      2.3267      0.0736     19.5955    149.7439     17.8182
   705.4000      8.0198      2.2983      0.0313     21.3151    153.3739     16.2007
   705.5000      8.0215      2.2541      0.0739     23.9919    152.7840     15.0564
   705.6000      8.0215      2.1926      0.0989     27.7219    150.5354     14.1441
   705.7000      8.0215      2.1080      0.0574     32.8480    147.8192     13.4587
   705.8000      8.0231      2.0067      0.0673     38.9853    143.1371     13.0399
   705.9000      8.0231      1.8951     -0.0145     45.7507    138.6026     12.8841
   706.0000      8.0248      1.7826     -0.0803     52.5671    134.6540     13.0824
   706.1000      8.0248      1.6751     -0.0470     59.0867    129.8341     13.5534
   706.2000      8.0248      1.5746     -0.0726     65.1748    124.4760     14.1583
   706.3000      8.0276      1.5028     -0.0063     69.5255    117.1338     15.0797
   706.4000      8.0276      1.4834      0.0402     70.7047    106.2876     16.3741
   706.5000      8.0301      1.5147      0.1094     68.8063     94.0971     17.3486
   706.6000      8.0301      1.5786      0.1690     64.9308     85.8363     17.4911
   706.7000      8.0301      1.6605      0.1982     59.9708     86.0156     17.4663
   706.8000      8.0230      1.7524      0.2291     54.3984     90.6582     18.1457
   706.9000      8.0230      1.8463      0.2674     48.7070     91.5933     19.4513
   707.0000      7.9912      1.9315      0.2733     43.5451     89.0204     20.8459
   707.1000      7.9912      2.0017      0.2717     39.2914     89.5871     22.0807
   707.2000      7.9912      2.0633      0.2386     35.5576     95.7671     23.2235
   707.3000      7.9455      2.1302      0.2006     31.5027    102.8386     24.5050
   707.4000      7.9455      2.2055      0.1952     26.9424    104.1641     25.5478
   707.5000      7.9189      2.2758      0.2415     22.6777    100.6770     25.9704
   707.6000      7.9189      2.3328      0.1930     19.2245     99.0883     26.1272
   707.7000      7.9189      2.3810      0.2015     16.3047    102.0843     26.3085
   707.8000      7.9092      2.4179      0.2022     14.0671    107.7890     26.7452
   707.9000      7.9092      2.4383      0.1949     12.8299    114.3931     27.5242
   708.0000      7.9047      2.4528      0.1355     11.9508    118.5820     28.0000
   708.1000      7.9047      2.4764      0.1279     10.5192    119.1729     27.8427
   708.2000      7.9047      2.5057      0.0964      8.7438    121.6067     27.8491
   708.3000      7.9009      2.5269      0.0514      7.4616    126.9227     28.3266
   708.4000      7.9009      2.5432      0.0181      6.4705    129.7708     28.7974
   708.5000      7.8950      2.5642      0.0694      5.1972    131.0377     29.4488
   708.6000      7.8950      2.5845      0.0609      3.9713    134.2961     30.2282
   708.7000      7.8950      2.6017      0.0634      2.9273    137.2757     30.2942
   708.8000      7.8908      2.6185      0.0931      1.9096    137.1347     29.7330
   708.9000      7.8908      2.6237      0.0788      1.5950    135.9355     29.0328
   709.0000      7.8930      2.6102      0.0842      2.4134    134.5970     28.0573
   709.1000      7.8930      2.5923      0.0253      3.4969    133.9442     27.0592
   709.2000      7.8930      2.5906      0.0087      3.5999    135.4543     26.5338
   709.3000      7.8947      2.6098      0.0368      2.4363    135.7391     26.5015
