~Version Information
VERS.                      2.0: CWLS Log ASCII Standard - VERSION 2.0
WRAP.                       NO: One line per depth step
~Well Information Block
STRT.FT                -5.2500: 
STOP.FT              1184.2500: 
STEP.FT                 0.2500: 
NULL.                -999.2500: 
COMP.          Pioneer Natural Resources: COMPANY
WELL.          Lucky Lady 42-29: WELL
FLD.           Purgatoire River: FIELD
LOC.           2482' FNL & 662' FEL: LOCATION
CNTY.               Las Animas: COUNTY
SRVC.                         : SERVICE COMPANY
DATE.          Tue Mar 14 14:47:22 2006: LOG DATE
UWI.           05 071 08659 00: UNIQUE WELL ID
STAT.                       CO: STATE
~Curve Information Block
DEPT.FT            0 000 00 00: Depth
GR.GAPI                       : Gamma Ray
CCL.                          : Casing Collar Locator
TT3.usec                      : CBL 3' Travel Time
AMP3.mV                       : CBL 3' Amplitude
~Parameter Information Block
~A  Depth        GR         CCL         TT3         AMP3    
# ...
   698.2500     95.0822      0.0000    720.4555     10.4339
   698.5000     93.1718      0.0000    699.0579     10.5473
   698.7500     90.1669      0.0000    686.7473     10.6540
   699.0000     85.7824      0.0000    687.1188     10.7488
   699.2500     80.6890      0.0000    697.8746     10.8411
   699.5000     75.8834      0.0000    713.7697     10.9449
   699.7500     71.8003      0.0000    730.0123     11.0605
   700.0000     68.3693      0.0000    743.2460     11.1654
   700.2500     65.6754      0.0000    751.6020     11.2226
   700.5000     64.1053      0.0000    754.7102     11.1993
   700.7500     63.9157      0.0000    753.1751     11.0798
   701.0000     65.0603      0.0000    748.2125     10.8594
   701.2500     67.3339      0.0000    741.8756     10.5413
   701.5000     70.2097      0.0000    736.7031     10.1542
   701.7500     72.7011      0.0000    734.2500      9.7593
   702.0000     73.8996      0.0000    734.1117      9.4233
   702.2500     73.6711      0.0000    734.7051      9.1833
   702.5000     72.4857      0.0000    735.0085      9.0352
   702.7500     70.6767      0.0000    735.2066      8.9458
   703.0000     68.2872      0.0000    735.7307      8.8728
   703.2500     65.6258      0.0000    736.3387      8.7837
   703.5000     63.5280      0.0000    736.4230      8.6682
   703.7500     62.9134      0.0000    735.5860      8.5378
   704.0000     64.1928      0.0000    733.6610      8.4139
   704.2500     67.0862      0.0000    730.8092      8.3123
   704.5000     70.8510      0.0000    727.8440      8.2380
   704.7500     74.5810      0.0000    726.0363      8.1907
   705.0000     77.3535      0.0000    726.4140      8.1696
   705.2500     78.3571      0.0000    729.2820      8.1718
   705.5000     77.1679      0.0000    734.1441      8.1919
   705.7500     74.0274      0.0000    739.8116      8.2274
   706.0000     69.7701      0.0000    744.5461      8.2831
   706.2500     65.4817      0.0000    746.1807      8.3634
   706.5000     62.2688      0.0000    742.8458      8.4616
   706.7500     61.0792      0.0000    734.8145      8.5613
   707.0000     62.2758      0.0000    725.8260      8.6427
   707.2500     65.3132      0.0000    721.4359      8.6873
   707.5000     68.9339      0.0000    725.3250      8.6811
   707.7500     71.6637      0.0000    737.3497      8.6202
   708.0000     72.2784      0.0000    754.4364      8.5191
   708.2500     70.2093      0.0000    772.0872      8.4093
   708.5000     65.8583      0.0000    785.4352      8.3243
   708.7500     60.5910      0.0000    790.5924      8.2814
   709.0000     56.2084      0.0000    786.1856      8.2792
   709.2500     54.1038      0.0000    774.3396      8.3061
   709.5000     54.6385      0.0000    760.3151      8.3436
   709.7500     57.1126      0.0000    750.0290      8.3661
   710.0000     60.3557      0.0000    746.4752      8.3507
   710.2500     63.4401      0.0000    748.0540      8.2950
   710.5000     65.9147      0.0000    750.4070      8.2236
   710.7500     67.6473      0.0000    749.8603      8.1756
   711.0000     68.8267      0.0000    745.6443      8.1827
   711.2500     69.9534      0.0000    739.8521      8.2549
   711.5000     71.3458      0.0000    735.7661      8.3786
   711.7500     72.6801      0.0000    735.7667      8.5194
   712.0000     73.4069      0.0000    740.0032      8.6304
   712.2500     73.6086      0.0000    746.5622      8.6735
   712.5000     74.0819      0.0000    752.8985      8.6395
   712.7500     75.2879      0.0000    757.3851      8.5495
   713.0000     76.3147      0.0000    759.7906      8.4379
   713.2500     75.3455      0.0000    760.6497      8.3373
   713.5000     71.4500      0.0000    760.4199      8.2702
   713.7500     65.6430      0.0000    759.2061      8.2452
   714.0000     60.0203      0.0000    757.1249      8.2618
   714.2500     56.1549      0.0000    754.7344      8.3190
   714.5000     54.4979      0.0000    752.7159      8.4147
   714.7500     54.8381      0.0000    750.8813      8.5350
   715.0000     56.7280      0.0000    747.9307      8.6474
   715.2500     59.5365      0.0000    742.7900      8.7142
   715.5000     62.7386      0.0000    736.0661      8.7119
   715.7500     66.5504      0.0000    729.7975      8.6396
   716.0000     71.9252      0.0000    725.9896      8.5147
   716.2500     79.4507      0.0000    725.6748      8.3684
   716.5000     88.2888      0.0000    728.8610      8.2420
   716.7500     96.4796      0.0000    734.5123      8.1780
   717.0000    102.4252      0.0000    740.5833      8.2048
   717.2500    106.1006      0.0000    744.9160      8.3201
   717.5000    108.9604      0.0000    746.5511      8.4839
   717.7500    112.8424      0.0000    745.8657      8.6363
   718.0000    118.8354      0.0000    743.4402      8.7359
   718.2500    126.6636      0.0000    739.5284      8.7852
   718.5000    134.7424      0.0000    734.8780      8.8159
   718.7500    140.9565      0.0000    731.2242      8.8490
   719.0000    143.9522      0.0000    730.2881      8.8755
   719.2500    144.1332      0.0000    732.5081      8.8723
   719.5000    143.3290      0.0000    737.0187      8.8280
   719.7500    143.2712      0.0000    742.5212      8.7566
   720.0000    144.4600      0.0000    747.8183      8.6940
   720.2500    146.3892      0.0000    751.7907      8.6797
   720.5000    148.1942      0.0000    753.5845      8.7342
   720.7500    148.8118      0.0000    753.2029      8.8475
   721.0000    147.1070      0.0000    751.8029      8.9879
   721.2500    142.4995      0.0000    751.0557      9.1218
   721.5000    135.5477      0.0000    751.9161      9.2309
   721.7500    127.6140      0.0000    754.0012      9.3144
   722.0000    119.8363      0.0000    756.2038      9.3805
   722.2500    112.5465      0.0000    757.7118      9.4419
   722.5000    105.6506      0.0000    758.3969      9.5180
   722.7500     99.2244      0.0000    758.5096      9.6287
   723.0000     93.6632      0.0000    758.2080      9.7781
   723.2500     89.5242      0.0000    757.1790      9.9458
   723.5000     87.2886      0.0000    754.5195     10.1019
   723.7500     86.8639      0.0000    749.1340     10.2281
   724.0000     87.1405      0.0000    740.6990     10.3195
   724.2500     86.4487      0.0000    730.5182     10.3751
   724.5000     83.8463      0.0000    721.2874     10.3994
   724.7500     79.9392      0.0000    715.6448     10.4127
   725.0000     76.3847      0.0000    714.7557     10.4449
   725.2500     74.6216      0.0000    718.2194     10.5048
   725.5000     74.8737      0.0000    724.9648     10.5519
   725.7500     76.1668      0.0000    733.7024     10.5103
   726.0000     77.5601      0.0000    742.6252     10.3260
   726.2500     79.6295      0.0000    749.4703     10.0111
   726.5000     84.5809      0.0000    752.4630      9.6232
   726.7500     94.5564      0.0000    751.3951      9.2143
   727.0000    109.6508      0.0000    748.0132      8.8105
   727.2500    127.4232      0.0000    745.2880      8.4288
   727.5000    144.0722      0.0000    745.5671      8.0941
   727.7500    156.1279      0.0000    748.8846      7.8349
   728.0000    161.8718      0.0000    753.2058      7.6709
   728.2500    162.0245      0.0000    756.5062      7.6184
   728.5000    159.0722      0.0000    758.5855      7.6960
   728.7500    155.5545      0.0000    761.0322      7.8907
   729.0000    152.8646      0.0000    765.6375      8.1043
   729.2500    151.3086      0.0000    772.7477      8.1883
   729.5000    150.5210      0.0000    781.0884      8.0757
   729.7500    149.5759      0.0000    788.9918      7.8453
   730.0000    147.3427      0.0000    795.3737      7.6286
   730.2500    143.3782      0.0000    799.2849      7.4947
   730.5000    138.5426     -1.0407    799.2015      7.4386
   730.7500    134.4649     -2.0000    794.0426      7.4262
   731.0000    132.4437      0.0000    785.0511      7.4130
   731.2500    133.1263      0.0000    775.2197      7.3493
   731.5000    136.8341      0.0000    766.2020      7.2183
