~Version Information
VERS.                      2.0: CWLS Log ASCII Standard - VERSION 2.0
WRAP.                       NO: One line per depth step
~Well Information Block
STRT.FT               545.0000: 
STOP.FT              1452.5000: 
STEP.FT                 0.1000: 
NULL.                -999.2500: 
COMP.          Pioneer Natural Resources: COMPANY
WELL.          Parklane 43-34 Tr: WELL
FLD.           Purgatoire River: FIELD
LOC.           1643' FSL & 966' FEL: LOCATION
PROV.                 Colorado: PROVINCE
CNTY.               Las Animas: COUNTRY
SRVC.                Patterson: SERVICE COMPANY
DATE.          Fri Jul 29 07:27:28 2005: LOG DATE
UWI.           05 071 08452 00: UNIQUE WELL ID
~Curve Information Block
DEPT.FT            0 000 00 00: Depth
DCAL.in                       : CDL Caliper
RHOB.g/cc                     : CDL Bulk Density
RHOC.g/cc                     : CDL Density Correction
DPOR.pu                       : CDL Density Porosity
GR.GAPI                       : Gamma Ray
NPOR.pu                       : Neutron Porosity
~Parameter Information Block
~A  Depth       DCAL        RHOB        RHOC        DPOR         GR         NPOR    
# ...
  1255.4000      8.0367      2.3538     -0.0024     17.9501     76.6891     14.8063
  1255.5000      8.0676      2.3717      0.0042     16.8675     74.1827     14.8288
  1255.6000      8.0676      2.4068      0.0807     14.7392     67.1936     14.9238
  1255.7000      8.0676      2.4352      0.0621     13.0173     59.1354     15.0834
  1255.8000      8.0575      2.4428      0.0838     12.5564     52.7683     15.0893
  1255.9000      8.0575      2.4421      0.0617     12.6018     49.9036     14.8601
  1256.0000      8.0771      2.4484      0.0800     12.2194     51.1766     14.5809
  1256.1000      8.0771      2.4543      0.0690     11.8636     54.8789     14.3670
  1256.2000      8.0771      2.4441      0.0426     12.4772     58.7287     14.2567
  1256.3000      8.0804      2.4267      0.0019     13.5324     61.6603     14.2628
  1256.4000      8.0804      2.4207      0.0426     13.8984     63.8224     14.3762
  1256.5000      8.0596      2.4200      0.0712     13.9387     65.7550     14.4781
  1256.6000      8.0596      2.4116      0.0421     14.4500     65.8490     14.4877
  1256.7000      8.0596      2.4037     -0.0032     14.9288     63.5059     14.4190
  1256.8000      8.0396      2.4058      0.0295     14.7986     61.6993     14.3520
  1256.9000      8.0396      2.4134      0.0565     14.3368     61.7773     14.3765
  1257.0000      8.0655      2.4241      0.0446     13.6919     62.8638     14.5113
  1257.1000      8.0655      2.4329      0.0483     13.1554     65.2613     14.7031
  1257.2000      8.0655      2.4310      0.0861     13.2719     68.6339     14.6689
  1257.3000      8.0564      2.4247      0.0662     13.6566     70.5387     14.3313
  1257.4000      8.0564      2.4268      0.0884     13.5289     69.4357     14.1278
  1257.5000      8.0483      2.4353      0.0526     13.0120     67.5923     14.0984
  1257.6000      8.0483      2.4322      0.1049     13.2018     66.5577     13.9134
  1257.7000      8.0483      2.4043      0.0283     14.8909     65.2815     13.6059
  1257.8000      8.0330      2.3701     -0.0345     16.9624     64.4855     13.3284
  1257.9000      8.0330      2.3554     -0.0075     17.8554     65.1368     13.1849
  1258.0000      8.0681      2.3574      0.0183     17.7314     65.4379     13.3345
  1258.1000      8.0681      2.3630      0.0187     17.3929     65.7388     13.6772
  1258.2000      8.0681      2.3717     -0.0037     16.8642     66.9871     13.9326
  1258.3000      8.0797      2.3881      0.0136     15.8732     66.6579     14.0530
  1258.4000      8.0797      2.4072      0.0127     14.7160     66.8163     13.9892
  1258.5000      8.0435      2.4157      0.0001     14.1980     70.1869     13.6977
  1258.6000      8.0435      2.4098     -0.0148     14.5546     71.7834     13.4217
  1258.7000      8.0435      2.4011     -0.0104     15.0828     66.8630     13.3388
  1258.8000      8.0563      2.3998     -0.0082     15.1662     59.3081     13.3115
  1258.9000      8.0563      2.4073     -0.0232     14.7062     56.1923     13.2107
  1259.0000      8.0581      2.4206      0.0289     13.9043     56.0279     13.1490
  1259.1000      8.0581      2.4305      0.0276     13.3017     54.0022     13.2658
  1259.2000      8.0581      2.4373     -0.0187     12.8888     52.2042     13.6346
  1259.3000      8.0542      2.4462     -0.0001     12.3510     53.0216     14.1132
  1259.4000      8.0542      2.4445      0.0564     12.4566     54.4303     14.3489
  1259.5000      8.0353      2.4246     -0.0241     13.6634     55.8111     14.2018
  1259.6000      8.0353      2.4037      0.0274     14.9258     57.4196     13.8941
  1259.7000      8.0353      2.3947     -0.0309     15.4722     57.8455     13.7755
  1259.8000      8.0264      2.3939      0.0199     15.5210     56.5463     13.9587
  1259.9000      8.0264      2.3997     -0.0216     15.1678     54.6685     14.2128
  1260.0000      8.0221      2.4174      0.0205     14.0997     53.9946     14.3237
  1260.1000      8.0221      2.4414      0.0424     12.6424     55.6604     14.4572
  1260.2000      8.0221      2.4632      0.0362     11.3241     57.6691     14.6609
  1260.3000      8.0203      2.4793      0.0419     10.3473     56.6854     14.7856
  1260.4000      8.0203      2.4804      0.0635     10.2768     55.1364     14.7361
  1260.5000      8.0175      2.4661      0.0249     11.1425     56.9580     14.4874
  1260.6000      8.0175      2.4534      0.0320     11.9154     59.6218     14.2874
  1260.7000      8.0175      2.4560      0.0307     11.7582     59.8620     14.4279
  1260.8000      8.0217      2.4786      0.0139     10.3872     58.7975     15.0514
  1260.9000      8.0217      2.5064      0.0925      8.7061     58.7893     15.8523
  1261.0000      8.0222      2.5058      0.0922      8.7384     60.1312     16.1594
  1261.1000      8.0222      2.4701      0.0169     10.9014     62.1718     15.8329
  1261.2000      8.0222      2.4335      0.0212     13.1240     63.9267     15.3826
  1261.3000      7.9974      2.4262     -0.0258     13.5637     63.0923     15.3666
  1261.4000      7.9974      2.4466     -0.0197     12.3264     60.0867     15.6240
  1261.5000      7.9911      2.4736      0.0468     10.6920     59.4381     15.4046
  1261.6000      7.9911      2.4894      0.0322      9.7346     64.2593     14.7623
  1261.7000      7.9911      2.4968      0.0015      9.2840     71.6533     14.4063
  1261.8000      7.9867      2.5099      0.0457      8.4891     75.3434     14.4064
  1261.9000      7.9867      2.5283      0.0731      7.3736     72.4415     14.5439
  1262.0000      7.9869      2.5386      0.0769      6.7490     65.7516     14.8771
  1262.1000      7.9869      2.5281      0.0692      7.3880     62.0830     15.3630
  1262.2000      7.9869      2.4971      0.0645      9.2672     64.0478     15.7643
  1262.3000      7.9846      2.4706     -0.0278     10.8702     65.0941     15.9330
  1262.4000      7.9846      2.4751      0.0616     10.5971     61.0790     15.9716
  1262.5000      7.9781      2.5022      0.0141      8.9546     57.7719     16.0651
  1262.6000      7.9781      2.5227      0.0163      7.7148     59.1539     16.2531
  1262.7000      7.9781      2.5241      0.0298      7.6293     61.7627     16.4752
  1262.8000      7.9884      2.5187      0.0554      7.9561     63.5413     16.5069
  1262.9000      7.9884      2.5175     -0.0018      8.0305     64.8502     16.4431
  1263.0000      8.0065      2.5221      0.0224      7.7490     65.7878     16.6337
  1263.1000      8.0065      2.5235      0.0563      7.6682     65.8047     16.8958
  1263.2000      8.0065      2.5147     -0.0190      8.2001     65.0436     16.8779
  1263.3000      8.0004      2.5126     -0.0099      8.3254     66.2994     16.7510
  1263.4000      8.0004      2.5262      0.0281      7.5058     69.0993     16.7449
  1263.5000      7.9880      2.5439      0.0325      6.4328     69.3641     16.7866
  1263.6000      7.9880      2.5554      0.0468      5.7331     66.4294     16.5954
  1263.7000      7.9880      2.5517      0.0248      5.9551     63.1220     16.0090
  1263.8000      7.9851      2.5199      0.0249      7.8837     62.1311     15.2589
  1263.9000      7.9851      2.4652     -0.0343     11.1997     62.0813     14.6197
  1264.0000      7.9853      2.4230     -0.0608     13.7604     61.4365     14.2720
  1264.1000      7.9853      2.4197     -0.0652     13.9601     62.8716     14.3711
  1264.2000      7.9853      2.4491      0.0138     12.1772     68.3055     14.6772
  1264.3000      7.9849      2.4892      0.0423      9.7444     74.8985     14.7756
  1264.4000      7.9849      2.5195      0.0477      7.9110     77.5229     14.8290
  1264.5000      7.9851      2.5223      0.0949      7.7373     75.4028     15.1298
  1264.6000      7.9851      2.5055      0.0051      8.7589     73.0209     15.3823
  1264.7000      7.9851      2.5033      0.0138      8.8893     74.3595     15.3031
  1264.8000      7.9869      2.5217      0.0390      7.7744     76.3776     15.0029
  1264.9000      7.9869      2.5355      0.0471      6.9393     74.2083     14.7033
