~Version Information
VERS.                      2.0: CWLS Log ASCII Standard - VERSION 2.0
WRAP.                       NO: One line per depth step
~Well Information Block
STRT.FT                 0.0000: 
STOP.FT              2086.0000: 
STEP.FT                 0.2500: 
NULL.                -999.2500: 
COMP.          Petrogulf Corporation: COMPANY
WELL.               YWAM 7-32R: WELL
FLD.           Purgatorie River: FIELD
LOC.           2355' FNL & 2376' FEL: LOCATION
STAT.                 Colorado: State
CNTY.               Las Animas: COUNTY
CTRY. USA : Country
SECT. 7 : Section
TOWN. 33S : Township
RANG. 67W : Range
SRVC.                Patterson: SERVICE COMPANY
DATE.          Wed Nov 09 16:33:59 2005: LOG DATE
API. 05-071-08518                         : UNIQUE WELL ID
~Curve Information Block
DEPT.FT            0 000 00 00: Depth
CCL.                          : Casing Collar Locator
TT3.usec                      : CBL 3' Travel Time
AMP3.mV                       : CBL 3' Amplitude
GR.GAPI                       : Gamma Ray
~Parameter Information Block
~A  Depth       CCL         TT3         AMP3         GR     
# ...
   402.0000      0.0000    675.6594      6.2021     84.3568
   402.2500      0.0000    675.6872      6.3575     86.6617
   402.5000      0.0000    675.2825      6.5693     88.0102
   402.7500      0.0000    674.4615      6.7744     89.1404
   403.0000      0.0000    673.4453      6.9186     89.9315
   403.2500      0.0000    672.5099      7.0085     89.4163
   403.5000      0.0000    671.8451      7.0987     87.3190
   403.7500      0.0000    670.6554      7.2337     85.1190
   404.0000      0.0000    664.7307      7.4306     84.9679
   404.2500      0.0000    646.5796      7.6457     87.6226
   404.5000      0.0000    618.2523      7.7104     91.7432
   404.7500      0.0000    602.7030      7.4234     95.1263
   405.0000      0.0000    618.4206      6.8874     96.3577
   405.2500      0.0000    650.3691      6.5159     95.3507
   405.5000      0.0000    673.6969      6.3952     92.6602
   405.7500      0.0000    686.5483      6.1680     88.7501
   406.0000      0.0000    700.8434      5.7248     84.1824
   406.2500      0.0000    715.5642      5.3130     80.2050
   406.5000      0.0000    713.8929      5.0988     78.5509
   406.7500     -2.0000    689.5706      5.0603     80.4244
   407.0000      2.0000    662.2587      5.1235     85.6841
   407.2500      0.0000    652.5976      5.2654     92.9022
   407.5000      0.0000    653.4346      5.5430    100.0575
   407.7500      0.0000    643.8975      6.0644    105.2910
   408.0000      0.0000    621.0666      6.8042    107.5209
   408.2500      0.0000    599.7115      7.3945    106.8934
   408.5000      0.0000    591.9402      7.4873    104.5939
   408.7500      0.0000    598.0287      7.2396    101.8754
   409.0000      0.0000    609.5598      6.9791     99.2614
   409.2500      0.0000    617.9103      6.7682     96.7796
   409.5000      0.0000    620.2976      6.5391     94.5560
   409.7500      0.0000    619.2959      6.2922     92.7076
   410.0000      0.0000    620.1490      6.0765     90.9508
   410.2500      0.0000    626.8260      5.9209     88.9821
   410.5000      0.0000    637.5486      5.8290     87.1985
   410.7500      0.0000    645.5495      5.8188     86.4007
   411.0000      0.0000    646.7262      5.9287     86.6413
   411.2500      0.0000    645.9016      6.1554     86.8804
   411.5000      0.0000    651.5493      6.4243     86.0179
   411.7500      0.0000    665.1103      6.6625     84.0886
   412.0000      0.0000    679.4471      6.8497     82.4637
   412.2500      0.0000    686.1579      6.9937     82.9331
   412.5000      0.0000    682.6596      7.1299     86.2115
   412.7500      0.0000    673.7303      7.3109     91.0484
   413.0000      0.0000    666.2747      7.5639     94.9980
   413.2500      0.0000    662.0606      7.8934     96.2679
   413.5000      0.0000    656.3577      8.2940     94.8637
   413.7500      0.0000    646.0395      8.7311     92.1389
   414.0000      0.0000    635.2227      9.1272     89.5291
   414.2500      0.0000    628.7630      9.4024     87.7229
   414.5000      0.0000    626.5125      9.5248     86.9035
   414.7500      0.0000    626.1716      9.4919     87.4006
   415.0000      0.0000    626.9918      9.3000     89.4705
   415.2500      0.0000    629.2849      8.9667     92.3912
   415.5000      0.0000    628.9813      8.5577     94.5674
   415.7500      0.0000    613.7427      8.1684     95.0583
   416.0000      0.0000    576.7770      7.8460     94.5818
   416.2500      0.0000    538.0885      7.5345     94.5201
   416.5000      0.0000    528.8423      7.1715     95.1524
   416.7500      0.0000    550.8472      6.7981     95.3807
   417.0000      0.0000    578.9056      6.4929     94.1000
   417.2500      0.0000    592.6813      6.2749     91.2316
   417.5000      0.0000    581.0054      6.1228     87.2863
   417.7500      0.0000    538.4926      6.0127     82.6717
   418.0000      0.0000    478.5787      5.9291     77.9130
   418.2500      0.0000    432.3275      5.8907     74.0229
   418.5000      0.0000    423.7877      5.9165     72.1024
   418.7500      0.0000    453.6173      5.9609     72.6139
   419.0000      0.0000    499.8349      5.9723     75.1252
   419.2500      0.0000    526.6141      5.9769     78.6090
   419.5000      0.0000    508.5619      6.0114     81.8057
   419.7500      0.0000    457.1542      6.0582     83.4534
   420.0000      0.0000    408.7317      6.0966     82.7710
   420.2500      0.0000    386.8719      6.1149     80.1396
   420.5000      0.0000    393.2332      6.1005     76.9793
   420.7500      0.0000    421.0561      6.0872     74.6126
   421.0000      0.0000    457.8221      6.1396     73.5161
   421.2500      0.0000    488.0609      6.2806     73.7838
   421.5000      0.0000    505.7310      6.4778     75.6243
   421.7500      0.0000    514.9903      6.6771     78.7626
   422.0000      0.0000    519.1301      6.8312     81.7651
   422.2500      0.0000    517.7089      6.9378     82.8545
   422.5000      0.0000    510.7656      7.0540     81.6298
   422.7500      0.0000    503.2746      7.2198     79.4701
   423.0000      0.0000    508.3507      7.3862     77.9774
   423.2500      0.0000    532.8818      7.4900     77.4491
   423.5000      0.0000    559.1909      7.5528     77.2375
   423.7500      0.0000    562.7038      7.6325     77.2301
   424.0000      0.0000    542.2896      7.7487     78.3195
   424.2500      0.0000    517.0599      7.8859     81.2777
   424.5000      0.0000    502.7926      8.0134     85.4856
   424.7500      0.0000    501.1753      8.1081     89.0811
   425.0000      0.0000    505.2979      8.1639     90.4725
   425.2500      0.0000    509.1374      8.1635     89.6298
   425.5000      0.0000    511.9008      8.0826     87.8471
   425.7500      0.0000    517.2034      7.9398     86.4998
   426.0000      0.0000    530.3690      7.7812     86.3448
   426.2500      0.0000    551.5214      7.6193     87.6526
   426.5000      0.0000    570.4604      7.4596     90.1764
   426.7500      0.0000    575.8624      7.3577     92.7742
   427.0000      0.0000    565.4852      7.3659     93.7739
   427.2500      0.0000    544.9332      7.4379     92.3224
   427.5000      0.0000    524.5319      7.4752     89.1767
   427.7500      0.0000    511.9620      7.4656     85.9000
   428.0000      0.0000    506.0646      7.4863     83.5650
   428.2500      0.0000    500.6184      7.5714     82.4376
   428.5000      0.0000    490.1986      7.6597     82.4131
   428.7500      0.0000    475.6945      7.6583     83.1295
   429.0000      0.0000    465.3674      7.5266     83.6581
   429.2500      0.0000    461.2334      7.3550     82.7164
   429.5000      0.0000    451.2723      7.3289     79.7440
   429.7500      0.0000    428.2138      7.5299     75.7266
   430.0000      0.0000    402.0974      7.8291     72.5656
   430.2500      0.0000    386.0047      8.0235     71.5314
   430.5000      0.0000    383.4266      8.0360     72.4133
   430.7500      0.0000    390.6503      7.9425     74.0316
   431.0000      0.0000    400.7116      7.8450     75.3442
   431.2500      0.0000    405.8900      7.7993     76.0788
   431.5000      0.0000    403.1107      7.8298     76.5641
   431.7500      0.0000    396.6838      7.9339     77.1655
   432.0000      0.0000    392.2887      8.0923     77.7588
   432.2500      0.0000    389.6913      8.2871     77.7249
   432.5000      0.0000    385.8750      8.4748     76.7506
   432.7500      0.0000    381.8697      8.5857     75.5333
   433.0000      0.0000    381.7624      8.6045     75.1724
   433.2500      0.0000    389.2267      8.5908     75.9289
   433.5000      0.0000    404.9616      8.5995     77.0128
   433.7500      0.0000    423.9567      8.6347     77.3537
   434.0000      0.0000    438.6980      8.6625     76.1239
   434.2500      0.0000    444.0933      8.6518     72.8429
   434.5000      0.0000    437.1355      8.6212     67.6390
   434.7500      0.0000    419.3212      8.6316     61.5071
   435.0000      0.0000    399.0750      8.7382     55.9420
   435.2500      0.0000    384.9223      8.9445     52.1108
