~Version Information
VERS.                      2.0: CWLS Log ASCII Standard - VERSION 2.0
WRAP.                       NO: One line per depth step
~Well Information Block
STRT.FT                14.0000: 
STOP.FT              1631.0000: 
STEP.FT                 0.1000: 
NULL.                -999.2500: 
COMP.          Pioneer Natural Resources: COMPANY
WELL.            Bluesky 44-17: WELL
FLD.           Purgatorie River: FIELD
LOC.           39' FSL & 288' FEL: LOCATION
STAT.                 Colorado: State
CNTY.               Las Animas: COUNTY
CTRY. USA : Country
SECT. 17 : Section
TOWN. 33S : Township
RANG. 66W : Range
SRVC.                Patterson: SERVICE COMPANY
DATE.          Thu Sep 08 07:30:20 2005: LOG DATE
API. 05-071-08511                         : UNIQUE WELL ID
~Curve Information Block
DEPT.FT            0 000 00 00: Depth
DCAL.in                       : CDL Caliper
RHOB.g/cc                     : CDL Bulk Density
RHOC.g/cc                     : CDL Density Correction
DPOR.pu                       : CDL Density Porosity
GR.GAPI                       : Gamma Ray
NPOR.pu                       : Neutron Porosity
~Parameter Information Block
~A  Depth       DCAL        RHOB        RHOC        DPOR         GR         NPOR    
    14.0000     18.0504      1.9015      2.0000     -0.0150     92.8204     31.7503
    14.1000     18.0504      1.9241      2.0000     -0.0145     91.4484     31.3409
    14.2000     18.0504      1.9428      2.0000     -0.0142     90.9115     30.9206
    14.3000     18.0515      1.9500      2.0000     -0.0140     91.3148     30.6671
    14.4000     18.0515      1.9505      2.0000     -0.0140     94.1671     30.6857
    14.5000     18.0466      1.9574      2.0000     -0.0139     96.9270     31.0122
    14.6000     18.0466      1.9727      2.0000     -0.0136     95.6425     31.3146
    14.7000     18.0466      1.9845      2.0000     -0.0133     92.9946     31.2155
    14.8000     18.0457      1.9868      2.0000     -0.0133     92.9235     30.8243
    14.9000     18.0457      1.9868      2.0000     -0.0133     95.3824     30.5086
    15.0000     18.0456      1.9911      2.0000     -0.0132     99.5311     30.3951
    15.1000     18.0456      1.9977      2.0000     -0.0131    103.3283     30.4003
    15.2000     18.0456      1.9951      2.0000     -0.0131    104.4936     30.5630
    15.3000     18.0511      1.9766      2.0000     -0.0135    103.5903     30.8805
    15.4000     18.0511      1.9573      2.0000     -0.0139    103.3474     31.0910
    15.5000     18.0482      1.9554      2.0000     -0.0139    102.0165     30.9355
    15.6000     18.0482      1.9669      2.0000     -0.0137     96.4643     30.5853
    15.7000     18.0482      1.9734      2.0000     -0.0135     92.1152     30.3248
    15.8000     18.0497      1.9692      2.0000     -0.0136     93.6889     30.2244
    15.9000     18.0497      1.9643      2.0000     -0.0137     95.1220     30.3308
    16.0000     18.0435      1.9684      2.0000     -0.0136     90.2781     30.6404
    16.1000     18.0435      1.9796      2.0000     -0.0134     83.8310     30.9182
    16.2000     18.0435      1.9871      2.0000     -0.0133     82.5775     30.8016
    16.3000     18.0468      1.9866      2.0000     -0.0133     85.1778     30.1796
    16.4000     18.0468      1.9830      2.0000     -0.0133     88.4461     29.2711
    16.5000     18.0485      1.9847      2.0000     -0.0133     92.7171     28.7674
    16.6000     18.0485      1.9944      2.0000     -0.0131     98.4161     29.0505
    16.7000     18.0485      2.0036      2.0000     -0.0129    103.6299     29.5772
    16.8000     18.0497      2.0086      2.0000     -0.0128    106.0869     29.7849
    16.9000     18.0497      2.0132      2.0000     -0.0127    105.3321     29.5618
    17.0000     18.0498      2.0164      2.0000     -0.0127    103.8007     29.0037
    17.1000     18.0498      2.0164      2.0000     -0.0127    103.2835     28.3039
    17.2000     18.0498      2.0158      2.0000     -0.0127    104.4964     27.7878
    17.3000     18.0498      2.0158      2.0000     -0.0127    105.2375     27.4989
    17.4000     18.0498      2.0174      2.0000     -0.0127    102.1452     27.1476
    17.5000     18.0493      2.0234      2.0000     -0.0125     98.0107     26.8023
    17.6000     18.0493      2.0310      2.0000     -0.0124     96.4247     26.8626
    17.7000     18.0493      2.0366      2.0000     -0.0123     95.3908     27.2551
    17.8000     18.0467      2.0462      2.0000     -0.0121     91.7822     27.5842
    17.9000     18.0467      2.0662      2.0000     -0.0117     88.8383     27.5767
    18.0000     18.0562      2.0939      2.0000     -0.0111     91.9359     27.2431
    18.1000     18.0562      2.1157      2.0000     -0.0107     98.1854     26.9273
    18.2000     18.0562      2.1164      2.0000     -0.0107    102.1379     26.7296
    18.3000     18.0479      2.1018      2.0000     -0.0110    104.6747     26.4826
    18.4000     18.0479      2.0951      2.0000     -0.0111    106.1082     26.2296
    18.5000     18.0438      2.1090      2.0000     -0.0108    106.3831     26.2790
    18.6000     18.0438      2.1338      2.0000     -0.0103    108.5545     26.4655
    18.7000     18.0438      2.1549      2.0000     -0.0099    112.6380     26.3520
    18.8000     18.0521      2.1717      2.0000     -0.0096    115.1321     26.1346
    18.9000     18.0521      2.1910      2.0000     -0.0092    113.3441     26.1484
    19.0000     18.0500      2.2096      2.0000     -0.0088    109.3507     26.0891
    19.1000     18.0500      2.2258      2.0000     -0.0085    108.7323     25.5252
    19.2000     18.0500      2.2498      2.0000     -0.0080    111.9246     24.4844
    19.3000     18.0476      2.2769      2.0000     -0.0075    114.2294     23.3056
    19.4000     18.0476      2.2855      2.0000     -0.0073    114.0742     22.5165
    19.5000     18.0485      2.2735      2.0000     -0.0075    114.3287     22.4773
    19.6000     18.0485      2.2625      2.0000     -0.0078    113.9985     22.8068
    19.7000     18.0485      2.2701      2.0000     -0.0076    110.3626     22.7634
    19.8000     18.0501      2.2905      2.0000     -0.0072    105.3546     22.1172
    19.9000     18.0501      2.3035      2.0000     -0.0069    102.2552     21.2055
    20.0000     18.0529      2.3014      2.0000     -0.0070    102.8022     20.6691
    20.1000     18.0529      2.2957      2.0000     -0.0071    104.7328     20.6064
    20.2000     18.0529      2.2943      2.0000     -0.0071    104.8359     20.6174
    20.3000     18.0505      2.2894      2.0000     -0.0072    102.4218     20.8518
    20.4000     18.0505      2.2768      2.0000     -0.0075     99.4936     21.3525
    20.5000     18.0526      2.2664      2.0000     -0.0077     99.9021     21.5799
    20.6000     18.0526      2.2665      2.0000     -0.0077    103.8410     21.5061
    20.7000     18.0526      2.2735      2.0000     -0.0075    106.5706     21.7009
    20.8000     18.0553      2.2789      2.0000     -0.0074    106.3939     22.1696
    20.9000     18.0553      2.2803      2.0000     -0.0074    105.6095     22.2294
    21.0000     18.0508      2.2755      2.0000     -0.0075    103.4392     21.7626
    21.1000     18.0508      2.2581      2.0000     -0.0078     99.2112     21.4199
    21.2000     18.0508      2.2338      2.0000     -0.0083     95.1679     21.6123
    21.3000     18.0523      2.2195      2.0000     -0.0086     92.5359     21.9562
    21.4000     18.0523      2.2205      2.0000     -0.0086     92.1501     21.9158
    21.5000     18.0538      2.2320      2.0000     -0.0084     94.2162     21.4881
    21.6000     18.0538      2.2487      2.0000     -0.0080     96.8338     21.0603
    21.7000     18.0538      2.2612      2.0000     -0.0078     97.7694     20.8960
    21.8000     18.0547      2.2601      2.0000     -0.0078     95.8889     21.0190
    21.9000     18.0547      2.2509      2.0000     -0.0080     92.9061     21.2625
    22.0000     18.0527      2.2516      2.0000     -0.0080     91.6694     21.1804
    22.1000     18.0527      2.2644      2.0000     -0.0077     92.8567     20.8031
    22.2000     18.0527      2.2790      2.0000     -0.0074     95.5403     20.7897
    22.3000     18.0525      2.2910      2.0000     -0.0072     97.3622     21.0235
    22.4000     18.0525      2.2985      2.0000     -0.0070     96.5768     20.9397
    22.5000     18.0525      2.2997      2.0000     -0.0070     95.2299     20.8671
    22.6000     18.0525      2.2967      2.0000     -0.0071     94.8220     21.1415
    22.7000     18.0525      2.2957      2.0000     -0.0071     94.9990     21.4045
    22.8000     18.0537      2.2976      2.0000     -0.0071     95.4288     21.4026
    22.9000     18.0537      2.2966      2.0000     -0.0071     94.2406     21.3603
    23.0000     18.0623      2.2922      2.0000     -0.0072     92.2138     21.3701
    23.1000     18.0623      2.2932      2.0000     -0.0071     93.2234     21.3488
    23.2000     18.0623      2.3091      2.0000     -0.0068     96.9470     21.3309
    23.3000     18.0581      2.3327      2.0000     -0.0064     99.0289     21.2301
    23.4000     18.0581      2.3479      2.0000     -0.0060     97.8296     21.1025
    23.5000     18.0551      2.3447      2.0000     -0.0061     96.7774     21.1428
