~Version Information
VERS.                      2.0: CWLS Log ASCII Standard - VERSION 2.0
WRAP.                       NO: One line per depth step
~Well Information Block
STRT.FT                -4.0000: 
STOP.FT               675.2500: 
STEP.FT                 0.2500: 
NULL.                -999.2500: 
COMP.          Pioneer Natural Resources: COMPANY
WELL.          Razor Clam 23-27: WELL
FLD.           Purgatoire River: FIELD
LOC.           2499' FSL & 2636' FWL: LOCATION
CNTY.               Las Animas: COUNTY
SRVC.                         : SERVICE COMPANY
DATE.          Thu Mar 09 13:15:19 2006: LOG DATE
UWI.           05 071 08667 00: UNIQUE WELL ID
STAT.                       CO: STATE
~Curve Information Block
DEPT.FT            0 000 00 00: Depth
GR.GAPI                       : Gamma Ray
CCL.                          : Casing Collar Locator
TT3.usec                      : CBL 3' Travel Time
AMP3.mV                       : CBL 3' Amplitude
~Parameter Information Block
~A  Depth        GR         CCL         TT3         AMP3    
# ...
   297.5000    127.7566      0.0000    775.3334     12.0292
   297.7500    126.2892      0.0000    759.3348     12.6682
   298.0000    125.8442      0.0000    744.0626     13.3333
   298.2500    125.9526      0.0000    732.0604     13.8998
   298.5000    124.6544      0.0000    723.8171     14.2961
   298.7500    120.4802      0.0000    719.3745     14.5410
   299.0000    113.9254      0.0000    718.7817     14.7107
   299.2500    107.1304      0.0000    721.2607     14.8588
   299.5000    102.1819      0.0000    725.0311     14.9806
   299.7500     99.7891      0.0000    728.3716     15.0546
   300.0000     99.3593      0.0000    730.5601     15.0897
   300.2500     99.9191      0.0000    731.7240     15.1224
   300.5000    100.9272      0.0000    732.1926     15.1777
   300.7500    102.4414      0.0000    732.1794     15.2460
   301.0000    104.4904      0.0000    731.8505     15.2915
   301.2500    106.3889      0.0000    731.4078     15.2822
   301.5000    106.9892      0.0000    731.0289     15.2134
   301.7500    105.6108      0.0000    730.7823     15.1073
   302.0000    102.5307      0.0000    730.6407     14.9983
   302.2500     98.6090      0.0000    730.5643     14.9167
   302.5000     94.4685      0.0000    730.5462     14.8792
   302.7500     89.8767      0.0000    730.5847     14.8825
   303.0000     84.1464      0.0000    730.6499     14.9085
   303.2500     77.5684      0.0000    730.7085     14.9358
   303.5000     72.2516      0.0000    730.7596     14.9490
   303.7500     70.9267      0.0000    730.8184     14.9406
   304.0000     74.7672      0.0000    730.8789     14.9123
   304.2500     82.5022      0.0000    730.9189     14.8766
   304.5000     91.3353      0.0000    730.9357     14.8503
   304.7500     98.4530      0.0000    730.9536     14.8390
   305.0000    102.1628      0.0000    730.9942     14.8302
   305.2500    102.2842      0.0000    731.0490     14.8065
   305.5000     99.5866      0.0000    731.0814     14.7656
   305.7500     94.9237      0.0000    731.0303     14.7213
   306.0000     89.1597      0.0000    730.7818     14.6870
   306.2500     83.5207      0.0000    730.1294     14.6625
   306.5000     79.2679      0.0000    728.8529     14.6366
   306.7500     76.9679      0.0000    727.0258     14.5999
   307.0000     76.3076      0.0000    725.3098     14.5571
   307.2500     76.4777      0.0000    724.6890     14.5273
   307.5000     76.6300      0.0000    725.6306     14.5305
   307.7500     76.1056      0.0000    727.6013     14.5727
   308.0000     74.4889      0.0000    729.5845     14.6435
   308.2500     71.7262      0.0000    730.9327     14.7231
   308.5000     68.2319      0.0000    731.6121     14.7883
   308.7500     64.5794      0.0000    731.8727     14.8208
   309.0000     61.0103      0.0000    731.9291     14.8162
   309.2500     57.5854      0.0000    731.8943     14.7855
   309.5000     54.9188      0.0000    731.8298     14.7466
   309.7500     54.2309      0.0000    731.7762     14.7133
   310.0000     56.1872      0.0000    731.7580     14.6934
   310.2500     59.8607      0.0000    731.7765     14.6908
   310.5000     63.2976      0.0000    731.8116     14.7068
   310.7500     65.1669      0.0000    731.8297     14.7369
   311.0000     65.6101      0.0000    731.8015     14.7697
   311.2500     65.5244      0.0000    731.7205     14.7928
   311.5000     65.4695      0.0000    731.6059     14.8003
   311.7500     65.7100      0.0000    731.4828     14.7970
   312.0000     67.2456      0.0000    731.3640     14.7979
   312.2500     72.0607      0.0000    731.2553     14.8222
   312.5000     81.6331      0.0000    731.1751     14.8775
   312.7500     95.1102      0.0000    731.1572     14.9461
   313.0000    109.2019      0.0000    731.2286     14.9927
   313.2500    119.9311      0.0000    731.3905     14.9927
   313.5000    124.8400      0.0000    731.6210     14.9483
   313.7500    124.3542      0.0000    731.8842     14.8769
   314.0000    121.3154      0.0000    732.1277     14.7903
   314.2500    118.6868      0.0000    732.2921     14.6903
   314.5000    117.5592      0.0000    732.3164     14.5739
   314.7500    117.5441      0.0000    732.0956     14.4383
   315.0000    118.5326      0.0000    731.4020     14.2916
   315.2500    121.0836      0.0000    729.9627     14.1689
   315.5000    124.9492      0.0000    727.8036     14.1173
   315.7500    128.0391      0.0000    725.5460     14.1510
   316.0000    127.5599      0.0000    724.0594     14.2331
   316.2500    122.2867      0.0000    723.6269     14.3141
   316.5000    113.4824      0.0000    723.7477     14.3749
   316.7500    103.5865      0.0000    723.9995     14.4210
   317.0000     94.4889      0.0000    724.6760     14.4499
   317.2500     87.2348      0.0000    726.2092     14.4443
   317.5000     82.5473      0.0000    728.3536     14.4017
   317.7500     80.7720      0.0000    730.3520     14.3590
   318.0000     81.4778      0.0000    731.6618     14.3770
   318.2500     83.6254      0.0000    732.2407     14.4914
   318.5000     86.1052      0.0000    732.3219     14.6753
   318.7500     87.9690      0.0000    732.1306     14.8503
   319.0000     88.4280      0.0000    731.7194     14.9403
   319.2500     87.0900      0.0000    730.9034     14.9186
   319.5000     84.3283      0.0000    729.3831     14.8097
   319.7500     81.2874      0.0000    727.1519     14.6599
   320.0000     79.4411      0.0000    724.8525     14.5138
   320.2500     79.9657      0.0000    723.2611     14.4095
   320.5000     83.0332      0.0000    721.6265     14.3790
   320.7500     87.4558      0.0000    715.8967     14.4330
   321.0000     91.4803      0.0000    698.6846     14.5444
   321.2500     94.3548      0.0000    662.6354     14.6597
   321.5000     96.8550      0.0000    606.9949     14.7408
   321.7500    100.1430      0.0000    542.4939     14.7892
   322.0000    104.5817      0.0000    487.3588     14.8219
   322.2500    109.7625      0.0000    455.0764     14.8312
   322.5000    114.9396      0.0000    445.6861     14.7787
   322.7500    118.9442      0.0000    449.9491     14.6334
   323.0000    120.1458      0.0000    460.9493     14.4174
   323.2500    117.4124      0.0000    480.1403     14.2071
   323.5000    111.4365      0.0000    512.6057     14.0822
   323.7500    104.7084      0.0000    557.6438     14.0737
   324.0000     99.7501      0.0000    604.1270     14.1602
   324.2500     97.3463      0.0000    635.0925     14.2944
   324.5000     96.4358      0.0000    637.8708     14.4271
   324.7500     95.5062      0.0000    611.7271     14.5226
   325.0000     94.0116      0.0000    567.7375     14.5675
   325.2500     92.4956      0.0000    521.6077     14.5696
   325.5000     91.5546      0.0000    484.9938     14.5472
   325.7500     91.0505      0.0000    461.3639     14.5215
   326.0000     90.3347      0.0000    447.6546     14.5091
   326.2500     88.9241      0.0000    438.1998     14.5152
   326.5000     86.8811      0.0000    427.8001     14.5322
   326.7500     84.6615      0.0000    413.6254     14.5485
   327.0000     82.5451      0.0000    396.2202     14.5593
   327.2500     80.2513      0.0000    378.8364     14.5646
   327.5000     77.2906      0.0000    364.9962     14.5628
   327.7500     73.7181      0.0000    356.2254     14.5529
   328.0000     70.3606      0.0000    351.7793     14.5399
   328.2500     68.3307      0.0000    349.9911     14.5300
   328.5000     68.3821      0.0000    349.6065     14.5237
   328.7500     70.4611      0.0000    350.3459     14.5146
   329.0000     73.6785      0.0000    353.0069     14.4939
   329.2500     76.8420      0.0000    359.2575     14.4544
   329.5000     79.1024      0.0000    370.6433     14.3945
   329.7500     80.0612      0.0000    386.7785     14.3203
   330.0000     79.4211      0.0000    404.2705     14.2420
   330.2500     76.9525      0.0000    418.1829     14.1668
   330.5000     73.0339      0.0000    425.3543     14.0984
   330.7500     68.9569      0.0000    426.5806     14.0396
