~Version Information
VERS.                      2.0: CWLS Log ASCII Standard - VERSION 2.0
WRAP.                       NO: One line per depth step
~Well Information Block
STRT.FT               309.8000: 
STOP.FT              2184.7000: 
STEP.FT                 0.1000: 
NULL.                -999.2500: 
COMP.          Pioneer Natural Resources: COMPANY
WELL.             AMX 13-13 Tr: WELL
FLD.           Purgatoire River: FIELD
LOC.           2401' FSL & 895' FWL--: LOCATION
PROV.                 Colorado: PROVINCE
CNTY.               Las Animas: COUNTRY
SRVC.                Patterson: SERVICE COMPANY
DATE.          Thu Dec 22 15:57:57 2005: LOG DATE
UWI.           05 071 08631 00: UNIQUE WELL ID
~Curve Information Block
DEPT.FT            0 000 00 00: Depth
DCAL.in                       : CDL Caliper
RHOB.g/cc                     : CDL Bulk Density
RHOC.g/cc                     : CDL Density Correction
DPOR.pu                       : CDL Density Porosity
GR.GAPI                       : Gamma Ray
~Parameter Information Block
~A  Depth       DCAL        RHOB        RHOC        DPOR         GR     
# ...
   444.2000      8.2261      2.5985      0.0715      3.1209    101.9129
   444.3000      8.2284      2.5920      0.0662      3.5121    104.7279
   444.4000      8.2284      2.5663      0.0412      5.0724    106.9886
   444.5000      8.2297      2.5255     -0.0222      7.5479    108.7362
   444.6000      8.2297      2.4911     -0.0014      9.6289    109.5296
   444.7000      8.2297      2.4698     -0.0166     10.9201    110.6523
   444.8000      8.2297      2.4620     -0.0285     11.3923    110.6402
   444.9000      8.2297      2.4727     -0.0278     10.7469    107.7220
   445.0000      8.2284      2.4912      0.0413      9.6256    103.4933
   445.1000      8.2284      2.4979      0.0231      9.2176     97.3650
   445.2000      8.2284      2.4876      0.0586      9.8440     89.4875
   445.3000      8.2265      2.4703      0.0322     10.8924     83.3037
   445.4000      8.2265      2.4623     -0.0070     11.3740     78.2457
   445.5000      8.2258      2.4626      0.0908     11.3571     71.6617
   445.6000      8.2258      2.4558      0.0267     11.7700     64.4669
   445.7000      8.2258      2.4464      0.0446     12.3374     58.2887
   445.8000      8.2266      2.4442      0.0461     12.4747     53.9327
   445.9000      8.2266      2.4451      0.0492     12.4182     53.8367
   446.0000      8.2280      2.4514      0.0110     12.0336     58.3140
   446.1000      8.2280      2.4701      0.0203     10.9049     64.1288
   446.2000      8.2280      2.4835      0.0980     10.0888     67.0518
   446.3000      8.2295      2.4724      0.0426     10.7644     65.8858
   446.4000      8.2295      2.4534     -0.0202     11.9150     64.4813
   446.5000      8.2304      2.4444      0.0389     12.4634     65.1180
   446.6000      8.2304      2.4421     -0.0006     12.5998     65.0471
   446.7000      8.2304      2.4529     -0.0079     11.9481     63.9416
   446.8000      8.2294      2.4758      0.0766     10.5585     65.2693
   446.9000      8.2294      2.4856      0.0520      9.9644     69.3096
   447.0000      8.2282      2.4733      0.0025     10.7083     72.3783
   447.1000      8.2282      2.4578      0.0157     11.6500     72.9867
   447.2000      8.2282      2.4540     -0.0021     11.8803     71.0497
   447.3000      8.2267      2.4564      0.0317     11.7309     65.8969
   447.4000      8.2267      2.4533      0.0105     11.9206     59.8781
   447.5000      8.2237      2.4487      0.0000     12.1989     56.7272
   447.6000      8.2237      2.4517      0.0298     12.0163     58.3772
   447.7000      8.2237      2.4613      0.0529     11.4384     62.4849
   447.8000      8.2222      2.4747      0.0169     10.6216     63.2188
   447.9000      8.2222      2.4876      0.0747      9.8394     60.3640
   448.0000      8.2247      2.4903      0.0765      9.6773     60.0183
   448.1000      8.2247      2.4889      0.0146      9.7638     65.1102
   448.2000      8.2247      2.5010      0.0625      9.0295     71.4611
   448.3000      8.2280      2.5252      0.0769      7.5642     74.0270
   448.4000      8.2280      2.5485      0.0726      6.1526     72.6910
   448.5000      8.2290      2.5598      0.1303      5.4677     69.3579
   448.6000      8.2290      2.5483      0.0771      6.1633     66.7072
   448.7000      8.2290      2.5141      0.0675      8.2354     66.8056
   448.8000      8.2286      2.4807      0.0349     10.2621     69.2066
   448.9000      8.2286      2.4742      0.0487     10.6563     71.6061
   449.0000      8.2288      2.4871      0.0620      9.8724     70.8343
   449.1000      8.2288      2.4940      0.0762      9.4571     67.6537
   449.2000      8.2288      2.4845      0.0508     10.0332     65.6792
   449.3000      8.2278      2.4611      0.0691     11.4512     66.0723
   449.4000      8.2278      2.4297      0.0541     13.3491     67.6174
   449.5000      8.2235      2.3983      0.0409     15.2564     68.7893
   449.6000      8.2235      2.3738      0.0229     16.7421     68.8533
   449.7000      8.2235      2.3630     -0.0260     17.3960     67.4840
   449.8000      8.2185      2.3656      0.0275     17.2369     64.3858
   449.9000      8.2185      2.3743      0.0256     16.7084     59.7328
   450.0000      8.2170      2.3864      0.0849     15.9784     55.0424
   450.1000      8.2170      2.4016      0.0673     15.0525     52.0664
   450.2000      8.2170      2.4184      0.1012     14.0388     51.1793
   450.3000      8.2182      2.4359      0.0844     12.9784     52.2713
   450.4000      8.2182      2.4565      0.1020     11.7271     54.8110
   450.5000      8.2176      2.4748      0.1258     10.6162     55.4694
   450.6000      8.2176      2.4786      0.1022     10.3882     53.7230
   450.7000      8.2176      2.4657      0.0900     11.1671     51.7010
   450.8000      8.2174      2.4472      0.0583     12.2935     50.9758
   450.9000      8.2174      2.4376      0.0251     12.8709     53.7209
   451.0000      8.2198      2.4441      0.0071     12.4807     58.0065
   451.1000      8.2198      2.4563      0.0541     11.7398     58.1843
   451.2000      8.2198      2.4554      0.0516     11.7922     53.3372
   451.3000      8.2224      2.4428      0.0237     12.5578     49.5580
   451.4000      8.2224      2.4388      0.0124     12.7999     50.3645
   451.5000      8.2221      2.4513     -0.0134     12.0413     52.5573
   451.6000      8.2221      2.4683      0.0463     11.0130     54.6281
   451.7000      8.2221      2.4771      0.0128     10.4761     57.6878
   451.8000      8.2197      2.4798      0.0105     10.3172     59.4531
   451.9000      8.2197      2.4782      0.0351     10.4127     57.7214
   452.0000      8.2196      2.4660      0.0263     11.1536     53.6883
   452.1000      8.2196      2.4394      0.0328     12.7627     49.6688
   452.2000      8.2196      2.4091     -0.0183     14.6029     47.1186
   452.3000      8.2230      2.4000     -0.0356     15.1516     46.6101
   452.4000      8.2230      2.4212      0.0306     13.8694     48.5642
   452.5000      8.2246      2.4496      0.0544     12.1439     53.8138
   452.6000      8.2246      2.4586      0.0531     11.6005     58.9353
   452.7000      8.2246      2.4473      0.0409     12.2840     58.9101
   452.8000      8.2231      2.4446      0.0179     12.4466     55.2151
   452.9000      8.2231      2.4663      0.0776     11.1311     54.0135
   453.0000      8.2190      2.4925      0.0906      9.5458     56.2689
   453.1000      8.2190      2.5043      0.1120      8.8287     56.6419
   453.2000      8.2190      2.5016      0.0744      8.9915     55.0525
   453.3000      8.2133      2.4916      0.1056      9.6018     57.8465
   453.4000      8.2133      2.4827      0.0775     10.1423     64.1118
   453.5000      8.2088      2.4771      0.0962     10.4803     65.3982
   453.6000      8.2088      2.4656      0.1015     11.1783     60.6707
   453.7000      8.2088      2.4454      0.0723     12.3997     57.2266
   453.8000      8.2100      2.4327      0.0217     13.1700     57.5676
   453.9000      8.2100      2.4423      0.0446     12.5875     58.0816
   454.0000      8.2142      2.4705      0.0450     10.8782     57.6409
   454.1000      8.2142      2.5067      0.0783      8.6860     58.9576
   454.2000      8.2142      2.5412      0.1129      6.5964     61.5199
   454.3000      8.2173      2.5658      0.1214      5.1002     62.1747
   454.4000      8.2173      2.5754      0.1191      4.5197     62.9548
   454.5000      8.2189      2.5732      0.0851      4.6543     66.4931
   454.6000      8.2189      2.5730      0.1005      4.6688     71.1963
   454.7000      8.2189      2.5820      0.1037      4.1204     75.7106
   454.8000      8.2210      2.5916      0.0998      3.5376     80.2170
   454.9000      8.2210      2.5833      0.0858      4.0439     85.7882
   455.0000      8.2256      2.5553      0.0126      5.7368     92.9724
   455.1000      8.2256      2.5297      0.0260      7.2894     98.0487
   455.2000      8.2256      2.5195     -0.0363      7.9105     96.8294
   455.3000      8.2296      2.5140      0.0230      8.2402     92.1414
