~Version Information
VERS.                      2.0: CWLS Log ASCII Standard - VERSION 2.0
WRAP.                       NO: One line per depth step
~Well Information Block
STRT.FT               800.0000: 
STOP.FT              3500.0000: 
STEP.FT                 0.1000: 
NULL.                -999.2500: 
COMP.          Pioneer Natural Resources: COMPANY
WELL.          Cordillera 34-7: WELL
FLD.           Purgatoire River: FIELD
LOC.           598' FSL & 1770' FEL--: LOCATION
PROV.                 Colorado: PROVINCE
CNTY.               Las Animas: COUNTRY
SRVC.                Patterson: SERVICE COMPANY
DATE.          Fri Oct 28 07:22:44 2005: LOG DATE
UWI.           05 071 08552 00: UNIQUE WELL ID
~Curve Information Block
DEPT.FT            0 000 00 00: Depth
DCAL.in                       : CDL Caliper
RHOB.g/cc                     : CDL Bulk Density
RHOC.g/cc                     : CDL Density Correction
DPOR.pu                       : CDL Density Porosity
NPOR.pu                       : Neutron Porosity
GR.GAPI                       : Gamma Ray
~Parameter Information Block
~A  Depth       DCAL        RHOB        RHOC        DPOR        NPOR         GR     
# ...
  2931.2000      8.0158      2.5912      0.0241      3.5625     25.4330    152.7629
  2931.3000      8.0167      2.5998      0.0811      3.0436     25.4603    146.6637
  2931.4000      8.0167      2.6023      0.0927      2.8937     25.2808    140.3949
  2931.5000      8.0165      2.5918      0.0652      3.5283     24.7829    135.6327
  2931.6000      8.0165      2.5744      0.0665      4.5824     24.1332    129.5430
  2931.7000      8.0165      2.5615      0.0484      5.3620     23.3627    121.5311
  2931.8000      8.0164      2.5619      0.0362      5.3400     22.4406    115.4755
  2931.9000      8.0164      2.5827      0.0277      4.0773     21.6035    112.9575
  2932.0000      8.0165      2.6231      0.1050      1.6284     21.2695    110.3099
  2932.1000      8.0165      2.6615      0.0980     -0.6946     21.3471    105.0840
  2932.2000      8.0165      2.6763      0.0748     -1.5958     21.2827    100.3156
  2932.3000      8.0165      2.6705      0.0731     -1.2437     20.9853     95.4159
  2932.4000      8.0165      2.6609      0.0641     -0.6610     20.7104     88.6727
  2932.5000      8.0150      2.6577      0.0788     -0.4681     20.3302     83.3221
  2932.6000      8.0150      2.6602      0.0667     -0.6176     19.6935     80.5616
  2932.7000      8.0150      2.6646      0.0367     -0.8876     19.1067     78.7967
  2932.8000      8.0143      2.6700      0.0469     -1.2100     18.9554     78.3044
  2932.9000      8.0143      2.6760      0.0634     -1.5738     19.4118     76.3897
  2933.0000      8.0155      2.6765      0.0762     -1.6087     20.2953     68.5808
  2933.1000      8.0155      2.6658      0.0307     -0.9566     21.0173     60.4990
  2933.2000      8.0155      2.6470      0.0194      0.1821     21.1942     60.6074
  2933.3000      8.0166      2.6238      0.0332      1.5862     21.1598     65.8183
  2933.4000      8.0166      2.5984      0.0251      3.1250     21.5918     69.2597
  2933.5000      8.0173      2.5771     -0.0022      4.4209     22.4047     73.6783
  2933.6000      8.0173      2.5672     -0.0235      5.0164     23.0056     83.0369
  2933.7000      8.0173      2.5687      0.0075      4.9298     23.5099     92.5847
  2933.8000      8.0186      2.5675      0.0376      4.9988     24.2792     98.8857
  2933.9000      8.0186      2.5525      0.0253      5.9105     25.1704    102.8140
  2934.0000      8.0181      2.5342     -0.0533      7.0189     25.8966    105.9549
  2934.1000      8.0181      2.5310      0.0245      7.2105     26.2186    109.6209
  2934.2000      8.0181      2.5409      0.0503      6.6138     26.4163    115.2666
  2934.3000      8.0164      2.5598     -0.0098      5.4681     26.9709    123.9327
  2934.4000      8.0164      2.5815      0.1048      4.1493     27.5570    132.5732
  2934.5000      8.0164      2.5829      0.0737      4.0678     27.6665    139.7750
  2934.6000      8.0164      2.5649      0.0735      5.1597     27.2593    145.0415
  2934.7000      8.0164      2.5514      0.0594      5.9742     26.4376    148.1151
  2934.8000      8.0175      2.5480      0.0697      6.1809     25.7847    153.4100
  2934.9000      8.0175      2.5474      0.0458      6.2202     25.8415    157.2872
  2935.0000      8.0182      2.5490      0.0859      6.1232     26.1513    151.8029
  2935.1000      8.0182      2.5501      0.0775      6.0557     26.1932    140.2302
  2935.2000      8.0182      2.5457      0.0376      6.3182     26.1411    131.1329
  2935.3000      8.0178      2.5363      0.0550      6.8931     26.2096    129.4033
  2935.4000      8.0178      2.5273      0.0239      7.4383     26.4054    133.7883
  2935.5000      8.0168      2.5269      0.0544      7.4584     26.5097    136.4490
  2935.6000      8.0168      2.5390      0.0381      6.7259     25.9293    133.3367
  2935.7000      8.0168      2.5602      0.0560      5.4408     24.7636    130.5990
  2935.8000      8.0174      2.5773      0.0701      4.4087     24.0755    132.3251
  2935.9000      8.0174      2.5757      0.0995      4.5034     24.2811    135.2312
  2936.0000      8.0190      2.5599      0.0356      5.4587     24.7298    136.7582
  2936.1000      8.0190      2.5484      0.0202      6.1559     25.1101    136.4954
  2936.2000      8.0190      2.5478      0.0659      6.1935     25.7829    135.5387
  2936.3000      8.0201      2.5520      0.0337      5.9377     26.4222    135.5975
  2936.4000      8.0201      2.5563      0.0651      5.6762     26.1740    132.7897
  2936.5000      8.0186      2.5602      0.0371      5.4426     25.1627    124.7305
  2936.6000      8.0186      2.5667      0.0748      5.0513     24.3502    117.1419
  2936.7000      8.0186      2.5764      0.0721      4.4615     24.1488    113.2427
  2936.8000      8.0153      2.5905      0.0629      3.6089     24.1849    111.6720
  2936.9000      8.0153      2.6057      0.0890      2.6845     24.0090    110.6416
  2937.0000      8.0127      2.6138      0.0889      2.1950     23.6665    105.4021
  2937.1000      8.0127      2.6116      0.0930      2.3252     23.4237     95.2027
  2937.2000      8.0127      2.6047      0.0741      2.7460     23.1802     89.7494
  2937.3000      8.0142      2.6055      0.0661      2.6953     22.9967     92.5517
  2937.4000      8.0142      2.6218      0.0938      1.7076     23.1826     94.4162
  2937.5000      8.0175      2.6392      0.1234      0.6556     23.6481     90.8360
  2937.6000      8.0175      2.6394      0.1056      0.6453     23.8674     86.6540
  2937.7000      8.0175      2.6263      0.0684      1.4347     23.5723     88.0328
  2937.8000      8.0167      2.6153      0.0163      2.1015     23.3239     94.2082
  2937.9000      8.0167      2.6146      0.0505      2.1453     23.5297     98.8942
  2938.0000      8.0139      2.6260      0.0354      1.4556     23.8261    100.5593
  2938.1000      8.0139      2.6446      0.0744      0.3243     23.5971    101.2327
  2938.2000      8.0139      2.6589      0.0680     -0.5397     22.8532     98.7720
  2938.3000      8.0142      2.6604      0.0883     -0.6282     22.4168     93.1880
  2938.4000      8.0142      2.6400      0.1012      0.6078     22.5037     88.4320
  2938.5000      8.0173      2.6022      0.0416      2.8961     22.6269     85.5149
  2938.6000      8.0173      2.5754      0.0078      4.5204     22.3691     81.5377
  2938.7000      8.0173      2.5683      0.0416      4.9538     21.4128     75.3471
  2938.8000      8.0190      2.5542      0.0593      5.8070     19.8960     68.5045
  2938.9000      8.0190      2.5217      0.0018      7.7755     18.5232     60.9613
  2939.0000      8.0177      2.4912     -0.0094      9.6222     17.6424     51.5077
  2939.1000      8.0177      2.4782      0.0019     10.4147     17.1182     43.3308
  2939.2000      8.0177      2.4763      0.0417     10.5262     16.7531     40.2856
  2939.3000      8.0161      2.4759      0.0151     10.5535     16.6044     40.1691
  2939.4000      8.0161      2.4747      0.0325     10.6218     16.5894     39.4044
  2939.5000      8.0136      2.4678      0.0664     11.0434     16.2646     38.7731
  2939.6000      8.0136      2.4539      0.0158     11.8838     15.5737     42.5316
  2939.7000      8.0136      2.4452      0.0087     12.4128     15.2373     50.4923
  2939.8000      8.0126      2.4484      0.0421     12.2155     15.6695     54.9414
  2939.9000      8.0126      2.4562      0.0659     11.7443     16.3374     52.6481
  2940.0000      8.0136      2.4608      0.0336     11.4648     16.8005     48.0450
  2940.1000      8.0136      2.4614      0.0896     11.4330     17.2513     44.8275
  2940.2000      8.0136      2.4605      0.0571     11.4829     17.6186     44.3939
  2940.3000      8.0150      2.4637      0.0563     11.2920     17.6178     47.2170
  2940.4000      8.0150      2.4692      0.0467     10.9566     17.5904     50.0569
  2940.5000      8.0160      2.4737      0.0313     10.6849     18.2844     49.5510
  2940.6000      8.0160      2.4775      0.0345     10.4558     19.5215     47.6556
  2940.7000      8.0160      2.4746      0.0842     10.6314     20.0779     46.0465
