~Version Information
VERS.                      2.0: CWLS Log ASCII Standard - VERSION 2.0
WRAP.                       NO: One line per depth step
~Well Information Block
STRT.FT               335.0000: 
STOP.FT              1013.5000: 
STEP.FT                 0.1000: 
NULL.                -999.2500: 
COMP.          Pioneer Natural Resources: COMPANY
WELL.             Giggle 21-22: WELL
FLD.           Purgatoire River: FIELD
LOC.           950' FNL & 2094' FWL: LOCATION
CNTY.               Las Animas: COUNTY
SRVC.                Patterson: SERVICE COMPANY
DATE.          Thu Apr 13 09:31:38 2006: LOG DATE
UWI.           05 071 08726 00: UNIQUE WELL ID
STAT.                 Colorado: STATE
~Curve Information Block
DEPT.FT            0 000 00 00: Depth
DCAL.in                       : CDL Caliper
RHOB.g/cc                     : CDL Bulk Density
RHOC.g/cc                     : CDL Density Correction
DPOR.pu                       : CDL Density Porosity
GR.GAPI                       : Gamma Ray
NPOR.pu                       : Neutron Porosity
~Parameter Information Block
~A  Depth       DCAL        RHOB        RHOC        DPOR         GR         NPOR    
# ...
   949.4000      7.8733      2.4824      0.0910     10.1569     85.4228     18.9551
   949.5000      7.8729      2.4794      0.0796     10.3412     85.8844     18.5674
   949.6000      7.8729      2.4672      0.0338     11.0762     88.4350     18.4211
   949.7000      7.8729      2.4643      0.0734     11.2574     90.0613     18.5974
   949.8000      7.8707      2.4791      0.0945     10.3596     87.0673     18.8886
   949.9000      7.8707      2.4919      0.1150      9.5825     78.3116   -514.1243
   950.0000      7.8694      2.4742      0.1359     10.6558     68.1327   -517.3560
   950.1000      7.8694      2.4294      0.0474     13.3709     62.4091   -545.6589
   950.2000      7.8694      2.3965      0.0286     15.3661     62.9819   -597.3159
   950.3000      7.8707      2.3941      0.0922     15.5097     66.3725   -666.9735
   950.4000      7.8707      2.4037      0.0820     14.9256     68.9850   -754.7818
   950.5000      7.8709      2.4077      0.1068     14.6873     69.7966   -869.1544
   950.6000      7.8709      2.4041      0.0764     14.9042     67.4355  -1010.0895
   950.7000      7.8709      2.4022      0.0991     15.0180     62.8861  -1156.1077
   950.8000      7.8729      2.4130      0.1204     14.3654     63.8738  -1294.2816
   950.9000      7.8729      2.4418      0.0848     12.6159     72.5604  -1407.3040
   951.0000      7.8735      2.4790      0.1515     10.3633     78.3413  -1385.9652
   951.1000      7.8735      2.5018      0.1559      8.9835     74.4249  -1155.3441
   951.2000      7.8735      2.5016      0.1354      8.9947     66.6334   -816.2961
   951.3000      7.8744      2.4933      0.1008      9.4993     60.9047   -489.7543
   951.4000      7.8744      2.4903      0.1266      9.6765     57.3382   -245.8840
   951.5000      7.8764      2.4848      0.1095     10.0110     55.2583   -108.9340
   951.6000      7.8764      2.4736      0.0513     10.6881     55.4936    -45.9899
   951.7000      7.8764      2.4672      0.0741     11.0809     59.3438    -19.2712
   951.8000      7.8756      2.4631      0.0573     11.3245     63.9425     -7.6474
   951.9000      7.8756      2.4596      0.0355     11.5370     63.8826     -0.9430
   952.0000      7.8732      2.4572      0.0750     11.6871     61.1867      4.3499
   952.1000      7.8732      2.4447      0.0687     12.4396     60.2460      8.8535
   952.2000      7.8732      2.4252     -0.0024     13.6258     60.4565     12.8387
   952.3000      7.8711      2.4191      0.0238     13.9913     61.2329     15.8122
   952.4000      7.8711      2.4283      0.0396     13.4349     63.3668     16.7816
   952.5000      7.8705      2.4359      0.0178     12.9760     65.1178     16.4796
   952.6000      7.8705      2.4356      0.0238     12.9940     64.0638     15.9205
   952.7000      7.8705      2.4284      0.0605     13.4274     62.1270     15.0922
   952.8000      7.8706      2.4166     -0.0170     14.1460     60.2988     14.6103
   952.9000      7.8706      2.4154     -0.0022     14.2179     57.8032     14.9303
   953.0000      7.8754      2.4314      0.0265     13.2475     54.8935     15.1595
   953.1000      7.8754      2.4496      0.0299     12.1454     50.6161     15.0916
   953.2000      7.8754      2.4561      0.0361     11.7538     48.7700     15.5114
   953.3000      7.8733      2.4572     -0.0404     11.6856     53.7038     16.4063
   953.4000      7.8733      2.4688     -0.0218     10.9816     59.6273     16.6303
   953.5000      7.8719      2.4888      0.0434      9.7719     60.2478     15.7742
   953.6000      7.8719      2.5019      0.1060      8.9742     58.1349     15.1871
   953.7000      7.8719      2.5000      0.0622      9.0893     56.2288     15.5836
   953.8000      7.8716      2.4880      0.0510      9.8162     55.4255     15.9453
   953.9000      7.8716      2.4748      0.0018     10.6160     58.8280     15.5418
   954.0000      7.8694      2.4680      0.0192     11.0321     61.8620     15.4230
   954.1000      7.8694      2.4718      0.0130     10.7990     57.9364     16.3084
   954.2000      7.8694      2.4810      0.0578     10.2432     55.7445     16.8788
   954.3000      7.8716      2.4833      0.0112     10.1041     62.3382     16.0402
   954.4000      7.8716      2.4785      0.0202     10.3950     69.5131     14.4558
   954.5000      7.8710      2.4765      0.0417     10.5151     71.0628     13.6566
   954.6000      7.8710      2.4788      0.0454     10.3733     71.2551     14.4999
   954.7000      7.8710      2.4769      0.0489     10.4914     75.4012     16.0272
   954.8000      7.8703      2.4661      0.0196     11.1482     83.6081     16.6369
   954.9000      7.8703      2.4486      0.0347     12.2059     92.1750     16.2970
   955.0000      7.8684      2.4283     -0.0361     13.4345     94.6464     15.9948
   955.1000      7.8684      2.4124     -0.0174     14.4014     88.1072     15.9291
   955.2000      7.8684      2.4089     -0.0345     14.6111     78.4812     15.7094
   955.3000      7.8690      2.4191     -0.0051     13.9965     72.2855     15.2822
   955.4000      7.8690      2.4314      0.0184     13.2466     69.3136     15.1614
   955.5000      7.8692      2.4331      0.0227     13.1436     65.0842     15.8472
   955.6000      7.8692      2.4190      0.0413     14.0015     60.0327     16.6832
   955.7000      7.8692      2.4024      0.0105     15.0063     60.0446     16.5201
   955.8000      7.8694      2.4076      0.0311     14.6923     66.2237     15.5641
   955.9000      7.8694      2.4333      0.0899     13.1310     72.4554     14.9987
   956.0000      7.8685      2.4544      0.0341     11.8535     72.9485     15.4016
   956.1000      7.8685      2.4581      0.0703     11.6298     68.6151     15.9942
   956.2000      7.8685      2.4556      0.0082     11.7824     65.7304     16.0998
   956.3000      7.8798      2.4610      0.0399     11.4527     67.4038     16.2551
   956.4000      7.8798      2.4586      0.0712     11.6006     68.6265     16.8474
   956.5000      7.8748      2.4352     -0.0187     13.0196     65.5314     17.1512
   956.6000      7.8748      2.4211     -0.0440     13.8719     61.3087     16.7768
   956.7000      7.8748      2.4423      0.0246     12.5894     59.7829     16.4237
   956.8000      7.8693      2.4803      0.0263     10.2835     61.0003     16.6311
   956.9000      7.8693      2.4965      0.1061      9.3056     64.1426     17.2930
   957.0000      7.8691      2.4776      0.0435     10.4504     70.3045     17.7204
   957.1000      7.8691      2.4583     -0.0200     11.6181     78.9667     17.1457
   957.2000      7.8691      2.4624      0.0538     11.3704     84.9313     15.5969
   957.3000      7.8711      2.4622      0.0513     11.3798     85.6634     14.0836
   957.4000      7.8711      2.4443     -0.0065     12.4669     84.0390     13.4025
   957.5000      7.8675      2.4338      0.0092     13.1027     81.7221     13.5503
   957.6000      7.8675      2.4450      0.0116     12.4259     77.7025     14.4001
   957.7000      7.8675      2.4685      0.0032     11.0024     74.0032     15.6644
   957.8000      7.8700      2.4910      0.0146      9.6355     73.8208     16.6571
   957.9000      7.8700      2.5030      0.0282      8.9071     78.6212     16.9943
   958.0000      7.8694      2.4999      0.0271      9.0953     88.0628     17.0356
   958.1000      7.8694      2.4846      0.0324     10.0233     97.5168     17.3157
   958.2000      7.8694      2.4689     -0.0103     10.9787    100.4767     17.9766
   958.3000      7.8686      2.4753     -0.0501     10.5891     94.6432     18.6437
   958.4000      7.8686      2.5033      0.0864      8.8926     84.1383     18.8802
   958.5000      7.8693      2.5165      0.0460      8.0902     75.4105     18.8478
   958.6000      7.8693      2.5049      0.0165      8.7939     71.3855     18.9296
   958.7000      7.8693      2.4917     -0.0022      9.5938     72.4150     19.2669
   958.8000      7.8692      2.4949     -0.0283      9.4008     76.6540     19.3133
   958.9000      7.8692      2.5138      0.0269      8.2537     77.5977     18.4193
