~Version Information
VERS.                      2.0: CWLS Log ASCII Standard - VERSION 2.0
WRAP.                       NO: One line per depth step
~Well Information Block
STRT.FT                10.0000: 
STOP.FT               715.0000: 
STEP.FT                 0.1000: 
NULL.                -999.2500: 
COMP.          Pioneer Natural Resources: COMPANY
WELL.           Belvedere 14-7: WELL
FLD.           Purgatorie River: FIELD
LOC.           786' FSL & 1283' FWL: LOCATION
PROV.                 Colorado: PROVINCE
CNTY.               Las Animas: COUNTRY
SRVC.                Patterson: SERVICE COMPANY
DATE.          Mon Nov 28 07:30:54 2005: LOG DATE
UWI.           05-071-08557               : UNIQUE WELL ID
~Curve Information Block
DEPT.FT            0 000 00 00: Depth
DCAL.in                       : CDL Caliper
RHOB.g/cc                     : CDL Bulk Density
RHOC.g/cc                     : CDL Density Correction
DPOR.pu                       : CDL Density Porosity
GR.GAPI                       : Gamma Ray
NPOR.pu                       : Neutron Porosity
~Parameter Information Block
~A  Depth       DCAL        RHOB        RHOC        DPOR         GR         NPOR    
# ...
   470.8000      7.8775      2.8025     -0.2693     -9.2448     86.1067     27.7908
   470.9000      7.8775      2.6767     -0.2750     -1.6193     87.5265     25.9092
   471.0000      7.9104      2.5909     -0.2045      3.5848     90.0286     24.5714
   471.1000      7.9104      2.5393     -0.2000      6.7096     93.2435     23.6942
   471.2000      7.9104      2.5220      0.0120      7.7593     96.4600     23.0942
   471.3000      7.9531      2.5317     -0.0141      7.1679     97.9199     22.7358
   471.4000      7.9531      2.5615      0.0331      5.3633     97.7741     22.7961
   471.5000      7.9312      2.5953      0.0702      3.3179     97.7169     23.4944
   471.6000      7.9312      2.6192      0.0712      1.8649     97.4362     24.5850
   471.7000      7.9312      2.6388      0.0884      0.6761     95.4206     25.5201
   471.8000      7.9293      2.6606      0.0747     -0.6404     92.9361     26.1465
   471.9000      7.9293      2.6834      0.0885     -2.0251     91.4016     26.5884
   472.0000      7.9361      2.7036      0.0577     -3.2469     90.0564     26.9333
   472.1000      7.9361      2.7144      0.0373     -3.9004     88.0972     27.2934
   472.2000      7.9361      2.7079      0.0108     -3.5096     86.6621     27.6733
   472.3000      7.9396      2.6870     -0.0029     -2.2403     87.1805     27.8918
   472.4000      7.9396      2.6669     -0.0249     -1.0217     87.8802     27.8783
   472.5000      7.9358      2.6553      0.0060     -0.3197     86.5921     27.6390
   472.6000      7.9358      2.6432     -0.0066      0.4094     85.0801     27.0608
   472.7000      7.9358      2.6281     -0.0232      1.3248     84.5285     26.2198
   472.8000      7.9266      2.6163      0.0144      2.0425     83.0981     25.3476
   472.9000      7.9266      2.6056      0.0517      2.6932     80.4752     24.7076
   473.0000      7.9199      2.5975      0.0234      3.1820     78.9155     24.2697
   473.1000      7.9199      2.6029      0.0104      2.8519     79.7240     23.7011
   473.2000      7.9199      2.6159      0.0607      2.0675     81.7336     23.0894
   473.3000      7.9101      2.6194      0.0588      1.8548     83.3694     22.5945
   473.4000      7.9101      2.6167      0.0256      2.0192     83.6463     22.0107
   473.5000      7.9173      2.6194      0.0463      1.8548     82.6743     21.3942
   473.6000      7.9173      2.6225      0.0693      1.6696     81.6194     21.1049
   473.7000      7.9173      2.6190      0.0501      1.8814     80.0881     21.1432
   473.8000      7.9205      2.6216      0.0547      1.7231     78.2802     21.2333
   473.9000      7.9205      2.6411      0.0690      0.5368     79.1128     21.2961
   474.0000      7.9209      2.6594      0.0932     -0.5705     82.3855     21.4047
   474.1000      7.9209      2.6492      0.1182      0.0481     83.6302     21.6202
   474.2000      7.9209      2.6146      0.0584      2.1436     81.8104     21.7261
   474.3000      7.9222      2.5891      0.0181      3.6882     80.6535     21.5396
   474.4000      7.9222      2.5954      0.0392      3.3113     81.4909     21.4054
   474.5000      7.9229      2.6174      0.1101      1.9743     83.6470     21.4755
   474.6000      7.9229      2.6232      0.1091      1.6272     87.0719     21.5957
   474.7000      7.9229      2.6056      0.0685      2.6916     89.3848     21.7150
   474.8000      7.9129      2.5851      0.0579      3.9359     89.5982     21.7000
   474.9000      7.9129      2.5758      0.0491      4.4996     90.9185     21.4692
   475.0000      7.9186      2.5735      0.0146      4.6378     95.4853     21.1829
   475.1000      7.9186      2.5644      0.0705      5.1908    101.0011     21.1456
   475.2000      7.9186      2.5332      0.0438      7.0759    103.3989     21.5381
   475.3000      7.9134      2.4839      0.0099     10.0661    103.2099     22.2416
   475.4000      7.9134      2.4391     -0.0396     12.7821    103.8027     22.7604
   475.5000      7.9210      2.4203     -0.0194     13.9206    105.8789     22.6989
   475.6000      7.9210      2.4300      0.0153     13.3321    107.4613     22.4265
   475.7000      7.9210      2.4538      0.0267     11.8912    106.5519     22.5173
   475.8000      7.9406      2.4787      0.0337     10.3795    104.1714     22.9181
   475.9000      7.9406      2.4969      0.0426      9.2784    102.2368     23.3087
   476.0000      7.9490      2.5082      0.0075      8.5944    102.3892     23.6500
   476.1000      7.9490      2.5220      0.0520      7.7569    105.1676     24.1278
   476.2000      7.9490      2.5391      0.0884      6.7213    109.4748     24.7225
   476.3000      7.9268      2.5495      0.0983      6.0891    114.3774     25.1765
   476.4000      7.9268      2.5506      0.1052      6.0231    118.0811     25.2871
   476.5000      7.9351      2.5469      0.1311      6.2483    119.3862     25.1506
   476.6000      7.9351      2.5378      0.0953      6.8007    118.6687     25.3251
   476.7000      7.9351      2.5214      0.0417      7.7955    115.2783     25.9228
   476.8000      7.9434      2.5049      0.0275      8.7910    111.5627     26.3226
   476.9000      7.9434      2.4961      0.0395      9.3303    112.3956     26.3329
   477.0000      7.9261      2.4861      0.0180      9.9334    115.4660     26.2402
   477.1000      7.9261      2.4625     -0.0044     11.3625    114.4943     26.0377
   477.2000      7.9261      2.4326     -0.0315     13.1768    110.3353     25.6909
   477.3000      7.9194      2.4161     -0.0210     14.1728    107.8607     25.3889
   477.4000      7.9194      2.4148      0.0235     14.2567    108.7926     25.3739
   477.5000      7.9411      2.4127     -0.0244     14.3848    112.0802     25.4991
   477.6000      7.9411      2.4025      0.0016     14.9983    114.9862     25.3026
   477.7000      7.9411      2.3870      0.0173     15.9415    114.5442     24.5575
   477.8000      7.9524      2.3693      0.0322     17.0112    111.7979     23.3142
   477.9000      7.9524      2.3431      0.0541     18.6029    109.2724     21.9680
   478.0000      7.9615      2.2952      0.0324     21.5001    107.4327     20.9650
   478.1000      7.9615      2.2243      0.0376     25.7986    106.7918     20.1480
   478.2000      7.9615      2.1386      0.0363     30.9969    107.2452     19.1359
   478.3000      7.9607      2.0437      0.0330     36.7467    106.5630     18.0008
   478.4000      7.9607      1.9510     -0.0175     42.3651    104.9105     16.9538
   478.5000      7.9534      1.8792     -0.0472     46.7171    105.3790     16.0038
   478.6000      7.9534      1.8298     -0.0456     49.7078    105.5804     15.1712
   478.7000      7.9534      1.7842      0.0207     52.4751    100.6227     14.5202
   478.8000      7.9554      1.7332     -0.0192     55.5610     92.5440     14.0164
   478.9000      7.9554      1.6903      0.0276     58.1610     86.1221     13.5816
   479.0000      7.9698      1.6649      0.0876     59.7029     82.5101     13.1933
   479.1000      7.9698      1.6452      0.1289     60.8947     81.4538     13.0044
   479.2000      7.9698      1.6143      0.0714     62.7687     83.3501     13.1124
   479.3000      7.9697      1.5695      0.0248     65.4860     86.1939     13.2658
   479.4000      7.9697      1.5181      0.0088     68.6024     85.8770     13.2585
   479.5000      7.9687      1.4713     -0.0242     71.4372     82.7226     13.1530
   479.6000      7.9687      1.4453      0.0101     73.0095     80.6278     13.0915
   479.7000      7.9687      1.4477      0.0150     72.8643     80.7179     13.2727
   479.8000      7.9639      1.4662      0.0430     71.7458     80.9842     13.7251
   479.9000      7.9639      1.4749      0.0772     71.2162     80.1326     14.1203
   480.0000      7.9689      1.4617      0.0320     72.0156     79.1310     14.2814
   480.1000      7.9689      1.4414      0.0202     73.2504     78.6834     14.4057
   480.2000      7.9689      1.4292      0.0397     73.9908     78.0067     14.5868
   480.3000      7.9864      1.4241      0.0356     74.2941     77.0668     14.7658
