~Version Information
VERS.                      2.0: CWLS Log ASCII Standard - VERSION 2.0
WRAP.                       NO: One line per depth step
~Well Information Block
STRT.FT               459.3000: 
STOP.FT              1604.7000: 
STEP.FT                 0.1000: 
NULL.                -999.2500: 
COMP.          Pioneer Natural Resources: COMPANY
WELL.          Grand Prix 13-12 Tr: WELL
FLD.           Purgatoire River: FIELD
LOC.           2595' FSL & 1277' FWL--: LOCATION
CNTY.               Las Animas: COUNTY
SRVC.                Patterson: SERVICE COMPANY
DATE.          Tue Apr 04 07:18:28 2006: LOG DATE
UWI.           05 071 08711 00: UNIQUE WELL ID
STAT.                 Colorado: STATE
~Curve Information Block
DEPT.FT            0 000 00 00: Depth
DCAL.in                       : CDL Caliper
RHOB.g/cc                     : CDL Bulk Density
RHOC.g/cc                     : CDL Density Correction
DPOR.pu                       : CDL Density Porosity
GR.GAPI                       : Gamma Ray
~Parameter Information Block
~A  Depth       DCAL        RHOB        RHOC        DPOR         GR     
# ...
  1433.7000      7.8026      2.5627      0.0599      5.2916    113.0249
  1433.8000      7.7975      2.5453      0.0800      6.3469    115.9226
  1433.9000      7.7975      2.5308      0.0410      7.2251    117.3067
  1434.0000      7.7899      2.5304      0.0534      7.2467    118.4939
  1434.1000      7.7899      2.5394      0.1011      6.7052    120.5315
  1434.2000      7.7899      2.5397      0.0240      6.6874    121.4024
  1434.3000      7.7921      2.5296      0.0237      7.2967    118.9498
  1434.4000      7.7921      2.5161      0.0360      8.1150    116.7322
  1434.5000      7.8056      2.5028      0.0273      8.9218    119.1501
  1434.6000      7.8056      2.4950      0.0151      9.3927    123.8650
  1434.7000      7.8056      2.4928      0.0623      9.5277    127.0198
  1434.8000      7.8137      2.4912     -0.0033      9.6261    129.6050
  1434.9000      7.8137      2.4916      0.0146      9.6017    132.9778
  1435.0000      7.8094      2.4882      0.0739      9.8054    133.0394
  1435.1000      7.8094      2.4774     -0.0215     10.4589    125.0711
  1435.2000      7.8094      2.4787      0.0396     10.3807    112.5282
  1435.3000      7.8032      2.5010      0.0820      9.0319    104.2356
  1435.4000      7.8032      2.5337      0.0566      7.0497    103.8752
  1435.5000      7.8025      2.5752      0.0600      4.5354    107.2004
  1435.6000      7.8025      2.6207      0.1032      1.7776    109.4309
  1435.7000      7.8025      2.6558      0.0759     -0.3505    108.4103
  1435.8000      7.8092      2.6803      0.1047     -1.8341    104.4322
  1435.9000      7.8092      2.7030      0.0692     -3.2130    101.5172
  1436.0000      7.8200      2.7261      0.0968     -4.6100    100.7113
  1436.1000      7.8200      2.7401      0.0775     -5.4613     99.3153
  1436.2000      7.8200      2.7343      0.0866     -5.1082     98.0668
  1436.3000      7.8272      2.7091      0.0439     -3.5824     96.9685
  1436.4000      7.8272      2.6810     -0.0339     -1.8772     93.0436
  1436.5000      7.8299      2.6653     -0.0133     -0.9298     86.2417
  1436.6000      7.8299      2.6548     -0.0250     -0.2912     79.1040
  1436.7000      7.8299      2.6347      0.0071      0.9275     72.3169
  1436.8000      7.8302      2.6052     -0.0269      2.7174     67.1567
  1436.9000      7.8302      2.5719     -0.0084      4.7319     66.8409
  1437.0000      7.8254      2.5311     -0.0253      7.2041     71.2418
  1437.1000      7.8254      2.4804     -0.0222     10.2760     76.2782
  1437.2000      7.8254      2.4346     -0.0514     13.0571     79.5256
  1437.3000      7.8104      2.4226     -0.0505     13.7822     83.8466
  1437.4000      7.8104      2.4586      0.0234     11.5978     89.8995
  1437.5000      7.7905      2.5208      0.0692      7.8329     93.6348
  1437.6000      7.7905      2.5732      0.0929      4.6528     93.5635
  1437.7000      7.7905      2.6011      0.1234      2.9611     92.4862
  1437.8000      7.7793      2.6109      0.1667      2.3715     93.8038
  1437.9000      7.7793      2.6111      0.1303      2.3557     96.6572
  1438.0000      7.7792      2.6121      0.0903      2.2953     98.0380
  1438.1000      7.7792      2.6152      0.1270      2.1062     97.8289
  1438.2000      7.7792      2.6072      0.0952      2.5942     98.1230
  1438.3000      7.7879      2.5858      0.0606      3.8896    100.3012
  1438.4000      7.7879      2.5645      0.0690      5.1803    100.4356
  1438.5000      7.8028      2.5518      0.0477      5.9515     98.0076
  1438.6000      7.8028      2.5496      0.0338      6.0838     98.3762
  1438.7000      7.8028      2.5509      0.0762      6.0066    102.0311
  1438.8000      7.8156      2.5395      0.0638      6.6982    106.7144
  1438.9000      7.8156      2.5128      0.0313      8.3131    111.4422
  1439.0000      7.8167      2.4851      0.0331      9.9923    113.0828
  1439.1000      7.8167      2.4770     -0.0092     10.4850    111.9272
  1439.2000      7.8167      2.4995      0.0313      9.1205    112.9904
  1439.3000      7.8064      2.5325      0.0741      7.1201    117.1911
  1439.4000      7.8064      2.5459      0.0642      6.3087    123.4570
  1439.5000      7.7998      2.5399      0.0202      6.6714    128.3826
  1439.6000      7.7998      2.5440      0.0248      6.4259    126.4757
  1439.7000      7.7998      2.5768      0.0696      4.4361    121.3553
  1439.8000      7.8038      2.6182      0.1129      1.9253    120.6011
  1439.9000      7.8038      2.6321      0.1349      1.0860    122.2448
  1440.0000      7.8073      2.6153      0.0648      2.1058    120.9645
  1440.1000      7.8073      2.5992      0.0014      3.0779    115.7121
  1440.2000      7.8073      2.6003      0.0166      3.0122    109.0779
  1440.3000      7.8003      2.6123      0.0117      2.2865    105.8218
  1440.4000      7.8003      2.6282      0.0441      1.3218    104.6480
  1440.5000      7.7848      2.6293      0.1076      1.2536    103.2226
  1440.6000      7.7848      2.5997      0.0524      3.0512    103.8284
  1440.7000      7.7848      2.5610      0.0463      5.3957    105.9532
  1440.8000      7.7756      2.5438      0.0170      6.4383    107.6426
  1440.9000      7.7756      2.5449      0.0415      6.3719    107.9186
  1441.0000      7.7779      2.5435      0.0336      6.4558    106.8189
  1441.1000      7.7779      2.5362      0.0396      6.8988    106.6948
  1441.2000      7.7779      2.5334      0.0382      7.0655    107.8810
  1441.3000      7.7799      2.5342      0.0468      7.0188    110.5610
  1441.4000      7.7799      2.5259      0.0223      7.5185    117.7031
  1441.5000      7.7816      2.5020      0.0419      8.9690    125.4098
  1441.6000      7.7816      2.4696     -0.0103     10.9353    126.6582
  1441.7000      7.7816      2.4456      0.0309     12.3884    125.0021
  1441.8000      7.7923      2.4451     -0.0257     12.4175    129.0325
  1441.9000      7.7923      2.4755      0.0061     10.5784    137.9664
  1442.0000      7.8141      2.5167      0.0779      8.0814    142.5049
  1442.1000      7.8141      2.5363      0.0416      6.8903    138.2383
  1442.2000      7.8141      2.5328      0.0553      7.1034    129.2188
  1442.3000      7.8360      2.5201      0.0698      7.8699    120.3663
  1442.4000      7.8360      2.5083     -0.0102      8.5895    115.6757
  1442.5000      7.8460      2.5100      0.0055      8.4847    116.2651
  1442.6000      7.8460      2.5286      0.0247      7.3564    118.3232
  1442.7000      7.8460      2.5469      0.0732      6.2468    120.5077
  1442.8000      7.8399      2.5462      0.0775      6.2936    123.9466
  1442.9000      7.8399      2.5368      0.0362      6.8626    126.3386
  1443.0000      7.8262      2.5423      0.0475      6.5286    123.4198
  1443.1000      7.8262      2.5602      0.0710      5.4395    114.7705
  1443.2000      7.8262      2.5727      0.0751      4.6842    105.9075
  1443.3000      7.8136      2.5751      0.0864      4.5379    101.0574
  1443.4000      7.8136      2.5726      0.0687      4.6938    100.9895
  1443.5000      7.8078      2.5675      0.0838      5.0015    101.9081
  1443.6000      7.8078      2.5614      0.0725      5.3720     98.9900
  1443.7000      7.8078      2.5584      0.0489      5.5522     93.4332
  1443.8000      7.8118      2.5592      0.0422      5.5006     87.8456
  1443.9000      7.8118      2.5594      0.0568      5.4937     84.4605
  1444.0000      7.8231      2.5549      0.0671      5.7621     84.7596
  1444.1000      7.8231      2.5420      0.0541      6.5428     86.0785
  1444.2000      7.8231      2.5213      0.0435      7.8016     86.9422
  1444.3000      7.8311      2.5060     -0.0191      8.7290     88.3262
  1444.4000      7.8311      2.5103      0.0086      8.4665     88.2227
  1444.5000      7.8312      2.5271      0.0471      7.4509     86.4884
  1444.6000      7.8312      2.5371      0.0612      6.8425     86.3218
  1444.7000      7.8312      2.5397      0.0305      6.6875     89.8795
  1444.8000      7.8260      2.5438      0.0686      6.4362     97.5708
