~Version Information
VERS.                      2.0: CWLS Log ASCII Standard - VERSION 2.0
WRAP.                       NO: One line per depth step
~Well Information Block
STRT.FT               460.0000: 
STOP.FT              3058.5000: 
STEP.FT                 0.1000: 
NULL.                -999.2500: 
COMP.          Pioneer Natural Resources: COMPANY
WELL.            Cleaver 24-12: WELL
FLD.           Purgatoire River: FIELD
LOC.           204' FSL & 2351' FWL: LOCATION
PROV.                 Colorado: PROVINCE
CNTY.               Las Animas: COUNTRY
SRVC.                Patterson: SERVICE COMPANY
DATE.          Mon Jan 09 13:49:27 2006: LOG DATE
UWI.           05 071 08634 00: UNIQUE WELL ID
~Curve Information Block
DEPT.FT            0 000 00 00: Depth
DCAL.in                       : CDL Caliper
RHOB.g/cc                     : CDL Bulk Density
RHOC.g/cc                     : CDL Density Correction
DPOR.pu                       : CDL Density Porosity
GR.GAPI                       : Gamma Ray
NPOR.pu                       : Neutron Porosity
~Parameter Information Block
~A  Depth       DCAL        RHOB        RHOC        DPOR         GR         NPOR    
# ...
  2696.8000      7.8808      2.5155      0.0928      8.1493    116.4461     29.7714
  2696.9000      7.8808      2.4893      0.0357      9.7387    109.8217     29.3180
  2697.0000      7.8817      2.4589      0.0048     11.5833    104.1409     29.4234
  2697.1000      7.8817      2.4482     -0.0411     12.2330    103.4013     29.8062
  2697.2000      7.8817      2.4628      0.0163     11.3449    108.1470     30.1247
  2697.3000      7.8824      2.4819      0.0038     10.1902    112.4417     30.5543
  2697.4000      7.8824      2.4914      0.0446      9.6126    112.2080     30.7467
  2697.5000      7.8674      2.4972      0.0267      9.2580    111.5087     30.2481
  2697.6000      7.8674      2.5069      0.0259      8.6747    113.2446     29.2015
  2697.7000      7.8674      2.5131      0.0890      8.2972    114.3740     27.9500
  2697.8000      7.8656      2.5120      0.0175      8.3627    113.9231     26.9924
  2697.9000      7.8656      2.5092      0.0725      8.5359    113.8340     26.9616
  2698.0000      7.8641      2.5039      0.0317      8.8558    114.4619     27.6829
  2698.1000      7.8641      2.5031     -0.0227      8.9039    116.5010     28.5246
  2698.2000      7.8641      2.5101      0.0834      8.4762    120.3412     29.1296
  2698.3000      7.8625      2.5120      0.0454      8.3623    121.6231     29.1655
  2698.4000      7.8625      2.5088      0.0428      8.5585    115.4318     28.5392
  2698.5000      7.8648      2.5137      0.0142      8.2612    103.4100     27.6456
  2698.6000      7.8648      2.5201      0.0922      7.8743     96.2698     27.0222
  2698.7000      7.8648      2.5160     -0.0161      8.1239     99.6816     26.9617
  2698.8000      7.8677      2.5110      0.0542      8.4228    105.9707     27.5198
  2698.9000      7.8677      2.5048      0.0233      8.8007    107.6800     28.5874
  2699.0000      7.8673      2.4875      0.0291      9.8491    106.0011     29.5018
  2699.1000      7.8673      2.4683     -0.0313     11.0114    103.8379     29.6452
  2699.2000      7.8673      2.4634      0.0118     11.3117    100.2860     29.1356
  2699.3000      7.8650      2.4728      0.0175     10.7423     94.1370     29.0017
  2699.4000      7.8650      2.4880      0.0386      9.8154     89.8430     29.8664
  2699.5000      7.8646      2.4987      0.0577      9.1687     91.8880     30.6164
  2699.6000      7.8646      2.4945      0.0322      9.4252     96.0234     30.5098
  2699.7000      7.8646      2.4816      0.0004     10.2072     97.6435     29.9064
  2699.8000      7.8638      2.4782     -0.0164     10.4129     99.8528     29.1314
  2699.9000      7.8638      2.4830      0.0170     10.1189    103.6843     28.4837
  2700.0000      7.8667      2.4764      0.0613     10.5240    105.7125     28.0775
  2700.1000      7.8667      2.4607     -0.0360     11.4757    104.6482     28.0554
  2700.2000      7.8667      2.4589     -0.0083     11.5845    101.2867     28.4424
  2700.3000      7.8804      2.4707     -0.0123     10.8649     94.5936     28.8075
  2700.4000      7.8804      2.4792      0.0141     10.3488     84.8763     28.8395
  2700.5000      7.8698      2.4793      0.0374     10.3484     79.2164     28.4267
  2700.6000      7.8698      2.4799      0.0091     10.3075     81.6396     27.8749
  2700.7000      7.8698      2.4895      0.0368      9.7269     87.7314     27.2035
  2700.8000      7.8725      2.5034      0.0497      8.8840     93.0281     26.2036
  2700.9000      7.8725      2.5160      0.0342      8.1191     94.5091     25.5419
  2701.0000      7.8776      2.5300      0.0205      7.2721     93.5619     25.6898
  2701.1000      7.8776      2.5402      0.0466      6.6567     95.5333     26.2248
  2701.2000      7.8776      2.5425      0.0179      6.5122    100.2494     26.5598
  2701.3000      7.8614      2.5506      0.0461      6.0269    103.5795     26.2495
  2701.4000      7.8614      2.5737      0.0344      4.6246    104.7528     25.5370
  2701.5000      7.8610      2.6031      0.1091      2.8449    107.2418     25.3259
  2701.6000      7.8610      2.6141      0.1071      2.1787    109.3171     26.0684
  2701.7000      7.8610      2.5919      0.0937      3.5186    106.6483     26.9939
  2701.8000      7.8495      2.5491      0.0608      6.1130    100.4730     27.2047
  2701.9000      7.8495      2.5125      0.0528      8.3349     94.3200     27.0104
  2702.0000      7.8473      2.5054      0.0488      8.7612     89.4999     26.8794
  2702.1000      7.8473      2.5255      0.0377      7.5438     85.5787     26.4281
  2702.2000      7.8473      2.5520      0.0176      5.9365     83.9987     25.3469
  2702.3000      7.8461      2.5649      0.0799      5.1559     85.4010     24.4650
  2702.4000      7.8461      2.5506      0.0414      6.0266     88.2780     24.7793
  2702.5000      7.8475      2.5193     -0.0015      7.9187     90.7178     26.0175
  2702.6000      7.8475      2.4949     -0.0177      9.3993     92.0848     26.9798
  2702.7000      7.8475      2.4857      0.0582      9.9570     94.6197     26.7841
  2702.8000      7.8531      2.4900     -0.0270      9.6964     99.4264     25.5325
  2702.9000      7.8531      2.5030      0.0649      8.9100    101.9181     24.1994
  2703.0000      7.8773      2.5126      0.0252      8.3258     97.9274     24.0009
  2703.1000      7.8773      2.5169      0.0634      8.0686     91.6716     25.1629
  2703.2000      7.8773      2.5267      0.0166      7.4730     88.8777     26.2258
  2703.3000      7.8549      2.5508      0.0442      6.0110     87.2391     25.9966
  2703.4000      7.8549      2.5798      0.1038      4.2548     82.3164     25.0881
  2703.5000      7.8638      2.5968      0.0746      3.2251     75.9044     24.5099
  2703.6000      7.8638      2.5960      0.1085      3.2719     70.4373     24.7849
  2703.7000      7.8638      2.5727      0.0653      4.6824     66.9840     25.6519
  2703.8000      7.8498      2.5267      0.0412      7.4713     65.3751     26.1281
  2703.9000      7.8498      2.4768     -0.0056     10.4980     61.7607     25.8690
  2704.0000      7.8543      2.4569     -0.0610     11.7022     54.2471     25.1748
  2704.1000      7.8543      2.4757      0.0429     10.5616     48.2161     24.3984
  2704.2000      7.8543      2.4964      0.0677      9.3094     49.9367     24.3553
  2704.3000      7.8650      2.4897      0.0084      9.7147     57.1336     25.0758
  2704.4000      7.8650      2.4505      0.0363     12.0916     63.5046     25.8213
  2704.5000      7.8566      2.3797      0.0215     16.3835     64.5604     26.5510
  2704.6000      7.8566      2.3003      0.0096     21.1922     58.6787     27.4417
  2704.7000      7.8566      2.2419      0.0343     24.7313     51.5702     28.0844
  2704.8000      7.8350      2.1959      0.0520     27.5211     50.2862     27.9028
  2704.9000      7.8350      2.1233     -0.0015     31.9236     54.3811     27.7556
  2705.0000      7.8106      2.0041     -0.0164     39.1445     59.8475     28.9726
  2705.1000      7.8106      1.8588     -0.0282     47.9485     63.5502     30.7350
  2705.2000      7.8106      1.7273     -0.0491     55.9228     64.5573     31.3198
  2705.3000      7.8055      1.6378     -0.0781     61.3483     65.4565     31.0508
  2705.4000      7.8055      1.5872     -0.0469     64.4097     64.9099     31.0586
  2705.5000      7.7976      1.5543     -0.0325     66.4061     59.7731     31.4948
  2705.6000      7.7976      1.5338      0.0015     67.6480     53.0292     32.1022
  2705.7000      7.7976      1.5350      0.0420     67.5741     49.4853     32.5131
  2705.8000      7.8344      1.5599      0.0561     66.0664     50.2182     32.5601
  2705.9000      7.8344      1.6036      0.0567     63.4201     53.4848     32.5836
  2706.0000      7.8887      1.6615      0.1139     59.9065     58.1241     32.6653
  2706.1000      7.8887      1.7345      0.0857     55.4841     62.4681     32.5343
  2706.2000      7.8887      1.8283      0.1263     49.7987     65.3187     32.2148
  2706.3000      7.9447      1.9465      0.0996     42.6339     70.1014     32.2213
