~Version Information
VERS.                      2.0: CWLS Log ASCII Standard - VERSION 2.0
WRAP.                       NO: One line per depth step
~Well Information Block
STRT.FT               570.0000: 
STOP.FT              1954.5000: 
STEP.FT                 0.1000: 
NULL.                -999.2500: 
COMP.          Petrogulf Corporation: COMPANY
WELL.            Montoya 7-14R: WELL
FLD.           Purgatorie River: FIELD
LOC.           628' FSL & 454' FWL: LOCATION
PROV.                 Colorado: PROVINCE
CNTY.               Las Animas: COUNTRY
SRVC.                Patterson: SERVICE COMPANY
DATE.          Mon Oct 10 07:31:15 2005: LOG DATE
UWI.                          : UNIQUE WELL ID
~Curve Information Block
DEPT.FT            0 000 00 00: Depth
DCAL.in                       : CDL Caliper
RHOB.g/cc                     : CDL Bulk Density
RHOC.g/cc                     : CDL Density Correction
DPOR.pu                       : CDL Density Porosity
GR.GAPI                       : Gamma Ray
NPOR.pu                       : Neutron Porosity
~Parameter Information Block
~A  Depth       DCAL        RHOB        RHOC        DPOR         GR         NPOR    
# ...
  1030.8000      7.9779      2.4158      0.0064     14.1955    148.2150     29.0371
  1030.9000      7.9779      2.3668      0.0017     17.1641    149.3195     28.8720
  1031.0000      7.9881      2.3431      0.0075     18.5979    143.1484     28.8353
  1031.1000      7.9881      2.3304      0.0099     19.3693    136.5284     29.0609
  1031.2000      7.9881      2.3319      0.0339     19.2801    136.8376     29.6535
  1031.3000      7.9738      2.3541      0.0745     17.9325    142.0983     30.2444
  1031.4000      7.9738      2.3855      0.1527     16.0278    145.7436     30.3953
  1031.5000      7.9769      2.4112      0.1196     14.4733    145.3085     30.2454
  1031.6000      7.9769      2.4188      0.1942     14.0103    144.0757     30.0455
  1031.7000      7.9769      2.3985      0.1237     15.2413    145.0622     29.8585
  1031.8000      7.9711      2.3669      0.0053     17.1596    148.1008     29.9243
  1031.9000      7.9711      2.3495      0.0075     18.2147    152.4185     30.3122
  1032.0000      7.9714      2.3352      0.0296     19.0758    156.2882     30.5810
  1032.1000      7.9714      2.2933      0.0211     21.6170    156.7901     30.3610
  1032.2000      7.9714      2.2299     -0.0800     25.4617    153.2481     29.8365
  1032.3000      8.0033      2.1833     -0.0374     28.2836    148.0749     29.6367
  1032.4000      8.0033      2.1672      0.0078     29.2586    144.4668     30.1626
  1032.5000      8.0110      2.1608      0.0563     29.6473    144.0153     30.8981
  1032.6000      8.0110      2.1474      0.0666     30.4584    146.3098     31.2835
  1032.7000      8.0110      2.1306      0.0782     31.4766    150.5168     31.4516
  1032.8000      7.9720      2.1169      0.0344     32.3089    153.3745     31.5059
  1032.9000      7.9720      2.1094      0.0380     32.7632    151.3289     31.3436
  1033.0000      7.9829      2.1145      0.0053     32.4566    148.8074     31.1730
  1033.1000      7.9829      2.1391      0.0219     30.9664    151.3686     31.1859
  1033.2000      7.9829      2.1793      0.0513     28.5262    155.8491     31.3876
  1033.3000      7.9925      2.2211      0.0776     25.9945    157.7963     31.7241
  1033.4000      7.9925      2.2529      0.1221     24.0666    158.2309     31.9732
  1033.5000      7.9871      2.2819      0.1076     22.3119    158.5603     31.9882
  1033.6000      7.9871      2.3225      0.1876     19.8471    159.5657     31.8165
  1033.7000      7.9871      2.3717      0.1711     16.8649    161.1647     31.5054
  1033.8000      7.9773      2.4221      0.1432     13.8135    162.9691     31.0744
  1033.9000      7.9773      2.4743      0.1179     10.6477    165.3148     30.5749
  1034.0000      7.9854      2.5251      0.1706      7.5714    166.3041     30.1813
  1034.1000      7.9854      2.5663      0.1350      5.0711    163.9143     29.9504
  1034.2000      7.9854      2.5996      0.1510      3.0529    158.5598     29.7921
  1034.3000      7.9860      2.6301      0.1648      1.2078    152.3872     29.6536
  1034.4000      7.9860      2.6540      0.1236     -0.2439    147.7159     29.4535
  1034.5000      7.9750      2.6620      0.1033     -0.7266    143.3802     29.1365
  1034.6000      7.9750      2.6449      0.0828      0.3117    137.7968     28.5915
  1034.7000      7.9750      2.6084      0.0666      2.5204    133.3706     27.7905
  1034.8000      7.9823      2.5796      0.0003      4.2653    131.9561     26.9931
  1034.9000      7.9823      2.5777      0.0390      4.3845    134.0090     26.2979
  1035.0000      7.9808      2.5923      0.0260      3.4999    138.0763     25.7026
  1035.1000      7.9808      2.5985      0.0838      3.1210    139.2284     25.4136
  1035.2000      7.9808      2.5790      0.0353      4.3010    137.8601     25.4611
  1035.3000      7.9761      2.5431     -0.0018      6.4759    138.2769     25.5134
  1035.4000      7.9761      2.5186     -0.0394      7.9654    140.7752     25.4481
  1035.5000      7.9783      2.5201     -0.0359      7.8718    143.5475     25.4802
  1035.6000      7.9783      2.5348      0.0136      6.9829    144.9960     25.6174
  1035.7000      7.9783      2.5460      0.0571      6.3042    143.4992     25.6005
  1035.8000      7.9619      2.5627     -0.0039      5.2909    138.9993     25.5361
  1035.9000      7.9619      2.6006      0.0730      2.9923    134.8841     25.9430
  1036.0000      7.9551      2.6480      0.1060      0.1239    136.0777     26.7034
  1036.1000      7.9551      2.6815      0.1026     -1.9109    140.3094     27.2270
  1036.2000      7.9551      2.6960      0.1095     -2.7880    141.0309     27.2190
  1036.3000      7.9514      2.6953      0.1485     -2.7478    139.8999     26.7925
  1036.4000      7.9514      2.6788      0.1333     -1.7428    139.7577     26.2881
  1036.5000      7.9486      2.6517      0.0727     -0.1041    136.7718     26.0364
  1036.6000      7.9486      2.6263      0.0824      1.4356    131.0118     26.0379
  1036.7000      7.9486      2.6073      0.0394      2.5906    127.9049     25.9921
  1036.8000      7.9320      2.5984      0.0562      3.1272    130.7667     25.7781
  1036.9000      7.9320      2.6010      0.0679      2.9692    138.7136     25.6544
  1037.0000      7.9368      2.5997      0.1165      3.0478    146.9515     25.7700
  1037.1000      7.9368      2.5839      0.0536      4.0038    152.3019     26.1461
  1037.2000      7.9368      2.5665      0.0674      5.0619    156.2963     26.7339
  1037.3000      7.9346      2.5540      0.0636      5.8177    160.0150     27.2110
  1037.4000      7.9346      2.5423      0.0503      6.5251    160.0148     27.5033
  1037.5000      7.9112      2.5436      0.0276      6.4491    154.2786     27.8230
  1037.6000      7.9112      2.5801      0.0923      4.2334    147.8127     28.2427
  1037.7000      7.9112      2.6571      0.0757     -0.4292    146.4103     28.5955
  1037.8000      7.9105      2.7522      0.1443     -6.1945    149.5883     28.5761
  1037.9000      7.9105      2.8248      0.1591    -10.5951    154.1529     28.1695
  1038.0000      7.9042      2.8472      0.2097    -11.9500    156.7805     27.8370
  1038.1000      7.9042      2.8233      0.2023    -10.5037    155.0090     27.8123
  1038.2000      7.9042      2.7754      0.1976     -7.5981    149.4883     27.8501
  1038.3000      7.8890      2.7258      0.1093     -4.5912    144.4713     27.7614
  1038.4000      7.8890      2.6944      0.0071     -2.6938    143.7116     27.5109
  1038.5000      7.9247      2.6787      0.0230     -1.7424    145.1665     27.0327
  1038.6000      7.9247      2.6523     -0.0408     -0.1422    144.4808     26.4162
  1038.7000      7.9247      2.6094     -0.0266      2.4590    140.4704     25.9079
  1038.8000      7.9381      2.5735      0.0052      4.6349    134.1912     25.5936
  1038.9000      7.9381      2.5615      0.0430      5.3625    126.2894     25.2507
  1039.0000      7.9378      2.5622      0.0921      5.3231    120.2098     24.6918
  1039.1000      7.9378      2.5571      0.0790      5.6329    118.4644     24.1984
  1039.2000      7.9378      2.5462      0.0669      6.2903    120.0579     24.1342
  1039.3000      7.9192      2.5386      0.0454      6.7499    121.1682     24.3925
  1039.4000      7.9192      2.5388      0.0444      6.7417    118.3079     24.4972
  1039.5000      7.9153      2.5424      0.0771      6.5195    113.1377     24.0895
  1039.6000      7.9153      2.5387      0.0965      6.7426    109.5450     23.3466
  1039.7000      7.9153      2.5286      0.0259      7.3597    107.6141     22.8434
  1039.8000      7.9128      2.5270      0.0517      7.4540    103.4014     22.8247
  1039.9000      7.9128      2.5362      0.0786      6.8986     94.9552     23.0353
  1040.0000      7.9105      2.5434      0.0742      6.4576     86.2202     23.2882
  1040.1000      7.9105      2.5432      0.0995      6.4714     81.6553     23.2857
  1040.2000      7.9105      2.5438      0.0631      6.4350     79.2067     22.7158
  1040.3000      7.9105      2.5515      0.0821      5.9726     75.0692     22.0233
