~Version Information
VERS.                      2.0: CWLS Log ASCII Standard - VERSION 2.0
WRAP.                       NO: One line per depth step
~Well Information Block
STRT.FT               530.7500: 
STOP.FT              1325.2500: 
STEP.FT                 0.2500: 
NULL.                -999.2500: 
COMP.          Pioneer Natural Resources: COMPANY
WELL.            Erin 21-15 Tr: WELL
FLD.           Purgatoire River: FIELD
LOC.           1217' FNL & 2284' FWL--: LOCATION
CNTY.               Las Animas: COUNTY
SRVC.                Patterson: SERVICE COMPANY
DATE.          Fri Mar 03 23:07:06 2006: LOG DATE
UWI.           05 071 08712 00: UNIQUE WELL ID
STAT.                 Colorado: STATE
~Curve Information Block
DEPT.FT            0 000 00 00: Depth
SN.Ohm-m                      : IEL Short Normal
SP.mV                         : IEL Spontaneous Potential
DIR.Ohm-m                     : IEL Induction Resistivity
GR.GAPI                       : Gamma Ray
~Parameter Information Block
~A  Depth        SN          SP         DIR          GR     
# ...
  1167.2500     13.1153    201.9344     12.4677    144.1225
  1167.5000     13.1989    201.8605     12.4563    147.1216
  1167.7500     13.3790    201.6719     12.5377    149.1445
  1168.0000     13.6754    201.3571     12.7410    150.6738
  1168.2500     14.0855    200.9089     13.0847    149.5504
  1168.5000     14.5848    200.3267     13.5730    143.8965
  1168.7500     15.1409    199.6200     14.1988    137.8623
  1169.0000     15.7402    198.8103     14.9513    126.4133
  1169.2500     16.4120    197.9299     15.8212    117.5443
  1169.5000     17.2321    197.0197     16.8011    102.9760
  1169.7500     18.2976    196.1225     17.8785     93.1540
  1170.0000     19.6727    195.2773     19.0279     80.1034
  1170.2500     21.3274    194.5136     20.2065     73.3878
  1170.5000     23.1068    193.8487     21.3552     66.5291
  1170.7500     24.7698    193.2885     22.4072     63.6271
  1171.0000     26.0894    192.8307     23.3018     60.8201
  1171.2500     26.9457    192.4695     23.9990     59.6609
  1171.5000     27.3501    192.1997     24.4884     58.8253
  1171.7500     27.3970    192.0190     24.7869     58.8196
  1172.0000     27.1930    191.9290     24.9291     59.5012
  1172.2500     26.8092    191.9344     24.9510     60.3753
  1172.5000     26.2710    192.0409     24.8698     62.3752
  1172.7500     25.5761    192.2535     24.6688     64.2452
  1173.0000     24.7188    192.5743     24.2994     68.0066
  1173.2500     23.7084    193.0005     23.7068     71.2287
  1173.5000     22.5807    193.5225     22.8685     77.1027
  1173.7500     21.4019    194.1214     21.8197     81.6402
  1174.0000     20.2576    194.7687     20.6474     89.4953
  1174.2500     19.2302    195.4265     19.4600     95.6400
  1174.5000     18.3742    196.0501     18.3552    106.2052
  1174.7500     17.7052    196.5913     17.4035    113.6598
  1175.0000     17.2088    197.0042     16.6441    124.1243
  1175.2500     16.8621    197.2502     16.0901    129.8914
  1175.5000     16.6519    197.3030     15.7340    135.6884
  1175.7500     16.5754    197.1511     15.5563    137.0418
  1176.0000     16.6288    196.7999     15.5361    134.4106
  1176.2500     16.8027    196.2706     15.6610    129.4727
  1176.5000     17.0966    195.5980     15.9332    118.3354
  1176.7500     17.5416    194.8257     16.3679    109.4981
  1177.0000     18.2068    194.0013     16.9859     95.9217
  1177.2500     19.1705    193.1699     17.8031     87.4216
  1177.5000     20.4647    192.3695     18.8207     76.5037
  1177.7500     22.0304    191.6274     20.0190     71.0478
  1178.0000     23.7229    190.9602     21.3530     66.4118
  1178.2500     25.3705    190.3759     22.7528     65.6089
  1178.5000     26.8384    189.8778     24.1257     66.4075
  1178.7500     28.0530    189.4682     25.3654     67.0688
  1179.0000     28.9844    189.1514     26.3693     66.7664
  1179.2500     29.6216    188.9330     27.0678     65.5718
  1179.5000     29.9622    188.8184     27.4519     63.1217
  1179.7500     30.0230    188.8080     27.5762     61.7581
  1180.0000     29.8655    188.8939     27.5346     61.1920
  1180.2500     29.6087    189.0568     27.4259     62.2673
  1180.5000     29.4003    189.2671     27.3315     66.5677
  1180.7500     29.3504    189.4876     27.3101     71.2604
  1181.0000     29.4784    189.6800     27.4006     80.2625
  1181.2500     29.7138    189.8125     27.6242     86.4964
  1181.5000     29.9465    189.8671     27.9791     93.9143
  1181.7500     30.0824    189.8459     28.4345     96.6930
  1182.0000     30.0683    189.7729     28.9330     97.4268
  1182.2500     29.8892    189.6924     29.4086     95.8770
  1182.5000     29.5629    189.6629     29.8103     90.8129
  1182.7500     29.1466    189.7471     30.1156     85.9067
  1183.0000     28.7421    190.0015     30.3228     77.5340
  1183.2500     28.4711    190.4648     30.4329     72.4491
  1183.5000     28.4143    191.1507     30.4346     67.7216
  1183.7500     28.5461    192.0440     30.3025     67.4334
  1184.0000     28.7256    193.1023     30.0042     71.5092
  1184.2500     28.7720    194.2627     29.5147     76.3734
  1184.5000     28.5752    195.4523     28.8320     84.5254
  1184.7500     28.1500    196.6000     27.9877     89.4291
  1185.0000     27.5919    197.6468     27.0436     95.4301
  1185.2500     26.9922    198.5541     26.0734     98.7181
  1185.5000     26.3884    199.3063     25.1410    102.7321
  1185.7500     25.7743    199.9108     24.2882    104.5981
  1186.0000     25.1304    200.3930     23.5341    106.0045
  1186.2500     24.4431    200.7903     22.8796    106.3552
  1186.5000     23.7032    201.1448     22.3048    107.0741
  1186.7500     22.9021    201.4971     21.7670    108.0811
  1187.0000     22.0368    201.8809     21.2064    110.1481
  1187.2500     21.1216    202.3197     20.5684    111.5280
  1187.5000     20.1944    202.8249     19.8278    113.6081
  1187.7500     19.3062    203.3963     18.9986    115.5048
  1188.0000     18.4990    204.0229     18.1235    119.9459
  1188.2500     17.7870    204.6857     17.2537    123.8938
  1188.5000     17.1559    205.3609     16.4303    130.1374
  1188.7500     16.5787    206.0238     15.6746    133.7392
  1189.0000     16.0325    206.6525     14.9867    137.8202
  1189.2500     15.5072    207.2305     14.3533    139.9344
  1189.5000     15.0056    207.7484     13.7612    142.8367
  1189.7500     14.5406    208.2020     13.2088    144.6924
  1190.0000     14.1314    208.5903     12.7098    147.1557
  1190.2500     13.8001    208.9119     12.2877    148.5011
  1190.5000     13.5667    209.1617     11.9667    150.2666
  1190.7500     13.4443    209.3295     11.7642    151.5403
  1191.0000     13.4390    209.4007     11.6880    153.8150
  1191.2500     13.5534    209.3587     11.7381    155.2285
  1191.5000     13.7890    209.1877     11.9098    155.8200
  1191.7500     14.1447    208.8763     12.1974    154.3686
  1192.0000     14.6143    208.4195     12.5976    148.7911
  1192.2500     15.1878    207.8212     13.1090    143.0464
  1192.5000     15.8593    207.0939     13.7324    132.6321
  1192.7500     16.6319    206.2583     14.4693    125.3719
  1193.0000     17.5174    205.3414     15.3225    114.9649
  1193.2500     18.5380    204.3725     16.2967    108.3395
  1193.5000     19.7311    203.3793     17.3940     98.3801
  1193.7500     21.1480    202.3831     18.6059     91.8171
  1194.0000     22.8281    201.3951     19.9017     83.6106
  1194.2500     24.7585    200.4149     21.2225     80.4928
  1194.5000     26.8467    199.4315     22.4876     80.3301
  1194.7500     28.9266    198.4284     23.6163     82.4782
  1195.0000     30.7934    197.3927     24.5597     86.0118
  1195.2500     32.2680    196.3259     25.3257     86.6595
  1195.5000     33.2659    195.2540     25.9764     83.2839
  1195.7500     33.8287    194.2332     26.5907     78.4215
  1196.0000     34.0797    193.3463     27.2093     69.4442
  1196.2500     34.1251    192.6895     27.7849     63.8421
  1196.5000     33.9612    192.3522     28.1658     57.7347
  1196.7500     33.4577    192.3939     28.1316     55.6036
  1197.0000     32.4400    192.8277     27.4877     55.3530
  1197.2500     30.8329    193.6142     26.1828     56.9203
  1197.5000     28.7584    194.6689     24.3645     61.3488
  1197.7500     26.5036    195.8800     22.3186     65.6262
  1198.0000     24.3724    197.1304     20.3387     74.8270
  1198.2500     22.5428    198.3177     18.6261     83.6173
  1198.5000     21.0308    199.3675     17.2665    101.2498
  1198.7500     19.7531    200.2390     16.2569    114.8175
  1199.0000     18.6046    200.9239     15.5431    133.4314
  1199.2500     17.5069    201.4417     15.0500    141.7955
  1199.5000     16.4316    201.8318     14.7044    145.5549
  1199.7500     15.4143    202.1465     14.4525    142.5931
  1200.0000     14.5530    202.4419     14.2702    133.3731
  1200.2500     13.9773    202.7698     14.1613    126.7975
  1200.5000     13.7951    203.1693     14.1441    120.5350
