~Version Information
VERS.                      2.0: CWLS Log ASCII Standard - VERSION 2.0
WRAP.                       NO: One line per depth step
~Well Information Block
STRT.FT               650.0000: 
STOP.FT              2053.7000: 
STEP.FT                 0.1000: 
NULL.                -999.2500: 
COMP.          Pioneer Natural Resources: COMPANY
WELL.           Alabaster 11-8: WELL
FLD.           Purgatoire River: FIELD
LOC.           1249' FNL & 215' FWL--: LOCATION
PROV.                 Colorado: PROVINCE
CNTY.               Las Animas: COUNTRY
SRVC.                Patterson: SERVICE COMPANY
DATE.          Thu Jan 19 09:16:54 2006: LOG DATE
UWI.           05 071 08642 00: UNIQUE WELL ID
~Curve Information Block
DEPT.FT            0 000 00 00: Depth
DCAL.in                       : CDL Caliper
RHOB.g/cc                     : CDL Bulk Density
RHOC.g/cc                     : CDL Density Correction
DPOR.pu                       : CDL Density Porosity
NPOR.pu                       : Neutron Porosity
GR.GAPI                       : Gamma Ray
~Parameter Information Block
~A  Depth       DCAL        RHOB        RHOC        DPOR        NPOR         GR     
# ...
  1744.4000      8.0499      2.5786      0.0324      4.3248     16.5857     77.3672
  1744.5000      8.0494      2.5711     -0.0044      4.7840     16.0185     79.4553
  1744.6000      8.0494      2.5618      0.0183      5.3473     15.1108     77.4815
  1744.7000      8.0494      2.5555      0.0369      5.7271     14.3709     76.6738
  1744.8000      8.0482      2.5491      0.0077      6.1170     14.2122     81.0011
  1744.9000      8.0482      2.5484      0.0074      6.1589     14.6697     83.6705
  1745.0000      8.0480      2.5604      0.0045      5.4286     15.3518     79.9922
  1745.1000      8.0480      2.5816      0.0166      4.1425     15.8446     76.0614
  1745.2000      8.0480      2.5980      0.0731      3.1515     16.1790     78.0562
  1745.3000      8.0494      2.5970      0.0769      3.2110     16.4623     80.1551
  1745.4000      8.0494      2.5814      0.0498      4.1600     16.5883     74.8924
  1745.5000      8.0508      2.5606      0.0506      5.4166     16.3654     67.8377
  1745.6000      8.0508      2.5441      0.0143      6.4189     15.9394     67.9003
  1745.7000      8.0508      2.5426     -0.0028      6.5114     15.8256     73.9652
  1745.8000      8.0515      2.5555      0.0261      5.7287     16.0213     79.3524
  1745.9000      8.0515      2.5607      0.0564      5.4100     16.0423     81.9769
  1746.0000      8.0502      2.5448      0.0274      6.3739     16.0419     81.3573
  1746.1000      8.0502      2.5267     -0.0415      7.4709     16.3661     75.7189
  1746.2000      8.0502      2.5271     -0.0327      7.4475     16.5345     67.7060
  1746.3000      8.0481      2.5402      0.0107      6.6562     16.2822     63.7775
  1746.4000      8.0481      2.5502      0.0260      6.0466     15.9585     68.5495
  1746.5000      8.0478      2.5473      0.0263      6.2253     15.7138     76.3825
  1746.6000      8.0478      2.5328      0.0026      7.1025     15.4593     79.4357
  1746.7000      8.0478      2.5240     -0.0010      7.6361     15.0174     79.3236
  1746.8000      8.0480      2.5279      0.0145      7.3973     14.3826     81.2208
  1746.9000      8.0480      2.5283      0.0460      7.3742     13.8026     85.2645
  1747.0000      8.0476      2.5178      0.0236      8.0114     13.5294     86.1728
  1747.1000      8.0476      2.5141      0.0054      8.2359     13.5827     82.1403
  1747.2000      8.0476      2.5257      0.0736      7.5350     13.7161     76.0045
  1747.3000      8.0446      2.5411      0.0141      6.6029     13.7527     71.5829
  1747.4000      8.0446      2.5571      0.0821      5.6276     13.7469     70.5637
  1747.5000      8.0423      2.5755      0.0170      4.5177     13.8584     69.5890
  1747.6000      8.0423      2.5881      0.0825      3.7497     14.0726     68.5301
  1747.7000      8.0423      2.5868      0.0239      3.8307     14.1341     71.5364
  1747.8000      8.0452      2.5782      0.0290      4.3506     14.0440     78.1777
  1747.9000      8.0452      2.5716      0.0208      4.7526     14.1014     84.8695
  1748.0000      8.0485      2.5668      0.0471      5.0431     14.3100     86.7429
  1748.1000      8.0485      2.5555      0.0331      5.7245     14.3478     83.0276
  1748.2000      8.0485      2.5333      0.0114      7.0715     14.2175     80.0633
  1748.3000      8.0487      2.5142      0.0004      8.2284     14.0998     79.7751
  1748.4000      8.0487      2.5119      0.0359      8.3678     13.8803     77.5857
  1748.5000      8.0495      2.5193     -0.0037      7.9186     13.5405     74.7001
  1748.6000      8.0495      2.5216      0.0438      7.7848     13.3241     78.4558
  1748.7000      8.0495      2.5169      0.0084      8.0664     13.3637     87.0992
  1748.8000      8.0504      2.5216     -0.0086      7.7798     13.4446     90.3178
  1748.9000      8.0504      2.5393      0.0444      6.7073     13.3103     87.2163
  1749.0000      8.0487      2.5587      0.0197      5.5314     13.0436     84.3121
  1749.1000      8.0487      2.5738      0.0539      4.6201     13.0702     81.0997
  1749.2000      8.0487      2.5720      0.0676      4.7259     13.5915     75.1076
  1749.3000      8.0485      2.5455      0.0492      6.3333     14.2871     68.8268
  1749.4000      8.0485      2.5150     -0.0127      8.1848     14.9159     65.6616
  1749.5000      8.0498      2.5042      0.0045      8.8385     15.2754     65.8085
  1749.6000      8.0498      2.5016      0.0387      8.9945     14.9998     67.4827
  1749.7000      8.0498      2.4877      0.0180      9.8362     14.4072     69.4136
  1749.8000      8.0508      2.4758     -0.0300     10.5571     14.0022     69.7766
  1749.9000      8.0508      2.4847      0.0187     10.0152     13.7298     66.4669
  1750.0000      8.0513      2.5065      0.0122      8.6998     13.4277     63.4671
  1750.1000      8.0513      2.5222      0.0512      7.7434     13.0773     65.8769
  1750.2000      8.0513      2.5242      0.0151      7.6226     12.7188     66.9288
  1750.3000      8.0509      2.5157      0.0522      8.1395     12.4876     61.3218
  1750.4000      8.0509      2.5013      0.0095      9.0145     12.4157     56.7799
  1750.5000      8.0513      2.4919      0.0067      9.5819     12.4207     59.2217
  1750.6000      8.0513      2.4967     -0.0067      9.2909     12.4412     65.9685
  1750.7000      8.0513      2.5067      0.0567      8.6839     12.5018     72.3399
  1750.8000      8.0526      2.5086      0.0242      8.5681     12.7684     74.3518
  1750.9000      8.0526      2.5027      0.0700      8.9263     13.2039     68.9122
  1751.0000      8.0531      2.4974      0.0067      9.2463     13.5773     58.8788
  1751.1000      8.0531      2.4993      0.0376      9.1353     13.8001     50.1672
  1751.2000      8.0531      2.4996      0.0645      9.1173     13.7576     44.9939
  1751.3000      8.0521      2.4905      0.0597      9.6651     13.3608     43.6201
  1751.4000      8.0521      2.4795      0.0589     10.3343     12.8852     46.0936
  1751.5000      8.0509      2.4724      0.0881     10.7615     12.6424     52.4375
  1751.6000      8.0509      2.4726      0.0629     10.7532     12.6575     60.1149
  1751.7000      8.0509      2.4842      0.0430     10.0507     12.7703     61.9118
  1751.8000      8.0522      2.4970      0.0854      9.2741     12.8562     56.1832
  1751.9000      8.0522      2.4931      0.1161      9.5088     12.7782     51.0295
  1752.0000      8.0525      2.4779      0.0816     10.4297     12.4355     50.5098
  1752.1000      8.0525      2.4756      0.0701     10.5719     12.2388     51.4089
  1752.2000      8.0525      2.4926      0.0801      9.5420     12.5719     52.8598
  1752.3000      8.0512      2.5127      0.0802      8.3197     13.0218     55.2979
  1752.4000      8.0512      2.5194      0.0909      7.9172     13.0543     57.3921
  1752.5000      8.0521      2.5110      0.0448      8.4269     12.8927     59.1848
  1752.6000      8.0521      2.4985      0.0617      9.1809     12.9511     63.6875
  1752.7000      8.0521      2.4914      0.0605      9.6105     13.2415     70.3078
  1752.8000      8.0524      2.4940      0.0756      9.4552     13.7311     72.9599
  1752.9000      8.0524      2.5044      0.1051      8.8263     14.5692     71.3191
  1753.0000      8.0500      2.5186      0.0611      7.9646     15.5732     69.0863
  1753.1000      8.0500      2.5313      0.0721      7.1953     16.3518     67.6088
  1753.2000      8.0500      2.5299      0.0859      7.2801     16.9454     69.0864
  1753.3000      8.0490      2.5059      0.0608      8.7336     17.6591     72.0947
  1753.4000      8.0490      2.4650      0.0205     11.2141     18.4285     74.4456
  1753.5000      8.0492      2.4126      0.0429     14.3907     18.7325     78.1369
  1753.6000      8.0492      2.3481      0.0128     18.2957     18.4024     84.2477
  1753.7000      8.0492      2.2754     -0.0338     22.7032     17.8754     92.4861
  1753.8000      8.0463      2.2010     -0.0701     27.2145     17.1761    104.1879
  1753.9000      8.0463      2.1283     -0.0800     31.6154     16.0989    117.3176
