~Version Information
 VERS.                                  2.0 : CWLS LAS VERSION
 WRAP.                                   NO : WRAPING MODE
 SWARE .                 MController 2.5.0N : SOFTWARE VERSION
~Well Information
 WELL.                         Giggle 21-22 : WELL
 COMP.       Pioneer Natural Resources, USA : COMPANY
 FLD.                       Purgatory River : FIELD
 LOC.                 NE/NW Sec22 T34S R65W : LOCATION
 DATE.                              4/12/06 : DATE(S) LOGGED
 SRVC.      Blanco Geological Services, LLC : SERVICE COMPANY
 STAT.                             Colorado : STATE
 CNTY.                           Las Animas : COUNTY
 CTRY.                                  USA : COUNTRY
 API.                       05-071-08726-00 : API NUMBER
 STRT.FT                             267.00 : START DEPTH
 STOP.FT                            1011.00 : STOP DEPTH
 STEP.FT                               1.00 : DEPTH INCREMENT
 NULL.                                -9999 : NULL VALUE
~Curve information
 DEPTH.FT                                   :
 ROP.MIN/FT                                 :
 GAS.UNITS                                  :
~ASCII Log data
       267.0     -9999.00          0.4 
       268.0         0.10          0.2 
       269.0         0.12          2.1 
       270.0         0.10          3.4 
       271.0         0.10          3.1 
       272.0         0.13          3.2 
       273.0         0.10          3.2 
       274.0         0.10          3.1 
       275.0         0.10          3.0 
       276.0         0.10          2.9 
       277.0         0.10          3.1 
       278.0         0.10          2.9 
       279.0         0.10          3.3 
       280.0         0.10          3.2 
       281.0         0.10          3.0 
       282.0         0.07          3.1 
       283.0         0.10          3.2 
       284.0         0.10          3.5 
       285.0         0.13          3.0 
       286.0         0.10          3.1 
       287.0         0.10          3.0 
       288.0         0.13          3.3 
       289.0         0.30          3.1 
       290.0         0.10          2.9 
       291.0         0.10          2.9 
       292.0         1.98          3.4 
       293.0         0.10          2.6 
       294.0         0.10          2.7 
       295.0         0.10          2.6 
       296.0         0.07          2.6 
       297.0         0.10          2.6 
       298.0         0.10          2.4 
       299.0         0.10          2.6 
       300.0         0.10          2.6 
       301.0         0.10          2.5 
       302.0         0.10          2.8 
       303.0         0.10          2.4 
       304.0         0.13          2.3 
       305.0         0.10          2.7 
       306.0         0.10          2.6 
       307.0         0.10          2.5 
       308.0         0.10          2.8 
       309.0         0.10          2.3 
       310.0         0.10          2.5 
       311.0         0.10          2.4 
       312.0         0.10          2.8 
       313.0         0.10          2.6 
       314.0         0.12          2.6 
       315.0         0.10          2.8 
       316.0         0.13          2.3 
       317.0         0.10          2.8 
       318.0         0.10          2.4 
       319.0         0.13          2.5 
       320.0         0.10          2.9 
       321.0         0.10          2.7 
       322.0         2.53          2.6 
       323.0         0.15          2.4 
       324.0         0.13          2.4 
       325.0         0.10          1.9 
       326.0         0.13          2.3 
       327.0         0.10          1.9 
       328.0         0.10          2.1 
       329.0         0.10          2.4 
       330.0         0.10          2.2 
       331.0         0.10          2.1 
       332.0         0.10          1.9 
       333.0         0.10          1.8 
       334.0         0.10          1.8 
       335.0         0.10          1.8 
       336.0         0.10          1.9 
       337.0         0.10          2.3 
       338.0         0.10          2.2 
       339.0         0.10          2.1 
       340.0         0.10          1.6 
       341.0         0.10          2.2 
       342.0         0.10          2.0 
       343.0         0.13          2.1 
       344.0         0.10          2.2 
       345.0         0.10          1.8 
       346.0         0.10          1.9 
       347.0         0.10          1.9 
       348.0         0.10          1.9 
       349.0         0.10          1.8 
       350.0         0.10          2.0 
       351.0         0.13          1.8 
       352.0         2.32          2.1 
       353.0         0.23          1.6 
       354.0         0.23          1.9 
       355.0         0.17          1.6 
       356.0         0.27          1.8 
       357.0         0.23          1.7 
       358.0         0.28          1.6 
       359.0         0.20          1.5 
       360.0         0.27          1.7 
       361.0         0.27          1.7 
       362.0         0.30          1.7 
       363.0         0.23          1.4 
       364.0         0.23          1.2 
       365.0         0.20          1.4 
       366.0         0.20          1.5 
       367.0         0.27          1.5 
       368.0         0.27          2.2 
       369.0         0.23          2.3 
       370.0         0.27          1.9 
       371.0         0.28          1.7 
       372.0         0.30          1.6 
       373.0         0.27          1.3 
       374.0         0.23          1.4 
       375.0         0.23          1.3 
       376.0         0.27          1.3 
       377.0         0.20          1.1 
       378.0         0.23          1.0 
       379.0         0.23          1.1 
       380.0         0.27          1.1 
       381.0         0.27          1.2 
       382.0         3.82          1.8 
       383.0         0.38          1.4 
       384.0         0.30          1.6 
       385.0         0.27          1.2 
       386.0         0.30          1.3 
       387.0         0.30          1.3 
       388.0         0.27          1.6 
       389.0         0.30          1.4 
       390.0         0.27         25.1 
       391.0         0.27        164.0 
       392.0         0.23        166.0 
       393.0         0.23        138.6 
       394.0         0.27         89.5 
       395.0         0.23         47.2 
       396.0         0.32         33.0 
       397.0         0.27         14.1 
       398.0         0.27          7.7 
       399.0         0.27          4.2 
       400.0         0.30          2.8 
       401.0         0.33          1.5 
       402.0         0.27          1.1 
       403.0         0.33          1.0 
       404.0         0.27          1.1 
       405.0         0.23          1.2 
       406.0         0.23          1.1 
       407.0         0.20          1.3 
       408.0         0.35          2.0 
       409.0         0.30          1.7 
       410.0         0.33          2.1 
       411.0         0.40          2.1 
       412.0         3.22          3.0 
       413.0         0.33          2.4 
       414.0         0.43          2.0 
       415.0         0.27          1.5 
       416.0         0.27          1.7 
       417.0         0.23          1.7 
       418.0         0.30          1.6 
       419.0         0.27          1.5 
       420.0         0.28          1.8 
       421.0         0.27          1.2 
       422.0         0.30          1.4 
       423.0         0.27          1.6 
       424.0         0.23          1.3 
       425.0         0.20          1.3 
       426.0         0.23          1.3 
       427.0         0.23          1.5 
       428.0         0.23          1.5 
       429.0         0.23          1.7 
       430.0         0.20          2.0 
       431.0         0.23          2.1 
       432.0         0.23          2.2 
       433.0         0.23          2.0 
       434.0         0.25          2.0 
       435.0         0.30          2.2 
       436.0         0.30          3.2 
       437.0         0.37          5.1 
       438.0         0.30          6.1 
       439.0         0.33          7.1 
       440.0         0.33          6.6 
       441.0         0.30          6.4 
       442.0         3.62         12.9 
       443.0         0.30         11.6 
       444.0         0.35          9.0 
       445.0         0.27          7.1 
       446.0         0.23          6.7 
       447.0         0.20          6.8 
       448.0         0.23          6.5 
       449.0         0.30          6.1 
       450.0         0.23          5.8 
       451.0         0.27          5.7 
       452.0         0.30          5.5 
       453.0         0.27          6.0 
       454.0         0.23          5.6 
       455.0         0.27          6.0 
       456.0         0.27          6.0 
       457.0         0.23          7.0 
       458.0         0.25          6.9 
       459.0         0.23          6.9 
       460.0         0.23          6.5 
       461.0         0.27          6.2 
       462.0         0.30          5.5 
       463.0         0.23          5.9 
       464.0         0.27          5.8 
       465.0         0.30          6.0 
       466.0         0.23          6.2 
