~Version Information
VERS.                      2.0: CWLS Log ASCII Standard - VERSION 2.0
WRAP.                       NO: One line per depth step
~Well Information Block
STRT.FT                10.0000: 
STOP.FT               959.2500: 
STEP.FT                 0.2500: 
NULL.                -999.2500: 
COMP.          XTO Energy Inc.: COMPANY
WELL.          Golden Eagle 20-04: WELL
FLD.           Purgatrorie River: FIELD
LOC.           702' FNL & 487' FWL--: LOCATION
STAT.                       CO: State
CNTY.               Las Animas: COUNTY
CTRY. USA : Country
SECT. 20 : Section
TOWN. 33S : Township
RANG. 67W : Range
SRVC.          Patterson Wireline: SERVICE COMPANY
DATE.          Mon Dec 05 08:42:44 2005: LOG DATE
API.           05 071 08599 00: UNIQUE WELL ID
~Curve Information Block
DEPT.FT            0 000 00 00: Depth
TEMP.degF                     : Downhole Temperature
DTMP.degF                     : Delta Temperature
~Parameter Information Block
~A  Depth       TEMP        DTMP    
# ...
   567.5000     61.8621      0.0251
   567.7500     61.8688      0.0250
   568.0000     61.8741      0.0258
   568.2500     61.8813      0.0264
   568.5000     61.8887      0.0273
   568.7500     61.8945      0.0281
   569.0000     61.9023      0.0288
   569.2500     61.9083      0.0296
   569.5000     61.9167      0.0293
   569.7500     61.9251      0.0310
   570.0000     61.9317      0.0318
   570.2500     61.9405      0.0323
   570.5000     61.9473      0.0330
   570.7500     61.9565      0.0324
   571.0000     61.9659      0.0341
   571.2500     61.9730      0.0347
   571.5000     61.9827      0.0351
   571.7500     61.9900      0.0357
   572.0000     61.9999      0.0362
   572.2500     62.0099      0.0366
   572.5000     62.0175      0.0371
   572.7500     62.0278      0.0376
   573.0000     62.0383      0.0382
   573.2500     62.0462      0.0387
   573.5000     62.0569      0.0392
   573.7500     62.0651      0.0397
   574.0000     62.0762      0.0402
   574.2500     62.0874      0.0406
   574.5000     62.0959      0.0411
   574.7500     62.1073      0.0413
   575.0000     62.1188      0.0417
   575.2500     62.1275      0.0405
   575.5000     62.1391      0.0422
   575.7500     62.1478      0.0424
   576.0000     62.1596      0.0412
   576.2500     62.1684      0.0430
   576.5000     62.1803      0.0418
   576.7500     62.1922      0.0437
   577.0000     62.2012      0.0441
   577.2500     62.2135      0.0462
   577.5000     62.2227      0.0452
   577.7500     62.2351      0.0459
   578.0000     62.2479      0.0464
   578.2500     62.2608      0.0471
   578.5000     62.2706      0.0477
   578.7500     62.2839      0.0485
   579.0000     62.2940      0.0492
   579.2500     62.3077      0.0482
   579.5000     62.3180      0.0506
   579.7500     62.3321      0.0494
   580.0000     62.3463      0.0519
   580.2500     62.3572      0.0527
   580.5000     62.3718      0.0534
   580.7500     62.3828      0.0522
   581.0000     62.3979      0.0531
   581.2500     62.4131      0.0558
   581.5000     62.4248      0.0547
   581.7500     62.4364      0.0575
   582.0000     62.4525      0.0584
   582.2500     62.4687      0.0594
   582.5000     62.4811      0.0601
   582.7500     62.4977      0.0631
   583.0000     62.5146      0.0617
   583.2500     62.5319      0.0627
   583.5000     62.5449      0.0633
   583.7500     62.5626      0.0642
   584.0000     62.5760      0.0650
   584.2500     62.5941      0.0635
   584.5000     62.6077      0.0663
   584.7500     62.6261      0.0646
   585.0000     62.6447      0.0674
   585.2500     62.6588      0.0679
   585.5000     62.6776      0.0683
   585.7500     62.6917      0.0687
   586.0000     62.7107      0.0691
   586.2500     62.7299      0.0692
   586.5000     62.7442      0.0695
   586.7500     62.7634      0.0720
   587.0000     62.7828      0.0698
   587.2500     62.7972      0.0697
   587.5000     62.8166      0.0720
   587.7500     62.8358      0.0695
   588.0000     62.8503      0.0690
   588.2500     62.8694      0.0687
   588.5000     62.8882      0.0681
   588.7500     62.9024      0.0652
   589.0000     62.9209      0.0668
   589.2500     62.9347      0.0660
   589.5000     62.9527      0.0630
   589.7500     62.9663      0.0643
   590.0000     62.9839      0.0613
   590.2500     63.0014      0.0625
   590.5000     63.0142      0.0615
   590.7500     63.0310      0.0605
   591.0000     63.0435      0.0593
   591.2500     63.0597      0.0580
   591.5000     63.0757      0.0570
   591.7500     63.0873      0.0557
   592.0000     63.1025      0.0546
   592.2500     63.1174      0.0532
   592.5000     63.1282      0.0516
   592.7500     63.1423      0.0505
   593.0000     63.1527      0.0491
   593.2500     63.1660      0.0475
   593.5000     63.1789      0.0464
   593.7500     63.1883      0.0450
   594.0000     63.2007      0.0439
   594.2500     63.2125      0.0425
   594.5000     63.2211      0.0411
   594.7500     63.2323      0.0401
   595.0000     63.2404      0.0388
   595.2500     63.2510      0.0364
   595.5000     63.2612      0.0366
   595.7500     63.2686      0.0354
   596.0000     63.2782      0.0356
   596.2500     63.2852      0.0334
   596.5000     63.2943      0.0324
   596.7500     63.3030      0.0317
   597.0000     63.3116      0.0308
   597.2500     63.3178      0.0302
   597.5000     63.3260      0.0294
   597.7500     63.3320      0.0287
   598.0000     63.3398      0.0271
   598.2500     63.3455      0.0275
   598.5000     63.3530      0.0269
   598.7500     63.3604      0.0265
   599.0000     63.3658      0.0261
   599.2500     63.3729      0.0257
   599.5000     63.3799      0.0254
   599.7500     63.3851      0.0250
   600.0000     63.3919      0.0249
   600.2500     63.3970      0.0246
   600.5000     63.4038      0.0236
   600.7500     63.4105      0.0235
   601.0000     63.4155      0.0234
   601.2500     63.4222      0.0242
   601.5000     63.4272      0.0241
   601.7500     63.4322      0.0233
   602.0000     63.4388      0.0240
   602.2500     63.4454      0.0240
   602.5000     63.4520      0.0240
   602.7500     63.4570      0.0248
   603.0000     63.4636      0.0239
   603.2500     63.4701      0.0240
   603.5000     63.4751      0.0241
   603.7500     63.4817      0.0241
   604.0000     63.4867      0.0243
   604.2500     63.4934      0.0236
   604.5000     63.5002      0.0246
   604.7500     63.5053      0.0248
   605.0000     63.5121      0.0250
   605.2500     63.5173      0.0252
   605.5000     63.5243      0.0245
   605.7500     63.5314      0.0256
   606.0000     63.5367      0.0258
   606.2500     63.5439      0.0259
   606.5000     63.5492      0.0261
   606.7500     63.5565      0.0262
   607.0000     63.5637      0.0263
   607.2500     63.5692      0.0263
   607.5000     63.5764      0.0264
   607.7500     63.5837      0.0265
   608.0000     63.5892      0.0265
   608.2500     63.5965      0.0265
   608.5000     63.6020      0.0265
   608.7500     63.6094      0.0265
   609.0000     63.6167      0.0265
   609.2500     63.6222      0.0264
   609.5000     63.6295      0.0263
   609.7500     63.6367      0.0263
   610.0000     63.6422      0.0262
   610.2500     63.6494      0.0261
   610.5000     63.6547      0.0259
   610.7500     63.6619      0.0250
   611.0000     63.6690      0.0258
   611.2500     63.6743      0.0248
   611.5000     63.6814      0.0256
   611.7500     63.6867      0.0255
   612.0000     63.6937      0.0254
   612.2500     63.6990      0.0253
   612.5000     63.7059      0.0252
   612.7500     63.7129      0.0251
   613.0000     63.7198      0.0249
   613.2500     63.7250      0.0256
   613.5000     63.7317      0.0247
   613.7500     63.7368      0.0245
   614.0000     63.7436      0.0234
   614.2500     63.7503      0.0241
   614.5000     63.7552      0.0239
   614.7500     63.7618      0.0237
   615.0000     63.7667      0.0235
   615.2500     63.7732      0.0225
   615.5000     63.7796      0.0231
   615.7500     63.7843      0.0221
   616.0000     63.7906      0.0227
   616.2500     63.7953      0.0226
   616.5000     63.8014      0.0216
   616.7500     63.8060      0.0223
   617.0000     63.8122      0.0222
   617.2500     63.8183      0.0221
   617.5000     63.8228      0.0214
   617.7500     63.8289      0.0221
   618.0000     63.8350      0.0221
   618.2500     63.8396      0.0213
   618.5000     63.8441      0.0221
   618.7500     63.8502      0.0222
   619.0000     63.8564      0.0214
   619.2500     63.8610      0.0222
   619.5000     63.8671      0.0223
   619.7500     63.8732      0.0223
   620.0000     63.8778      0.0224
   620.2500     63.8840      0.0224
   620.5000     63.8887      0.0225
   620.7500     63.8949      0.0218
   621.0000     63.9011      0.0226
   621.2500     63.9058      0.0219
   621.5000     63.9121      0.0228
   621.7500     63.9168      0.0229
   622.0000     63.9231      0.0231
   622.2500     63.9279      0.0240
   622.5000     63.9343      0.0233
   622.7500     63.9407      0.0243
   623.0000     63.9472      0.0237
