~Version Information
VERS.                      2.0: CWLS Log ASCII Standard - VERSION 2.0
WRAP.                       NO: One line per depth step
~Well Information Block
STRT.FT               370.0000: 
STOP.FT              1282.5000: 
STEP.FT                 0.1000: 
NULL.                -999.2500: 
COMP.          Pioneer Natural Resources: COMPANY
WELL.          Irish Eyes 33-21: WELL
FLD.           Purgatoire River: FIELD
LOC.           1379' FSL & 2544' FEL: LOCATION
PROV.                 Colorado: PROVINCE
CNTY.               Las Animas: COUNTRY
SRVC.                Patterson: SERVICE COMPANY
DATE.          Mon Jan 16 13:31:01 2006: LOG DATE
UWI.           05 071 08658 00: UNIQUE WELL ID
~Curve Information Block
DEPT.FT            0 000 00 00: Depth
DCAL.in                       : CDL Caliper
RHOB.g/cc                     : CDL Bulk Density
RHOC.g/cc                     : CDL Density Correction
DPOR.pu                       : CDL Density Porosity
GR.GAPI                       : Gamma Ray
NPOR.pu                       : Neutron Porosity
~Parameter Information Block
~A  Depth       DCAL        RHOB        RHOC        DPOR         GR         NPOR    
# ...
   552.4000      8.0512      2.5090      0.0683      8.5474    162.3145     26.4824
   552.5000      8.0367      2.4847      0.0992     10.0178    169.9498     26.6585
   552.6000      8.0367      2.4691      0.0316     10.9618    174.3233     27.0966
   552.7000      8.0367      2.4760     -0.0008     10.5484    172.0584     27.3613
   552.8000      8.0570      2.5001      0.0676      9.0849    168.1904     27.2166
   552.9000      8.0570      2.5203      0.0480      7.8622    168.9624     26.9762
   553.0000      8.0507      2.5247      0.0963      7.5950    171.3905     26.9310
   553.1000      8.0507      2.5160      0.0536      8.1220    170.1129     27.1371
   553.2000      8.0507      2.5072      0.0364      8.6520    164.8552     27.6114
   553.3000      8.1064      2.5057      0.0412      8.7445    162.2666     27.8593
   553.4000      8.1064      2.5090      0.0647      8.5466    166.9917     27.5866
   553.5000      8.1614      2.5180      0.1075      8.0022    173.0009     27.3985
   553.6000      8.1614      2.5308      0.1371      7.2231    172.4238     27.3958
   553.7000      8.1614      2.5288      0.1690      7.3439    169.0568     26.9373
   553.8000      8.0435      2.4998      0.0896      9.1052    169.5725     26.1479
   553.9000      8.0435      2.4667      0.0545     11.1114    171.9354     25.7511
   554.0000      8.0260      2.4494      0.0904     12.1577    170.8793     25.8407
   554.1000      8.0260      2.4364      0.0364     12.9483    166.2250     26.0443
   554.2000      8.0260      2.4237      0.0371     13.7154    161.0440     25.9421
   554.3000      8.0330      2.4283      0.0269     13.4342    156.5505     25.6231
   554.4000      8.0330      2.4609      0.1023     11.4603    153.7863     25.6513
   554.5000      8.0367      2.5085      0.1553      8.5752    153.4689     25.9677
   554.6000      8.0367      2.5513      0.1913      5.9830    155.1480     26.1970
   554.7000      8.0367      2.5849      0.2038      3.9475    154.8073     26.3286
   554.8000      8.0257      2.6104      0.2925      2.4020    147.8727     26.4195
   554.9000      8.0257      2.6255      0.2637      1.4872    136.5186     26.6824
   555.0000      8.0279      2.6399      0.1613      0.6133    127.3815     27.2590
   555.1000      8.0279      2.6593      0.2318     -0.5619    124.4034     27.7608
   555.2000      8.0279      2.6697      0.1801     -1.1915    123.3645     27.8525
   555.3000      8.0402      2.6714      0.0968     -1.2969    117.4600     27.6341
   555.4000      8.0402      2.6793      0.0911     -1.7737    109.4093     27.1271
   555.5000      8.0349      2.6843      0.1606     -2.0792    104.7866     26.4070
   555.6000      8.0349      2.6635      0.1146     -0.8196    103.4545     25.6658
   555.7000      8.0349      2.6257      0.0191      1.4746    102.2617     25.0042
   555.8000      8.0034      2.5971      0.0636      3.2090     98.0660     24.5375
   555.9000      8.0034      2.5887     -0.0179      3.7173     91.8682     24.2188
   556.0000      7.9852      2.6032     -0.0387      2.8375     87.5236     23.9823
   556.1000      7.9852      2.6228      0.0172      1.6468     86.3024     23.7875
   556.2000      7.9852      2.6208      0.0480      1.7709     86.2583     23.3593
   556.3000      8.0004      2.5994      0.0518      3.0661     85.9465     22.8150
   556.4000      8.0004      2.5803      0.0344      4.2219     85.7523     22.6726
   556.5000      7.9985      2.5766      0.0238      4.4496     86.5149     22.9291
   556.6000      7.9985      2.5800      0.0676      4.2437     90.3810     23.1267
   556.7000      7.9985      2.5803      0.0308      4.2224     97.0304     23.0157
   556.8000      8.0007      2.5817      0.0556      4.1421    101.6505     22.8718
   556.9000      8.0007      2.5736      0.0877      4.6298    102.0885     23.0454
   557.0000      7.9931      2.5424      0.0088      6.5216     99.7685     23.2476
   557.1000      7.9931      2.5108     -0.0235      8.4374     97.4274     22.9355
   557.2000      7.9931      2.4999      0.0156      9.0941     97.7755     22.1305
   557.3000      7.9919      2.4949      0.0038      9.3972     99.0691     21.4042
   557.4000      7.9919      2.4833      0.0156     10.1008    100.9767     21.0232
   557.5000      7.9996      2.4792      0.0448     10.3519    105.9507     20.8340
   557.6000      7.9996      2.4887      0.1000      9.7778    112.5522     20.4884
   557.7000      7.9996      2.4936      0.1185      9.4791    115.1644     19.3191
   557.8000      7.9971      2.4822      0.0436     10.1697    110.9977     17.2657
   557.9000      7.9971      2.4529      0.0439     11.9426    105.7974     15.3600
   558.0000      7.9950      2.3958      0.0317     15.4068    104.6694     14.3434
   558.1000      7.9950      2.3066      0.0398     20.8125    104.6315     14.1939
   558.2000      7.9950      2.1931      0.0081     27.6902    103.4505     14.5829
   558.3000      7.9894      2.0624      0.0005     35.6139    102.5707     15.2262
   558.4000      7.9894      1.9318     -0.0819     43.5279     99.8635     16.1874
   558.5000      7.9892      1.8400     -0.1461     49.0935     95.6182     17.5619
   558.6000      7.9892      1.8083     -0.0259     51.0137     93.8293     18.9893
   558.7000      7.9892      1.8220      0.0163     50.1847     94.0853     20.2265
   558.8000      8.0023      1.8757      0.0396     46.9277     94.8545     21.5024
   558.9000      8.0023      1.9826      0.1464     40.4492     96.6381     22.9112
   559.0000      8.0182      2.1286      0.3770     31.6013    101.2652     24.2305
   559.1000      8.0182      2.2706      0.3906     22.9933    111.6964     25.1431
   559.2000      8.0182      2.3876      0.3789     15.9015    123.7873     25.7431
   559.3000      8.1287      2.4898      0.2732      9.7086    129.1544     26.4566
   559.4000      8.1287      2.5715      0.3148      4.7597    127.2423     27.2525
   559.5000      8.1732      2.6023      0.1994      2.8936    122.5350     27.7376
   559.6000      8.1732      2.5845      0.1136      3.9716    120.6500     27.8139
   559.7000      8.1732      2.5594      0.0606      5.4915    126.7962     27.7750
   559.8000      8.0695      2.5547      0.0850      5.7763    136.4970     27.8797
   559.9000      8.0695      2.5672      0.0743      5.0206    137.8287     28.1237
   560.0000      8.0266      2.5841      0.0989      3.9964    129.9129     28.3028
   560.1000      8.0266      2.5926      0.1052      3.4768    125.6636     27.9370
   560.2000      8.0266      2.5853      0.0715      3.9230    129.0502     27.0334
   560.3000      8.0053      2.5746      0.0109      4.5725    131.8558     26.3006
   560.4000      8.0053      2.5798      0.0072      4.2530    129.3906     25.9600
   560.5000      8.0065      2.6015      0.0567      2.9408    124.2503     25.5985
   560.6000      8.0065      2.6260      0.0596      1.4572    121.9051     25.1410
   560.7000      8.0065      2.6360      0.0600      0.8483    124.0190     24.9331
   560.8000      8.0080      2.6196      0.0600      1.8417    126.7552     24.9682
   560.9000      8.0080      2.5797      0.0344      4.2634    128.5682     24.7875
   561.0000      8.0123      2.5353     -0.0066      6.9505    130.5909     24.3670
   561.1000      8.0123      2.5049      0.0002      8.7943    132.0164     24.3409
   561.2000      8.0123      2.4865     -0.0737      9.9113    131.2090     25.0915
   561.3000      8.0105      2.4751     -0.0273     10.6004    126.8795     26.0001
   561.4000      8.0105      2.4716     -0.0281     10.8111    120.5093     26.2140
   561.5000      8.0079      2.4781     -0.0259     10.4169    113.8114     25.9003
   561.6000      8.0079      2.4955      0.0331      9.3644    106.6855     25.7409
   561.7000      8.0079      2.5132      0.0532      8.2923     99.8278     25.7208
   561.8000      8.0400      2.5178      0.0234      8.0121     97.4537     25.1243
   561.9000      8.0400      2.5153     -0.0055      8.1617    100.9486     23.9638
