~Version Information
VERS.                      2.0: CWLS Log ASCII Standard - VERSION 2.0
WRAP.                       NO: One line per depth step
~Well Information Block
STRT.FT               570.0000: 
STOP.FT              2090.5000: 
STEP.FT                 0.1000: 
NULL.                -999.2500: 
COMP.          XTO Energy Inc.: COMPANY
WELL.          Golden Eagle 19-10: WELL
FLD.           Purgatoire River: FIELD
LOC.           2684' FSL & 1825' FEL: LOCATION
CNTY.               Las Animas: COUNTY
SRVC.                Patterson: SERVICE COMPANY
DATE.          Mon Mar 06 07:05:15 2006: LOG DATE
UWI.           05 071 08697 00: UNIQUE WELL ID
STAT.                 Colorado: STATE
~Curve Information Block
DEPT.FT            0 000 00 00: Depth
DCAL.in                       : CDL Caliper
RHOB.g/cc                     : CDL Bulk Density
RHOC.g/cc                     : CDL Density Correction
DPOR.pu                       : CDL Density Porosity
GR.GAPI                       : Gamma Ray
NPOR.pu                       : Neutron Porosity
~Parameter Information Block
~A  Depth       DCAL        RHOB        RHOC        DPOR         GR         NPOR    
# ...
  1472.4000      7.7961      2.4284      0.0070     13.4275    129.5849     30.7047
  1472.5000      7.8018      2.4540      0.0205     11.8773    132.2623     30.1855
  1472.6000      7.8018      2.4899      0.1172      9.7025    128.3888     29.7820
  1472.7000      7.8018      2.5157      0.1590      8.1377    124.8554     29.6379
  1472.8000      7.8061      2.5153      0.1532      8.1611    125.3411     29.8488
  1472.9000      7.8061      2.4921      0.1352      9.5683    127.5070     29.6098
  1473.0000      7.8070      2.4662      0.1204     11.1380    128.9626     28.8829
  1473.1000      7.8070      2.4617      0.0576     11.4128    130.7432     28.9764
  1473.2000      7.8070      2.4882      0.0774      9.8060    130.9488     29.7203
  1473.3000      7.8077      2.5277      0.1288      7.4137    127.7629     29.7325
  1473.4000      7.8077      2.5517      0.1388      5.9553    127.0123     28.8784
  1473.5000      7.8218      2.5513      0.1392      5.9798    132.7716     28.1021
  1473.6000      7.8218      2.5408      0.1290      6.6193    139.3613     28.0389
  1473.7000      7.8218      2.5359      0.1130      6.9158    139.6984     28.3907
  1473.8000      7.8527      2.5379      0.1139      6.7941    134.5627     28.4679
  1473.9000      7.8527      2.5388      0.1106      6.7412    129.9764     28.5518
  1474.0000      7.8825      2.5299      0.1003      7.2759    130.7545     29.1244
  1474.1000      7.8825      2.5139      0.0368      8.2498    134.7137     29.5465
  1474.2000      7.8825      2.5064      0.0297      8.7006    139.7522     29.1704
  1474.3000      7.8857      2.5128      0.0582      8.3157    146.2972     28.8177
  1474.4000      7.8857      2.5224      0.0857      7.7360    150.1947     29.3981
  1474.5000      7.8805      2.5275      0.1106      7.4228    148.7283     30.3563
  1474.6000      7.8805      2.5329      0.0957      7.0969    144.7027     30.6345
  1474.7000      7.8805      2.5495      0.1019      6.0928    141.6846     30.3409
  1474.8000      7.8732      2.5731      0.1683      4.6606    139.3680     30.4207
  1474.9000      7.8732      2.5847      0.1458      3.9580    135.2059     30.5863
  1475.0000      7.8627      2.5790      0.1177      4.3027    131.3801     30.2311
  1475.1000      7.8627      2.5641      0.1283      5.2053    131.0674     30.0023
  1475.2000      7.8627      2.5453      0.0999      6.3444    130.8843     30.2496
  1475.3000      7.8510      2.5296      0.0833      7.2947    128.6129     30.5008
  1475.4000      7.8510      2.5208      0.0812      7.8303    127.4761     30.5339
  1475.5000      7.8327      2.5148      0.0601      8.1925    126.4141     30.1568
  1475.6000      7.8327      2.5102      0.0693      8.4749    122.3234     29.2527
  1475.7000      7.8327      2.5066      0.0554      8.6928    119.1665     28.6548
  1475.8000      7.8226      2.5002      0.0413      9.0765    123.0619     28.7430
  1475.9000      7.8226      2.4924      0.0297      9.5543    130.7878     28.6680
  1476.0000      7.8096      2.4928      0.0113      9.5253    137.2161     28.2429
  1476.1000      7.8096      2.5053      0.0282      8.7671    144.1848     28.0254
  1476.2000      7.8096      2.5192      0.0528      7.9261    148.9202     27.9968
  1476.3000      7.7835      2.5283      0.0380      7.3736    146.1261     27.6457
  1476.4000      7.7835      2.5411      0.0637      6.5975    137.9651     26.5640
  1476.5000      7.7615      2.5615      0.0839      5.3616    128.6942     25.4060
  1476.6000      7.7615      2.5812      0.0780      4.1668    122.6477     25.1951
  1476.7000      7.7615      2.5915      0.0838      3.5482    122.3078     25.6444
  1476.8000      7.7525      2.5909      0.1009      3.5808    122.8225     25.9063
  1476.9000      7.7525      2.5872      0.0610      3.8061    118.1689     26.0796
  1477.0000      7.8515      2.5842      0.1014      3.9905    110.4550     26.9240
  1477.1000      7.8515      2.5780      0.0644      4.3640    107.2842     28.3760
  1477.2000      7.8515      2.5732      0.0644      4.6528    109.2257     29.2329
  1477.3000      7.8538      2.5692      0.0750      4.8962    110.1041     28.9141
  1477.4000      7.8538      2.5560      0.0607      5.6969    109.3527     28.0528
  1477.5000      7.8565      2.5347      0.0197      6.9893    107.9422     27.3160
  1477.6000      7.8565      2.5153      0.0075      8.1628    107.0863     26.8770
  1477.7000      7.8565      2.5063      0.0022      8.7097    110.3428     26.6926
  1477.8000      7.8589      2.5071      0.0336      8.6598    118.0315     26.8537
  1477.9000      7.8589      2.5120     -0.0183      8.3650    125.8319     27.2722
  1478.0000      7.8601      2.5099      0.0657      8.4930    128.5033     28.0568
  1478.1000      7.8601      2.4841      0.0392     10.0573    126.0941     29.3439
  1478.2000      7.8601      2.4429      0.0094     12.5516    125.6621     30.0456
  1478.3000      7.8621      2.4180     -0.0351     14.0590    130.1998     29.7276
  1478.4000      7.8621      2.4200      0.0385     13.9398    134.1916     29.4156
  1478.5000      7.8651      2.4320      0.0001     13.2124    132.2296     29.2324
  1478.6000      7.8651      2.4452      0.0577     12.4107    126.4409     28.7188
  1478.7000      7.8651      2.4600      0.0702     11.5172    122.6634     28.3833
  1478.8000      7.8671      2.4747      0.0843     10.6244    119.2583     28.5574
  1478.9000      7.8671      2.4871      0.0866      9.8726    113.0769     29.1685
  1479.0000      7.8681      2.4981      0.0804      9.2071    108.3751     30.4559
  1479.1000      7.8681      2.5110      0.0871      8.4221    107.4772     31.4114
  1479.2000      7.8681      2.5220      0.1193      7.7596    105.6177     30.9150
  1479.3000      7.8649      2.5222      0.0960      7.7431    102.4964     29.4813
  1479.4000      7.8649      2.5151      0.0616      8.1755    102.1625     28.3413
  1479.5000      7.8596      2.5085      0.0790      8.5773    104.1231     28.4799
  1479.6000      7.8596      2.5020      0.0481      8.9684    106.7848     29.5739
  1479.7000      7.8596      2.4977      0.0678      9.2314    108.3020     30.0886
  1479.8000      7.8550      2.4986      0.0557      9.1756    108.6890     29.6603
  1479.9000      7.8550      2.5019      0.0192      8.9742    112.2728     29.2659
  1480.0000      7.8524      2.5053      0.0269      8.7709    118.5561     28.8261
  1480.1000      7.8524      2.5086      0.0290      8.5705    123.1340     28.1617
  1480.2000      7.8524      2.5124      0.0147      8.3373    126.3421     27.8171
  1480.3000      7.8519      2.5153      0.0653      8.1630    125.5204     27.5521
  1480.4000      7.8519      2.5090      0.0600      8.5459    118.9723     26.9189
  1480.5000      7.8523      2.4975      0.0161      9.2422    112.5078     26.4950
  1480.6000      7.8523      2.4960      0.0071      9.3321    108.1497     26.8733
  1480.7000      7.8523      2.5056      0.0222      8.7536    106.4335     27.6904
  1480.8000      7.8531      2.5150      0.0483      8.1790    108.9748     28.1101
  1480.9000      7.8531      2.5218      0.0230      7.7701    110.5453     27.6496
  1481.0000      7.8539      2.5362      0.0222      6.8992    107.8870     26.9601
  1481.1000      7.8539      2.5536      0.1022      5.8434    104.3133     27.1091
  1481.2000      7.8539      2.5520      0.0998      5.9373    104.3722     28.1593
  1481.3000      7.8546      2.5347      0.0452      6.9863    110.9521     29.2330
  1481.4000      7.8546      2.5249      0.0328      7.5791    119.8390     29.1436
  1481.5000      7.8553      2.5265      0.0504      7.4825    124.2665     27.9832
  1481.6000      7.8553      2.5295      0.0685      7.3008    123.1014     27.4227
  1481.7000      7.8553      2.5305      0.0270      7.2419    119.7012     28.1075
  1481.8000      7.8552      2.5302      0.0524      7.2611    117.3801     28.9374
  1481.9000      7.8552      2.5261      0.0462      7.5087    114.2816     29.1011
