~Version Information
VERS.                      2.0: CWLS Log ASCII Standard - VERSION 2.0
WRAP.                       NO: One line per depth step
~Well Information Block
STRT.FT               420.0000: 
STOP.FT              2888.7500: 
STEP.FT                 0.2500: 
NULL.                -999.2500: 
COMP.          Pioneer Natural Resources: COMPANY
WELL.          Touchstone 11-32: WELL
FLD.           Purgatoire River: FIELD
LOC.           853' FNL & 407' FWL--: LOCATION
CNTY.               Las Animas: COUNTY
SRVC.                Patterson: SERVICE COMPANY
DATE.          Thu Feb 23 14:02:36 2006: LOG DATE
UWI.           05 071 08564 00: UNIQUE WELL ID
STAT.                 Colorado: STATE
~Curve Information Block
DEPT.FT            0 000 00 00: Depth
SN.Ohm-m                      : IEL Short Normal
SP.mV                         : IEL Spontaneous Potential
DIR.Ohm-m                     : IEL Induction Resistivity
GR.GAPI                       : Gamma Ray
~Parameter Information Block
~A  Depth        SN          SP         DIR          GR     
# ...
   755.0000   2000.0000   1974.0000     17.5159    126.8765
   755.2500   2000.0000   1974.0000     17.6790    127.6535
   755.5000   2000.0000   1974.0000     17.7941    129.8823
   755.7500   2000.0000   1974.0000     17.8706    131.5761
   756.0000   2000.0000   1974.0000     17.9243    133.9175
   756.2500   2000.0000   1974.0000     17.9704    135.3209
   756.5000   2000.0000   1974.0000     18.0174    137.3576
   756.7500   2000.0000   1974.0000     18.0641    138.6746
   757.0000   2000.0000   1974.0000     18.1007    140.1954
   757.2500   2000.0000   1974.0000     18.1132    140.5817
   757.5000   2000.0000   1974.0000     18.0931    140.0943
   757.7500   2000.0000   1974.0000     18.0455    139.3426
   758.0000   2000.0000   1974.0000     17.9902    138.2159
   758.2500   2000.0000   1974.0000     17.9538    137.6572
   758.5000   2000.0000   1974.0000     17.9576    137.0771
   758.7500   2000.0000   1974.0000     18.0105    136.7641
   759.0000   2000.0000   1974.0000     18.1078    136.3531
   759.2500   2000.0000   1974.0000     18.2353    136.2217
   759.5000   2000.0000   1974.0000     18.3758    136.4683
   759.7500   2000.0000   1974.0000     18.5134    136.9251
   760.0000   2000.0000   1974.0000     18.6342    137.7347
   760.2500   2000.0000   1974.0000     18.7231    138.1349
   760.5000   2000.0000   1974.0000     18.7654    138.3262
   760.7500   2000.0000   1974.0000     18.7548    138.1507
   761.0000   2000.0000   1974.0000     18.7020    137.4545
   761.2500   2000.0000   1974.0000     18.6348    136.9048
   761.5000   2000.0000   1974.0000     18.5858    136.8092
   761.7500   2000.0000   1974.0000     18.5802    137.6985
   762.0000   2000.0000   1974.0000     18.6297    140.1078
   762.2500   2000.0000   1974.0000     18.7334    141.4225
   762.5000   2000.0000   1974.0000     18.8801    141.1697
   762.7500   2000.0000   1974.0000     19.0488    139.3555
   763.0000   2000.0000   1974.0000     19.2100    135.6121
   763.2500   2000.0000   1974.0000     19.3317    133.5732
   763.5000   2000.0000   1974.0000     19.3912    132.3513
   763.7500   2000.0000   1974.0000     19.3835    132.7890
   764.0000   2000.0000   1974.0000     19.3199    134.7106
   764.2500   2000.0000   1974.0000     19.2160    136.5469
   764.5000   2000.0000   1974.0000     19.0799    140.3084
   764.7500   2000.0000   1974.0000     18.9099    143.7381
   765.0000   2000.0000   1974.0000     18.7029    149.8186
   765.2500   2000.0000   1974.0000     18.4648    153.5451
   765.5000   2000.0000   1974.0000     18.2146    156.9516
   765.7500   2000.0000   1974.0000     17.9797    157.5051
   766.0000   2000.0000   1974.0000     17.7879    156.6081
   766.2500   2000.0000   1974.0000     17.6617    155.3905
   766.5000   2000.0000   1974.0000     17.6149    152.4667
   766.7500   2000.0000   1974.0000     17.6513    149.1724
   767.0000   2000.0000   1974.0000     17.7654    141.5524
   767.2500   2000.0000   1974.0000     17.9446    135.1217
   767.5000   2000.0000   1974.0000     18.1751    125.4778
   767.7500   2000.0000   1974.0000     18.4476    120.3029
   768.0000   2000.0000   1974.0000     18.7578    115.5057
   768.2500   2000.0000   1974.0000     19.1004    114.2195
   768.5000   2000.0000   1974.0000     19.4573    114.4826
   768.7500   2000.0000   1974.0000     19.7899    115.6163
   769.0000   2000.0000   1974.0000     20.0407    117.6273
   769.2500   2000.0000   1974.0000     20.1470    118.4281
   769.5000   2000.0000   1974.0000     20.0624    118.2250
   769.7500   2000.0000   1974.0000     19.7733    117.6199
   770.0000   2000.0000   1974.0000     19.3036    117.7349
   770.2500   2000.0000   1974.0000     18.7062    119.3341
   770.5000   2000.0000   1974.0000     18.0473    124.5453
   770.7500   2000.0000   1974.0000     17.3884    129.8789
   771.0000   2000.0000   1974.0000     16.7751    140.3080
   771.2500   2000.0000   1974.0000     16.2335    148.2704
   771.5000   2000.0000   1974.0000     15.7754    159.8514
   771.7500   2000.0000   1974.0000     15.4037    166.0740
   772.0000   2000.0000   1974.0000     15.1159    171.6579
   772.2500   2000.0000   1974.0000     14.9041    172.6735
   772.5000   2000.0000   1974.0000     14.7574    170.6150
   772.7500   2000.0000   1974.0000     14.6670    167.1998
   773.0000   2000.0000   1974.0000     14.6306    159.7461
   773.2500   2000.0000   1974.0000     14.6526    154.2238
   773.5000   2000.0000   1974.0000     14.7405    147.8250
   773.7500   2000.0000   1974.0000     14.8972    145.9722
   774.0000   2000.0000   1974.0000     15.1158    146.1162
   774.2500   2000.0000   1974.0000     15.3779    146.3854
   774.5000   2000.0000   1974.0000     15.6575    144.3503
   774.7500   2000.0000   1974.0000     15.9294    141.2917
   775.0000   2000.0000   1974.0000     16.1780    136.3417
   775.2500   2000.0000   1974.0000     16.4005    134.1838
   775.5000   2000.0000   1974.0000     16.6054    133.4925
   775.7500   2000.0000   1974.0000     16.8073    134.3679
   776.0000   2000.0000   1974.0000     17.0219    136.4358
   776.2500   2000.0000   1974.0000     17.2601    137.4971
   776.5000   2000.0000   1974.0000     17.5231    137.4911
   776.7500   2000.0000   1974.0000     17.8007    136.2386
   777.0000   2000.0000   1974.0000     18.0748    133.2764
   777.2500   2000.0000   1974.0000     18.3263    131.5245
   777.5000   2000.0000   1974.0000     18.5411    130.9262
   777.7500   2000.0000   1974.0000     18.7133    132.4575
   778.0000   2000.0000   1974.0000     18.8437    137.5081
   778.2500   2000.0000   1974.0000     18.9358    142.0698
   778.5000   2000.0000   1974.0000     18.9904    149.0985
   778.7500   2000.0000   1974.0000     19.0040    152.9981
   779.0000   2000.0000   1974.0000     18.9724    156.7262
   779.2500   2000.0000   1974.0000     18.8944    157.6933
   779.5000   2000.0000   1974.0000     18.7749    157.2377
   779.7500   2000.0000   1974.0000     18.6256    156.1314
   780.0000   2000.0000   1974.0000     18.4657    154.4651
   780.2500   2000.0000   1974.0000     18.3185    154.0494
   780.5000   2000.0000   1974.0000     18.2042    154.7842
   780.7500   2000.0000   1974.0000     18.1340    155.4779
   781.0000   2000.0000   1974.0000     18.1104    154.7488
   781.2500   2000.0000   1974.0000     18.1322    152.4687
   781.5000   2000.0000   1974.0000     18.1980    147.7309
   781.7500   2000.0000   1974.0000     18.3064    145.2989
   782.0000   2000.0000   1974.0000     18.4554    144.3406
   782.2500   2000.0000   1974.0000     18.6421    145.1593
   782.5000   2000.0000   1974.0000     18.8646    146.8855
   782.7500   2000.0000   1974.0000     19.1217    147.5419
   783.0000   2000.0000   1974.0000     19.4123    147.1540
   783.2500   2000.0000   1974.0000     19.7336    145.9273
   783.5000   2000.0000   1974.0000     20.0796    142.8197
   783.7500   2000.0000   1974.0000     20.4400    140.1404
   784.0000   2000.0000   1974.0000     20.8016    135.7874
   784.2500   2000.0000   1974.0000     21.1567    133.0553
   784.5000   2000.0000   1974.0000     21.5136    129.9250
   784.7500   2000.0000   1974.0000     21.9032    128.8211
   785.0000   2000.0000   1974.0000     22.3714    128.5653
   785.2500   2000.0000   1974.0000     22.9613    128.7193
   785.5000   2000.0000   1974.0000     23.6966    127.9367
   785.7500   2000.0000   1974.0000     24.5751    126.1165
   786.0000   2000.0000   1974.0000     25.5755    121.1250
   786.2500   2000.0000   1974.0000     26.6689    116.3827
   786.5000   2000.0000   1974.0000     27.8275    107.6735
   786.7500   2000.0000   1974.0000     29.0215    101.4050
   787.0000   2000.0000   1974.0000     30.2055     92.6648
   787.2500   2000.0000   1974.0000     31.3040     88.0464
   787.5000   2000.0000   1974.0000     32.2116     83.9853
   787.7500   2000.0000   1974.0000     32.8167     83.5739
   788.0000   2000.0000   1974.0000     33.0424     86.4851
   788.2500   2000.0000   1974.0000     32.8748     90.5027
