~Version Information
VERS.                      2.0: CWLS Log ASCII Standard - VERSION 2.0
WRAP.                       NO: One line per depth step
~Well Information Block
STRT.FT                -0.5000: 
STOP.FT              1417.0000: 
STEP.FT                 0.2500: 
NULL.                -999.2500: 
COMP.          Pioneer Natural Resources: COMPANY
WELL.              Darren 11-7: WELL
FLD.           Purgatoire River: FIELD
LOC.           230' FNL & 596' FWL: LOCATION
CNTY.               Las Animas: COUNTY
SRVC.                Patterson: SERVICE COMPANY
DATE.          Thu Mar 30 10:43:52 2006: LOG DATE
UWI.           05 071 08720 00: UNIQUE WELL ID
STAT.                 Colorado: STATE
~Curve Information Block
DEPT.FT            0 000 00 00: Depth
GR.GAPI                       : Gamma Ray
CCL.                          : Casing Collar Locator
TT3.usec                      : CBL 3' Travel Time
AMP3.mV                       : CBL 3' Amplitude
~Parameter Information Block
~A  Depth        GR         CCL         TT3         AMP3    
# ...
   837.0000     64.3910      0.0000    661.4640      4.6178
   837.2500     62.6950      0.0000    663.1689      4.6110
   837.5000     61.9462      0.0000    666.5989      4.6105
   837.7500     63.0081      0.0000    672.6520      4.6241
   838.0000     65.3745      0.0000    681.2755      4.6508
   838.2500     67.7263      0.0000    690.9067      4.6831
   838.5000     69.2603      0.0000    699.1687      4.7132
   838.7500     70.3741      0.0000    704.2697      4.7364
   839.0000     72.1267      0.0000    705.4253      4.7503
   839.2500     75.2947      0.0000    701.9322      4.7534
   839.5000     79.9845      0.0000    692.3018      4.7453
   839.7500     85.7126      0.0000    675.2455      4.7275
   840.0000     91.5104      0.0000    652.5847      4.7012
   840.2500     96.3177      0.0000    631.1658      4.6649
   840.5000     99.7336      0.0000    619.8193      4.6165
   840.7500    102.1561      0.0000    622.4208      4.5580
   841.0000    103.9149      0.0000    634.5203      4.4988
   841.2500    104.5428      0.0000    647.8101      4.4515
   841.5000    103.1682      0.0000    656.8623      4.4252
   841.7500     99.5963      0.0000    661.1202      4.4222
   842.0000     94.9389      0.0000    662.5471      4.4401
   842.2500     91.0529      0.0000    663.2319      4.4746
   842.5000     89.1468      0.0000    664.5585      4.5217
   842.7500     88.9223      0.0000    666.9173      4.5778
   843.0000     89.1167      0.0000    669.4349      4.6390
   843.2500     88.8103      0.0000    670.5154      4.6999
   843.5000     88.2284      0.0000    669.2436      4.7553
   843.7500     88.4843      0.0000    666.2731      4.8025
   844.0000     90.6742      0.0000    663.1295      4.8433
   844.2500     95.0233      0.0000    660.9114      4.8841
   844.5000    100.6355      0.0000    659.8824      4.9327
   844.7500    105.9538      0.0000    660.0497      4.9951
   845.0000    109.5782      0.0000    661.8888      5.0749
   845.2500    110.8860      0.0000    666.3628      5.1768
   845.5000    110.0609      0.0000    673.8110      5.3040
   845.7500    107.6081      0.0000    682.4622      5.4470
   846.0000    103.9288      0.0000    688.7989      5.5783
   846.2500     99.3922      0.0000    690.6696      5.6632
   846.5000     94.6534      0.0000    690.0722      5.6819
   846.7500     90.7284      0.0000    691.8780      5.6410
   847.0000     88.6557      0.0000    699.3109      5.5643
   847.2500     89.0157      0.0000    710.5881      5.4784
   847.5000     91.7536      0.0000    719.8682      5.4038
   847.7500     96.4160      0.0000    721.9478      5.3517
   848.0000    102.5119      0.0000    716.5649      5.3211
   848.2500    109.6896      0.0000    708.1359      5.3032
   848.5000    117.7931      0.0000    701.8998      5.2901
   848.7500    126.8433      0.0000    701.0402      5.2790
   849.0000    136.7174      0.0000    706.4245      5.2713
   849.2500    146.4665      0.0000    717.0944      5.2737
   849.5000    153.9903      0.0000    730.4371      5.2918
   849.7500    157.0797      0.0000    742.8491      5.3189
   850.0000    155.4170      0.0000    751.4083      5.3361
   850.2500    151.4242      0.0000    755.2528      5.3280
   850.5000    148.6204      0.0000    755.1456      5.2950
   850.7500    148.9586      0.0000    751.9315      5.2476
   851.0000    151.7153      0.0000    745.9914      5.1950
   851.2500    154.8630      0.0000    738.2546      5.1436
   851.5000    157.3022      0.0000    731.0019      5.1020
   851.7500    159.5517      0.0000    726.6973      5.0790
   852.0000    162.3804      0.0000    725.6534      5.0699
   852.2500    165.3021      0.0000    725.5233      5.0507
   852.5000    166.8988      0.0000    724.1692      4.9935
   852.7500    166.4452      0.0000    723.0117      4.8911
   853.0000    164.5732      0.0000    726.1921      4.7617
   853.2500    162.2996      0.0000    735.4897      4.6313
   853.5000    159.9836      0.0000    746.7689      4.5150
   853.7500    157.2253      0.0000    752.5774      4.4158
   854.0000    153.4926      0.0000    748.2078      4.3341
   854.2500    149.1922      0.0000    734.7581      4.2733
   854.5000    146.1409      0.0000    716.8630      4.2339
   854.7500    146.2023      0.0000    698.7443      4.2083
   855.0000    149.2307      0.0000    682.7370      4.1861
   855.2500    152.8909      0.0000    670.5779      4.1677
   855.5000    154.5669      0.0000    664.5326      4.1673
   855.7500    153.2428      0.0000    666.3371      4.1973
   856.0000    149.9957      0.0000    675.1606      4.2508
   856.2500    147.1652     -3.0000    687.6341      4.3057
   856.5000    146.5971     -3.0000    700.0225      4.3469
   856.7500    148.0809      0.0000    709.6958      4.3835
   857.0000    149.4388      0.0000    715.2006      4.4455
   857.2500    148.2131      0.0000    716.5631      4.5632
   857.5000    143.3194      0.0000    715.6082      4.7329
   857.7500    135.4430      0.0000    715.0159      4.8957
   858.0000    126.4845      0.0000    716.9618      4.9714
   858.2500    118.8983      0.0000    722.6235      4.9342
   858.5000    115.0427      0.0000    731.8683      4.8421
   858.7500    116.3057      0.0000    742.6964      4.7773
   859.0000    122.4154      0.0000    751.6492      4.7750
   859.2500    131.6305      0.0000    755.5172      4.8148
   859.5000    141.7443      0.0000    752.7109      4.8591
   859.7500    150.9917      0.0000    743.7874      4.8856
   860.0000    158.2387      0.0000    731.8857      4.8968
   860.2500    162.7727      0.0000    722.5348      4.9119
   860.5000    164.2353      0.0000    721.1969      4.9501
   860.7500    162.6052      0.0000    729.5236      5.0166
   861.0000    158.0453      0.0000    743.7052      5.1004
   861.2500    150.9126      0.0000    756.8777      5.1824
   861.5000    142.0565      0.0000    763.6354      5.2447
   861.7500    132.9530      0.0000    762.8191      5.2752
   862.0000    125.3218      0.0000    756.7706      5.2677
   862.2500    120.4454      0.0000    748.5010      5.2238
   862.5000    118.7098      0.0000    739.2534      5.1560
   862.7500    119.7644      0.0000    727.9249      5.0837
   863.0000    123.1980      0.0000    712.5673      5.0229
   863.2500    129.0888      0.0000    692.6271      4.9776
   863.5000    137.5442      0.0000    669.5732      4.9412
   863.7500    147.4719      0.0000    645.8238      4.9036
   864.0000    156.2895      0.0000    624.2632      4.8573
   864.2500    161.5354      0.0000    608.2723      4.8019
   864.5000    162.8074      0.0000    599.7089      4.7441
   864.7500    161.8207      0.0000    596.1794      4.6935
   865.0000    160.6970      0.0000    592.6083      4.6565
   865.2500    160.5155      0.0000    586.5186      4.6356
   865.5000    161.1448      0.0000    580.0092      4.6312
   865.7500    161.7277      0.0000    575.9620      4.6440
   866.0000    161.2338      0.0000    574.3813      4.6733
   866.2500    158.8937      0.0000    574.0375      4.7132
   866.5000    154.5045      0.0000    576.8075      4.7535
   866.7500    148.6946      0.0000    588.2792      4.7861
   867.0000    142.8280      0.0000    612.6081      4.8103
   867.2500    138.2799      0.0000    647.0152      4.8303
   867.5000    135.5283      0.0000    682.3297      4.8527
   867.7500    133.8781      0.0000    709.2126      4.8865
   868.0000    132.1230      0.0000    723.9792      4.9404
   868.2500    129.5934      0.0000    729.4615      5.0144
   868.5000    126.6736      0.0000    731.0092      5.0945
   868.7500    124.5853      0.0000    731.1618      5.1603
   869.0000    124.8299      0.0000    727.6770      5.1995
   869.2500    128.3034      0.0000    716.7454      5.2131
   869.5000    134.2955      0.0000    697.9309      5.2099
   869.7500    140.3607      0.0000    676.1330      5.1992
   870.0000    143.6282      0.0000    659.4407      5.1896
   870.2500    142.6454      0.0000    654.8019      5.1888
