~Version Information
VERS.                      2.0: CWLS Log ASCII Standard - VERSION 2.0
WRAP.                       NO: One line per depth step
~Well Information Block
STRT.FT               665.0000: 
STOP.FT              2193.5000: 
STEP.FT                 0.1000: 
NULL.                -999.2500: 
COMP.          Pioneer Natural Resources: COMPANY
WELL.          Bear Cub Federal 11-23: WELL
FLD.           Purgatoire River: FIELD
LOC.           1225' FNL & 1268' FWL--: LOCATION
CNTY.               Las Animas: COUNTY
SRVC.                Patterson: SERVICE COMPANY
DATE.          Tue Jun 20 09:14:02 2006: LOG DATE
UWI.           05 071 08509 00: UNIQUE WELL ID
STAT.                 Colorado: STATE
~Curve Information Block
DEPT.FT            0 000 00 00: Depth
DCAL.in                       : CDL Caliper
RHOB.g/cc                     : CDL Bulk Density
RHOC.g/cc                     : CDL Density Correction
DPOR.pu                       : CDL Density Porosity
NPOR.pu                       : Neutron Porosity
GR.GAPI                       : Gamma Ray
~Parameter Information Block
~A  Depth       DCAL        RHOB        RHOC        DPOR        NPOR         GR     
# ...
  1653.8000      7.9504      2.4571      0.0226     11.6896     14.3132     39.6881
  1653.9000      7.9504      2.4576      0.0434     11.6620     14.6229     41.5129
  1654.0000      7.9466      2.4630      0.0654     11.3342     15.1253     45.6703
  1654.1000      7.9466      2.4562      0.0861     11.7429     15.6149     48.4022
  1654.2000      7.9466      2.4495      0.0242     12.1511     16.0974     47.2613
  1654.3000      7.9439      2.4680      0.0482     11.0273     16.5383     45.2528
  1654.4000      7.9439      2.5031      0.1029      8.9048     16.9910     45.2549
  1654.5000      7.9423      2.5212      0.1347      7.8040     17.5668     46.0599
  1654.6000      7.9423      2.5159      0.0644      8.1272     18.0642     48.2791
  1654.7000      7.9423      2.5099      0.0766      8.4895     18.5592     53.3135
  1654.8000      7.9416      2.5087      0.1231      8.5618     19.6212     59.6792
  1654.9000      7.9416      2.4993      0.0877      9.1316     21.1621     66.4916
  1655.0000      7.9406      2.4822      0.0541     10.1698     22.4647     74.9405
  1655.1000      7.9406      2.4698      0.0300     10.9187     23.1401     86.7387
  1655.2000      7.9406      2.4696      0.0477     10.9332     23.3260    100.4402
  1655.3000      7.9411      2.4761      0.0873     10.5415     23.5650    110.3960
  1655.4000      7.9411      2.4850      0.0167      9.9978     24.1892    115.6390
  1655.5000      7.9445      2.5009      0.0483      9.0385     24.8445    119.4861
  1655.6000      7.9445      2.5158      0.1208      8.1317     25.1466    124.1762
  1655.7000      7.9445      2.5196      0.1101      7.9059     25.1446    130.8971
  1655.8000      7.9467      2.5236      0.1122      7.6628     25.0569    136.2371
  1655.9000      7.9467      2.5386      0.1343      6.7529     25.1201    137.4167
  1656.0000      7.9450      2.5561      0.1606      5.6888     25.4199    138.1469
  1656.1000      7.9450      2.5667      0.1531      5.0456     25.8106    142.0813
  1656.2000      7.9450      2.5725      0.1667      4.6993     26.2113    147.3427
  1656.3000      7.9434      2.5736      0.1816      4.6296     26.6582    147.7954
  1656.4000      7.9434      2.5636      0.1375      5.2364     27.2264    143.8200
  1656.5000      7.9447      2.5411      0.1426      6.6013     27.6120    141.8738
  1656.6000      7.9447      2.5114      0.1044      8.4018     27.4402    140.8276
  1656.7000      7.9447      2.4717      0.1241     10.8081     26.9234    138.0186
  1656.8000      7.9459      2.4062      0.1010     14.7740     26.3157    136.7667
  1656.9000      7.9459      2.3157     -0.0058     20.2581     25.5747    138.4760
  1657.0000      7.9454      2.2309     -0.0555     25.4030     24.6795    140.0767
  1657.1000      7.9454      2.1743     -0.0314     28.8331     23.6218    138.3696
  1657.2000      7.9454      2.1408     -0.0413     30.8600     22.5105    132.5310
  1657.3000      7.9430      2.1239     -0.0205     31.8872     21.7577    123.8904
  1657.4000      7.9430      2.1232     -0.0139     31.9253     21.3329    115.9409
  1657.5000      7.9354      2.1362      0.0416     31.1393     20.7180    111.8949
  1657.6000      7.9354      2.1550      0.1152     29.9995     19.8442    111.4267
  1657.7000      7.9354      2.1776      0.1157     28.6289     19.0271    112.3641
  1657.8000      7.9225      2.2143      0.1470     26.4076     18.3678    115.6549
  1657.9000      7.9225      2.2598      0.2386     23.6479     17.9606    125.0157
  1658.0000      7.9114      2.2865      0.2465     22.0281     18.0358    138.2931
  1658.1000      7.9114      2.2803      0.1909     22.4058     18.6531    147.7760
  1658.2000      7.9114      2.2605      0.0834     23.6043     19.7082    151.8893
  1658.3000      7.9071      2.2600      0.0481     23.6339     20.9572    154.6182
  1658.4000      7.9071      2.2919      0.0429     21.7053     21.9538    155.2802
  1658.5000      7.9076      2.3421      0.0664     18.6587     22.5680    153.2266
  1658.6000      7.9076      2.3925      0.0752     15.6062     23.0378    152.5196
  1658.7000      7.9076      2.4290      0.1557     13.3928     23.4124    155.3107
  1658.8000      7.9066      2.4467      0.1756     12.3202     23.5315    158.2338
  1658.9000      7.9066      2.4666      0.2002     11.1169     23.4190    156.6000
  1659.0000      7.9025      2.5091      0.3201      8.5405     23.3353    153.9553
  1659.1000      7.9025      2.5565      0.4246      5.6657     23.2588    156.5502
  1659.2000      7.9025      2.5751      0.3830      4.5370     22.9574    161.5512
  1659.3000      7.9056      2.5556      0.2590      5.7238     22.6463    162.2390
  1659.4000      7.9056      2.5152      0.1615      8.1689     22.6431    160.2409
  1659.5000      7.9210      2.4808      0.1271     10.2535     22.6531    159.3011
  1659.6000      7.9210      2.4731      0.1188     10.7220     22.4958    158.8873
  1659.7000      7.9210      2.4888      0.1571      9.7721     22.4990    158.6132
  1659.8000      7.9331      2.5062      0.1528      8.7151     22.6552    159.8329
  1659.9000      7.9331      2.5134      0.1297      8.2802     22.5387    163.3456
  1660.0000      7.9370      2.5203      0.0800      7.8625     22.1174    165.8270
  1660.1000      7.9370      2.5436      0.1059      6.4498     21.7960    164.9369
  1660.2000      7.9370      2.5742      0.1661      4.5965     21.7298    164.4519
  1660.3000      7.9405      2.5850      0.1598      3.9386     21.7812    166.0167
  1660.4000      7.9405      2.5731      0.1431      4.6585     22.0067    163.9105
  1660.5000      7.9435      2.5572      0.1310      5.6249     22.4461    156.9318
  1660.6000      7.9435      2.5478      0.0727      6.1923     22.7796    151.4293
  1660.7000      7.9435      2.5390      0.1116      6.7270     22.8123    149.1060
  1660.8000      7.9451      2.5285      0.0365      7.3634     22.8949    145.2179
  1660.9000      7.9451      2.5358      0.0217      6.9194     23.2335    136.7153
  1661.0000      7.9454      2.5661      0.0901      5.0876     23.6185    126.6162
  1661.1000      7.9454      2.5931      0.0692      3.4494     24.0254    121.3716
  1661.2000      7.9454      2.6027      0.1039      2.8651     24.4936    123.4029
  1661.3000      7.9444      2.6078      0.0816      2.5604     24.8121    127.4678
  1661.4000      7.9444      2.6175      0.0852      1.9713     24.7754    129.8551
  1661.5000      7.9437      2.6177      0.1036      1.9582     24.6995    133.2022
  1661.6000      7.9437      2.5960      0.0852      3.2710     25.0043    137.1831
  1661.7000      7.9437      2.5611      0.0657      5.3877     25.4712    137.0249
  1661.8000      7.9425      2.5331      0.0082      7.0843     25.4721    133.6566
  1661.9000      7.9425      2.5284      0.0212      7.3708     24.8330    132.7161
  1662.0000      7.9414      2.5394      0.1009      6.7024     24.1875    132.9765
  1662.1000      7.9414      2.5484      0.0760      6.1583     23.9941    132.2843
  1662.2000      7.9414      2.5526      0.0683      5.9017     23.9097    133.6815
  1662.3000      7.9410      2.5522      0.0974      5.9289     23.5817    135.7794
  1662.4000      7.9410      2.5482      0.0905      6.1673     23.2180    135.0777
  1662.5000      7.9406      2.5489      0.0937      6.1266     23.1547    130.6163
  1662.6000      7.9406      2.5488      0.1091      6.1340     23.4678    123.3693
  1662.7000      7.9406      2.5348      0.0816      6.9825     23.9411    116.9273
  1662.8000      7.9410      2.5140      0.0573      8.2432     24.0564    113.6896
  1662.9000      7.9410      2.5071      0.0450      8.6630     23.6604    112.1878
  1663.0000      7.9377      2.5176      0.0987      8.0251     23.3843    110.1923
  1663.1000      7.9377      2.5284      0.1118      7.3689     23.7085    106.9910
  1663.2000      7.9377      2.5275      0.0659      7.4222     24.4553    105.5940
  1663.3000      7.9327      2.5202      0.0383      7.8660     25.1329    108.1187
