~Version Information
VERS.                      2.0: CWLS Log ASCII Standard - VERSION 2.0
WRAP.                       NO: One line per depth step
~Well Information Block
STRT.FT                -8.0000: 
STOP.FT              2135.0000: 
STEP.FT                 0.2500: 
NULL.                -999.2500: 
COMP.          Pioneer Natural Resources: COMPANY
WELL.             AMX 13-13 Tr: WELL
FLD.           Purgatorie River: FIELD
LOC.           2401' FSL & 895' FWL--: LOCATION
PROV.                       CO: PROVINCE
CNTY.               Las Animas: COUNTRY
SRVC.          Patterson Wireline: SERVICE COMPANY
DATE.          Thu Jan 05 10:37:28 2006: LOG DATE
UWI.           05 071 08631 00: UNIQUE WELL ID
~Curve Information Block
DEPT.FT            0 000 00 00: Depth
CCL.                          : Casing Collar Locator
TT3.usec                      : CBL 3' Travel Time
AMP3.mV                       : CBL 3' Amplitude
GR.GAPI                       : Gamma Ray
~Parameter Information Block
~A  Depth       CCL         TT3         AMP3         GR     
# ...
  1399.0000      0.0000    747.0057     12.0018    135.1397
  1399.2500      0.0000    750.5243     11.8115    128.7507
  1399.5000      0.0000    760.4406     11.6520    121.3604
  1399.7500      0.0000    773.8476     11.5828    115.6996
  1400.0000      0.0000    783.1381     11.6255    112.8979
  1400.2500      0.0000    781.9542     11.7480    111.3989
  1400.5000      0.0000    771.0285     11.8897    108.2297
  1400.7500      0.0000    757.8031     12.0008    101.9300
  1401.0000      0.0000    750.4650     12.0627     94.3008
  1401.2500      0.0000    752.5449     12.0770     89.0112
  1401.5000      0.0000    762.3558     12.0393     88.4772
  1401.7500      0.0000    775.6622     11.9332     92.0451
  1402.0000      0.0000    788.2318     11.7604     96.7796
  1402.2500      0.0000    797.3886     11.5662     99.8010
  1402.5000      0.0000    802.6219     11.4185    100.2533
  1402.7500      0.0000    804.9298     11.3611     99.3950
  1403.0000      0.0000    805.4929     11.3901     99.0054
  1403.2500      0.0000    804.8602     11.4698    100.0275
  1403.5000      0.0000    803.0770     11.5580    102.5846
  1403.7500      0.0000    800.3716     11.6231    106.5338
  1404.0000      0.0000    797.7127     11.6471    111.4699
  1404.2500      0.0000    796.5056     11.6229    116.3912
  1404.5000      0.0000    797.4357     11.5536    119.9853
  1404.7500      0.0000    799.7985     11.4561    121.7211
  1405.0000      0.0000    802.1023     11.3588    122.3952
  1405.2500      0.0000    803.0487     11.2866    123.1109
  1405.5000      0.0000    801.7305     11.2454    123.8674
  1405.7500      0.0000    797.5339     11.2230    123.8171
  1406.0000      0.0000    790.7935     11.2029    122.9481
  1406.2500      0.0000    783.6357     11.1757    122.6288
  1406.5000      0.0000    778.9347     11.1380    124.0161
  1406.7500      0.0000    777.5927     11.0893    126.5699
  1407.0000      0.0000    777.9047     11.0355    128.6129
  1407.2500      0.0000    778.4706     10.9946    128.9090
  1407.5000      0.0000    780.2351     10.9893    127.4090
  1407.7500      0.0000    784.1357     11.0322    124.8998
  1408.0000      0.0000    788.0688     11.1205    122.2110
  1408.2500      0.0000    787.8895     11.2378    119.6445
  1408.5000      0.0000    780.8625     11.3394    117.1551
  1408.7500      0.0000    767.3868     11.3209    114.9989
  1409.0000      0.0000    750.3926     11.0382    113.7251
  1409.2500      0.0000    734.1479     10.4308    113.3214
  1409.5000      0.0000    722.7965      9.6468    112.7472
  1409.7500      0.0000    718.7441      8.9809    110.5713
  1410.0000      0.0000    721.8679      8.6447    105.7740
  1410.2500      0.0000    729.8000      8.6178     98.1445
  1410.5000     -2.0000    738.5172      8.7237     88.7807
  1410.7500      2.0000    743.7141      8.8072     80.2695
  1411.0000      0.0000    742.8571      8.8539     75.3998
  1411.2500      0.0000    736.3350      9.0008     75.2723
  1411.5000      0.0000    727.3153      9.4249     79.1240
  1411.7500      0.0000    721.1968     10.1412     85.9329
  1412.0000      0.0000    723.1885     10.9033     95.1059
  1412.2500      0.0000    733.2369     11.3845    105.1531
  1412.5000      0.0000    744.1140     11.4683    113.1251
  1412.7500      0.0000    747.4520     11.2940    116.7971
  1413.0000      0.0000    741.4080     11.0533    116.9355
  1413.2500      0.0000    731.0066     10.8356    116.4513
  1413.5000      0.0000    722.4943     10.6474    117.6955
  1413.7500      0.0000    719.3939     10.4836    121.1112
  1414.0000      0.0000    722.8788     10.3507    125.7202
  1414.2500      0.0000    733.0860     10.2600    130.1052
  1414.5000      0.0000    748.5826     10.2194    133.2807
  1414.7500      0.0000    765.4677     10.2280    135.1760
  1415.0000      0.0000    778.7017     10.2768    136.1384
  1415.2500      0.0000    785.2784     10.3547    135.8066
  1415.5000      0.0000    785.9161     10.4553    132.9290
  1415.7500      0.0000    783.6803     10.5781    126.6904
  1416.0000      0.0000    781.4119     10.7258    118.0260
  1416.2500      0.0000    780.5121     10.8978    109.3079
  1416.5000      0.0000    781.3918     11.0850    102.7898
  1416.7500      0.0000    784.1547     11.2694     99.4935
  1417.0000      0.0000    788.4595     11.4286     99.2759
  1417.2500      0.0000    793.0349     11.5434    101.2825
  1417.5000      0.0000    795.7836     11.6031    104.2704
  1417.7500      0.0000    794.7054     11.6111    107.0912
  1418.0000      0.0000    788.9930     11.5839    109.0791
  1418.2500      0.0000    779.5358     11.5426    109.9137
  1418.5000      0.0000    768.2895     11.4988    109.5196
  1418.7500      0.0000    756.8625     11.4479    108.3312
  1419.0000      0.0000    745.7990     11.3742    107.2045
  1419.2500      0.0000    735.2448     11.2641    106.7571
  1419.5000      0.0000    725.7319     11.1199    107.0355
  1419.7500      0.0000    717.9232     10.9666    107.8723
  1420.0000      0.0000    712.0768     10.8458    109.2807
  1420.2500      0.0000    708.2463     10.7982    111.2657
  1420.5000      0.0000    706.3393     10.8429    113.3502
  1420.7500      0.0000    704.8694     10.9673    114.6932
  1421.0000      0.0000    699.6921     11.1351    115.0279
  1421.2500      0.0000    685.0253     11.3071    115.2691
  1421.5000      0.0000    657.4502     11.4560    116.6144
  1421.7500      0.0000    620.2210     11.5655    119.1442
  1422.0000      0.0000    582.5206     11.6256    121.8475
  1422.2500      0.0000    552.0679     11.6382    123.7379
  1422.5000      0.0000    529.5894     11.6221    124.3786
  1422.7500      0.0000    512.8354     11.6027    123.8776
  1423.0000      0.0000    502.3860     11.5962    122.9771
  1423.2500      0.0000    498.3613     11.6022    122.4092
  1423.5000      0.0000    494.9743     11.6068    121.5924
  1423.7500      0.0000    485.0764     11.5916    118.8194
  1424.0000      0.0000    468.7207     11.5473    113.3210
  1424.2500      0.0000    452.8493     11.4808    106.4372
  1424.5000      0.0000    444.3637     11.4113    100.4989
  1424.7500      0.0000    447.2808     11.3589     97.2321
  1425.0000      0.0000    465.1043     11.3335     97.2110
  1425.2500      0.0000    501.2564     11.3267     99.9026
  1425.5000      0.0000    554.6599     11.3153    103.8107
  1425.7500      0.0000    615.9936     11.2746    107.1651
  1426.0000      0.0000    671.2011     11.1866    108.9722
  1426.2500      0.0000    709.7736     11.0295    109.2891
  1426.5000      0.0000    729.2019     10.7688    108.5559
  1426.7500      0.0000    732.6332     10.3698    107.2709
  1427.0000      0.0000    725.1131      9.8280    106.3814
  1427.2500      0.0000    712.3611      9.1830    107.0337
  1427.5000      0.0000    700.3799      8.5027    109.0848
  1427.7500      0.0000    693.8646      7.8521    110.2459
  1428.0000      0.0000    694.4988      7.2713    107.6041
  1428.2500      0.0000    700.7327      6.7673    100.1952
  1428.5000      0.0000    709.1064      6.3192     89.6985
  1428.7500      0.0000    716.5275      5.8950     78.6580
  1429.0000      0.0000    721.9570      5.4737     68.4788
  1429.2500      0.0000    725.7755      5.0559     59.1982
  1429.5000      0.0000    727.3912      4.6541     50.6188
  1429.7500      0.0000    724.4109      4.2747     43.1330
  1430.0000      0.0000    715.0570      3.9170     37.5153
  1430.2500      0.0000    700.8978      3.5912     34.2371
  1430.5000      0.0000    686.4355      3.3288     33.0534
  1430.7500      0.0000    676.2077      3.1667     33.2370
  1431.0000      0.0000    672.1259      3.1199     34.2027
  1431.2500      0.0000    672.7427      3.1676     35.8696
  1431.5000      0.0000    674.9626      3.2678     38.5831
  1431.7500      0.0000    676.8465      3.3855     42.9820
  1432.0000      0.0000    678.6545      3.5118     49.7527
  1432.2500      0.0000    681.1791      3.6594     58.9505
