~Version Information
VERS.                      2.0: CWLS Log ASCII Standard - VERSION 2.0
WRAP.                       NO: One line per depth step
~Well Information Block
STRT.FT               330.0000: 
STOP.FT              1876.2000: 
STEP.FT                 0.1000: 
NULL.                -999.2500: 
COMP.          Pioneer Natural Resources: COMPANY
WELL.          Cooper 11-13 Tr: WELL
FLD.           Purgatoire River: FIELD
LOC.           476' FNL & 738' FWL: LOCATION
STAT.                 Colorado: State
CNTY.               Las Animas: COUNTY
CTRY. USA : Country
SECT. 13 : Section
TOWN. 32S : Township
RANG. 67W : Range 
SRVC.                Patterson: SERVICE COMPANY
DATE.          Mon Sep 26 10:28:17 2005: LOG DATE
API.           05 071 08525 00: UNIQUE WELL ID
~Curve Information Block
DEPT.FT            0 000 00 00: Depth
DCAL.in                       : CDL Caliper
RHOB.g/cc                     : CDL Bulk Density
RHOC.g/cc                     : CDL Density Correction
DPOR.pu                       : CDL Density Porosity
NPOR.pu                       : Neutron Porosity
GR.GAPI                       : Gamma Ray
~Parameter Information Block
~A  Depth       DCAL        RHOB        RHOC        DPOR        NPOR         GR     
# ...
  1136.4000      7.8534      2.4668      0.0091     11.1019     17.6656     59.4518
  1136.5000      7.8697      2.4702     -0.0400     10.8948     17.6683     61.5940
  1136.6000      7.8697      2.4906      0.0747      9.6578     18.1175     63.2312
  1136.7000      7.8697      2.5133      0.0889      8.2852     18.9602     63.7194
  1136.8000      7.8788      2.5236      0.0731      7.6619     19.5631     63.9881
  1136.9000      7.8788      2.5253      0.0231      7.5563     19.4477     66.6194
  1137.0000      7.8819      2.5280      0.0555      7.3943     18.9066     71.1967
  1137.1000      7.8819      2.5303      0.0751      7.2572     18.9068     73.9563
  1137.2000      7.8819      2.5335      0.0511      7.0606     19.7528     74.8043
  1137.3000      7.8803      2.5461      0.0353      6.2988     20.5718     75.7953
  1137.4000      7.8803      2.5611      0.0811      5.3890     20.7975     76.9972
  1137.5000      7.8722      2.5651      0.0809      5.1450     20.6161     78.9870
  1137.6000      7.8722      2.5640      0.0269      5.2143     20.4657     80.4391
  1137.7000      7.8722      2.5644      0.0921      5.1906     20.7536     79.4974
  1137.8000      7.8617      2.5538      0.0842      5.8331     21.4257     79.2645
  1137.9000      7.8617      2.5301      0.0385      7.2672     21.9943     82.1939
  1138.0000      7.8576      2.5108      0.0219      8.4341     22.1620     85.5108
  1138.1000      7.8576      2.5032      0.0086      8.8990     21.9224     87.3376
  1138.2000      7.8576      2.4983      0.0210      9.1931     21.4409     87.1572
  1138.3000      7.8589      2.4905      0.0163      9.6684     20.9929     83.8758
  1138.4000      7.8589      2.4861      0.0128      9.9340     20.7159     79.4361
  1138.5000      7.8593      2.4938      0.0208      9.4675     20.6854     76.1742
  1138.6000      7.8593      2.5076      0.0351      8.6280     20.8458     75.3309
  1138.7000      7.8593      2.5153      0.0482      8.1641     21.1324     77.8973
  1138.8000      7.8582      2.5195      0.0203      7.9102     21.4989     82.0677
  1138.9000      7.8582      2.5282      0.0389      7.3840     21.6731     84.3252
  1139.0000      7.8556      2.5313      0.0883      7.1953     21.6101     83.0792
  1139.1000      7.8556      2.5247      0.0489      7.5957     21.7479     79.6661
  1139.2000      7.8556      2.5324      0.0281      7.1247     22.3252     75.6333
  1139.3000      7.8514      2.5602      0.0653      5.4423     22.7605     71.6581
  1139.4000      7.8514      2.5798      0.0714      4.2547     22.6207     68.9150
  1139.5000      7.8501      2.5739      0.0737      4.6110     22.2887     68.1163
  1139.6000      7.8501      2.5460      0.0352      6.3046     22.0953     68.9256
  1139.7000      7.8501      2.5097     -0.0294      8.5055     22.3542     70.4285
  1139.8000      7.8516      2.4892     -0.0315      9.7455     23.0781     72.8649
  1139.9000      7.8516      2.4983      0.0077      9.1962     23.5749     76.8842
  1140.0000      7.8510      2.5213      0.0522      7.7976     23.6134     80.4707
  1140.1000      7.8510      2.5375      0.0647      6.8212     23.7620     82.2505
  1140.2000      7.8510      2.5397      0.0762      6.6869     24.5303     83.0967
  1140.3000      7.8516      2.5328      0.0386      7.1059     25.6577     83.8749
  1140.4000      7.8516      2.5315      0.0231      7.1835     26.3876     85.9399
  1140.5000      7.8545      2.5434      0.0868      6.4597     26.9494     90.3539
  1140.6000      7.8545      2.5619      0.0769      5.3374     28.0881     97.0202
  1140.7000      7.8545      2.5764      0.1121      4.4619     29.3405    102.9653
  1140.8000      7.8560      2.5788      0.1004      4.3153     29.8705    105.1991
  1140.9000      7.8560      2.5774      0.0672      4.4016     29.6098    107.1712
  1141.0000      7.8563      2.5827      0.0920      4.0758     28.9274    114.1219
  1141.1000      7.8563      2.5896      0.0388      3.6612     28.5760    125.9501
  1141.2000      7.8563      2.5967     -0.0229      3.2297     28.8912    136.2144
  1141.3000      7.8547      2.6146      0.0158      2.1445     29.1951    138.2790
  1141.4000      7.8547      2.6446      0.0896      0.3298     29.1316    135.3932
  1141.5000      7.8510      2.6686      0.0703     -1.1295     29.0598    134.5630
  1141.6000      7.8510      2.6673      0.0651     -1.0511     29.2239    136.2419
  1141.7000      7.8510      2.6472      0.0654      0.1719     29.5519    136.1330
  1141.8000      7.8524      2.6369      0.0375      0.7968     29.9275    130.5011
  1141.9000      7.8524      2.6459      0.1002      0.2511     30.0532    121.6031
  1142.0000      7.8651      2.6519      0.0967     -0.1178     29.8618    115.1701
  1142.1000      7.8651      2.6376      0.0675      0.7493     29.7980    114.5695
  1142.2000      7.8651      2.6154      0.0342      2.0945     29.9661    119.1405
  1142.3000      7.8854      2.6128     -0.0106      2.2518     29.9337    125.3601
  1142.4000      7.8854      2.6284      0.0718      1.3116     29.5991    130.9676
  1142.5000      7.9011      2.6292      0.0498      1.2602     29.3026    132.1933
  1142.6000      7.9011      2.6053     -0.0214      2.7081     29.3546    126.5495
  1142.7000      7.9011      2.5773     -0.0064      4.4063     29.6495    120.1326
  1142.8000      7.9038      2.5602     -0.0362      5.4401     29.7191    119.9603
  1142.9000      7.9038      2.5560      0.0307      5.6973     29.3497    124.5984
  1143.0000      7.8954      2.5556      0.0347      5.7227     28.9928    128.9287
  1143.1000      7.8954      2.5547      0.0095      5.7729     28.8559    132.6372
  1143.2000      7.8954      2.5616      0.0290      5.3587     28.7907    135.4786
  1143.3000      7.8874      2.5808      0.0096      4.1961     29.0642    135.0996
  1143.4000      7.8874      2.6031      0.0700      2.8400     29.8267    132.2617
  1143.5000      7.8859      2.6028      0.0853      2.8612     30.6555    129.4115
  1143.6000      7.8859      2.5673      0.0496      5.0112     31.1225    129.1945
  1143.7000      7.8859      2.5289     -0.0057      7.3368     31.2081    131.7756
  1143.8000      7.8872      2.5272      0.0271      7.4439     31.2361    134.9646
  1143.9000      7.8872      2.5541      0.0550      5.8104     31.5640    136.7585
  1144.0000      7.8859      2.5720      0.0892      4.7256     31.9320    138.3577
  1144.1000      7.8859      2.5644      0.0211      5.1892     31.9136    143.7863
  1144.2000      7.8859      2.5490      0.0174      6.1234     31.6101    150.0606
  1144.3000      7.8765      2.5433      0.0188      6.4644     31.2566    151.9536
  1144.4000      7.8765      2.5473      0.0540      6.2246     30.8789    152.3792
  1144.5000      7.8579      2.5495      0.0792      6.0910     30.5226    150.9146
  1144.6000      7.8579      2.5322      0.0912      7.1373     30.5273    147.0147
  1144.7000      7.8579      2.4950      0.0089      9.3927     30.8732    145.2880
  1144.8000      7.8407      2.4612      0.0198     11.4444     30.9854    142.2443
  1144.9000      7.8407      2.4397      0.0202     12.7436     30.7403    132.6110
  1145.0000      7.8335      2.4108      0.0395     14.4965     30.4101    123.0684
  1145.1000      7.8335      2.3480      0.0239     18.3053     29.8971    121.7285
  1145.2000      7.8335      2.2433     -0.0399     24.6503     28.8068    123.4000
  1145.3000      7.8320      2.1114     -0.0864     32.6405     26.9930    121.4229
  1145.4000      7.8320      1.9729     -0.1411     41.0365     24.6672    118.1471
  1145.5000      7.8363      1.8402     -0.1729     49.0807     21.9313    115.1762
  1145.6000      7.8363      1.7211     -0.2164     56.2959     18.8456    111.1976
  1145.7000      7.8363      1.6150     -0.1889     62.7248     15.5573    104.2142
  1145.8000      7.8644      1.5022     -0.1647     69.5627     12.4344     94.4314
  1145.9000      7.8644      1.3707     -0.1384     77.5356      9.8497     83.2154
