~Version Information
VERS.                      2.0: CWLS Log ASCII Standard - VERSION 2.0
WRAP.                       NO: One line per depth step
~Well Information Block
STRT.FT               240.0000: 
STOP.FT              1159.2500: 
STEP.FT                 0.2500: 
NULL.                -999.2500: 
COMP.          Pioneer Natural Resources: COMPANY
WELL.               Ryan 41-17: WELL
FLD.           Purgatoire River: FIELD
LOC.           822' FNL & 532' FEL--: LOCATION
CNTY.               Las Animas: COUNTY
SRVC.                Patterson: SERVICE COMPANY
DATE.          Thu Mar 16 16:50:09 2006: LOG DATE
UWI.           05 071 08719 00: UNIQUE WELL ID
STAT.                 Colorado: STATE
~Curve Information Block
DEPT.FT            0 000 00 00: Depth
SN.Ohm-m                      : IEL Short Normal
SP.mV                         : IEL Spontaneous Potential
DIR.Ohm-m                     : IEL Induction Resistivity
GR.GAPI                       : Gamma Ray
~Parameter Information Block
~A  Depth        SN          SP         DIR          GR     
# ...
  1010.5000     21.3203      9.7372     20.0095     60.9174
  1010.7500     21.6469      9.9175     20.3185     61.3203
  1011.0000     22.0147     10.0948     20.6571     61.6731
  1011.2500     22.4249     10.2674     21.0213     61.7294
  1011.5000     22.8801     10.4355     21.4203     61.7425
  1011.7500     23.3873     10.6016     21.8767     61.6154
  1012.0000     23.9535     10.7696     22.4195     60.6940
  1012.2500     24.5751     10.9441     23.0739     59.3823
  1012.5000     25.2295     11.1289     23.8504     56.6935
  1012.7500     25.8820     11.3253     24.7383     54.9243
  1013.0000     26.5029     11.5313     25.7045     53.0297
  1013.2500     27.0808     11.7408     26.6955     52.4373
  1013.5000     27.6167     11.9447     27.6429     52.5352
  1013.7500     28.1075     12.1318     28.4770     53.1035
  1014.0000     28.5357     12.2912     29.1481     54.1577
  1014.2500     28.8771     12.4143     29.6413     54.6365
  1014.5000     29.1129     12.4967     29.9707     54.7407
  1014.7500     29.2343     12.5383     30.1561     54.5454
  1015.0000     29.2384     12.5436     30.2069     54.5502
  1015.2500     29.1247     12.5206     30.1292     55.2539
  1015.5000     28.8934     12.4787     29.9427     58.0022
  1015.7500     28.5431     12.4279     29.6799     61.0182
  1016.0000     28.0727     12.3767     29.3618     66.4393
  1016.2500     27.4920     12.3317     28.9758     69.5501
  1016.5000     26.8403     12.2965     28.4834     71.7756
  1016.7500     26.1912     12.2726     27.8578     71.6749
  1017.0000     25.6299     12.2591     27.1156     71.0718
  1017.2500     25.2094     12.2536     26.3135     71.6667
  1017.5000     24.9194     12.2531     25.5155     75.1573
  1017.7500     24.6953     12.2538     24.7597     79.1061
  1018.0000     24.4574     12.2520     24.0461     86.4090
  1018.2500     24.1524     12.2446     23.3468     91.3811
  1018.5000     23.7726     12.2287     22.6277     97.8531
  1018.7500     23.3494     12.2025     21.8719    101.1600
  1019.0000     22.9302     12.1649     21.0913    104.4839
  1019.2500     22.5527     12.1158     20.3205    105.7612
  1019.5000     22.2299     12.0559     19.5973    106.7795
  1019.7500     21.9532     11.9865     18.9452    107.1428
  1020.0000     21.7064     11.9094     18.3680    107.4806
  1020.2500     21.4758     11.8270     17.8569    107.6583
  1020.5000     21.2521     11.7423     17.4003    108.0320
  1020.7500     21.0317     11.6593     16.9881    108.5304
  1021.0000     20.8214     11.5823     16.6122    110.2924
  1021.2500     20.6382     11.5159     16.2667    112.6931
  1021.5000     20.5004     11.4645     15.9511    118.6343
  1021.7500     20.4240     11.4311     15.6746    123.6947
  1022.0000     20.4274     11.4169     15.4578    130.9968
  1022.2500     20.5359     11.4213     15.3298    134.6595
  1022.5000     20.7746     11.4419     15.3239    137.8474
  1022.7500     21.1600     11.4754     15.4712    138.4051
  1023.0000     21.6990     11.5184     15.7962    135.7341
  1023.2500     22.3944     11.5684     16.3140    130.4559
  1023.5000     23.2516     11.6241     17.0307    116.7414
  1023.7500     24.2852     11.6853     17.9461    105.0157
  1024.0000     25.5290     11.7526     19.0601     87.4030
  1024.2500     27.0399     11.8259     20.3814     77.5775
  1024.5000     28.8792     11.9037     21.9361     66.9160
  1024.7500     31.0609     11.9818     23.7661     61.9549
  1025.0000     33.4922     12.0531     25.9093     55.7415
  1025.2500     35.9528     12.1079     28.3584     51.4789
  1025.5000     38.1402     12.1352     31.0039     44.3948
  1025.7500     39.7587     12.1247     33.5831     39.4351
  1026.0000     40.5975     12.0688     35.6769     32.4848
  1026.2500     40.5650     11.9645     36.8061     28.7869
  1026.5000     39.6906     11.8143     36.6231     25.6150
  1026.7500     38.1188     11.6259     35.0984     25.4663
  1027.0000     36.0905     11.4109     32.5555     28.4848
  1027.2500     33.8838     11.1822     29.5166     32.7011
  1027.5000     31.7267     10.9518     26.4739     42.1475
  1027.7500     29.7353     10.7293     23.7409     50.1261
  1028.0000     27.9197     10.5208     21.4331     63.3533
  1028.2500     26.2415     10.3298     19.5303     72.1343
  1028.5000     24.6725     10.1582     17.9513     83.9959
  1028.7500     23.2193     10.0076     16.6100     90.6295
  1029.0000     21.9123      9.8800     15.4423     98.6487
  1029.2500     20.7818      9.7771     14.4125    102.9848
  1029.5000     19.8441      9.6997     13.5064    108.5666
  1029.7500     19.0976      9.6455     12.7220    111.8494
  1030.0000     18.5249      9.6088     12.0604    115.8847
  1030.2500     18.0964      9.5802     11.5194    117.7112
  1030.5000     17.7763      9.5476     11.0922    119.1263
  1030.7500     17.5258      9.4985     10.7689    119.5454
  1031.0000     17.3024      9.4222     10.5399    120.2142
  1031.2500     17.0639      9.3114     10.3979    120.9522
  1031.5000     16.7781      9.1631     10.3371    122.1433
  1031.7500     16.4340      8.9781     10.3503    122.3353
  1032.0000     16.0445      8.7599     10.4273    120.6116
  1032.2500     15.6449      8.5138     10.5567    118.1019
  1032.5000     15.2889      8.2457     10.7319    113.8041
  1032.7500     15.0459      7.9625     10.9547    111.9637
  1033.0000     14.9907      7.6722     11.2349    112.5391
  1033.2500     15.1814      7.3847     11.5830    115.1784
  1033.5000     15.6309      7.1119     12.0001    120.5078
  1033.7500     16.2894      6.8665     12.4716    123.1503
  1034.0000     17.0579      6.6608     12.9666    123.4370
  1034.2500     17.8278      6.5045     13.4476    121.0211
  1034.5000     18.5216      6.4024     13.8854    114.8265
  1034.7500     19.1104      6.3528     14.2731    109.8270
  1035.0000     19.6034      6.3463     14.6266    101.5058
  1035.2500     20.0240      6.3666     14.9737     95.3489
  1035.5000     20.3878      6.3926     15.3379     85.7874
  1035.7500     20.6940      6.4018     15.7263     80.2215
  1036.0000     20.9276      6.3753     16.1253     74.7708
  1036.2500     21.0669      6.3031     16.5022     73.0812
  1036.5000     21.0956      6.1893     16.8090     71.9479
  1036.7500     21.0148      6.0554     16.9906     71.4272
  1037.0000     20.8491      5.9401     17.0002     71.4765
  1037.2500     20.6378      5.8953     16.8211     72.9099
  1037.5000     20.4158      5.9779     16.4815     77.9710
  1037.7500     20.1979      6.2385     16.0459     83.0124
  1038.0000     19.9790      6.7106     15.5868     91.6608
  1038.2500     19.7457      7.4039     15.1570     97.1003
  1038.5000     19.4898      8.3026     14.7785    103.3804
  1038.7500     19.2153      9.3711     14.4482    106.1133
  1039.0000     18.9382     10.5638     14.1518    108.3639
  1039.2500     18.6797     11.8348     13.8774    108.6230
  1039.5000     18.4588     13.1446     13.6228    106.7445
  1039.7500     18.2927     14.4600     13.3968    104.1639
  1040.0000     18.2033     15.7492     13.2165     99.7511
  1040.2500     18.2194     16.9748     13.1047     97.4066
  1040.5000     18.3682     18.0889     13.0873     95.6595
  1040.7500     18.6585     19.0353     13.1912     95.6367
  1041.0000     19.0678     19.7561     13.4397     96.1800
  1041.2500     19.5457     20.2049     13.8459     95.6699
  1041.5000     20.0425     20.3580     14.4085     91.5135
  1041.7500     20.5420     20.2223     15.1110     86.1128
  1042.0000     21.0721     19.8348     15.9278     75.2215
  1042.2500     21.6844     19.2554     16.8343     67.3714
  1042.5000     22.4233     18.5541     17.8140     57.1014
  1042.7500     23.3061     17.7973     18.8594     52.5342
  1043.0000     24.3130     17.0378     19.9651     50.5995
  1043.2500     25.3797     16.3092     21.1146     52.8252
  1043.5000     26.3969     15.6262     22.2623     60.7884
  1043.7500     27.2354     14.9887     23.3187     68.4190
