~Version Information
VERS.                      2.0: CWLS Log ASCII Standard - VERSION 2.0
WRAP.                       NO: One line per depth step
~Well Information Block
STRT.FT                -3.2500: 
STOP.FT               989.2500: 
STEP.FT                 0.2500: 
NULL.                -999.2500: 
COMP.          Pioneer Natural Resources: COMPANY
WELL.                Doc 34-30: WELL
FLD.           Purgatoire River: FIELD
LOC.           454' FSL & 1386' FEL: LOCATION
CNTY.               Las Animas: COUNTY
SRVC.                         : SERVICE COMPANY
DATE.          Wed Mar 08 14:28:55 2006: LOG DATE
UWI.           05 071 08694 00: UNIQUE WELL ID
STAT.                       CO: STATE
~Curve Information Block
DEPT.FT            0 000 00 00: Depth
GR.GAPI                       : Gamma Ray
CCL.                          : Casing Collar Locator
TT3.usec                      : CBL 3' Travel Time
AMP3.mV                       : CBL 3' Amplitude
~Parameter Information Block
~A  Depth        GR         CCL         TT3         AMP3    
# ...
   499.2500     77.6333      0.0000    685.9532      4.8130
   499.5000     76.9138      0.0000    680.7059      4.8525
   499.7500     76.5256      0.0000    677.5759      4.8936
   500.0000     75.1130      0.0000    676.8676      4.9319
   500.2500     72.3602      0.0000    677.9236      4.9626
   500.5000     69.2441      0.0000    679.4494      4.9828
   500.7500     66.8369      0.0000    680.1018      4.9940
   501.0000     65.3365      0.0000    679.2741      4.9995
   501.2500     64.3731      0.0000    677.4232      4.9996
   501.5000     63.8818      0.0000    675.5048      4.9902
   501.7500     64.1652      0.0000    674.1631      4.9672
   502.0000     65.1712      0.0000    673.5073      4.9319
   502.2500     66.2558      0.0000    673.3931      4.8921
   502.5000     66.8981      0.0000    673.7280      4.8585
   502.7500     67.4002      0.0000    674.6216      4.8398
   503.0000     68.6882      0.0000    676.4839      4.8388
   503.2500     71.3351      0.0000    679.9467      4.8496
   503.5000     74.8107      0.0000    685.3464      4.8582
   503.7500     77.9682      0.0000    692.0942      4.8470
   504.0000     80.2674      0.0000    698.7892      4.8056
   504.2500     82.0463      0.0000    704.0760      4.7424
   504.5000     83.5563      0.0000    707.0996      4.6869
   504.7500     84.4899      0.0000    707.5252      4.6709
   505.0000     84.7121      0.0000    705.9986      4.7024
   505.2500     84.5950      0.0000    704.3381      4.7642
   505.5000     84.1412      0.0000    704.1913      4.8366
   505.7500     82.5032      0.0000    705.6888      4.9114
   506.0000     78.9779      0.0000    707.9261      4.9828
   506.2500     74.0866      1.4862    710.0159      5.0355
   506.5000     69.3224      1.6638    710.8469      5.0481
   506.7500     66.0871      0.0000    708.6309      5.0063
   507.0000     65.0168      0.0000    702.2035      4.9181
   507.2500     65.8979      0.0000    693.1414      4.8226
   507.5000     67.8782      0.0000    685.6623      4.7712
   507.7500     69.9121      0.0000    683.4045      4.7794
   508.0000     71.3526      0.0000    686.1755      4.8042
   508.2500     72.3133      0.0000    690.2380      4.7904
   508.5000     73.4767      0.0000    691.6414      4.7336
   508.7500     75.4611      0.0000    689.0460      4.6767
   509.0000     78.3430      0.0000    683.8557      4.6572
   509.2500     81.8093      0.0000    678.4724      4.6755
   509.5000     85.5680      0.0000    674.5245      4.7085
   509.7500     89.1842      0.0000    672.3257      4.7366
   510.0000     91.5050      0.0000    671.4246      4.7559
   510.2500     90.9200      0.0000    671.4123      4.7737
   510.5000     86.6862      0.0000    672.3417      4.7972
   510.7500     79.8217      0.0000    674.7090      4.8241
   511.0000     72.5309      0.0000    679.0444      4.8439
   511.2500     66.9657      0.0000    685.2488      4.8461
   511.5000     64.3923      0.0000    692.2308      4.8280
   511.7500     64.7602      0.0000    698.4100      4.7960
   512.0000     66.7107      0.0000    702.7233      4.7599
   512.2500     68.4658      0.0000    705.1252      4.7276
   512.5000     69.0974      0.0000    706.2245      4.7029
   512.7500     68.8842      0.0000    706.6581      4.6871
   513.0000     68.5329      0.0000    706.7909      4.6795
   513.2500     68.3590      0.0000    706.7603      4.6777
   513.5000     68.3665      0.0000    706.6096      4.6794
   513.7500     68.8311      0.0000    706.3503      4.6838
   514.0000     70.2743      0.0000    705.8806      4.6929
   514.2500     72.6809      0.0000    704.7198      4.7089
   514.5000     75.0965      0.0000    701.6516      4.7295
   514.7500     76.3470      0.0000    694.7817      4.7475
   515.0000     76.1133      0.0000    682.8521      4.7545
   515.2500     75.1685      0.0000    667.4939      4.7466
   515.5000     74.6196      0.0000    653.8231      4.7291
   515.7500     75.0710      0.0000    647.2803      4.7127
   516.0000     76.4096      0.0000    649.3041      4.7048
   516.2500     77.9871      0.0000    656.8234      4.7025
   516.5000     78.8346      0.0000    665.8771      4.6977
   516.7500     78.0559      0.0000    674.6579      4.6875
   517.0000     75.5549      0.0000    683.1239      4.6762
   517.2500     72.5448      0.0000    691.1113      4.6666
   517.5000     71.0430      0.0000    697.7455      4.6549
   517.7500     72.4805      0.0000    702.2883      4.6340
   518.0000     76.6253      0.0000    704.8168      4.6015
   518.2500     81.7403      0.0000    705.9844      4.5635
   518.5000     85.6405      0.0000    706.4310      4.5313
   518.7500     86.7268      0.0000    706.5134      4.5132
   519.0000     84.6970      0.0000    706.3776      4.5082
   519.2500     80.8848      0.0000    706.0873      4.5084
   519.5000     77.6828      0.0000    705.6523      4.5067
   519.7500     76.9135      0.0000    704.9588      4.5028
   520.0000     78.3295      0.0000    703.6406      4.4994
   520.2500     79.7746      0.0000    701.0745      4.4993
   520.5000     79.0671      0.0000    696.7901      4.5055
   520.7500     75.7873      0.0000    691.3309      4.5209
   521.0000     71.2771      0.0000    686.7521      4.5443
   521.2500     67.3367      0.0000    685.7156      4.5702
   521.5000     65.1730      0.0000    689.3275      4.5919
   521.7500     65.0238      0.0000    695.4586      4.6049
   522.0000     66.1066      0.0000    699.2982      4.6059
   522.2500     67.1017      0.0000    696.1587      4.5935
   522.5000     67.2924      0.0000    684.4397      4.5709
   522.7500     67.3108      0.0000    666.2556      4.5456
   523.0000     68.4252      0.0000    645.5152      4.5242
   523.2500     71.0093      0.0000    625.7269      4.5085
   523.5000     74.0005      0.0000    609.1365      4.4964
   523.7500     75.9885      0.0000    596.7784      4.4876
   524.0000     76.5493      0.0000    588.7107      4.4867
   524.2500     76.2606      0.0000    584.8477      4.5004
   524.5000     75.7345      0.0000    586.1718      4.5320
   524.7500     75.2477      0.0000    594.3731      4.5778
   525.0000     75.3205      0.0000    609.0019      4.6293
   525.2500     76.9827      0.0000    625.9572      4.6763
   525.5000     81.1348      0.0000    641.3741      4.7107
   525.7500     87.8395      0.0000    656.6389      4.7321
   526.0000     96.2552      0.0000    676.2029      4.7478
   526.2500    105.0647      0.0000    699.9986      4.7630
   526.5000    113.0321      0.0000    720.7823      4.7695
   526.7500    119.3618      0.0000    729.5602      4.7484
   527.0000    123.8622      0.0000    722.7423      4.6898
   527.2500    127.1272      0.0000    705.6289      4.6094
   527.5000    130.4966      0.0000    690.5151      4.5432
   527.7500    135.2796      0.0000    689.0366      4.5204
   528.0000    141.7029      0.0000    703.4375      4.5405
   528.2500    148.7189      0.0000    725.6743      4.5778
   528.5000    154.7533      0.0000    745.4796      4.6103
   528.7500    158.4280      0.0000    758.0693      4.6385
   529.0000    158.9107      0.0000    764.6501      4.6761
   529.2500    156.3937      0.0000    768.4531      4.7262
   529.5000    152.5600      0.0000    771.4789      4.7716
   529.7500    150.0510      0.0000    773.5994      4.7876
   530.0000    150.9648      0.0000    773.3478      4.7654
   530.2500    155.6642      0.0000    769.5425      4.7199
   530.5000    162.7329      0.0000    762.5092      4.6737
   530.7500    169.9393      0.0000    753.9373      4.6368
   531.0000    175.5198      0.0000    745.6696      4.6054
   531.2500    178.7426      0.0000    738.5655      4.5754
   531.5000    179.5060      0.0000    732.6085      4.5513
   531.7500    177.9318      0.0000    728.2144      4.5425
   532.0000    174.4862      0.0000    727.1030      4.5528
   532.2500    170.0047      0.0000    731.4563      4.5773
   532.5000    165.2324      0.0000    742.2733      4.6075
