~Version Information
VERS.                      2.0: CWLS Log ASCII Standard - VERSION 2.0
WRAP.                       NO: One line per depth step
~Well Information Block
STRT.FT               585.0000: 
STOP.FT              2277.5000: 
STEP.FT                 0.1000: 
NULL.                -999.2500: 
COMP.          Pioneer Natural Resources: COMPANY
WELL.          Interceptor 43-13 Tr: WELL
FLD.           Purgatoire River: FIELD
LOC.           2006' FSL & 438' FEL: LOCATION
PROV.                 Colorado: PROVINCE
CNTY.               Las Animas: COUNTRY
SRVC.                Patterson: SERVICE COMPANY
DATE.          Mon Oct 17 07:15:06 2005: LOG DATE
UWI.           05 071 08549 00: UNIQUE WELL ID
~Curve Information Block
DEPT.FT            0 000 00 00: Depth
DCAL.in                       : CDL Caliper
RHOB.g/cc                     : CDL Bulk Density
RHOC.g/cc                     : CDL Density Correction
DPOR.pu                       : CDL Density Porosity
GR.GAPI                       : Gamma Ray
NPOR.pu                       : Neutron Porosity
~Parameter Information Block
~A  Depth       DCAL        RHOB        RHOC        DPOR         GR         NPOR    
# ...
  1257.0000      7.9741      2.3413     -0.0651     18.7098    118.3508     23.7206
  1257.1000      7.9741      2.3864      0.1111     15.9752    119.5528     23.3257
  1257.2000      7.9741      2.4291      0.1682     13.3883    124.8529     22.6074
  1257.3000      7.9782      2.4409      0.1337     12.6722    131.7316     21.8593
  1257.4000      7.9782      2.4451      0.1712     12.4163    135.5291     21.3436
  1257.5000      7.9393      2.4647      0.2024     11.2330    133.1750     21.3078
  1257.6000      7.9393      2.4947      0.2052      9.4138    130.7755     21.5439
  1257.7000      7.9393      2.5080      0.2796      8.6068    136.9866     21.7385
  1257.8000      7.9317      2.4880      0.1940      9.8212    147.9957     21.7256
  1257.9000      7.9317      2.4551      0.1317     11.8139    151.8266     21.5276
  1258.0000      8.0683      2.4334      0.1381     13.1251    146.2721     21.5330
  1258.1000      8.0683      2.4256      0.1136     13.6005    141.7180     21.6894
  1258.2000      8.0683      2.4302      0.1385     13.3202    142.9529     21.5797
  1258.3000      8.0447      2.4450      0.1473     12.4227    146.5861     21.3162
  1258.4000      8.0447      2.4562      0.1887     11.7437    149.4024     21.2538
  1258.5000      8.0112      2.4527      0.1845     11.9575    148.1241     21.4613
  1258.6000      8.0112      2.4427      0.1187     12.5660    143.7237     21.7739
  1258.7000      8.0112      2.4389      0.1519     12.7952    139.6954     21.8893
  1258.8000      8.0482      2.4400      0.1416     12.7273    138.1443     21.8179
  1258.9000      8.0482      2.4380      0.1458     12.8511    140.4011     21.9844
  1259.0000      8.0442      2.4314      0.1412     13.2466    145.0347     22.3480
  1259.1000      8.0442      2.4278      0.1552     13.4679    149.9426     22.5753
  1259.2000      8.0442      2.4325      0.1591     13.1832    154.0139     22.7068
  1259.3000      8.0118      2.4405      0.1683     12.6952    152.4210     22.6016
  1259.4000      8.0118      2.4477      0.1303     12.2629    143.6907     22.0698
  1259.5000      8.0389      2.4523      0.1452     11.9802    135.3352     21.6402
  1259.6000      8.0389      2.4474      0.1653     12.2785    132.5902     21.5811
  1259.7000      8.0389      2.4365      0.1774     12.9403    132.8004     21.3683
  1259.8000      8.1153      2.4390      0.2010     12.7863    134.7637     21.1383
  1259.9000      8.1153      2.4686      0.2214     10.9926    137.4622     21.5625
  1260.0000      8.0435      2.5120      0.2614      8.3642    134.9911     22.5682
  1260.1000      8.0435      2.5422      0.2244      6.5341    128.0533     23.4523
  1260.2000      8.0435      2.5641      0.1570      5.2034    124.6265     23.9073
  1260.3000      8.0990      2.5994      0.2998      3.0648    125.8389     24.0064
  1260.4000      8.0990      2.6451      0.3025      0.2943    126.3752     23.9427
  1260.5000      8.1590      2.6920      0.2950     -2.5482    123.4467     23.9896
  1260.6000      8.1590      2.7252      0.3666     -4.5567    117.9517     24.2262
  1260.7000      8.1590      2.7308      0.2795     -4.8977    111.4915     24.7027
  1260.8000      8.0944      2.7187      0.2390     -4.1642    107.3792     25.3916
  1260.9000      8.0944      2.6957      0.2140     -2.7692    109.1001     25.9486
  1261.0000      7.9875      2.6672      0.1165     -1.0428    115.8617     26.1139
  1261.1000      7.9875      2.6482      0.1719      0.1092    121.6730     25.9488
  1261.2000      7.9875      2.6395      0.1698      0.6354    124.9709     25.7128
  1261.3000      8.0676      2.6341      0.1670      0.9627    130.6546     25.5541
  1261.4000      8.0676      2.6198      0.1609      1.8306    136.3158     25.4252
  1261.5000      8.1940      2.5908      0.0794      3.5882    135.9220     25.4686
  1261.6000      8.1940      2.5719      0.0561      4.7351    131.3787     25.5052
  1261.7000      8.1940      2.5859      0.0882      3.8822    128.2247     25.3300
  1261.8000      8.0557      2.6168      0.1829      2.0124    128.7423     25.1265
  1261.9000      8.0557      2.6348      0.1387      0.9215    129.4829     24.8309
  1262.0000      8.0640      2.6374      0.1346      0.7645    128.3843     24.2873
  1262.1000      8.0640      2.6283      0.1964      1.3161    128.0810     23.5959
  1262.2000      8.0640      2.5971      0.2014      3.2079    128.6597     23.2219
  1262.3000      8.0493      2.5484      0.1002      6.1593    128.1510     23.5728
  1262.4000      8.0493      2.4994      0.0738      9.1275    127.1949     24.2470
  1262.5000      8.0407      2.4505      0.0763     12.0887    126.7460     24.7326
  1262.6000      8.0407      2.3990     -0.0010     15.2116    127.7146     25.0160
  1262.7000      8.0407      2.3594      0.0210     17.6125    131.0298     25.1365
  1262.8000      8.0193      2.3386      0.0614     18.8731    136.7354     24.9882
  1262.9000      8.0193      2.3118      0.1261     20.4979    142.7081     24.5375
  1263.0000      8.1015      2.2639      0.0758     23.4009    146.8739     23.9649
  1263.1000      8.1015      2.2279      0.1144     25.5805    148.9000     23.5441
  1263.2000      8.1015      2.2371      0.1775     25.0255    145.4625     23.2951
  1263.3000      8.1790      2.2847      0.2316     22.1367    138.1943     23.1651
  1263.4000      8.1790      2.3534      0.2451     17.9787    135.8519     23.3659
  1263.5000      8.0703      2.4442      0.2650     12.4704    140.5964     23.6876
  1263.6000      8.0703      2.5516      0.4554      5.9663    146.5221     23.8771
  1263.7000      8.0703      2.6296      0.5908      1.2373    148.9136     24.0584
  1263.8000      8.1029      2.6512      0.4120     -0.0741    146.9879     24.1410
  1263.9000      8.1029      2.6429      0.3821      0.4276    143.2509     23.9370
  1264.0000      8.1140      2.6125      0.3778      2.2715    140.5037     23.6182
  1264.1000      8.1140      2.5518      0.1793      5.9501    138.9638     23.4570
  1264.2000      8.1140      2.4881      0.0628      9.8141    138.1663     23.3337
  1264.3000      8.1133      2.4426      0.0386     12.5710    139.5533     23.0651
  1264.4000      8.1133      2.4054      0.0975     14.8247    143.0703     23.0376
  1264.5000      8.1104      2.3754      0.0849     16.6438    143.2228     23.5875
  1264.6000      8.1104      2.3786      0.0845     16.4506    139.2682     24.5343
  1264.7000      8.1104      2.4288      0.1361     13.4080    136.3671     25.6816
  1264.8000      8.1178      2.5018      0.2083      8.9819    136.0637     26.6499
  1264.9000      8.1178      2.5726      0.1764      4.6895    135.1955     27.2261
  1265.0000      8.1157      2.6395      0.2302      0.6391    132.9489     27.5627
  1265.1000      8.1157      2.7009      0.3484     -3.0822    135.2328     27.7491
  1265.2000      8.1157      2.7509      0.3809     -6.1131    144.2913     27.8695
  1265.3000      8.0407      2.7811      0.3960     -7.9446    151.6892     28.0431
  1265.4000      8.0407      2.7705      0.3559     -7.3044    155.7908     28.2431
  1265.5000      8.0353      2.7127      0.1560     -3.7996    159.7849     28.1395
  1265.6000      8.0353      2.6405      0.0384      0.5788    159.4546     27.7042
  1265.7000      8.0353      2.5924      0.0110      3.4924    154.8513     27.2874
  1265.8000      8.0201      2.5860     -0.0256      3.8803    151.3938     26.8877
  1265.9000      8.0201      2.6106      0.0540      2.3868    150.5720     26.3831
  1266.0000      7.9819      2.6242      0.0843      1.5612    152.9888     25.8801
  1266.1000      7.9819      2.6002      0.0362      3.0207    158.1032     25.6231
  1266.2000      7.9819      2.5615      0.0024      5.3647    161.9637     25.3743
  1266.3000      7.9794      2.5322      0.0287      7.1402    161.7911     24.9501
  1266.4000      7.9794      2.5113      0.0172      8.4079    157.3911     24.9072
  1266.5000      7.9699      2.4997     -0.0146      9.1082    148.8951     25.2738
