~Version Information
VERS.                      2.0: CWLS Log ASCII Standard - VERSION 2.0
WRAP.                       NO: One line per depth step
~Well Information Block
STRT.FT                -8.5000: 
STOP.FT              1263.2500: 
STEP.FT                 0.2500: 
NULL.                -999.2500: 
COMP.          Pioneer Natural Resources: COMPANY
WELL.          Rockfish 11-30 Tr: WELL
FLD.           Purgatoire River: FIELD
LOC.           1063' FNL & 1068' FWL--: LOCATION
STAT.                       CO: State
CNTY.               Las Animas: COUNTY
CTRY. USA : country
SECT. 30 : Section
TOWN. 32S : Township
RANG. 65W : Range
SRVC.          Patterson Wireline: SERVICE COMPANY
DATE.          Tue Nov 22 16:08:49 2005: LOG DATE
API.           05 071 08585 00: UNIQUE WELL ID
~Curve Information Block
DEPT.FT            0 000 00 00: Depth
HVOLTA.V                      : Head Voltage Apparent
CCL.                          : Casing Collar Locator
TT3.usec                      : CBL 3' Travel Time
AMP3.mV                       : CBL 3' Amplitude
GR.GAPI                       : Gamma Ray
~Parameter Information Block
PPT.usec                0.0000: Predicted Pipe Time
~A  Depth      HVOLTA       CCL         TT3         AMP3         GR     
# ...
   579.5000     96.3193      0.0000    364.1997     18.8715     45.9286
   579.7500     96.2884      0.0000    366.8972     18.7514     44.2913
   580.0000     96.1706      0.0000    368.1668     18.6554     43.5181
   580.2500     96.2576      0.0000    369.5761     18.5558     43.3860
   580.5000     96.3235      0.0000    374.1297     18.4299     43.2392
   580.7500     96.2590      0.0000    388.1269     18.2744     42.7247
   581.0000     96.1931      0.0000    421.7659     18.1020     42.1169
   581.2500     96.3656      0.0000    484.5957     17.9236     41.9270
   581.5000     96.2520      0.0000    575.9191     17.7382     42.2289
   581.7500     96.3137      0.0000    679.2286     17.5452     42.5067
   582.0000     96.2815      0.0000    770.1523     17.3627     42.3241
   582.2500     96.2309      0.0000    832.3990     17.2160     42.0403
   582.5000     96.2309      0.0000    865.6428     17.1162     42.7086
   582.7500     96.3123      0.0000    879.9537     17.0665     45.2755
   583.0000     96.3123      0.0000    886.5379     17.0864     49.8858
   583.2500     96.2576      0.0000    893.7889     17.2018     55.7791
   583.5000     96.4301      0.0000    907.6882     17.4046     61.6989
   583.7500     96.3390      0.0000    930.6132     17.6429     66.6955
   584.0000     96.3951      0.0000    956.9579     17.8583     70.8794
   584.2500     96.2197      0.0000    970.6948     18.0226     75.1152
   584.5000     96.3095      0.0000    950.8080     18.1454     79.6301
   584.7500     96.3109      0.0000    884.0271     18.2622     83.3148
   585.0000     96.4232      0.0000    777.7243     18.4060     84.9032
   585.2500     96.3362      0.0000    664.2070     18.5678     84.5717
   585.5000     96.3362      0.0000    589.4131     18.6826     83.8383
   585.7500     96.3095      0.0000    588.3948     18.6715     83.9376
   586.0000     96.3965      0.0000    663.5874     18.5072     84.6324
   586.2500     96.3712      0.0000    783.4290     18.2414     84.5727
   586.5000     96.3390      0.0000    902.8958     17.9692     82.6190
   586.7500     96.2759      0.0000    987.6854     17.7734     79.0382
   587.0000     96.2267      0.0000   1021.3490     17.6961     75.8229
   587.2500     96.2870      0.0000    996.7985     17.7431     75.5908
   587.5000     96.1411      0.0000    912.1628     17.8986     79.3952
   587.7500     96.1931      0.0000    779.2220     18.1312     85.5111
   588.0000     96.3123      0.0000    629.1553     18.3886     90.8182
   588.2500     96.3418      0.0000    500.6851     18.6020     93.3026
   588.5000     96.3109      0.0000    419.5214     18.7177     93.0268
   588.7500     96.3095      0.0000    389.8266     18.7299     91.1671
   589.0000     96.3698      0.0000    400.9993     18.6840     88.5798
   589.2500     96.2506      0.0000    435.2430     18.6522     85.3278
   589.5000     96.2253      0.0000    469.1194     18.7081     81.5182
   589.7500     96.3151      0.0000    479.2753     18.9008     78.1458
   590.0000     96.2253      0.0000    456.7528     19.2281     76.3822
   590.2500     96.2520      0.0000    413.9397     19.6366     76.0988
   590.5000     96.2773      0.0000    372.3166     20.0654     75.9922
   590.7500     96.2576      0.0000    344.8793     20.4823     75.4648
   591.0000     96.3123      0.0000    331.6331     20.8723     75.5527
   591.2500     96.2506      0.0000    326.7174     21.2123     77.4678
   591.5000     96.1931      0.0000    325.1929     21.4831     80.8379
   591.7500     96.3109      0.0000    324.6990     21.6943     84.0100
   592.0000     96.2870      0.0000    324.4661     21.8776     85.7810
   592.2500     96.1664      0.0000    324.3301     22.0643     86.3063
   592.5000     96.2548      0.0000    324.2318     22.2760     86.4651
   592.7500     96.1776      0.0000    324.1449     22.5158     86.8214
   593.0000     96.1987      0.0000    324.0755     22.7499     87.2165
   593.2500     96.2197      0.0000    324.1276     22.9123     86.9864
   593.5000     96.2759      0.0000    324.7194     22.9470     85.3990
   593.7500     96.2492      0.0000    327.1357     22.8394     82.0665
   594.0000     96.2801      0.0000    334.3848     22.6000     77.4203
   594.2500     96.2562      0.0000    351.5349     22.2317     73.0327
   594.5000     96.1917      0.0000    384.1305     21.7195     70.8461
   594.7500     96.1945      0.0000    435.4020     21.0405     71.3476
   595.0000     96.1959      0.0000    505.4420     20.1946     72.8284
   595.2500     96.1397      0.0000    592.5081     19.2471     73.3266
   595.5000     96.1117      0.0000    691.8221     18.3325     73.0965
   595.7500     96.2253      0.0000    792.2211     17.5793     74.1811
   596.0000     96.2197      0.0000    878.9998     17.0182     77.4567
   596.2500     96.2225      0.0000    943.1916     16.5885     81.1190
   596.5000     96.3025      0.0000    984.6905     16.2363     82.5485
   596.7500     96.2128      2.0000   1002.8664     15.9887     81.0293
   597.0000     96.5955      0.0000    986.5792     15.9709     78.2464
   597.2500     95.6322      0.0000    919.4009     16.3682     76.6793
   597.5000     95.8650      0.0000    798.9867     17.2952     77.8696
   597.7500     96.5647      0.0000    649.7913     18.6201     81.6779
   598.0000     96.2590      0.0000    511.4973     19.9736     86.6360
   598.2500     96.3587      0.0000    412.9896     21.0296     90.9283
   598.5000     96.1650      0.0000    358.3886     21.7279     93.2186
   598.7500     96.3418      0.0000    334.6661     22.1840     92.9778
   599.0000     96.2239      0.0000    326.5536     22.5047     90.5794
   599.2500     96.1945      0.0000    324.3610     22.7659     87.2837
   599.5000     96.2239      0.0000    323.8581     23.0449     84.8076
   599.7500     96.3726      0.0000    323.6906     23.3680     84.3900
   600.0000     96.2842      0.0000    323.5800     23.6683     85.7711
   600.2500     96.2156      0.0000    323.5113     23.8566     87.0570
   600.5000     96.2815      0.0000    323.4986     23.9194     85.9796
   600.7500     96.3348      0.0000    323.5172     23.9207     81.6758
   601.0000     96.2239      0.0000    323.5342     23.9331     75.4553
   601.2500     96.1342      0.0000    323.5342     23.9827     69.8694
   601.5000     96.2787      0.0000    323.5753     24.0409     66.8101
   601.7500     96.3123      0.0000    323.9169     24.0500     66.4679
   602.0000     96.2801      0.0000    325.6967     23.9646     68.1831
   602.2500     96.3670      0.0000    332.7007     23.7693     71.7472
   602.5000     96.2239      0.0000    354.0807     23.4496     77.2714
   602.7500     96.3292      0.0000    404.7666     22.9650     84.1284
   603.0000     96.3306      0.0000    497.7985     22.2882     90.7566
   603.2500     96.3993      0.0000    629.4509     21.4695     95.7371
   603.5000     96.1566      0.0000    772.3210     20.6267     98.9790
   603.7500     96.3628      0.0000    890.8272     19.8634    101.4661
   604.0000     96.2506      0.0000    967.4069     19.2127    103.4664
   604.2500     96.2267      0.0000   1011.0132     18.6543    103.5122
   604.5000     96.2520      0.0000   1041.0916     18.1578    100.0447
   604.7500     96.2478      0.0000   1068.8164     17.7071     93.8923
   605.0000     96.2253      0.0000   1093.8870     17.2962     88.3557
   605.2500     96.2239      0.0000   1112.6526     16.9097     86.6515
   605.5000     96.2478      0.0000   1124.3596     16.5143     89.4364
   605.7500     96.3628      0.0000   1130.9299     16.0826     94.6632
   606.0000     96.3923      0.0000   1134.4272     15.6282     99.4559
   606.2500     96.3642      0.0000   1135.9257     15.2029    101.9206
   606.5000     96.1945      0.0000   1135.5897     14.8595    101.6051
   606.7500     96.2239      0.0000   1132.9175     14.6282     99.1098
   607.0000     96.2562      0.0000   1127.6815     14.5261     95.5289
   607.2500     96.2520      0.0000   1121.3931     14.5677     91.6985
