~Version Information
VERS.                      2.0: CWLS Log ASCII Standard - VERSION 2.0
WRAP.                       NO: One line per depth step
~Well Information Block
STRT.FT               262.2500: 
STOP.FT              1942.0000: 
STEP.FT                 0.2500: 
NULL.                -999.2500: 
COMP.          XTO Energy Inc.: COMPANY
WELL.          Golden Eagle 19-11: WELL
FLD.           Purgatoire River: FIELD
LOC.           2351' FSL & 1926' FWL--: LOCATION
CNTY.               Las Animas: COUNTY
SRVC.                Patterson: SERVICE COMPANY
DATE.          Wed Mar 08 23:33:01 2006: LOG DATE
UWI.           05 071 08696 00: UNIQUE WELL ID
STAT.                 Colorado: STATE
~Curve Information Block
DEPT.FT            0 000 00 00: Depth
SP.mV                         : DIL Spontaneous Potential
RILD.Ohm-m                    : DIL Deep Resistivity
RILM.Ohm-m                    : DIL Medium Resistivity
RLL3.Ohm-m                    : DIL Shallow Resistivity
GR.GAPI                       : Gamma Ray
~Parameter Information Block
~A  Depth        SP         RILD        RILM        RLL3         GR     
# ...
  1578.2500     57.1534     11.4248     11.7576     11.9040    127.3721
  1578.5000     57.2248     10.9918     11.4920     12.1015    123.9496
  1578.7500     57.4078     10.5833     11.1780     12.3596    121.1848
  1579.0000     57.6746     10.2244     10.8186     12.5997    117.5905
  1579.2500     57.9888      9.9307     10.4320     12.7054    115.3623
  1579.5000     58.3161      9.7081     10.0432     12.5723    111.6433
  1579.7500     58.6211      9.5569      9.6754     12.1709    109.0614
  1580.0000     58.8640      9.4734      9.3471     11.5705    106.1406
  1580.2500     59.0035      9.4512      9.0724     10.9027    105.4740
  1580.5000     59.0012      9.4812      8.8625     10.2929    106.7264
  1580.7500     58.8331      9.5507      8.7282      9.8182    108.6820
  1581.0000     58.5081      9.6451      8.6804      9.5237    111.6512
  1581.2500     58.0762      9.7510      8.7280      9.4764    112.3010
  1581.5000     57.6099      9.8606      8.8749      9.7984    109.4068
  1581.7500     57.1621      9.9744      9.1160     10.6326    104.7605
  1582.0000     56.7346     10.0997      9.4362     12.0372     95.2039
  1582.2500     56.2808     10.2473      9.8124     13.8706     88.3705
  1582.5000     55.7448     10.4292     10.2181     15.7800     79.1256
  1582.7500     55.1042     10.6571     10.6294     17.3687     74.1311
  1583.0000     54.3906     10.9422     11.0280     18.4272     68.5617
  1583.2500     53.6795     11.2934     11.4042     18.9879     66.0408
  1583.5000     53.0629     11.7143     11.7585     19.1508     63.9724
  1583.7500     52.6151     12.2005     12.1025     18.9289     63.7300
  1584.0000     52.3625     12.7380     12.4570     18.3321     64.6913
  1584.2500     52.2747     13.3042     12.8471     17.5651     65.6247
  1584.5000     52.2940     13.8720     13.2952     17.0547     66.2498
  1584.7500     52.3880     14.4164     13.8136     17.2309     65.7265
  1585.0000     52.5737     14.9192     14.4000     18.2410     63.6459
  1585.2500     52.8836     15.3705     15.0359     19.8215     61.8406
  1585.5000     53.2964     15.7660     15.6900     21.4480     59.4630
  1585.7500     53.6977     16.1061     16.3291     22.6824     58.4510
  1586.0000     53.9144     16.3995     16.9293     23.4421     57.6009
  1586.2500     53.8117     16.6650     17.4833     23.9636     56.9867
  1586.5000     53.3792     16.9295     17.9967     24.5313     55.2758
  1586.7500     52.7267     17.2172     18.4772     25.2414     53.6246
  1587.0000     51.9913     17.5401     18.9248     25.9650     51.0256
  1587.2500     51.2454     17.8951     19.3326     26.4691     49.6012
  1587.5000     50.4841     18.2690     19.6972     26.5930     48.2736
  1587.7500     49.6823     18.6488     20.0278     26.3926     47.9937
  1588.0000     48.8487     19.0262     20.3468     26.1588     48.3783
  1588.2500     48.0427     19.3959     20.6790     26.2634     48.9099
  1588.5000     47.3684     19.7516     21.0380     26.9309     49.4749
  1588.7500     46.9609     20.0848     21.4180     28.1041     49.4372
  1589.0000     46.9417     20.3860     21.7945     29.4935     48.7050
  1589.2500     47.3325     20.6450     22.1306     30.7527     47.9067
  1589.5000     47.9864     20.8516     22.3906     31.6508     46.6166
  1589.7500     48.6152     21.0002     22.5559     32.1468     45.8705
  1590.0000     48.9243     21.0990     22.6343     32.3332     44.9313
  1590.2500     48.7647     21.1717     22.6562     32.2960     44.3336
  1590.5000     48.1945     21.2461     22.6543     32.0103     43.5526
  1590.7500     47.4088     21.3359     22.6439     31.3928     43.3338
  1591.0000     46.6092     21.4304     22.6172     30.4763     43.8188
  1591.2500     45.9150     21.4993     22.5576     29.4981     44.7146
  1591.5000     45.3608     21.5082     22.4594     28.7532     46.6422
  1591.7500     44.9347     21.4343     22.3342     28.3550     48.0678
  1592.0000     44.6122     21.2748     22.2006     28.1771     49.9617
  1592.2500     44.3741     21.0422     22.0698     28.0170     50.7819
  1592.5000     44.2156     20.7549     21.9405     27.7505     50.9916
  1592.7500     44.1435     20.4295     21.8014     27.3280     50.5204
  1593.0000     44.1708     20.0811     21.6361     26.7037     49.6441
  1593.2500     44.3096     19.7249     21.4253     25.8420     49.4587
  1593.5000     44.5570     19.3738     21.1542     24.7815     50.0240
  1593.7500     44.8794     19.0311     20.8227     23.6369     50.7153
  1594.0000     45.2207     18.6860     20.4489     22.5296     51.8384
  1594.2500     45.5330     18.3171     20.0594     21.5562     52.6819
  1594.5000     45.7993     17.9014     19.6702     20.8239     54.2543
  1594.7500     46.0265     17.4250     19.2735     20.4490     55.3845
  1595.0000     46.2255     16.8887     18.8360     20.4698     56.6329
  1595.2500     46.3988     16.3075     18.3116     20.7835     56.8460
  1595.5000     46.5429     15.7058     17.6603     21.1910     56.1154
  1595.7500     46.6596     15.1119     16.8676     21.4634     55.2619
  1596.0000     46.7680     14.5519     15.9562     21.3421     54.8083
  1596.2500     46.8991     14.0453     14.9834     20.5490     56.1676
  1596.5000     47.0705     13.6020     14.0252     18.9365     62.1680
  1596.7500     47.2647     13.2216     13.1542     16.6985     68.8038
  1597.0000     47.4369     12.8962     12.4223     14.3794     81.0026
  1597.2500     47.5474     12.6163     11.8541     12.5736     89.2161
  1597.5000     47.5905     12.3768     11.4495     11.5771     99.8483
  1597.7500     47.5924     12.1798     11.1907     11.3120    105.3660
  1598.0000     47.5697     12.0318     11.0503     11.5223    111.0677
  1598.2500     47.4745     11.9382     10.9983     11.9782    112.9901
  1598.5000     47.1868     11.8974     11.0083     12.5332    112.7252
  1598.7500     46.5989     11.9011     11.0622     13.0877    110.5857
  1599.0000     45.7473     11.9381     11.1519     13.5653    105.6283
  1599.2500     44.8753     11.9998     11.2784     13.9275    102.1549
  1599.5000     44.3396     12.0818     11.4483     14.1966     98.0684
  1599.7500     44.4034     12.1810     11.6690     14.4466     96.4931
  1600.0000     45.0592     12.2939     11.9453     14.7556     95.8965
  1600.2500     46.0183     12.4178     12.2757     15.1594     96.3251
  1600.5000     46.8765     12.5527     12.6509     15.6434     96.9898
  1600.7500     47.3464     12.6983     13.0544     16.1647     96.7085
  1601.0000     47.3918     12.8496     13.4672     16.6708     94.7870
  1601.2500     47.1803     12.9943     13.8740     17.1177     92.8584
  1601.5000     46.9226     13.1170     14.2675     17.5061     89.8992
  1601.7500     46.7516     13.2055     14.6460     17.8985     88.2249
  1602.0000     46.7039     13.2553     15.0020     18.3547     86.2644
  1602.2500     46.7560     13.2695     15.3069     18.8371     85.1641
  1602.5000     46.8548     13.2566     15.5063     19.2087     83.5975
  1602.7500     46.9406     13.2289     15.5347     19.3319     82.8361
  1603.0000     46.9707     13.2027     15.3478     19.1394     83.1592
  1603.2500     46.9397     13.1975     14.9509     18.6118     84.9841
  1603.5000     46.8809     13.2327     14.4031     17.7414     90.6797
  1603.7500     46.8411     13.3211     13.8004     16.5594     96.2970
  1604.0000     46.8426     13.4651     13.2495     15.2022    106.2444
  1604.2500     46.8646     13.6565     12.8437     13.9513    112.6613
  1604.5000     46.8695     13.8830     12.6466     13.2241    119.2960
  1604.7500     46.8518     14.1360     12.6880     13.5151    120.1674
  1605.0000     46.8508     14.4166     12.9692     15.2448    114.6311
  1605.2500     46.9061     14.7364     13.4725     18.5163    106.8016
  1605.5000     46.9983     15.1124     14.1699     22.9356     91.7617
  1605.7500     47.0419     15.5611     15.0312     27.7847     81.7414
  1606.0000     46.9388     16.0941     16.0326     32.6796     69.7337
