~Version Information
VERS.                      2.0: CWLS Log ASCII Standard - VERSION 2.0
WRAP.                       NO: One line per depth step
~Well Information Block
STRT.FT                 0.0000: 
STOP.FT              1507.7500: 
STEP.FT                 0.2500: 
NULL.                -999.2500: 
COMP.          Pioneer Natural Resources: COMPANY
WELL.          Pioneer 34-27 Tr: WELL
FLD.           Purgatorie River: FIELD
LOC.           243' FSL & 1593' FEL: LOCATION
STAT.                 Colorado: State
CNTY.               Las Animas: COUNTY
CTRY. USA : Country
SECT. 27 : Section
TOWN. 32S : Township
RANG. 67W : Range
SRVC.                Patterson: SERVICE COMPANY
DATE.          Wed Oct 12 09:30:25 2005: LOG DATE
API.                          : UNIQUE WELL ID
~Curve Information Block
DEPT.FT            0 000 00 00: Depth
GR.GAPI                       : Gamma Ray
CCL.                          : Casing Collar Locator
TT3.usec                      : CBL 3' Travel Time
AMP3.mV                       : CBL 3' Amplitude
~Parameter Information Block
~A  Depth        GR         CCL         TT3         AMP3    
# ...
   603.0000     88.4390      0.0000    417.0179     18.4971
   603.2500     90.7990      0.0000    408.0604     18.5282
   603.5000     92.5242      0.0000    404.3252     18.5976
   603.7500     93.1267      0.0000    409.1709     18.6981
   604.0000     91.9135      0.0000    422.5376     18.7519
   604.2500     88.6268      0.0000    440.6276     18.6012
   604.5000     83.6407      0.0000    462.2526     18.0965
   604.7500     77.5982      0.0000    495.9536     17.2203
   605.0000     71.2311      0.0000    540.4080     15.9893
   605.2500     65.4491      0.0000    573.4688     14.4186
   605.5000     61.0633      0.0000    579.1464     12.9237
   605.7500     58.2108      0.0000    561.5469     12.2120
   606.0000     56.3011      0.0000    543.3405     12.3737
   606.2500     54.6708      0.0000    557.7549     12.7883
   606.5000     53.0990      0.0000    606.6881     12.9556
   606.7500     51.6017      2.0000    651.6280     12.7972
   607.0000     50.0936      0.0000    666.3185     12.3832
   607.2500     48.5309      0.0000    656.2460     11.9811
   607.5000     47.1710      0.0000    628.3709     12.3020
   607.7500     46.3592      0.0000    591.7016     13.7701
   608.0000     46.1297      0.0000    575.5730     15.4251
   608.2500     46.2071      0.0000    589.4297     15.9605
   608.5000     46.3294      0.0000    595.6943     15.5106
   608.7500     46.4921      0.0000    568.6937     15.0538
   609.0000     47.0530      0.0000    533.8182     15.0414
   609.2500     48.6685      0.0000    523.6946     15.2678
   609.5000     51.8494      0.0000    536.2205     15.4065
   609.7500     56.3390      0.0000    551.1199     15.3743
   610.0000     60.9548      0.0000    558.8053     15.2608
   610.2500     64.1741      0.0000    561.3366     15.1392
   610.5000     64.9891      0.0000    562.1802     15.0357
   610.7500     63.3382      0.0000    562.6724     14.9602
   611.0000     59.9599      0.0000    562.9660     14.9086
   611.2500     56.0191      0.0000    563.0052     14.8666
   611.5000     52.7587      0.0000    562.8579     14.8314
   611.7500     51.0682      0.0000    562.6954     14.8160
   612.0000     51.0629      0.0000    562.6123     14.8275
   612.2500     52.0747      0.0000    562.5888     14.8504
   612.5000     53.1100      0.0000    562.6005     14.8589
   612.7500     53.3892      0.0000    562.6382     14.8395
   613.0000     52.7405      0.0000    562.6678     14.7958
   613.2500     51.6899      0.0000    562.6651     14.7377
   613.5000     50.9874      0.0000    562.6444     14.6762
   613.7500     50.8268      0.0000    562.5885     14.6241
   614.0000     50.5995      0.0000    562.2624     14.5963
   614.2500     49.6033      0.0000    560.7692     14.5981
   614.5000     48.0264      0.0000    556.2214     14.6102
   614.7500     47.0021      0.0000    547.3005     14.6036
   615.0000     47.4937      0.0000    536.0857     14.5827
   615.2500     49.2693      0.0000    526.8535     14.5826
   615.5000     51.1193      0.0000    520.8906     14.6174
   615.7500     51.9356      0.0000    514.1279     14.6670
   616.0000     51.5711      0.0000    499.0418     14.7166
   616.2500     50.8182      0.0000    470.8767     14.7747
   616.5000     50.5485      0.0000    435.9028     14.8508
   616.7500     50.8194      0.0000    407.8739     14.9387
   617.0000     50.9443      0.0000    393.4969     15.0281
   617.2500     50.3782      0.0000    388.8213     15.1206
   617.5000     49.2275      0.0000    388.0561     15.2369
   617.7500     47.8786      0.0000    389.9328     15.4181
   618.0000     46.5447      0.0000    399.9980     15.7010
   618.2500     45.4902      0.0000    430.9728     16.0813
   618.5000     45.4758      0.0000    491.9373     16.5037
   618.7500     47.5909      0.0000    568.0917     16.9014
   619.0000     52.5908      0.0000    621.8515     17.2424
   619.2500     60.4665      0.0000    620.9959     17.5361
   619.5000     70.4832      0.0000    561.6367     17.8024
   619.7500     81.4093      0.0000    473.7937     18.0446
   620.0000     91.7500      0.0000    400.8531     18.2487
   620.2500    100.0279      0.0000    362.6929     18.3974
   620.5000    105.2605      0.0000    349.9214     18.4758
   620.7500    107.5677      0.0000    347.5067     18.4609
   621.0000    108.3564      0.0000    347.8607     18.3479
   621.2500    109.4942      0.0000    348.6670     18.2001
   621.5000    111.8066      0.0000    349.3077     18.1044
   621.7500    114.3442      0.0000    349.6961     18.0801
   622.0000    115.4757      0.0000    349.9376     18.0943
   622.2500    114.7095      0.0000    350.1127     18.1300
   622.5000    113.0819      0.0000    350.2532     18.1755
   622.7500    111.8597      0.0000    350.3637     18.1842
   623.0000    111.4030      0.0000    350.4140     18.1173
   623.2500    111.3962      0.0000    350.4490     18.0179
   623.5000    111.6653      0.0000    350.8380     17.9737
   623.7500    112.3886      0.0000    353.3617     18.0158
   624.0000    113.6886      0.0000    364.4909     18.1055
   624.2500    115.3548      0.0000    396.5641     18.1948
   624.5000    117.0226      0.0000    453.1761     18.2650
   624.7500    118.4249      0.0000    507.5491     18.3244
   625.0000    119.4482      0.0000    522.8184     18.3850
   625.2500    120.2376      0.0000    503.6019     18.4314
   625.5000    121.3944      0.0000    484.7106     18.4125
   625.7500    123.7083      0.0000    472.0698     18.2936
   626.0000    127.3285      0.0000    449.6094     18.1145
   626.2500    131.3719      0.0000    423.8285     17.9592
   626.5000    134.7027      0.0000    412.7158     17.8708
   626.7500    137.0252      0.0000    416.6506     17.8177
   627.0000    138.9247      0.0000    424.5134     17.7436
   627.2500    140.9575      0.0000    430.8083     17.6308
   627.5000    143.0413      0.0000    440.5341     17.4980
   627.7500    144.6573      0.0000    465.7931     17.3680
   628.0000    145.2326      0.0000    514.4794     17.2572
   628.2500    144.3123      0.0000    575.2517     17.1626
   628.5000    141.7630      0.0000    623.8792     17.0661
   628.7500    137.9302      0.0000    648.7535     16.9706
   629.0000    133.4479      0.0000    656.8630     16.9082
   629.2500    128.8923      0.0000    658.7918     16.9015
   629.5000    124.7523      0.0000    660.2534     16.9492
   629.7500    121.6160      0.0000    663.8129     17.0505
   630.0000    120.0673      0.0000    670.5258     17.1897
   630.2500    120.2027      0.0000    678.7919     17.3070
   630.5000    121.3423      0.0000    684.2156     17.3420
   630.7500    122.3278      0.0000    680.3486     17.3003
   631.0000    122.0928      0.0000    657.9088     17.2451
   631.2500    120.1488      0.0000    610.9314     17.2446
   631.5000    116.9402      0.0000    551.1304     17.3292
   631.7500    113.7387      0.0000    503.9726     17.4737
   632.0000    111.7065      0.0000    481.8599     17.6231
   632.2500    110.9373      0.0000    474.8819     17.7467
   632.5000    110.7453      0.0000    469.4162     17.8552
   632.7500    110.8020      0.0000    460.9210     17.9599
   633.0000    111.4423      0.0000    448.4818     18.0317
   633.2500    112.9333      0.0000    430.2035     18.0271
   633.5000    114.9623      0.0000    407.5551     17.9442
   633.7500    116.6588      0.0000    386.3343     17.8281
   634.0000    116.8046      0.0000    372.5151     17.7323
   634.2500    114.3626      0.0000    369.1896     17.6869
   634.5000    109.1318      0.0000    375.3208     17.6961
   634.7500    101.8359      0.0000    390.9525     17.7559
   635.0000     93.6934      0.0000    424.9825     17.8455
   635.2500     86.0053      0.0000    486.0540     17.9100
   635.5000     79.8396      0.0000    561.1359     17.9054
   635.7500     75.7851      0.0000    621.3170     17.8436
   636.0000     74.0556      0.0000    653.8833     17.7546
   636.2500     74.7928      0.0000    669.8502     17.6491
