~Version Information
VERS.                      2.0: CWLS Log ASCII Standard - VERSION 2.0
WRAP.                       NO: One line per depth step
~Well Information Block
STRT.FT               400.0000: 
STOP.FT              1577.5000: 
STEP.FT                 0.1000: 
NULL.                -999.2500: 
COMP.          Pioneer Natural Resources: COMPANY
WELL.          Lorencito 10-36-33-67: WELL
FLD.           Purgatoire River: FIELD
LOC.           2130' FSL & 2362' FEL: LOCATION
STAT.                 Colorado: State
CNTY.               Las Animas: COUNTY
CTRY. USA : Country
SECT. 36 : Section
TOWN. 33S : Township
RANG. 67W : Range
SRVC.                Patterson: SERVICE COMPANY
DATE.          Mon Aug 29 07:03:31 2005: LOG DATE
API.           05 071 08501 00: UNIQUE WELL ID
~Curve Information Block
DEPT.FT            0 000 00 00: Depth
DCAL.in                       : CDL Caliper
RHOB.g/cc                     : CDL Bulk Density
RHOC.g/cc                     : CDL Density Correction
DPOR.pu                       : CDL Density Porosity
GR.GAPI                       : Gamma Ray
NPOR.pu                       : Neutron Porosity
~Parameter Information Block
~A  Depth       DCAL        RHOB        RHOC        DPOR         GR         NPOR    
# ...
  1024.0000      8.0028      2.5314      0.0686      7.1877    112.5729     20.4251
  1024.1000      8.0028      2.5243      0.1014      7.6210    118.6979     20.4748
  1024.2000      8.0028      2.5166      0.0280      8.0853    126.1031     20.9535
  1024.3000      7.9666      2.5148      0.0815      8.1932    132.5970     21.8415
  1024.4000      7.9666      2.5311      0.0791      7.2049    134.5686     22.7985
  1024.5000      7.9909      2.5546      0.1469      5.7828    132.0003     23.2142
  1024.6000      7.9909      2.5691      0.1019      4.9056    129.3254     22.7988
  1024.7000      7.9909      2.5740      0.0961      4.6090    128.9944     22.1037
  1024.8000      8.0487      2.5623      0.1406      5.3139    130.2103     21.7566
  1024.9000      8.0487      2.5235      0.0983      7.6689    131.5425     21.6266
  1025.0000      8.0600      2.4770      0.0313     10.4838    133.8965     21.4890
  1025.1000      8.0600      2.4654     -0.0181     11.1871    140.6819     21.4747
  1025.2000      8.0600      2.5039      0.0396      8.8564    148.1373     21.7073
  1025.3000      8.0850      2.5535      0.1012      5.8457    148.1225     22.1448
  1025.4000      8.0850      2.5624      0.1429      5.3104    142.7498     22.5467
  1025.5000      8.1572      2.5237      0.0845      7.6524    139.3922     22.6878
  1025.6000      8.1572      2.4695      0.0549     10.9411    138.2337     22.6933
  1025.7000      8.1572      2.4289     -0.0024     13.4017    140.6025     22.9815
  1025.8000      8.1596      2.4164      0.0055     14.1592    145.7484     23.5816
  1025.9000      8.1596      2.4301      0.0161     13.3262    146.9129     23.8400
  1026.0000      8.1930      2.4526      0.0923     11.9663    146.2030     23.3750
  1026.1000      8.1930      2.4687      0.0489     10.9887    151.3439     22.7361
  1026.2000      8.1930      2.4803      0.0388     10.2848    159.3806     22.4667
  1026.3000      8.2155      2.4995      0.1031      9.1225    163.0706     22.5042
  1026.4000      8.2155      2.5419      0.1190      6.5506    161.5262     22.6931
  1026.5000      8.2054      2.5961      0.2279      3.2673    158.2313     22.8929
  1026.6000      8.2054      2.6203      0.2448      1.8013    155.6458     22.9006
  1026.7000      8.2054      2.6118      0.1646      2.3131    153.8634     22.6785
  1026.8000      8.1732      2.6023      0.1054      2.8896    150.9390     22.4774
  1026.9000      8.1732      2.5877      0.1141      3.7767    146.4930     22.4188
  1027.0000      8.1750      2.5507      0.0885      6.0193    141.7326     22.4785
  1027.1000      8.1750      2.5116      0.0410      8.3907    136.6903     22.6088
  1027.2000      8.1750      2.4963      0.0571      9.3127    133.7803     22.5564
  1027.3000      8.2175      2.4975      0.0013      9.2427    134.8883     22.1800
  1027.4000      8.2175      2.4951      0.0388      9.3875    135.7220     21.6934
  1027.5000      8.3382      2.4853      0.0054      9.9831    134.1342     21.4688
  1027.6000      8.3382      2.4739      0.0028     10.6731    133.8203     21.8285
  1027.7000      8.3382      2.4630     -0.0147     11.3361    136.3982     22.6799
  1027.8000      8.4089      2.4550      0.0257     11.8162    138.5584     23.2391
  1027.9000      8.4089      2.4531      0.0342     11.9345    135.9922     22.8138
  1028.0000      8.2772      2.4667      0.0503     11.1076    128.0790     21.8426
  1028.1000      8.2772      2.5008      0.1090      9.0414    118.3946     21.3680
  1028.2000      8.2772      2.5426      0.0876      6.5109    113.0466     21.6578
  1028.3000      8.1565      2.5824      0.1830      4.0957    113.8713     22.3305
  1028.4000      8.1565      2.6170      0.1426      2.0005    117.2240     23.0836
  1028.5000      8.1224      2.6415      0.1980      0.5169    120.1728     23.6047
  1028.6000      8.1224      2.6568      0.1779     -0.4137    120.4349     23.7466
  1028.7000      8.1224      2.6724      0.1591     -1.3586    116.0172     23.7757
  1028.8000      8.1046      2.6791      0.1887     -1.7634    109.3263     23.9677
  1028.9000      8.1046      2.6569      0.1575     -0.4177    104.6895     23.9909
  1029.0000      8.0759      2.6168      0.0837      2.0115    104.7801     23.5894
  1029.1000      8.0759      2.5846      0.0324      3.9648    109.7893     23.3147
  1029.2000      8.0759      2.5697      0.0106      4.8668    114.0782     23.5050
  1029.3000      8.0629      2.5761      0.0142      4.4781    112.7460     23.8121
  1029.4000      8.0629      2.5954      0.0166      3.3113    107.3671     24.0311
  1029.5000      8.0646      2.6028      0.0543      2.8636    102.3395     24.4206
  1029.6000      8.0646      2.5943     -0.0225      3.3739    101.5784     25.0145
  1029.7000      8.0646      2.5906      0.0272      3.6011    103.7313     25.6142
  1029.8000      8.0697      2.5991      0.0207      3.0861    105.2879     26.2353
  1029.9000      8.0697      2.6031      0.0857      2.8415    104.8953     26.7647
  1030.0000      8.0953      2.5838      0.0546      4.0114    102.5736     26.8485
  1030.1000      8.0953      2.5539     -0.0370      5.8242     98.6481     26.5089
  1030.2000      8.0953      2.5413     -0.0135      6.5902     96.2959     26.2213
  1030.3000      8.1019      2.5480      0.0168      6.1791     97.9584     26.2246
  1030.4000      8.1019      2.5596      0.0262      5.4802    100.1885     26.3912
  1030.5000      8.0972      2.5728      0.0020      4.6771     99.7724     26.5930
  1030.6000      8.0972      2.5923     -0.0470      3.4952     97.6659     26.7180
  1030.7000      8.0972      2.6156      0.0272      2.0824     95.2390     26.5635
  1030.8000      8.0799      2.6390      0.0044      0.6641     92.3904     26.0079
  1030.9000      8.0799      2.6592      0.0538     -0.5565     90.8822     25.2427
  1031.0000      8.0432      2.6659     -0.0044     -0.9610     92.2300     24.5161
  1031.1000      8.0432      2.6558      0.0345     -0.3537     96.6272     23.9395
  1031.2000      8.0432      2.6342     -0.0018      0.9603    104.8026     23.5146
  1031.3000      8.1060      2.6107     -0.0096      2.3813    111.8367     23.2458
  1031.4000      8.1060      2.5918     -0.0158      3.5258    113.1055     23.3322
  1031.5000      8.1046      2.5772     -0.0655      4.4118    114.6401     23.7347
  1031.6000      8.1046      2.5695      0.0038      4.8793    118.6197     23.8693
  1031.7000      8.1046      2.5578      0.0382      5.5905    118.0286     23.6101
  1031.8000      8.0307      2.5309     -0.0730      7.2201    115.4993     23.5339
  1031.9000      8.0307      2.5082     -0.0468      8.5938    118.3711     23.8400
  1032.0000      8.0405      2.5102     -0.0276      8.4741    126.1582     24.2841
  1032.1000      8.0405      2.5326      0.0366      7.1144    139.9013     24.6872
  1032.2000      8.0405      2.5599      0.0400      5.4619    156.8190     25.0164
  1032.3000      8.0704      2.5773      0.0626      4.4083    163.2431     25.3261
  1032.4000      8.0704      2.5814      0.0459      4.1552    155.8567     25.6637
  1032.5000      8.0523      2.5838      0.0120      4.0135    146.2869     25.9385
  1032.6000      8.0523      2.5878      0.0563      3.7683    141.0168     25.9594
  1032.7000      8.0523      2.5815      0.0248      4.1494    141.7291     25.7628
  1032.8000      8.0364      2.5663      0.0029      5.0751    147.5808     25.6193
  1032.9000      8.0364      2.5546      0.0389      5.7835    152.6226     25.7012
  1033.0000      8.0509      2.5498     -0.0047      6.0728    156.9941     25.7578
  1033.1000      8.0509      2.5515      0.0216      5.9678    164.9154     25.8259
  1033.2000      8.0509      2.5447     -0.0224      6.3829    170.6741     26.0803
  1033.3000      8.0786      2.5128      0.0436      8.3136    167.6153     26.1555
  1033.4000      8.0786      2.4748     -0.0954     10.6171    159.7317     26.0004
  1033.5000      8.1167      2.4606     -0.0518     11.4768    156.6633     25.8751
