~Version Information
VERS.                      2.0: CWLS Log ASCII Standard - VERSION 2.0
WRAP.                       NO: One line per depth step
~Well Information Block
STRT.FT               260.0000: 
STOP.FT               713.2000: 
STEP.FT                 0.1000: 
NULL.                -999.2500: 
COMP.          Pioneer Natural Resources: COMPANY
WELL.           Quintessa 23-7: WELL
FLD.           Purgatoire River: FIELD
LOC.           1964' FSL & 2589' FWL--: LOCATION
PROV.                 Colorado: PROVINCE
CNTY.               Las Animas: COUNTRY
SRVC.                Patterson: SERVICE COMPANY
DATE.          Sat Nov 19 09:15:07 2005: LOG DATE
UWI.           05 071 08558 00: UNIQUE WELL ID
~Curve Information Block
DEPT.FT            0 000 00 00: Depth
DCAL.in                       : CDL Caliper
RHOB.g/cc                     : CDL Bulk Density
RHOC.g/cc                     : CDL Density Correction
DPOR.pu                       : CDL Density Porosity
NPOR.pu                       : Neutron Porosity
GR.GAPI                       : Gamma Ray
~Parameter Information Block
~A  Depth       DCAL        RHOB        RHOC        DPOR        NPOR         GR     
# ...
   653.6000      7.8828      2.4599     -0.0098     11.5184     21.4883     89.8134
   653.7000      7.8828      2.4618      0.0171     11.4043     22.1514     83.4831
   653.8000      7.8996      2.4706      0.0489     10.8707     22.8534     83.1055
   653.9000      7.8996      2.4727      0.0208     10.7485     22.8180     82.8721
   654.0000      7.9074      2.4738      0.0181     10.6789     22.0676     80.8528
   654.1000      7.9074      2.4926      0.0153      9.5420     21.2196     79.9359
   654.2000      7.9074      2.5267      0.0629      7.4729     20.6634     81.5391
   654.3000      7.9080      2.5549      0.0483      5.7644     20.4854     88.4150
   654.4000      7.9080      2.5678      0.0548      4.9814     20.5979     98.2057
   654.5000      7.9064      2.5668      0.0766      5.0414     20.9699    101.7068
   654.6000      7.9064      2.5574      0.0227      5.6109     21.3801     98.7439
   654.7000      7.9064      2.5499      0.0358      6.0690     21.4640     94.7829
   654.8000      7.9079      2.5425      0.0518      6.5181     21.2472     89.1599
   654.9000      7.9079      2.5310      0.0076      7.2108     20.9937     84.6736
   655.0000      7.9122      2.5212      0.0415      7.8056     20.7306     84.4332
   655.1000      7.9122      2.5174      0.0025      8.0349     20.2805     84.1032
   655.2000      7.9122      2.5170      0.0126      8.0622     19.9804     80.2248
   655.3000      7.9161      2.5103     -0.0059      8.4651     20.2315     76.9634
   655.4000      7.9161      2.4951      0.0028      9.3881     20.8213     78.4249
   655.5000      7.9159      2.4816     -0.0060     10.2040     21.4280     80.7695
   655.6000      7.9159      2.4801     -0.0061     10.2956     21.9887     81.5340
   655.7000      7.9159      2.4847      0.0381     10.0167     22.5947     84.0221
   655.8000      7.9111      2.4832      0.0249     10.1097     23.1190     88.1464
   655.9000      7.9111      2.4810      0.0144     10.2402     23.5864     93.6518
   656.0000      7.9051      2.4877      0.0500      9.8339     24.2929    100.8810
   656.1000      7.9051      2.4994      0.0421      9.1249     24.8669    106.9397
   656.2000      7.9051      2.5078      0.0864      8.6192     24.8430    109.2185
   656.3000      7.9039      2.5086      0.0598      8.5717     24.4484    106.5047
   656.4000      7.9039      2.5087      0.0440      8.5657     24.1050    101.6921
   656.5000      7.9107      2.5140      0.0274      8.2418     23.9990     98.9661
   656.6000      7.9107      2.5139      0.0770      8.2471     24.1307     97.7958
   656.7000      7.9107      2.4979      0.0254      9.2173     24.5868     96.5227
   656.8000      7.9208      2.4823     -0.0003     10.1628     25.2680     96.4295
   656.9000      7.9208      2.4865      0.0222      9.9081     25.6736     99.1703
   657.0000      7.9253      2.5018      0.0466      8.9832     25.2699    101.5338
   657.1000      7.9253      2.5114      0.0418      8.4008     24.1718    101.9050
   657.2000      7.9253      2.5150      0.0354      8.1837     22.8406    104.5835
   657.3000      7.9191      2.5155      0.0585      8.1504     21.6485    114.3650
   657.4000      7.9191      2.5090      0.0531      8.5425     21.2224    132.5869
   657.5000      7.9091      2.4990      0.0259      9.1534     21.9564    149.3269
   657.6000      7.9091      2.4970      0.0143      9.2755     23.0011    153.2921
   657.7000      7.9091      2.5083      0.0363      8.5896     23.2412    148.6132
   657.8000      7.9052      2.5243      0.0776      7.6167     23.2191    143.1714
   657.9000      7.9052      2.5300      0.0747      7.2744     23.9166    141.4796
   658.0000      7.9056      2.5222      0.0504      7.7449     24.6828    143.1853
   658.1000      7.9056      2.5168      0.0193      8.0750     24.9197    142.5295
   658.2000      7.9056      2.5236      0.0693      7.6616     25.0540    141.1324
   658.3000      7.9067      2.5280      0.0895      7.3933     25.1310    144.1041
   658.4000      7.9067      2.5167      0.0673      8.0818     24.8071    148.4482
   658.5000      7.9091      2.4955      0.0612      9.3637     23.9367    147.0046
   658.6000      7.9091      2.4759      0.0036     10.5522     22.9512    141.9176
   658.7000      7.9091      2.4622      0.0303     11.3824     22.5694    138.0016
   658.8000      7.9102      2.4538      0.0178     11.8912     22.6200    130.2224
   658.9000      7.9102      2.4576      0.0151     11.6614     22.3774    117.6741
   659.0000      7.9063      2.4751      0.0369     10.6009     21.6280    108.0374
   659.1000      7.9063      2.4921      0.0401      9.5682     20.6073    102.0166
   659.2000      7.9063      2.4961      0.0705      9.3247     19.8832     93.6469
   659.3000      7.9012      2.4935      0.0102      9.4870     20.0242     85.1709
   659.4000      7.9012      2.4945      0.0427      9.4217     20.7283     84.4722
   659.5000      7.8968      2.4947      0.0325      9.4105     21.2367     86.8963
   659.6000      7.8968      2.4949      0.0139      9.4022     21.2114     84.4923
   659.7000      7.8968      2.5064      0.0400      8.7004     20.5704     80.9760
   659.8000      7.8885      2.5298      0.0329      7.2859     19.5182     81.2634
   659.9000      7.8885      2.5489      0.0493      6.1298     18.9165     82.0422
   660.0000      7.8806      2.5472      0.0525      6.2318     19.3694     79.5481
   660.1000      7.8806      2.5327      0.0218      7.1064     20.1975     77.4650
   660.2000      7.8806      2.5239      0.0277      7.6400     20.5801     79.5781
   660.3000      7.8836      2.5225     -0.0087      7.7295     20.7785     84.8854
   660.4000      7.8836      2.5191      0.0538      7.9331     20.9935     90.7917
   660.5000      7.8963      2.5032      0.0420      8.8953     20.9087     91.9545
   660.6000      7.8963      2.4786     -0.0024     10.3850     20.5941     84.7844
   660.7000      7.8963      2.4600      0.0053     11.5177     20.3942     77.9033
   660.8000      7.9102      2.4526     -0.0125     11.9630     20.6508     79.6713
   660.9000      7.9102      2.4500      0.0375     12.1235     21.2898     83.7688
   661.0000      7.9213      2.4422      0.0132     12.5966     21.7814     82.8286
   661.1000      7.9213      2.4310     -0.0043     13.2748     22.1546     80.5650
   661.2000      7.9213      2.4273      0.0178     13.4986     22.7037     79.8117
   661.3000      7.9267      2.4371      0.0277     12.9046     23.0174     79.4229
   661.4000      7.9267      2.4573      0.0396     11.6801     22.6656     80.1236
   661.5000      7.9224      2.4715      0.1081     10.8202     22.1717     81.5934
   661.6000      7.9224      2.4669      0.0541     11.0947     22.1725     83.7008
   661.7000      7.9224      2.4555      0.0471     11.7856     22.3965     86.6238
   661.8000      7.9116      2.4499      0.0431     12.1292     22.3017     89.2558
   661.9000      7.9116      2.4435      0.0529     12.5128     21.9124     91.1767
   662.0000      7.9050      2.4316      0.0401     13.2344     21.5787     91.2974
   662.1000      7.9050      2.4226      0.0265     13.7813     21.5266     88.9670
   662.2000      7.9050      2.4226      0.0456     13.7812     21.6036     84.5128
   662.3000      7.9077      2.4309      0.0257     13.2796     21.2810     78.9072
   662.4000      7.9077      2.4488      0.0369     12.1967     20.1255     74.1861
   662.5000      7.9159      2.4718      0.0527     10.7997     18.5415     71.3784
   662.6000      7.9159      2.4910      0.0388      9.6364     17.6052     71.9886
   662.7000      7.9159      2.5091      0.0352      8.5413     17.6885     77.6409
   662.8000      7.9217      2.5383      0.0499      6.7669     17.8319     84.7443
   662.9000      7.9217      2.5757      0.0986      4.5033     17.2668     85.8523
   663.0000      7.9236      2.5953      0.0975      3.3141     16.5037     79.8299
   663.1000      7.9236      2.5908      0.0198      3.5876     16.1031     71.9800
