~Version Information
VERS.                      2.0: CWLS Log ASCII Standard - VERSION 2.0
WRAP.                       NO: One line per depth step
~Well Information Block
STRT.FT               660.0000: 
STOP.FT              2491.0000: 
STEP.FT                 0.2500: 
NULL.                -999.2500: 
COMP.          Petrogulf Corporation: COMPANY
WELL.          Montoya 18-11V-B: WELL
FLD.           Purgatorie River: FIELD
LOC.           848' FNL & 619' FWL: LOCATION
PROV.                 Colorado: PROVINCE
CNTY.               Las Animas: COUNTRY
SRVC.                Patterson: SERVICE COMPANY
DATE.          Wed Oct 05 04:34:17 2005: LOG DATE
UWI.                          : UNIQUE WELL ID
~Curve Information Block
DEPT.FT            0 000 00 00: Depth
SP.mV                         : DIL Spontaneous Potential
RILD.Ohm-m                    : DIL Deep Resistivity
RILM.Ohm-m                    : DIL Medium Resistivity
RLL3.Ohm-m                    : DIL Shallow Resistivity
GR.GAPI                       : Gamma Ray
~Parameter Information Block
~A  Depth        SP         RILD        RILM        RLL3         GR     
   660.0000   2000.0000      7.5110   -999.2500   -999.2500     44.4715
   660.2500   2000.0000      7.5079   -999.2500   2000.0000     43.8132
   660.5000   2000.0000      7.5243   -999.2500   2000.0000     42.3925
   660.7500   2000.0000      7.5529   -999.2500   2000.0000     41.8452
   661.0000   2000.0000      7.5831   -999.2500   2000.0000     42.3859
   661.2500   2000.0000      7.6066   -999.2500   2000.0000     43.5911
   661.5000   2000.0000      7.6201   -999.2500   2000.0000     46.3020
   661.7500   2000.0000      7.6246   -999.2500   2000.0000     48.7268
   662.0000   2000.0000      7.6237   -999.2500   2000.0000     53.4531
   662.2500   2000.0000      7.6222   -999.2500   2000.0000     57.1627
   662.5000   2000.0000      7.6264   -999.2500   2000.0000     62.9950
   662.7500   2000.0000      7.6432   -999.2500   2000.0000     66.9038
   663.0000   2000.0000      7.6771   -999.2500   2000.0000     72.7870
   663.2500   2000.0000      7.7263   -999.2500   2000.0000     76.5086
   663.5000   2000.0000      7.7804   -999.2500   2000.0000     81.0689
   663.7500   2000.0000      7.8244   -999.2500   2000.0000     83.2812
   664.0000   2000.0000      7.8461 100000.0000   2000.0000     85.8920
   664.2500   2000.0000      7.8430 100000.0000   2000.0000     87.3818
   664.5000   2000.0000      7.8230 100000.0000   2000.0000     88.6516
   664.7500   2000.0000      7.7988 100000.0000   2000.0000     88.3657
   665.0000   2000.0000      7.7815 100000.0000   2000.0000     86.5593
   665.2500   2000.0000      7.7777 100000.0000   2000.0000     85.3194
   665.5000   2000.0000      7.7885 100000.0000   2000.0000     84.7162
   665.7500   2000.0000      7.8101 100000.0000   2000.0000     85.2178
   666.0000   2000.0000      7.8343 100000.0000   2000.0000     86.5345
   666.2500   2000.0000      7.8494 100000.0000   2000.0000     87.3600
   666.5000   2000.0000      7.8412 100000.0000   2000.0000     88.4849
   666.7500   2000.0000      7.7971 100000.0000   2000.0000     89.4030
   667.0000   2000.0000      7.7109 100000.0000   2000.0000     91.0933
   667.2500   2000.0000      7.5890 100000.0000   2000.0000     92.0667
   667.5000   2000.0000      7.4533 100000.0000   2000.0000     92.5473
   667.7500   2000.0000      7.3398 100000.0000   2000.0000     92.1216
   668.0000   2000.0000      7.2905 100000.0000   2000.0000     90.8775
   668.2500   2000.0000      7.3403 100000.0000   2000.0000     90.0236
   668.5000   2000.0000      7.5023 100000.0000   2000.0000     88.7863
   668.7500   2000.0000      7.7540 100000.0000   2000.0000     87.6899
   669.0000   2000.0000      8.0337 100000.0000   2000.0000     85.5485
   669.2500   2000.0000      8.2577 100000.0000   2000.0000     84.4797
   669.5000   2000.0000      8.3610 100000.0000   2000.0000     85.0267
   669.7500   2000.0000      8.3362 100000.0000   2000.0000     86.9833
   670.0000   2000.0000      8.2361 100000.0000   2000.0000     90.7640
   670.2500   2000.0000      8.1463 100000.0000   2000.0000     92.7227
   670.5000   2000.0000      8.1546 100000.0000   2000.0000     94.1153
   670.7500   2000.0000      8.3301 100000.0000   2000.0000     94.3250
   671.0000   2000.0000      8.6998 100000.0000   2000.0000     94.2632
   671.2500   2000.0000      9.2086 100000.0000   2000.0000     94.1258
   671.5000   2000.0000      9.6759 100000.0000   2000.0000     93.8563
   671.7500   2000.0000      9.8338 100000.0000   2000.0000     93.7545
   672.0000   2000.0000      9.5249 100000.0000   2000.0000     93.9476
   672.2500   2000.0000      8.8677 100000.0000   2000.0000     94.3026
   672.5000   2000.0000      8.1356 100000.0000   2000.0000     94.8397
   672.7500   2000.0000      7.5373 100000.0000   2000.0000     94.9224
   673.0000   2000.0000      7.1567 100000.0000   2000.0000     94.4832
   673.2500   2000.0000      7.0080 100000.0000   2000.0000     94.1868
   673.5000   2000.0000      7.1001 100000.0000   2000.0000     95.0792
   673.7500   2000.0000      7.4714 100000.0000   2000.0000     97.1921
   674.0000   2000.0000      8.1825 100000.0000   2000.0000    102.1745
   674.2500   2000.0000      9.2106 100000.0000   2000.0000    105.5799
   674.5000   2000.0000     10.1633 100000.0000   2000.0000    109.0227
   674.7500   2000.0000     10.1346 100000.0000   2000.0000    109.9815
   675.0000   2000.0000      8.7388 100000.0000   2000.0000    110.0020
   675.2500   2000.0000      6.9014 100000.0000   2000.0000    109.2855
   675.5000   2000.0000      5.4970 100000.0000   2000.0000    107.0629
   675.7500   2000.0000      4.6968 100000.0000   2000.0000    105.0717
   676.0000   2000.0000      4.3976 100000.0000   2000.0000    102.7666
   676.2500   2000.0000      4.4948 100000.0000   2000.0000    102.7314
   676.5000   2000.0000      4.9119 100000.0000   2000.0000    105.9142
   676.7500   2000.0000      5.5117 100000.0000   2000.0000    109.8856
   677.0000   2000.0000      5.9348 100000.0000   2000.0000    116.6455
   677.2500   2000.0000      5.6772 100000.0000   2000.0000    120.3414
   677.5000   2000.0000      4.7362 100000.0000   2000.0000    123.5973
   677.7500   2000.0000      3.6938 100000.0000   2000.0000    124.6087
   678.0000   2000.0000      2.9532 100000.0000   2000.0000    125.8082
   678.2500   2000.0000      2.5766 100000.0000   2000.0000    127.0200
   678.5000   2000.0000      2.5305     54.7304   2000.0000    129.6455
   678.7500   2000.0000      2.8299     14.0061   2000.0000    131.7144
   679.0000   2000.0000      3.6101      9.1437   2000.0000    135.0623
   679.2500   2000.0000      5.2640      7.6376   2000.0000    137.4831
   679.5000   2000.0000      8.9684      7.2714   2000.0000    141.0742
   679.7500   2000.0000     20.0222      7.5423   2000.0000    142.8902
   680.0000   2000.0000    182.2184      8.3087   2000.0000    144.0887
   680.2500   2000.0000 100000.0000      9.5526   2000.0000    144.1235
   680.5000   2000.0000 100000.0000     11.3243   2000.0000    144.1274
   680.7500   2000.0000 100000.0000     13.7406   2000.0000    144.5512
   681.0000   2000.0000 100000.0000     16.9901   2000.0000    145.8513
   681.2500   2000.0000 100000.0000     21.2809   2000.0000    146.7974
   681.5000   2000.0000    191.1877     26.5941   2000.0000    147.0974
   681.7500   2000.0000     36.5869     32.1450   2000.0000    145.6924
   682.0000   2000.0000     22.9855     36.0384   2000.0000    140.5980
   682.2500   2000.0000     19.0004     36.4841   2000.0000    135.7942
   682.5000   2000.0000     17.7854     33.7912   2000.0000    128.2972
   682.7500   2000.0000     17.6875     29.8149   2000.0000    123.8760
   683.0000   2000.0000     18.0772     26.0297   2000.0000    118.5608
   683.2500   2000.0000     18.6463     22.9894   2000.0000    116.0102
   683.5000   2000.0000     19.1857     20.7167   2000.0000    113.9176
   683.7500   2000.0000     19.5087     19.0688   2000.0000    113.5982
   684.0000   2000.0000     19.4860     17.8908   2000.0000    114.1944
   684.2500   2000.0000     19.1213     17.0608   2000.0000    115.2564
   684.5000   2000.0000     18.5518     16.4907   2000.0000    118.5269
   684.7500   2000.0000     17.9490     16.1176   2000.0000    121.9662
   685.0000   2000.0000     17.4257     15.8942   2000.0000    127.6433
   685.2500   2000.0000     17.0133     15.7807   2000.0000    130.5526
   685.5000   2000.0000     16.6856     15.7396   2000.0000    132.8369
   685.7500   2000.0000     16.3963     15.7326   2000.0000    133.6035
   686.0000   2000.0000     16.1083     15.7189   2000.0000    135.0423
   686.2500   2000.0000     15.8094     15.6581   2000.0000    136.3158
   686.5000   2000.0000     15.5115     15.5165   2000.0000    137.5548
   686.7500   2000.0000     15.2362     15.2738   2000.0000    137.1816
   687.0000   2000.0000     14.9971     14.9291   2000.0000    134.6650
   687.2500   2000.0000     14.7898     14.5017   2000.0000    132.3061
   687.5000   2000.0000     14.5962     14.0257   2000.0000    128.9664
   687.7500   2000.0000     14.3990     13.5405   2000.0000    127.1364
