~Version Information
 VERS.                                  2.0 : CWLS LAS VERSION
 WRAP.                                   NO : WRAPING MODE
 SWARE .                 MController 2.5.0N : SOFTWARE VERSION
~Well Information
 WELL.                         Mahalo 12-20 : WELL
 COMP.    Pioneer Natural Resources USA Inc : COMPANY
 FLD.                      Purgatoire River : FIELD
 LOC.                  SWNW Sec20 T33S R65W : LOCATION
 DATE.                             02/23/06 : DATE(S) LOGGED
 SRVC.       Blanco Geological Services LLC : SERVICE COMPANY
 STAT.                             Colorado : STATE
 CNTY.                           Las Animas : COUNTY
 CTRY.                                  USA : COUNTRY
 API.                       05-071-08700-00 : API NUMBER
 STRT.FT                             198.00 : START DEPTH
 STOP.FT                            1220.00 : STOP DEPTH
 STEP.FT                               1.00 : DEPTH INCREMENT
 NULL.                                -9999 : NULL VALUE
~Curve information
 DEPTH.FT                                   :
 ROP.MIN/FT                                 :
 GAS.UNITS                                  :
~ASCII Log data
# ...
       798.0         0.27         33.5 
       799.0         0.30         32.5 
       800.0         0.30         33.3 
       801.0         4.82        146.5 
       802.0         0.27         46.8 
       803.0         0.42         38.2 
       804.0         0.37         36.7 
       805.0         0.33         36.6 
       806.0         0.33         35.6 
       807.0         0.47         33.5 
       808.0         0.50         32.2 
       809.0         0.40         31.7 
       810.0         0.33         31.4 
       811.0         0.33         31.6 
       812.0         0.32         31.1 
       813.0         0.30         31.2 
       814.0         0.33         30.7 
       815.0         0.33         30.8 
       816.0         0.33         30.2 
       817.0         0.20         29.9 
       818.0         0.20         28.5 
       819.0         0.20         32.3 
       820.0         0.17         32.1 
       821.0         0.23         32.6 
       822.0         0.33         32.8 
       823.0         0.27         32.3 
       824.0         0.22         32.0 
       825.0         0.27         31.8 
       826.0         0.33         32.5 
       827.0         0.37         32.4 
       828.0         0.30         31.7 
       829.0         0.30         30.6 
       830.0         0.30         30.7 
       831.0         3.45        101.5 
       832.0         0.50         42.1 
       833.0         0.43         38.5 
       834.0         0.42         35.4 
       835.0         0.27         33.2 
       836.0         0.17         32.9 
       837.0         0.23         31.7 
       838.0         0.27         31.7 
       839.0         0.30         31.2 
       840.0         0.30         30.4 
       841.0         0.30         29.9 
       842.0         0.33         30.2 
       843.0         0.27         30.2 
       844.0         0.33         30.1 
       845.0         0.30         29.6 
       846.0         0.28         28.4 
       847.0         0.30         29.3 
       848.0         0.23         28.7 
       849.0         0.27         29.2 
       850.0         0.27         28.7 
       851.0         0.30         29.9 
       852.0         0.27         29.9 
       853.0         0.37         29.9 
       854.0         0.33         29.7 
       855.0         0.37         29.9 
       856.0         0.33         30.0 
       857.0         0.38         30.0 
       858.0         0.27         29.8 
       859.0         0.30         33.6 
       860.0         0.27         31.0 
       861.0         3.25        105.5 
       862.0         0.17         49.6 
       863.0         0.17         47.9 
       864.0         0.17         47.6 
       865.0         0.23         46.2 
       866.0         0.10         43.9 
       867.0         0.13         43.4 
       868.0         0.17         43.8 
       869.0         0.17         47.5 
       870.0         0.17         48.5 
       871.0         0.27         44.9 
       872.0         0.20         42.8 
       873.0         0.20         41.4 
       874.0         0.23         39.1 
       875.0         0.25         38.3 
       876.0         0.20         36.0 
       877.0         0.23         34.5 
       878.0         0.20         33.1 
       879.0         0.17         36.8 
       880.0         0.23         36.8 
       881.0         0.23         38.0 
       882.0         0.30         37.4 
       883.0         0.27         36.3 
       884.0         0.30         35.4 
       885.0         0.27         35.2 
       886.0         0.30         35.3 
       887.0         0.30         34.0 
       888.0         0.35         36.5 
       889.0         0.33         32.8 
       890.0         0.27         33.7 
       891.0         4.08        321.3 
       892.0         0.33         85.4 
       893.0         0.33         84.6 
       894.0         0.33         62.1 
       895.0         0.37         48.7 
       896.0         0.40         44.6 
       897.0         0.45         43.7 
       898.0         0.40         39.3 
       899.0         0.43         35.8 
       900.0         0.37         35.0 
       901.0         0.27         34.1 
       902.0         0.23         36.7 
       903.0         0.23         38.0 
       904.0         0.23         37.8 
       905.0         0.23         40.5 
       906.0         0.27         41.5 
       907.0         0.35         40.5 
       908.0         0.30         37.7 
       909.0         0.30         36.2 
       910.0         0.30         35.6 
       911.0         0.33         35.2 
       912.0         0.30         31.7 
       913.0         0.33         33.6 
       914.0         0.33         32.0 
       915.0         0.33         31.2 
       916.0         0.20         30.3 
       917.0         0.17         34.1 
       918.0         0.20         42.7 
       919.0         0.28         44.5 
       920.0         0.23         44.5 
       921.0         2.98        271.1 
       922.0         0.20         85.8 
       923.0         0.20         94.1 
       924.0         0.33         95.6 
       925.0         0.33         83.0 
       926.0         0.40         59.6 
       927.0         0.37         57.8 
       928.0         0.37         49.8 
       929.0         0.37         44.7 
       930.0         0.37         37.4 
       931.0         0.37         35.8 
       932.0         0.38         35.0 
       933.0         0.23         32.3 
       934.0         0.23         33.0 
       935.0         0.23         33.0 
       936.0         0.27         36.4 
       937.0         0.27         32.5 
       938.0         0.27         33.1 
       939.0         0.23         33.3 
       940.0         0.27         32.9 
       941.0         0.23         33.3 
       942.0         0.17         43.1 
       943.0         0.20         49.9 
       944.0         0.20         50.1 
       945.0         0.25         47.5 
       946.0         0.23         44.9 
       947.0         0.20         42.7 
       948.0         0.23         41.4 
       949.0         0.27         39.1 
       950.0         0.23         38.0 
       951.0         3.72        302.4 
       952.0         0.30        106.3 
       953.0         0.27         93.6 
       954.0         0.30         84.6 
       955.0         0.27         62.1 
       956.0         0.27         58.5 
       957.0         0.27         55.4 
       958.0         0.32         45.5 
       959.0         0.27         39.7 
       960.0         0.23         35.5 
       961.0         0.27         33.1 
       962.0         0.23         32.6 
       963.0         0.20         34.1 
       964.0         0.20         40.4 
       965.0         0.17         40.4 
       966.0         0.20         55.2 
       967.0         0.20         66.6 
       968.0         0.20         75.4 
       969.0         0.23         78.1 
       970.0         0.23         76.0 
       971.0         0.23         69.6 
       972.0         0.20         66.7 
       973.0         0.25         65.3 
       974.0         0.20         65.3 
       975.0         0.20         64.5 
       976.0         0.23         65.3 
       977.0         0.20         65.7 
       978.0         0.23         64.1 
       979.0         0.20         62.2 
       980.0         0.23         62.2 
       981.0         3.72        463.6 
       982.0         0.40         94.6 
       983.0         0.40         94.7 
       984.0         0.33         83.2 
       985.0         0.38         82.1 
       986.0         0.27         74.8 
       987.0         0.30         73.4 
       988.0         0.27         73.0 
       989.0         0.30         79.6 
       990.0         0.23         81.3 
       991.0         0.20         70.3 
       992.0         0.10         68.9 
       993.0         0.13         68.9 
       994.0         0.13         67.5 
       995.0         0.10         67.5 
       996.0         0.10         66.7 
       997.0         0.13         63.1 
