~Version Information
VERS.                      2.0: CWLS Log ASCII Standard - VERSION 2.0
WRAP.                       NO: One line per depth step
~Well Information Block
STRT.FT               673.2000: 
STOP.FT              1510.5000: 
STEP.FT                 0.1000: 
NULL.                -999.2500: 
COMP.          Pioneer Natural Resources: COMPANY
WELL.          Hammerhead 24-24 Tr: WELL
FLD.           Purgatoire River: FIELD
LOC.           953' FSL & 1922' FWL: LOCATION
PROV.                 Colorado: PROVINCE
CNTY.               Las Animas: COUNTRY
SRVC.                Patterson: SERVICE COMPANY
DATE.          Mon Jan 30 07:27:57 2006: LOG DATE
UWI.           05 071 08669 00: UNIQUE WELL ID
~Curve Information Block
DEPT.FT            0 000 00 00: Depth
DCAL.in                       : CDL Caliper
RHOB.g/cc                     : CDL Bulk Density
RHOC.g/cc                     : CDL Density Correction
DPOR.pu                       : CDL Density Porosity
GR.GAPI                       : Gamma Ray
~Parameter Information Block
~A  Depth       DCAL        RHOB        RHOC        DPOR         GR     
# ...
   953.2000      7.8809      2.5593      0.1667      5.4966    133.8626
   953.3000      7.8808      2.5483      0.1693      6.1659    137.0373
   953.4000      7.8808      2.5520      0.1837      5.9377    143.7912
   953.5000      7.8844      2.5621      0.1599      5.3276    146.5173
   953.6000      7.8844      2.5797      0.1469      4.2631    142.0482
   953.7000      7.8844      2.6039      0.2003      2.7958    136.1538
   953.8000      7.8865      2.6215      0.1626      1.7260    136.5935
   953.9000      7.8865      2.6185      0.1670      1.9061    142.7214
   954.0000      7.8864      2.5871      0.1198      3.8134    146.6479
   954.1000      7.8864      2.5418      0.0303      6.5566    144.3909
   954.2000      7.8864      2.5137      0.0103      8.2602    139.3078
   954.3000      7.8862      2.5133     -0.0052      8.2845    139.4257
   954.4000      7.8862      2.5167      0.0290      8.0793    144.3710
   954.5000      7.8870      2.5004      0.0119      9.0652    146.1995
   954.6000      7.8870      2.4794     -0.0078     10.3370    144.8529
   954.7000      7.8870      2.4833     -0.0270     10.1033    145.7984
   954.8000      7.8883      2.5125      0.0483      8.3311    153.6151
   954.9000      7.8883      2.5370      0.0821      6.8514    165.9387
   955.0000      7.8890      2.5361      0.0857      6.9011    172.9783
   955.1000      7.8890      2.5180      0.0421      7.9977    170.5928
   955.2000      7.8890      2.4950      0.0412      9.3913    164.2034
   955.3000      7.8883      2.4734      0.0121     10.7003    158.6274
   955.4000      7.8883      2.4598     -0.0112     11.5261    155.6331
   955.5000      7.8870      2.4560     -0.0333     11.7592    156.3457
   955.6000      7.8870      2.4626     -0.0359     11.3592    157.0040
   955.7000      7.8870      2.4779      0.0051     10.4294    153.0479
   955.8000      7.8861      2.4918     -0.0192      9.5868    145.9127
   955.9000      7.8861      2.4968      0.0108      9.2824    142.5889
   956.0000      7.8862      2.4934      0.0112      9.4931    144.9907
   956.1000      7.8862      2.4863      0.0223      9.9203    148.1645
   956.2000      7.8862      2.4787      0.0634     10.3788    150.9000
   956.3000      7.8871      2.4644      0.0844     11.2455    155.2726
   956.4000      7.8871      2.4419      0.0348     12.6117    160.8684
   956.5000      7.8886      2.4216      0.0207     13.8452    168.8311
   956.6000      7.8886      2.4133     -0.0081     14.3472    174.9625
   956.7000      7.8886      2.4213      0.0077     13.8581    169.2534
   956.8000      7.8894      2.4370      0.0415     12.9063    157.4611
   956.9000      7.8894      2.4457      0.0351     12.3813    152.2150
   957.0000      7.8889      2.4472      0.0306     12.2919    151.0637
   957.1000      7.8889      2.4547      0.0406     11.8347    146.1469
   957.2000      7.8889      2.4791      0.1266     10.3603    137.4902
   957.3000      7.8877      2.5114      0.1457      8.4012    128.5892
   957.4000      7.8877      2.5366      0.1231      6.8735    123.7450
   957.5000      7.8869      2.5534      0.0908      5.8528    124.8592
   957.6000      7.8869      2.5638      0.1006      5.2225    129.1177
   957.7000      7.8869      2.5650      0.0965      5.1530    130.0144
   957.8000      7.8870      2.5576      0.1095      5.6025    122.6260
   957.9000      7.8870      2.5515      0.1018      5.9711    110.7752
   958.0000      7.8871      2.5563      0.0779      5.6815     98.7916
   958.1000      7.8871      2.5652      0.1129      5.1366     86.0179
   958.2000      7.8871      2.5677      0.0912      4.9904     77.3821
   958.3000      7.8866      2.5743      0.0373      4.5889     78.6711
   958.4000      7.8866      2.5982      0.0671      3.1365     85.1651
   958.5000      7.8855      2.6300      0.1000      1.2141     89.4801
   958.6000      7.8855      2.6603      0.1175     -0.6230     91.1359
   958.7000      7.8855      2.6924      0.1311     -2.5709     94.1947
   958.8000      7.8851      2.7187      0.1271     -4.1629     98.5085
   958.9000      7.8851      2.7178      0.1431     -4.1113    100.4406
   959.0000      7.8862      2.6869      0.0895     -2.2355     99.4344
   959.1000      7.8862      2.6482      0.0564      0.1100    101.4725
   959.2000      7.8862      2.6168      0.0570      2.0135    110.3725
   959.3000      7.8874      2.5941      0.0164      3.3883    120.4287
   959.4000      7.8874      2.5782      0.0306      4.3517    123.9399
   959.5000      7.8875      2.5641     -0.0590      5.2041    122.6585
   959.6000      7.8875      2.5541     -0.0207      5.8100    123.0987
   959.7000      7.8875      2.5567     -0.0077      5.6521    126.4286
   959.8000      7.8877      2.5723      0.0301      4.7107    129.4477
   959.9000      7.8877      2.5825      0.0481      4.0887    131.0748
   960.0000      7.8897      2.5664      0.0392      5.0682    135.2094
   960.1000      7.8897      2.5221     -0.0062      7.7528    139.9706
   960.2000      7.8897      2.4734     -0.0405     10.7036    140.0579
   960.3000      7.8908      2.4508     -0.0698     12.0755    136.6688
   960.4000      7.8908      2.4624     -0.0149     11.3671    134.8155
   960.5000      7.8887      2.4926      0.0185      9.5381    136.6629
   960.6000      7.8887      2.5235      0.0324      7.6652    139.3570
   960.7000      7.8887      2.5449      0.0553      6.3696    137.8282
   960.8000      7.8865      2.5532      0.0315      5.8655    133.4882
   960.9000      7.8865      2.5498      0.0765      6.0721    132.1024
   961.0000      7.8851      2.5423      0.0761      6.5254    130.9548
   961.1000      7.8851      2.5414      0.0898      6.5817    127.9528
   961.2000      7.8851      2.5458      0.1155      6.3134    127.3598
   961.3000      7.8833      2.5544      0.1032      5.7962    128.9865
   961.4000      7.8833      2.5752      0.1229      4.5333    130.9307
   961.5000      7.8813      2.6156      0.1128      2.0858    133.3098
   961.6000      7.8813      2.6763      0.1121     -1.5917    132.1704
   961.7000      7.8813      2.7419      0.1735     -5.5681    125.4957
   961.8000      7.8805      2.7896      0.1912     -8.4587    119.6309
   961.9000      7.8805      2.8099      0.1996     -9.6912    120.7489
   962.0000      7.8820      2.8018      0.2228     -9.2025    127.5629
   962.1000      7.8820      2.7598      0.2109     -6.6549    132.0774
   962.2000      7.8820      2.6889      0.1148     -2.3576    132.9880
   962.3000      7.8847      2.6148      0.0141      2.1341    140.3626
   962.4000      7.8847      2.5602     -0.0022      5.4445    152.8885
   962.5000      7.8865      2.5258      0.0340      7.5285    158.2709
   962.6000      7.8865      2.4982      0.0438      9.2015    158.2877
   962.7000      7.8865      2.4719      0.0287     10.7929    159.1739
   962.8000      7.8882      2.4564      0.0331     11.7344    157.9624
   962.9000      7.8882      2.4538      0.0849     11.8926    156.7239
   963.0000      7.8894      2.4514      0.0882     12.0366    160.2221
   963.1000      7.8894      2.4490      0.0556     12.1805    164.7516
   963.2000      7.8894      2.4656      0.0303     11.1784    164.7977
   963.3000      7.8898      2.5057      0.0932      8.7437    161.4695
   963.4000      7.8898      2.5486      0.1771      6.1462    160.7417
   963.5000      7.8897      2.5805      0.1514      4.2119    163.8411
   963.6000      7.8897      2.5992      0.1726      3.0807    166.8754
   963.7000      7.8897      2.5927      0.2168      3.4741    165.6721
   963.8000      7.8884      2.5603      0.1162      5.4334    160.4540
   963.9000      7.8884      2.5249      0.0739      7.5809    155.7115
   964.0000      7.8871      2.5033      0.0863      8.8885    154.9223
   964.1000      7.8871      2.5006     -0.0215      9.0556    156.0377
   964.2000      7.8871      2.5057      0.0288      8.7449    156.2162
   964.3000      7.8876      2.4835      0.0413     10.0879    157.7848
