~Version Information
VERS.                      2.0: CWLS Log ASCII Standard - VERSION 2.0
WRAP.                       NO: One line per depth step
~Well Information Block
STRT.FT               645.0000: 
STOP.FT              2131.0000: 
STEP.FT                 0.1000: 
NULL.                -999.2500: 
COMP.          Pioneer Natural Resources: COMPANY
WELL.          Gunslinger 13-24: WELL
FLD.           Purgatoire River: FIELD
LOC.           1968' FSL & 633' FWL: LOCATION
PROV.                 Colorado: PROVINCE
CNTY.               Las Animas: COUNTRY
SRVC.                Patterson: SERVICE COMPANY
DATE.          Sat Jul 30 08:07:53 2005: LOG DATE
UWI.           05 071 08442 00: UNIQUE WELL ID
~Curve Information Block
DEPT.FT            0 000 00 00: Depth
DCAL.in                       : CDL Caliper
RHOB.g/cc                     : CDL Bulk Density
RHOC.g/cc                     : CDL Density Correction
DPOR.pu                       : CDL Density Porosity
GR.GAPI                       : Gamma Ray
NPOR.pu                       : Neutron Porosity
~Parameter Information Block
~A  Depth       DCAL        RHOB        RHOC        DPOR         GR         NPOR    
# ...
  1432.2000      8.0211      2.4924      0.0078      9.5491     75.5623     19.3632
  1432.3000      8.0179      2.5146      0.0422      8.2057     81.7785     19.5468
  1432.4000      8.0179      2.5401      0.1089      6.6628     86.9999     19.5209
  1432.5000      8.0142      2.5469      0.0438      6.2478     90.7753     19.8471
  1432.6000      8.0142      2.5307      0.0514      7.2292     96.5261     20.4802
  1432.7000      8.0142      2.4975     -0.0075      9.2427    100.1000     20.9944
  1432.8000      8.0260      2.4716     -0.0156     10.8147     97.4826     20.9466
  1432.9000      8.0260      2.4684      0.0247     11.0057     95.7393     20.4134
  1433.0000      8.0209      2.4773      0.0198     10.4676     98.8993     20.3394
  1433.1000      8.0209      2.4846      0.0442     10.0258    102.1861     20.5819
  1433.2000      8.0209      2.4822      0.0284     10.1706    103.6892     19.9881
  1433.3000      8.0284      2.4713      0.0618     10.8324    104.8915     18.6962
  1433.4000      8.0284      2.4616      0.0252     11.4204    107.0980     17.6553
  1433.5000      8.0372      2.4616      0.0554     11.4180    111.6118     16.9622
  1433.6000      8.0372      2.4696      0.0067     10.9304    117.1540     16.4522
  1433.7000      8.0372      2.4818      0.0155     10.1941    120.7925     16.3819
  1433.8000      8.0366      2.4894      0.0514      9.7360    122.5367     16.7020
  1433.9000      8.0366      2.4847      0.0876     10.0173    122.3700     17.3850
  1434.0000      8.0351      2.4826     -0.0047     10.1426    118.3031     18.2745
  1434.1000      8.0351      2.4994      0.0838      9.1272    111.0240     18.7555
  1434.2000      8.0351      2.5185      0.1037      7.9718    104.1889     18.6375
  1434.3000      8.0407      2.5224      0.0957      7.7313     97.9961     18.0930
  1434.4000      8.0407      2.5199      0.0436      7.8875     92.1948     17.8084
  1434.5000      8.0308      2.5123      0.0707      8.3468     88.8084     18.2789
  1434.6000      8.0308      2.4945      0.0209      9.4236     88.2557     18.9475
  1434.7000      8.0308      2.4801      0.0293     10.2995     88.9638     19.2635
  1434.8000      8.0358      2.4789      0.0222     10.3726     89.5038     19.1079
  1434.9000      8.0358      2.4911      0.0053      9.6317     89.5359     18.2684
  1435.0000      8.0381      2.5121      0.0547      8.3551     88.4545     17.0853
  1435.1000      8.0381      2.5274      0.0503      7.4288     83.4420     16.4116
  1435.2000      8.0381      2.5378      0.0520      6.8028     75.7699     16.1851
  1435.3000      8.0225      2.5565      0.0580      5.6647     70.4767     15.7450
  1435.4000      8.0225      2.5848      0.0688      3.9541     68.3647     14.9677
  1435.5000      8.0262      2.6081      0.0978      2.5371     67.9476     14.1634
  1435.6000      8.0262      2.6117      0.0797      2.3231     69.6296     13.6590
  1435.7000      8.0262      2.5986      0.0239      3.1181     73.0912     13.6568
  1435.8000      8.0310      2.5821      0.0551      4.1152     75.4572     13.9575
  1435.9000      8.0310      2.5702      0.0141      4.8383     75.1472     13.9192
  1436.0000      8.0428      2.5658      0.0459      5.1053     75.1266     13.4152
  1436.1000      8.0428      2.5652      0.0507      5.1395     76.5243     13.2041
  1436.2000      8.0428      2.5660      0.0423      5.0886     75.4989     13.6563
  1436.3000      8.0342      2.5653      0.0555      5.1328     70.3648     14.4394
  1436.4000      8.0342      2.5545      0.0447      5.7865     65.4472     15.1161
  1436.5000      8.0508      2.5390     -0.0040      6.7279     66.4823     15.4073
  1436.6000      8.0508      2.5389      0.0314      6.7332     72.3844     15.4184
  1436.7000      8.0508      2.5556      0.0339      5.7239     76.4661     15.2455
  1436.8000      8.0602      2.5607      0.0776      5.4107     77.1280     15.0714
  1436.9000      8.0602      2.5337      0.0723      7.0459     76.5104     15.3941
  1437.0000      8.0611      2.4924      0.0153      9.5519     74.8616     16.0007
  1437.1000      8.0611      2.4620      0.0193     11.3956     75.6759     16.4380
  1437.2000      8.0611      2.4414      0.0141     12.6423     82.5376     16.6555
  1437.3000      8.0607      2.4211     -0.0035     13.8731     92.5942     16.7581
  1437.4000      8.0607      2.4013      0.0255     15.0737     97.7759     16.7671
  1437.5000      8.0600      2.3908     -0.0063     15.7095     95.1302     16.2844
  1437.6000      8.0600      2.4027     -0.0503     14.9855     89.0878     15.7163
  1437.7000      8.0600      2.4396      0.0158     12.7496     82.5560     15.8815
  1437.8000      8.0258      2.4733      0.1156     10.7087     77.3219     16.6244
  1437.9000      8.0258      2.4757      0.0718     10.5662     75.4364     17.1420
  1438.0000      8.0272      2.4631      0.0453     11.3277     77.0879     16.9351
  1438.1000      8.0272      2.4615      0.0775     11.4249     79.9867     16.6030
  1438.2000      8.0272      2.4679      0.0793     11.0357     80.8431     16.6919
  1438.3000      8.0255      2.4659      0.1033     11.1555     81.1772     16.9602
  1438.4000      8.0255      2.4487      0.0085     12.2007     83.0290     17.2313
  1438.5000      8.0230      2.4342     -0.0504     13.0763     82.6109     17.5954
  1438.6000      8.0230      2.4375      0.0288     12.8805     77.1324     17.9260
  1438.7000      8.0230      2.4457      0.0540     12.3801     71.0528     18.1280
  1438.8000      8.0154      2.4482      0.0453     12.2317     69.8900     18.3759
  1438.9000      8.0154      2.4510      0.0326     12.0589     74.6062     18.3717
  1439.0000      8.0014      2.4579      0.0641     11.6394     82.7803     17.8980
  1439.1000      8.0014      2.4625      0.0650     11.3636     92.3617     17.6789
  1439.2000      8.0014      2.4631      0.0378     11.3295    101.3814     18.1021
  1439.3000      8.0031      2.4573      0.0401     11.6788    106.7207     18.7930
  1439.4000      8.0031      2.4425      0.0157     12.5787    107.6825     19.6797
  1439.5000      8.0048      2.4270      0.0074     13.5134    104.6324     20.7060
  1439.6000      8.0048      2.4182      0.0118     14.0466     98.2641     21.1041
  1439.7000      8.0048      2.4160     -0.0007     14.1820     92.2345     20.4571
  1439.8000      8.0003      2.4190     -0.0166     13.9977     87.9719     19.6203
  1439.9000      8.0003      2.4236      0.0250     13.7187     83.4490     19.3935
  1440.0000      7.9984      2.4232      0.0308     13.7476     79.3916     19.5428
  1440.1000      7.9984      2.4180      0.0491     14.0602     78.9518     19.3119
  1440.2000      7.9984      2.4232      0.0293     13.7482     84.4961     18.7120
  1440.3000      7.9958      2.4405      0.0748     12.6993     90.3749     18.4521
  1440.4000      7.9958      2.4452      0.0354     12.4112     88.4448     18.7426
  1440.5000      7.9956      2.4310      0.0172     13.2701     83.2399     19.1911
  1440.6000      7.9956      2.4187     -0.0247     14.0207     81.9911     19.1569
  1440.7000      7.9956      2.4168      0.0054     14.1363     82.8996     18.5680
  1440.8000      8.0024      2.4175      0.0037     14.0937     83.4616     17.9337
  1440.9000      8.0024      2.4183     -0.0073     14.0441     81.6346     17.6443
  1441.0000      8.0000      2.4176      0.0400     14.0838     77.5637     18.1352
  1441.1000      8.0000      2.4140     -0.0165     14.3057     76.7116     19.1519
  1441.2000      8.0000      2.4112      0.0639     14.4731     81.3348     19.6426
  1441.3000      8.0334      2.4073      0.0049     14.7112     87.7832     19.0905
  1441.4000      8.0334      2.4056     -0.0116     14.8146     89.9516     18.2569
  1441.5000      8.0442      2.4164     -0.0067     14.1580     85.8467     18.1011
  1441.6000      8.0442      2.4418      0.0157     12.6191     81.4387     18.6104
  1441.7000      8.0442      2.4692      0.0709     10.9560     81.3989     19.2033
