~Version Information
VERS.                      2.0: CWLS Log ASCII Standard - VERSION 2.0
WRAP.                       NO: One line per depth step
~Well Information Block
STRT.FT                 0.0000: 
STOP.FT              1193.0000: 
STEP.FT                 0.1000: 
NULL.                -999.2500: 
COMP.          Pioneer Natural Resources: COMPANY
WELL.          Big Pine 32-15 Tr: WELL
FLD.           Purgatorie River: FIELD
LOC.           2546' FNL & 1451' FEL: LOCATION
STAT.                 Colorado: State
CNTY.               Las Animas: COUNTY
CTRY. USA : Country
SECT. 15 : Section
TOWN. 33S : Township
RANG. 67W : Range
SRVC.                Patterson: SERVICE COMPANY
DATE.          Tue Nov 08 07:11:35 2005: LOG DATE
API. 05-071-08604                         : UNIQUE WELL ID
~Curve Information Block
DEPT.FT            0 000 00 00: Depth
DCAL.in                       : CDL Caliper
RHOB.g/cc                     : CDL Bulk Density
RHOC.g/cc                     : CDL Density Correction
DPOR.pu                       : CDL Density Porosity
GR.GAPI                       : Gamma Ray
NPOR.pu                       : Neutron Porosity
~Parameter Information Block
~A  Depth       DCAL        RHOB        RHOC        DPOR         GR         NPOR    
# ...
    86.4000     -2.8029      2.9208      2.0000      0.0054    169.6573     27.1472
    86.5000     -2.8029      2.9464      2.0000      0.0059    165.0514     27.0210
    86.6000     -2.8029      2.9275      2.0000      0.0056    159.0916     27.2323
    86.7000     -2.8029      2.9179      2.0000      0.0054    152.7460     27.4207
    86.8000     -2.8029      2.9495      2.0000      0.0060    153.5096     27.2640
    86.9000     -2.8029      2.9670      2.0000      0.0063    162.5359     26.9848
    87.0000     -2.8029      2.9389      2.0000      0.0058    171.0122     26.9666
    87.1000     -2.8029      2.9252      2.0000      0.0055    174.0121     27.2099
    87.2000     -2.8029      2.9777      2.0000      0.0066    174.2055     27.3199
    87.3000     -2.8029      3.0367      2.0000      0.0077    173.7459     27.1107
    87.4000     -2.8029      3.0335      2.0000      0.0077    174.4257     26.8744
    87.5000     -2.8029      3.0040      2.0000      0.0071    177.0789     26.9441
    87.6000     -2.8029      2.9943      2.0000      0.0069    179.0085     27.2240
    87.7000     -2.8029      3.0286      2.0000      0.0076    179.5544     27.2526
    87.8000     -2.8029      3.1329      2.0000      0.0097    180.2401     26.7475
    87.9000     -2.8029      3.2785      2.0000      0.0126    180.8864     26.1584
    88.0000     -2.8029      3.4100      2.0000      0.0152    181.2095     25.9909
    88.1000     -2.8029      3.5014      2.0000      0.0170    182.0212     26.0684
    88.2000     -2.8029      3.5423      2.0000      0.0179    183.9082     26.1714
    88.3000     -2.8029      3.5128      2.0000      0.0173    185.1430     26.3672
    88.4000     -2.8029      3.4122      2.0000      0.0153    182.8333     26.6440
    88.5000     -2.8029      3.2973      2.0000      0.0130    176.8690     26.7819
    88.6000     -2.8029      3.2173      2.0000      0.0114    171.0797     26.5445
    88.7000     -2.8029      3.1621      2.0000      0.0102    170.5512     26.2083
    88.8000     -2.8029      3.1020      2.0000      0.0090    174.5839     26.1966
    88.9000     -2.8029      3.0444      2.0000      0.0079    178.1482     26.3947
    89.0000     -2.8029      3.0060      2.0000      0.0071    179.0457     26.5242
    89.1000     -2.8029      2.9812      2.0000      0.0066    178.5544     26.5470
    89.2000     -2.8029      2.9782      2.0000      0.0066    176.6647     26.5039
    89.3000     -2.8029      3.0079      2.0000      0.0072    171.5320     26.4561
    89.4000     -2.8029      3.0484      2.0000      0.0080    165.4604     26.4107
    89.5000     -2.8029      3.0719      2.0000      0.0084    162.6736     26.3909
    89.6000     -2.8029      3.0769      2.0000      0.0085    162.7046     26.4751
    89.7000     -2.8029      3.0762      2.0000      0.0085    164.9303     26.3741
    89.8000     -2.8029      3.0726      2.0000      0.0085    171.8676     25.9149
    89.9000     -2.8029      3.0854      2.0000      0.0087    180.9442     25.5769
    90.0000     -2.8029      3.1442      2.0000      0.0099    182.6382     25.9326
    90.1000     -2.8029      3.2211      2.0000      0.0114    176.5160     26.7686
    90.2000     -2.8029      3.2652      2.0000      0.0123    173.3316     27.2986
    90.3000     -2.8029      3.2799      2.0000      0.0126    176.0921     27.3694
    90.4000     -2.8029      3.2856      2.0000      0.0127    177.5343     27.5126
    90.5000     -2.8029      3.2744      2.0000      0.0125    174.0064     27.9084
    90.6000     -2.8029      3.2510      2.0000      0.0120    168.8014     28.1569
    90.7000     -2.8029      3.2324      2.0000      0.0117    164.9637     28.0086
    90.8000     -2.8029      3.2207      2.0000      0.0114    164.6783     27.6158
    90.9000     -2.8029      3.2162      2.0000      0.0113    168.9248     27.0988
    91.0000     -2.8029      3.2227      2.0000      0.0115    173.6268     26.6063
    91.1000     -2.8029      3.2318      2.0000      0.0116    175.2104     26.2920
    91.2000     -2.8029      3.2283      2.0000      0.0116    175.0475     26.2388
    91.3000     -2.8029      3.2040      2.0000      0.0111    174.9934     26.5030
    91.4000     -2.8029      3.1792      2.0000      0.0106    175.6380     26.9111
    91.5000     -2.8029      3.1786      2.0000      0.0106    177.3335     27.0894
    91.6000     -2.8029      3.2026      2.0000      0.0111    179.3395     26.8887
    91.7000     -2.8029      3.2387      2.0000      0.0118    180.7192     26.4215
    91.8000     -2.8029      3.2834      2.0000      0.0127    180.6019     25.7667
    91.9000     -2.8029      3.3504      2.0000      0.0140    178.7779     25.2179
    92.0000     -2.8029      3.4252      2.0000      0.0155    175.6129     25.0247
    92.1000     -2.8029      3.4671      2.0000      0.0164    173.1688     25.0312
    92.2000     -2.8029      3.4488      2.0000      0.0160    172.3434     24.9301
    92.3000     -2.8029      3.3667      2.0000      0.0143    171.0351     24.7671
    92.4000     -2.8029      3.2632      2.0000      0.0123    169.5717     24.6692
    92.5000     -2.8029      3.2106      2.0000      0.0112    168.7358     24.5149
    92.6000     -2.8029      3.2174      2.0000      0.0114    167.4621     24.2569
    92.7000     -2.8029      3.2251      2.0000      0.0115    165.2816     24.1749
    92.8000     -2.8029      3.2146      2.0000      0.0113    162.1675     24.4385
    92.9000     -2.8029      3.2205      2.0000      0.0114    160.9541     24.6440
    93.0000     -2.8029      3.2634      2.0000      0.0123    165.1768     24.4526
    93.1000     -2.8029      3.3255      2.0000      0.0135    171.6125     23.9655
    93.2000     -2.8029      3.3638      2.0000      0.0143    175.6580     23.6642
    93.3000     -2.8029      3.3620      2.0000      0.0142    177.1490     23.9522
    93.4000     -2.8029      3.3746      2.0000      0.0145    175.8831     24.6028
    93.5000     -2.8029      3.4353      2.0000      0.0157    171.9725     25.1496
    93.6000     -2.8029      3.4834      2.0000      0.0167    168.8271     25.4875
    93.7000     -2.8029      3.4876      2.0000      0.0168    169.3736     25.7265
    93.8000     -2.8029      3.4870      2.0000      0.0167    172.4883     25.8508
    93.9000     -2.8029      3.4734      2.0000      0.0165    174.7874     25.7863
    94.0000     -2.8029      3.4156      2.0000      0.0153    174.9854     25.5731
    94.1000     -2.8029      3.3478      2.0000      0.0140    174.0748     25.4514
    94.2000     -2.8029      3.3356      2.0000      0.0137    174.1346     25.5726
    94.3000     -2.8029      3.3885      2.0000      0.0148    176.1048     25.9302
    94.4000     -2.8029      3.4275      2.0000      0.0156    180.0339     26.4663
    94.5000     -2.8029      3.3835      2.0000      0.0147    185.3466     26.8682
    94.6000     -2.8029      3.2998      2.0000      0.0130    187.4290     26.7919
    94.7000     -2.8029      3.2696      2.0000      0.0124    183.9841     26.3938
    94.8000     -2.8029      3.3116      2.0000      0.0132    178.4283     26.1585
    94.9000     -2.8029      3.3782      2.0000      0.0146    171.6876     26.0662
    95.0000     -2.8029      3.4652      2.0000      0.0163    164.9823     25.8316
    95.1000     -2.8029      3.5858      2.0000      0.0187    164.9081     25.7387
    95.2000     -2.8029      3.6961      2.0000      0.0209    172.5320     26.0171
    95.3000     -2.8029      3.7421      2.0000      0.0219    180.4063     26.3794
    95.4000     -2.8029      3.7182      2.0000      0.0214    182.1008     26.6913
    95.5000     -2.8029      3.6533      2.0000      0.0201    179.0377     26.9073
    95.6000     -2.8029      3.6099      2.0000      0.0192    176.8424     26.7278
    95.7000     -2.8029      3.6237      2.0000      0.0195    176.4395     26.2113
    95.8000     -2.8029      3.6400      2.0000      0.0198    176.3065     25.7720
    95.9000     -2.8029      3.6117      2.0000      0.0192    175.2920     25.6383
