~Version Information
VERS.                      2.0: CWLS Log ASCII Standard - VERSION 2.0
WRAP.                       NO: One line per depth step
~Well Information Block
STRT.FT               245.0000: 
STOP.FT              1217.7000: 
STEP.FT                 0.1000: 
NULL.                -999.2500: 
COMP.          Pioneer Natural Resources: COMPANY
WELL.          Lucky Lady 42-29: WELL
FLD.           Purgatoire River: FIELD
LOC.           2482' FNL & 662' FEL--: LOCATION
CNTY.               Las Animas: COUNTY
SRVC.                Patterson: SERVICE COMPANY
DATE.          Thu Mar 09 18:39:54 2006: LOG DATE
UWI.           05 071 08659 00: UNIQUE WELL ID
STAT.                 Colorado: STATE
~Curve Information Block
DEPT.FT            0 000 00 00: Depth
DCAL.in                       : CDL Caliper
RHOB.g/cc                     : CDL Bulk Density
RHOC.g/cc                     : CDL Density Correction
DPOR.pu                       : CDL Density Porosity
NPOR.pu                       : Neutron Porosity
GR.GAPI                       : Gamma Ray
~Parameter Information Block
~A  Depth       DCAL        RHOB        RHOC        DPOR        NPOR         GR     
# ...
   561.8000      7.9221      2.5736      0.0686      4.6325     19.3230    122.9507
   561.9000      7.9221      2.5581      0.0615      5.5698     20.0366    123.9725
   562.0000      7.9251      2.5372      0.0164      6.8389     21.2454    125.0903
   562.1000      7.9251      2.5379     -0.0156      6.7920     22.5426    123.1881
   562.2000      7.9251      2.5646      0.0285      5.1754     23.4839    119.1396
   562.3000      7.9175      2.5892      0.0584      3.6819     23.9575    119.3175
   562.4000      7.9175      2.5988      0.0731      3.1049     24.2729    123.3812
   562.5000      7.9057      2.5977      0.0568      3.1706     24.8387    124.8212
   562.6000      7.9057      2.5879      0.0490      3.7620     25.6117    121.4484
   562.7000      7.9057      2.5748      0.0022      4.5561     26.3792    114.9395
   562.8000      7.8985      2.5683      0.0111      4.9541     26.9903    108.9949
   562.9000      7.8985      2.5703      0.0384      4.8325     27.2110    107.1137
   563.0000      7.8936      2.5782      0.0395      4.3509     26.9969    107.8164
   563.1000      7.8936      2.5911      0.0595      3.5679     26.5381    108.6721
   563.2000      7.8936      2.6002      0.1003      3.0152     26.1614    110.6019
   563.3000      7.8919      2.5929      0.0893      3.4581     26.1636    113.4957
   563.4000      7.8919      2.5710      0.0588      4.7852     26.4399    115.7735
   563.5000      7.8968      2.5474      0.0240      6.2177     26.5763    117.6858
   563.6000      7.8968      2.5306     -0.0030      7.2382     26.4411    122.2296
   563.7000      7.8968      2.5193     -0.0045      7.9228     26.2054    130.3192
   563.8000      7.9008      2.5125      0.0032      8.3337     25.9705    138.4119
   563.9000      7.9008      2.5098      0.0017      8.4962     25.8651    143.2815
   564.0000      7.9017      2.5060     -0.0019      8.7267     26.0337    144.2539
   564.1000      7.9017      2.5036      0.0257      8.8749     26.2876    142.0035
   564.2000      7.9017      2.5095      0.0500      8.5135     26.4056    139.7774
   564.3000      7.9018      2.5151      0.0542      8.1788     26.4731    142.3393
   564.4000      7.9018      2.5154      0.0289      8.1582     26.4990    148.5687
   564.5000      7.9003      2.5293      0.0365      7.3158     26.3456    153.1893
   564.6000      7.9003      2.5681      0.0656      4.9624     25.9243    156.1998
   564.7000      7.9003      2.6177      0.1011      1.9571     25.2714    159.6023
   564.8000      7.8968      2.6559      0.0925     -0.3556     24.6385    159.7883
   564.9000      7.8968      2.6661      0.0956     -0.9771     24.3485    154.4148
   565.0000      7.8902      2.6481      0.0854      0.1154     24.4805    148.3862
   565.1000      7.8902      2.6167      0.0812      2.0190     24.9328    146.5174
   565.2000      7.8902      2.5911      0.0372      3.5717     25.4321    146.7121
   565.3000      7.8832      2.5838      0.0085      4.0093     25.6608    146.0728
   565.4000      7.8832      2.5890     -0.0202      3.6960     25.7249    146.7478
   565.5000      7.8841      2.5924     -0.0293      3.4900     25.8648    148.6247
   565.6000      7.8841      2.5817     -0.0309      4.1399     25.9548    148.9333
   565.7000      7.8841      2.5577     -0.0962      5.5916     25.8212    147.3214
   565.8000      7.8920      2.5440     -0.0500      6.4258     25.4867    145.1568
   565.9000      7.8920      2.5527      0.0217      5.8975     25.0230    145.5915
   566.0000      7.8991      2.5645      0.0703      5.1837     24.5577    148.9599
   566.1000      7.8991      2.5539      0.0915      5.8261     24.2262    152.6184
   566.2000      7.8991      2.5161      0.0651      8.1136     23.9398    155.4765
   566.3000      7.9068      2.4715      0.0076     10.8165     23.3866    156.8908
   566.4000      7.9068      2.4429      0.0270     12.5487     22.3166    155.2559
   566.5000      7.9170      2.4294      0.0090     13.3722     21.1958    154.1985
   566.6000      7.9170      2.4196     -0.0136     13.9628     20.6848    158.4138
   566.7000      7.9170      2.4104      0.0148     14.5231     20.4193    162.7872
   566.8000      7.9240      2.4044      0.0427     14.8837     20.0045    161.7509
   566.9000      7.9240      2.4087      0.0478     14.6259     19.6835    159.3936
   567.0000      7.9260      2.4280      0.0836     13.4527     19.3953    157.3348
   567.1000      7.9260      2.4687      0.0587     10.9850     18.9141    149.6234
   567.2000      7.9260      2.5291      0.1414      7.3293     18.4049    139.7558
   567.3000      7.9262      2.5784      0.1792      4.3406     18.1898    137.3898
   567.4000      7.9262      2.5906      0.2130      3.5976     18.2132    139.2091
   567.5000      7.9257      2.5759      0.1859      4.4934     18.3302    138.0615
   567.6000      7.9257      2.5628      0.1015      5.2825     18.7322    134.4360
   567.7000      7.9257      2.5746      0.0991      4.5702     19.3947    130.5052
   567.8000      7.9199      2.6058      0.1648      2.6783     19.9269    127.6267
   567.9000      7.9199      2.6272      0.1812      1.3840     20.1098    126.0631
   568.0000      7.9033      2.6229      0.1188      1.6428     20.0968    124.1337
   568.1000      7.9033      2.6081      0.0590      2.5413     20.2611    122.9873
   568.2000      7.9033      2.6045      0.0611      2.7590     20.7978    123.9064
   568.3000      7.8859      2.6124      0.0908      2.2769     21.3827    122.9596
   568.4000      7.8859      2.6112      0.1466      2.3519     21.7715    116.4725
   568.5000      7.8833      2.5902      0.0947      3.6268     22.1428    106.8372
   568.6000      7.8833      2.5674      0.0762      5.0035     22.5781     99.6558
   568.7000      7.8833      2.5627      0.0480      5.2903     23.1148     94.7565
   568.8000      7.8915      2.5855      0.0062      3.9093     23.7547     90.5877
   568.9000      7.8915      2.6342      0.0517      0.9555     24.2117     90.3575
   569.0000      7.8992      2.6770      0.1316     -1.6380     24.1049     94.4550
   569.1000      7.8992      2.6797      0.0873     -1.7978     23.5248     98.4841
   569.2000      7.8992      2.6510      0.0486     -0.0629     23.1409     98.8310
   569.3000      7.9019      2.6190      0.0339      1.8786     23.2609     95.3839
   569.4000      7.9019      2.5971      0.0320      3.2073     23.6306     91.9689
   569.5000      7.9015      2.5891      0.0258      3.6923     24.2541     91.2718
   569.6000      7.9015      2.5850      0.0647      3.9364     25.2705     92.1339
   569.7000      7.9015      2.5708      0.0348      4.8014     26.1714     91.9426
   569.8000      7.8956      2.5468      0.0045      6.2536     26.3907     91.5587
   569.9000      7.8956      2.5189      0.0025      7.9484     25.9442     93.8110
   570.0000      7.8826      2.5012     -0.0310      9.0184     25.2790     97.9546
   570.1000      7.8826      2.5060      0.0191      8.7271     25.0648    102.1942
   570.2000      7.8826      2.5197      0.0321      7.8980     25.3414    107.3229
   570.3000      7.8716      2.5267      0.0385      7.4710     25.6001    112.2259
   570.4000      7.8716      2.5356      0.0120      6.9340     25.6884    114.2570
   570.5000      7.8652      2.5564      0.0728      5.6755     25.8158    115.0003
   570.6000      7.8652      2.5784      0.0613      4.3423     26.1177    118.5893
   570.7000      7.8652      2.5898      0.0717      3.6514     26.4028    126.1569
   570.8000      7.8715      2.5898      0.0679      3.6480     26.2494    132.7560
   570.9000      7.8715      2.5808      0.0378      4.1947     25.9267    135.5047
   571.0000      7.8897      2.5624      0.0776      5.3066     26.0715    138.8192
   571.1000      7.8897      2.5373      0.0348      6.8327     26.4060    143.8116
   571.2000      7.8897      2.5196      0.0020      7.9009     26.2385    145.4666
   571.3000      7.9009      2.5213     -0.0010      7.8020     25.4801    145.0095
