~Version Information
VERS.                      2.0: CWLS Log ASCII Standard - VERSION 2.0
WRAP.                       NO: One line per depth step
~Well Information Block
STRT.FT               555.0000: 
STOP.FT              1158.0000: 
STEP.FT                 0.1000: 
NULL.                -999.2500: 
COMP.          Pioneer Natural Resources: COMPANY
WELL.              Draco 31-21: WELL
FLD.           Purgatoire River: FIELD
LOC.           491' FNL & 2446' FEL: LOCATION
CNTY.               Las Animas: COUNTY
SRVC.                Patterson: SERVICE COMPANY
DATE.          Wed Feb 01 07:01:32 2006: LOG DATE
UWI.           05 071 08672 00: UNIQUE WELL ID
STAT.                 Colorado: STATE
~Curve Information Block
DEPT.FT            0 000 00 00: Depth
DCAL.in                       : CDL Caliper
RHOB.g/cc                     : CDL Bulk Density
RHOC.g/cc                     : CDL Density Correction
DPOR.pu                       : CDL Density Porosity
GR.GAPI                       : Gamma Ray
NPOR.pu                       : Neutron Porosity
~Parameter Information Block
~A  Depth       DCAL        RHOB        RHOC        DPOR         GR         NPOR    
# ...
   871.8000      7.8505      2.5128      0.0338      8.3128     87.0469     29.4402
   871.9000      7.8505      2.5216      0.0691      7.7810     81.1307     28.0160
   872.0000      7.8510      2.5194      0.0485      7.9179     82.2355     27.1012
   872.1000      7.8510      2.5076      0.0427      8.6286     88.5394     27.3567
   872.2000      7.8510      2.4876      0.0636      9.8431     96.1271     28.2673
   872.3000      7.8499      2.4720      0.0204     10.7890    100.8849     28.9050
   872.4000      7.8499      2.4706      0.0614     10.8731    103.1301     29.0611
   872.5000      7.8479      2.4715      0.0645     10.8158    106.7779     29.1914
   872.6000      7.8479      2.4678      0.0463     11.0406    112.8462     29.2169
   872.7000      7.8479      2.4640      0.0745     11.2710    119.1921     28.9373
   872.8000      7.8502      2.4601      0.0387     11.5101    119.3895     28.8916
   872.9000      7.8502      2.4545      0.0422     11.8461    109.8859     28.9559
   873.0000      7.8518      2.4477      0.0326     12.2621    101.8952     28.6485
   873.1000      7.8518      2.4430      0.0112     12.5433    102.5134     28.1446
   873.2000      7.8518      2.4508     -0.0189     12.0735    103.3032     27.9437
   873.3000      7.8511      2.4748      0.0275     10.6179     99.3567     28.2417
   873.4000      7.8511      2.5002      0.0640      9.0772     98.9651     28.4350
   873.5000      7.8498      2.5129      0.0471      8.3074    108.6555     28.0717
   873.6000      7.8498      2.5140      0.0647      8.2441    122.3855     27.8826
   873.7000      7.8498      2.5109      0.0397      8.4275    128.2540     28.3826
   873.8000      7.8495      2.5103      0.0389      8.4696    122.3032     29.0707
   873.9000      7.8495      2.5124      0.0533      8.3405    110.8463     29.3364
   874.0000      7.8514      2.5165      0.0610      8.0908    102.1432     29.1607
   874.1000      7.8514      2.5246      0.0457      7.5982    102.7609     29.0585
   874.2000      7.8514      2.5331      0.0899      7.0859    109.3566     29.4616
   874.3000      7.8520      2.5344      0.0671      7.0084    109.3406     30.0059
   874.4000      7.8520      2.5239      0.1022      7.6436    101.2802     29.8833
   874.5000      7.8522      2.5050      0.0520      8.7864     98.0967     29.0882
   874.6000      7.8522      2.4912      0.0607      9.6215    104.3682     28.2961
   874.7000      7.8522      2.4866      0.0424      9.9008    109.6865     27.8955
   874.8000      7.8509      2.4839      0.0217     10.0643    108.9764     27.7912
   874.9000      7.8509      2.4810      0.0435     10.2440    108.9827     27.6598
   875.0000      7.8505      2.4840      0.0517     10.0617    112.0876     27.3250
   875.1000      7.8505      2.4941      0.0655      9.4474    113.3488     27.0360
   875.2000      7.8505      2.4941      0.0766      9.4492    111.3742     27.2257
   875.3000      7.8506      2.4674      0.0498     11.0683    108.9232     27.7809
   875.4000      7.8506      2.4287      0.0161     13.4098    107.0978     28.4353
   875.5000      7.8518      2.4096     -0.0029     14.5716    105.7662     29.1134
   875.6000      7.8518      2.4153      0.0429     14.2258    104.9329     29.1875
   875.7000      7.8518      2.4163      0.0752     14.1612    104.3649     28.7042
   875.8000      7.8493      2.3811      0.0755     16.2941    104.8587     28.7807
   875.9000      7.8493      2.3104      0.0319     20.5827    104.5934     29.2500
   876.0000      7.8500      2.2246     -0.0001     25.7845    101.2455     29.3574
   876.1000      7.8500      2.1307     -0.0027     31.4697     98.2572     29.5672
   876.2000      7.8500      2.0331     -0.0435     37.3849     96.8627     30.5453
   876.3000      7.8517      1.9493     -0.0638     42.4662     96.3432     31.8683
   876.4000      7.8517      1.8808     -0.0013     46.6158     97.7982     32.5432
   876.5000      7.8565      1.8157     -0.0757     50.5652     94.9840     32.2501
   876.6000      7.8565      1.7614     -0.0548     53.8546     84.6824     31.6411
   876.7000      7.8565      1.7283     -0.0348     55.8630     74.3780     31.4882
   876.8000      7.8568      1.7165      0.0119     56.5753     69.8935     31.9020
   876.9000      7.8568      1.7219      0.0744     56.2488     70.2498     32.6406
   877.0000      7.8605      1.7408      0.0772     55.1004     73.1051     33.2789
   877.1000      7.8605      1.7782      0.0678     52.8364     74.8593     33.2676
   877.2000      7.8605      1.8335      0.1045     49.4872     71.6596     32.5729
   877.3000      7.8675      1.8994      0.0950     45.4897     66.7929     31.7079
   877.4000      7.8675      1.9800      0.0849     40.6059     66.4839     31.2017
   877.5000      7.8631      2.0758      0.1484     34.7974     71.0003     31.0729
   877.6000      7.8631      2.1751      0.1679     28.7803     75.8590     30.6794
   877.7000      7.8631      2.2738      0.1778     22.8021     77.4354     29.9464
   877.8000      7.8572      2.3694      0.1597     17.0058     75.0689     29.3286
   877.9000      7.8572      2.4469      0.1583     12.3114     73.6463     29.0046
   878.0000      7.8547      2.4949      0.0989      9.3995     77.6575     28.9753
   878.1000      7.8547      2.5227      0.0753      7.7152     84.4886     29.1225
   878.2000      7.8547      2.5398      0.1015      6.6793     91.9251     29.1626
   878.3000      7.8522      2.5468      0.0851      6.2570     99.8309     28.8682
   878.4000      7.8522      2.5443      0.0805      6.4057    103.5134     28.5976
   878.5000      7.8491      2.5284      0.0884      7.3708     98.7971     28.6283
   878.6000      7.8491      2.4981      0.0555      9.2031     89.1596     28.6901
   878.7000      7.8491      2.4652      0.0032     11.1994     83.6964     28.6469
   878.8000      7.8530      2.4410     -0.0204     12.6668     86.0080     28.4104
   878.9000      7.8530      2.4278     -0.0145     13.4641     87.2830     27.8259
   879.0000      7.8559      2.4244     -0.0271     13.6749     81.0593     27.2819
   879.1000      7.8559      2.4294     -0.0054     13.3683     76.1970     27.1164
   879.2000      7.8559      2.4436     -0.0153     12.5093     80.7883     27.1664
   879.3000      7.8525      2.4687      0.0346     10.9900     88.2083     27.4341
   879.4000      7.8525      2.4955      0.0835      9.3620     89.5881     27.8022
   879.5000      7.8518      2.5078      0.1177      8.6186     87.2943     27.7836
   879.6000      7.8518      2.4997      0.0757      9.1090     90.5021     27.3959
   879.7000      7.8518      2.4802      0.0346     10.2884     98.6721     27.4004
   879.8000      7.8524      2.4617      0.0259     11.4119    102.7342     28.2105
   879.9000      7.8524      2.4474      0.0279     12.2792    100.3978     29.2183
   880.0000      7.8505      2.4383     -0.0030     12.8328     99.4071     29.6549
   880.1000      7.8505      2.4390      0.0214     12.7885    103.7910     29.4239
   880.2000      7.8505      2.4449      0.0186     12.4332    106.9094     28.8765
   880.3000      7.8512      2.4453      0.0284     12.4036    106.2243     28.5856
   880.4000      7.8512      2.4433      0.0178     12.5287    102.7066     28.5009
   880.5000      7.8501      2.4478      0.0308     12.2543     95.6900     28.2460
   880.6000      7.8501      2.4599      0.0634     11.5187     90.0337     28.0660
   880.7000      7.8501      2.4761      0.0625     10.5376     90.9584     28.2461
   880.8000      7.8520      2.4912      0.0735      9.6243     95.8970     28.7120
   880.9000      7.8520      2.4998      0.0672      9.1050    100.1510     29.3957
   881.0000      7.8534      2.5041      0.0494      8.8451    104.4967     30.1111
   881.1000      7.8534      2.5085      0.0680      8.5769    108.8849     30.3824
   881.2000      7.8534      2.5079      0.0772      8.6093    110.2174     29.9365
   881.3000      7.8510      2.4985      0.0444      9.1846    109.2844     29.0316
