~Version Information
VERS.                      2.0: CWLS Log ASCII Standard - VERSION 2.0
WRAP.                       NO: One line per depth step
~Well Information Block
STRT.FT               555.0000: 
STOP.FT              2286.5000: 
STEP.FT                 0.1000: 
NULL.                -999.2500: 
COMP.          Pioneer Natural Resources: COMPANY
WELL.          Roadster 41-33 Kv: WELL
FLD.           Purgatoire River: FIELD
LOC.           903' FNL & 248' FEL: LOCATION
PROV.                 Colorado: PROVINCE
CNTY.               Las Animas: COUNTRY
SRVC.                Patterson: SERVICE COMPANY
DATE.          Thu Dec 15 10:28:25 2005: LOG DATE
UWI.           05 071 08615 00: UNIQUE WELL ID
~Curve Information Block
DEPT.FT            0 000 00 00: Depth
DCAL.in                       : CDL Caliper
RHOB.g/cc                     : CDL Bulk Density
RHOC.g/cc                     : CDL Density Correction
DPOR.pu                       : CDL Density Porosity
GR.GAPI                       : Gamma Ray
NPOR.pu                       : Neutron Porosity
~Parameter Information Block
~A  Depth       DCAL        RHOB        RHOC        DPOR         GR         NPOR    
# ...
  1697.4000      8.0760      2.6721      0.0796     -1.3407    113.1375     26.0313
  1697.5000      8.0691      2.6710      0.1026     -1.2698    111.5193     26.1655
  1697.6000      8.0691      2.6674      0.1163     -1.0533    114.5731     25.4429
  1697.7000      8.0691      2.6506      0.1114     -0.0360    116.4300     24.3943
  1697.8000      8.0559      2.6286      0.0576      1.2970    113.7697     23.3038
  1697.9000      8.0559      2.6192      0.0790      1.8666    108.9976     22.6027
  1698.0000      8.0963      2.6207      0.0709      1.7730    104.4657     22.4758
  1698.1000      8.0963      2.6197      0.0600      1.8350    104.5959     22.6878
  1698.2000      8.0963      2.6112      0.0468      2.3502    107.7882     22.5985
  1698.3000      8.1006      2.5998     -0.0093      3.0414    105.8955     22.0385
  1698.4000      8.1006      2.5966      0.0258      3.2379     99.9091     21.6202
  1698.5000      8.0933      2.6098      0.0535      2.4338     97.4324     21.2381
  1698.6000      8.0933      2.6340      0.0464      0.9684    100.6487     20.5995
  1698.7000      8.0933      2.6487      0.0895      0.0766    105.4288     19.9086
  1698.8000      8.0868      2.6418      0.0682      0.4947    107.7822     19.2986
  1698.9000      8.0868      2.6289      0.0640      1.2810    105.8811     18.7661
  1699.0000      8.0387      2.6268      0.0698      1.4054     99.0317     18.5268
  1699.1000      8.0387      2.6305      0.0835      1.1841     89.5284     18.7685
  1699.2000      8.0387      2.6335      0.0866      0.9978     82.8680     19.2923
  1699.3000      8.0248      2.6369      0.1229      0.7946     82.4250     19.7780
  1699.4000      8.0248      2.6363      0.0883      0.8328     85.6307     20.0246
  1699.5000      8.0415      2.6313      0.0670      1.1306     87.2033     20.0161
  1699.6000      8.0415      2.6233      0.0907      1.6179     85.8822     20.0448
  1699.7000      8.0415      2.6087      0.0161      2.5024     84.4918     20.3995
  1699.8000      8.0593      2.5945      0.0249      3.3609     83.9964     21.1394
  1699.9000      8.0593      2.5905     -0.0041      3.6041     81.8887     21.7648
  1700.0000      8.0911      2.5971      0.0106      3.2083     77.3233     21.7862
  1700.1000      8.0911      2.6142      0.0040      2.1693     70.7342     21.6674
  1700.2000      8.0911      2.6391      0.0203      0.6615     63.7180     21.2209
  1700.3000      8.0834      2.6584      0.0362     -0.5068     61.3784     19.3881
  1700.4000      8.0834      2.6650      0.0318     -0.9105     65.7608     17.0483
  1700.5000      8.0759      2.6614      0.0628     -0.6933     71.5605     16.1399
  1700.6000      8.0759      2.6490      0.0380      0.0623     75.5857     16.8028
  1700.7000      8.0759      2.6349      0.0162      0.9173     80.2080     17.9322
  1700.8000      8.1036      2.6258      0.0118      1.4688     85.3692     18.8304
  1700.9000      8.1036      2.6164      0.0284      2.0335     87.1383     19.6033
  1701.0000      8.1018      2.6070      0.0124      2.6088     87.1226     20.3700
  1701.1000      8.1018      2.6070      0.0083      2.6078     89.1584     20.9673
  1701.2000      8.1018      2.6191      0.0093      1.8748     88.7573     21.3713
  1701.3000      8.0936      2.6304      0.0732      1.1855     84.4246     21.6543
  1701.4000      8.0936      2.6252      0.0189      1.5051     82.0285     21.5151
  1701.5000      8.0936      2.6093      0.0148      2.4640     84.5134     20.2978
  1701.6000      8.0936      2.5982      0.0492      3.1390     89.7911     18.6746
  1701.7000      8.0936      2.5915      0.0503      3.5458     93.1452     18.1656
  1701.8000      8.0691      2.5814      0.0462      4.1570     90.2263     19.0084
  1701.9000      8.0691      2.5648      0.0099      5.1607     85.4473     20.5024
  1702.0000      8.0828      2.5478     -0.0168      6.1919     87.8969     21.6367
  1702.1000      8.0828      2.5404     -0.0161      6.6403     97.5643     21.6829
  1702.2000      8.0828      2.5429      0.0227      6.4909    106.6891     20.7986
  1702.3000      8.0833      2.5512     -0.0025      5.9869    109.8171     19.5566
  1702.4000      8.0833      2.5729      0.0089      4.6728    106.6953     18.7388
  1702.5000      8.0695      2.6077      0.0433      2.5628    100.0853     18.5805
  1702.6000      8.0695      2.6334      0.0391      1.0046     94.4837     18.4931
  1702.7000      8.0695      2.6400      0.0371      0.6034     92.5026     18.5880
  1702.8000      8.0628      2.6414      0.0631      0.5209     93.1063     19.5045
  1702.9000      8.0628      2.6416      0.0514      0.5113     93.0447     20.5579
  1703.0000      8.0616      2.6364      0.0563      0.8269     90.9718     20.9148
  1703.1000      8.0616      2.6320      0.0418      1.0922     90.8074     20.6690
  1703.2000      8.0616      2.6372      0.0525      0.7776     95.3587     20.2846
  1703.3000      8.0642      2.6497      0.0272      0.0173    102.2793     20.1619
  1703.4000      8.0642      2.6500      0.0955      0.0021    106.0752     20.2998
  1703.5000      8.0849      2.6191      0.0593      1.8702    103.4488     20.7560
  1703.6000      8.0849      2.5723     -0.0087      4.7117     99.0509     21.3724
  1703.7000      8.0849      2.5434     -0.0364      6.4625     97.8943     21.6507
  1703.8000      8.0842      2.5408      0.0119      6.6188     98.3855     21.7811
  1703.9000      8.0842      2.5387      0.0286      6.7431     99.2660     22.4133
  1704.0000      8.1169      2.5116      0.0059      8.3870    101.5537     23.4166
  1704.1000      8.1169      2.4640     -0.0305     11.2747    105.1877     23.7209
  1704.2000      8.1169      2.4173      0.0012     14.1029    108.9372     23.0015
  1704.3000      8.1121      2.3852     -0.0300     16.0503    111.5241     22.3567
  1704.4000      8.1121      2.3684      0.0146     17.0642    113.0092     22.8288
  1704.5000      8.1070      2.3584     -0.0012     17.6736    115.8027     24.0009
  1704.6000      8.1070      2.3532      0.0379     17.9849    121.6504     24.6269
  1704.7000      8.1070      2.3590      0.0494     17.6340    128.9282     24.5877
  1704.8000      8.2007      2.3717      0.1162     16.8638    133.4725     24.9102
  1704.9000      8.2007      2.3719      0.0995     16.8545    134.0047     26.0513
  1705.0000      8.2695      2.3529      0.0415     18.0070    133.6049     27.5877
  1705.1000      8.2695      2.3405     -0.0046     18.7571    138.2235     28.6799
  1705.2000      8.2695      2.3555      0.0493     17.8472    148.7583     28.4415
  1705.3000      8.4498      2.3766      0.1217     16.5692    156.5596     27.0517
  1705.4000      8.4498      2.3745      0.1470     16.6940    157.4474     26.1440
  1705.5000      8.3365      2.3552      0.1299     17.8688    154.0686     26.7545
  1705.6000      8.3365      2.3446      0.1349     18.5114    149.0301     27.8819
  1705.7000      8.3365      2.3566      0.1509     17.7802    143.1074     28.1833
  1705.8000      8.2832      2.3821      0.1819     16.2378    136.8824     27.8035
  1705.9000      8.2832      2.4049      0.2033     14.8549    134.8532     27.5258
  1706.0000      8.2186      2.4238      0.1805     13.7118    138.5909     27.4344
  1706.1000      8.2186      2.4457      0.2080     12.3809    143.2724     27.2911
  1706.2000      8.2186      2.4642      0.2117     11.2583    143.9658     27.3187
  1706.3000      8.1592      2.4640      0.2493     11.2711    137.4823     27.7131
  1706.4000      8.1592      2.4461      0.1814     12.3585    129.3026     28.0760
  1706.5000      8.2025      2.4259      0.1676     13.5816    128.7117     28.5844
  1706.6000      8.2025      2.4085      0.1245     14.6361    131.2876     29.3712
  1706.7000      8.2025      2.3929      0.1385     15.5802    132.0713     28.9318
  1706.8000      8.2567      2.3759      0.1385     16.6138    137.3524     27.3517
  1706.9000      8.2567      2.3494      0.1371     18.2152    145.9872     26.7369
