~Version Information
VERS.                      2.0: CWLS Log ASCII Standard - VERSION 2.0
WRAP.                       NO: One line per depth step
~Well Information Block
STRT.FT                -7.5000: 
STOP.FT              1310.7500: 
STEP.FT                 0.2500: 
NULL.                -999.2500: 
COMP.          Pioneer Natural Resources: COMPANY
WELL.          Challenger 31-29: WELL
FLD.           Purgatorie River: FIELD
LOC.           51' FNL & 1923' FEL------: LOCATION
STAT.                       CO: State
CNTY.               Las Animas: COUNTY
CTRY. USA : Country
SECT. 29 : Section
TOWN. 33S : Township
RANG. 65W : Range
SRVC.          Patterson Wireline: SERVICE COMPANY
DATE.          Wed Sep 21 12:11:38 2005: LOG DATE
API.           05 071 08514 00: UNIQUE WELL ID
~Curve Information Block
DEPT.FT            0 000 00 00: Depth
CCL.                          : Casing Collar Locator
TT3.usec                      : CBL 3' Travel Time
AMP3.mV                       : CBL 3' Amplitude
GR.GAPI                       : Gamma Ray
~Parameter Information Block
~A  Depth       CCL         TT3         AMP3         GR     
# ...
   160.0000      0.0000    921.9782     13.9871     74.8668
   160.2500      0.0000    917.3334     13.4837     77.0228
   160.5000      0.0000    911.0524     12.8672     78.9149
   160.7500      0.0000    891.3295     12.2261     79.2789
   161.0000      0.0000    869.4896     11.6463     78.2877
   161.2500      0.0000    867.2568     11.1610     77.4344
   161.5000      0.0000    893.3796     10.7794     77.8690
   161.7500      0.0000    935.5446     10.5267     78.8077
   162.0000      0.0000    972.6078     10.4163     78.2244
   162.2500      0.0000    991.8845     10.4174     75.2189
   162.5000     -2.0000    992.2509     10.5006     71.1164
   162.7500      0.0000    972.0007     10.7215     68.1847
   163.0000      0.0000    921.7779     11.2398     67.8283
   163.2500      0.0000    836.3914     12.1976     69.8564
   163.5000      0.0000    730.8291     13.4993     72.7131
   163.7500      0.0000    637.0464     14.7272     74.3726
   164.0000      0.0000    582.6909     15.4017     73.7818
   164.2500      0.0000    575.9790     15.3839     71.7446
   164.5000      0.0000    609.3705     14.9537     70.1783
   164.7500      0.0000    668.7453     14.4912     70.4520
   165.0000      0.0000    735.7154     14.1769     72.5072
   165.2500      0.0000    790.7158     13.9857     75.3145
   165.5000      0.0000    823.1053     13.8361     77.8716
   165.7500      0.0000    838.0607     13.6810     79.8237
   166.0000      0.0000    850.5705     13.5104     81.3696
   166.2500      0.0000    872.4318     13.3356     82.8674
   166.5000      0.0000    904.7370     13.1872     84.7558
   166.7500      0.0000    941.0731     13.1094     87.5075
   167.0000      0.0000    975.0296     13.1388     91.0898
   167.2500      0.0000   1003.2982     13.2808     94.5889
   167.5000      0.0000   1023.4954     13.5125     96.6829
   167.7500      0.0000   1032.6279     13.8053     96.3783
   168.0000      0.0000   1028.9211     14.1371     93.4155
   168.2500      0.0000   1013.4924     14.4832     88.4447
   168.5000      0.0000    989.7321     14.8122     82.8236
   168.7500      0.0000    962.7021     15.1036     77.9620
   169.0000      0.0000    938.5765     15.3693     74.8012
   169.2500      0.0000    920.6880     15.6494     73.6431
   169.5000      0.0000    903.7509     15.9815     73.9323
   169.7500      0.0000    874.9441     16.3730     74.2962
   170.0000      0.0000    824.6089     16.7997     73.3313
   170.2500      0.0000    756.2205     17.2288     70.4374
   170.5000      0.0000    685.2681     17.6355     65.8237
   170.7500      0.0000    630.2624     17.9953     60.0607
   171.0000      0.0000    604.6161     18.2786     53.8781
   171.2500      0.0000    609.5024     18.4735     48.0138
   171.5000      0.0000    627.6912     18.6133     42.8683
   171.7500      0.0000    629.5188     18.7615     38.4382
   172.0000      0.0000    594.6545     18.9588     34.6316
   172.2500      0.0000    529.4447     19.1887     31.4643
   172.5000      0.0000    459.4213     19.3989     29.0497
   172.7500      0.0000    405.8852     19.5521     27.6203
   173.0000      0.0000    372.4691     19.6549     27.3650
   173.2500      0.0000    351.2733     19.7414     28.0425
   173.5000      0.0000    335.1227     19.8374     28.9483
   173.7500      0.0000    322.2767     19.9414     29.4024
   174.0000      0.0000    313.5616     20.0382     29.0593
   174.2500      0.0000    309.0854     20.1213     27.7668
   174.5000      0.0000    307.9799     20.1980     25.6161
   174.7500      0.0000    309.5279     20.2737     23.3410
   175.0000      0.0000    313.5406     20.3364     22.1716
   175.2500      0.0000    319.6014     20.3638     22.8545
   175.5000      0.0000    326.3122     20.3464     24.9989
   175.7500      0.0000    331.5412     20.3019     27.5517
   176.0000      0.0000    333.4500     20.2640     29.5796
   176.2500      0.0000    331.3634     20.2621     30.4517
   176.5000      0.0000    326.0129     20.3106     29.7876
   176.7500      0.0000    319.2212     20.4045     27.8341
   177.0000      0.0000    313.0480     20.5192     25.8559
   177.2500      0.0000    308.7661     20.6237     25.5875
   177.5000      0.0000    306.4594     20.7043     27.8838
   177.7500      0.0000    305.4815     20.7750     32.0529
   178.0000      0.0000    305.1423     20.8581     36.7087
   178.2500      0.0000    305.0327     20.9574     41.0862
   178.5000      0.0000    304.9916     21.0519     45.2997
   178.7500      0.0000    304.9809     21.1152     49.4514
   179.0000      0.0000    305.0119     21.1369     52.7773
   179.2500      0.0000    305.2004     21.1284     53.8834
   179.5000      0.0000    305.9322     21.1095     51.9153
   179.7500      0.0000    308.3237     21.0881     47.4042
   180.0000      0.0000    314.8637     21.0537     42.0691
   180.2500      0.0000    329.6846     20.9932     38.1482
   180.5000      0.0000    357.4460     20.9034     37.8334
   180.7500      0.0000    399.8701     20.7800     42.5382
   181.0000      0.0000    452.3289     20.6020     52.0643
   181.2500      0.0000    505.4792     20.3424     64.4347
   181.5000      0.0000    552.1461     19.9917     76.6170
   181.7500      0.0000    590.8665     19.5579     85.6488
   182.0000      0.0000    622.0818     19.0484     89.8210
   182.2500      0.0000    645.0881     18.4630     89.4735
   182.5000      0.0000    660.4430     17.8053     86.6665
   182.7500      0.0000    671.0579     17.0967     83.7937
   183.0000      0.0000    678.6973     16.3793     82.3028
   183.2500      0.0000    682.1345     15.7028     82.3518
   183.5000      0.0000    680.2102     15.1054     83.1647
   183.7500      0.0000    675.0391     14.5978     83.6270
   184.0000      0.0000    671.2426     14.1657     82.9867
   184.2500      0.0000    673.1666     13.7868     81.3000
   184.5000      0.0000    683.0994     13.4481     79.2775
   184.7500      0.0000    700.8502     13.1521     77.8303
   185.0000      0.0000    724.1231     12.9094     77.8414
   185.2500      0.0000    749.7418     12.7264     80.0559
   185.5000      0.0000    775.7906     12.5965     84.7082
   185.7500      0.0000    802.5626     12.5072     91.0545
   186.0000      0.0000    830.6346     12.4599     97.2487
   186.2500      0.0000    858.1021     12.4821    100.9633
   186.5000      0.0000    880.9279     12.6055    100.8105
   186.7500      0.0000    896.2474     12.8265     97.4937
   187.0000      0.0000    904.6127     13.0961     93.2144
   187.2500      0.0000    909.2558     13.3540     89.7217
   187.5000      0.0000    914.3766     13.5714     87.2399
   187.7500      0.0000    924.1340     13.7585     85.3114
   188.0000      0.0000    941.2420     13.9351     84.1012
   188.2500      0.0000    964.3285     14.1062     84.4827
   188.5000      0.0000    986.1883     14.2681     86.9715
   188.7500      0.0000    996.6221     14.4300     90.7718
   189.0000      0.0000    988.7486     14.6212     94.1655
   189.2500      0.0000    963.9030     14.8655     96.0932
   189.5000      0.0000    932.5454     15.1423     97.0012
   189.7500      0.0000    911.1688     15.3791     97.7061
   190.0000      0.0000    913.1226     15.5004     97.8328
   190.2500      0.0000    936.4143     15.4921     96.0128
   190.5000      0.0000    962.7552     15.4104     91.4681
   190.7500      0.0000    973.8607     15.3323     85.0613
   191.0000      0.0000    966.5964     15.3062     78.9978
   191.2500      0.0000    948.4424     15.3399     75.6234
   191.5000      0.0000    921.6404     15.4178     76.0372
   191.7500      0.0000    878.0467     15.5221     79.3879
   192.0000      0.0000    812.1512     15.6400     83.4759
   192.2500      0.0000    737.5279     15.7472     86.2332
   192.5000      0.0000    685.8591     15.7976     86.9055
   192.7500      0.0000    684.4880     15.7490     85.8759
   193.0000      0.0000    733.0672     15.6024     83.3458
   193.2500      0.0000    804.2664     15.4058     78.6908
