~Version Information
VERS.                      2.0: CWLS Log ASCII Standard - VERSION 2.0
WRAP.                       NO: One line per depth step
~Well Information Block
STRT.FT               880.0000: 
STOP.FT              1995.0000: 
STEP.FT                 0.2500: 
NULL.                -999.2500: 
COMP.          Petrogulf Corporation: COMPANY
WELL.          Collister 17-31R: WELL
FLD.           Purgatorie River: FIELD
LOC.           962' FNL & 1520' FEL: LOCATION
PROV.                 Colorado: PROVINCE
CNTY.               Las Animas: COUNTRY
SRVC.                Patterson: SERVICE COMPANY
DATE.          Mon Sep 26 09:32:26 2005: LOG DATE
UWI.                          : UNIQUE WELL ID
~Curve Information Block
DEPT.FT            0 000 00 00: Depth
SP.mV                         : DIL Spontaneous Potential
RILD.Ohm-m                    : DIL Deep Resistivity
RILM.Ohm-m                    : DIL Medium Resistivity
RLL3.Ohm-m                    : DIL Shallow Resistivity
GR.GAPI                       : Gamma Ray
~Parameter Information Block
~A  Depth        SP         RILD        RILM        RLL3         GR     
# ...
  1692.0000    291.2672     13.6255     13.0063     12.2685    135.5239
  1692.2500    291.0780     14.3457     13.6365     12.4697    148.7549
  1692.5000    290.8156     14.8162     14.7655     15.3791    152.9781
  1692.7500    290.5523     14.9902     15.5963     19.9015    156.4351
  1693.0000    290.4337     15.1945     16.1817     24.6715    166.4754
  1693.2500    290.4250     15.3825     16.3319     26.3726    156.4978
  1693.5000    290.5428     15.6615     16.3687     21.2869    134.8761
  1693.7500    290.4521     15.8576     16.3262     16.6016    110.1998
  1694.0000    290.1125     16.1564     16.8858     15.5107    111.5445
  1694.2500    289.5468     16.2829     17.8610     18.5886    127.9729
  1694.5000    288.9760     16.8601     18.4627     25.5529    111.6386
  1694.7500    288.4940     17.4119     19.7678     30.5324    124.0090
  1695.0000    288.2435     18.2609     21.1357     28.2860     93.8494
  1695.2500    288.0566     18.7187     21.6795     27.0446     84.6591
  1695.5000    287.7223     19.1837     21.5589     27.7989    101.5830
  1695.7500    287.4981     19.4622     21.9238     27.5993     99.5915
  1696.0000    287.3270     20.1157     22.8324     26.8923     94.8511
  1696.2500    287.2093     20.9228     23.2522     26.7416     88.6124
  1696.5000    287.0727     21.1730     24.3350     25.1878     87.6203
  1696.7500    286.7992     20.7586     25.4318     22.6754     83.2397
  1697.0000    286.4999     20.5739     25.9976     21.9566     84.1017
  1697.2500    286.1375     19.5251     26.3269     25.7096    101.7526
  1697.5000    286.1461     18.5698     27.0592     32.0274     96.5049
  1697.7500    286.6932     17.2869     25.8692     36.7955     96.0984
  1698.0000    287.6324     16.4390     23.5587     34.5005    102.2544
  1698.2500    288.8099     15.4100     21.1917     29.9416    120.1117
  1698.5000    289.9116     14.6037     18.3948     23.0117     88.4818
  1698.7500    290.8194     13.8879     16.1778     16.5482     89.7869
  1699.0000    291.2954     12.8414     14.2896     14.0122     87.8237
  1699.2500    291.5129     12.2571     12.7427     13.2094    101.0882
  1699.5000    291.5731     11.7124     11.6134     12.5583    138.0333
  1699.7500    291.6545     11.4412     10.5657     11.6885    162.0109
  1700.0000    291.7491     11.1814      9.7146     10.0459    141.1293
  1700.2500    291.6933     10.6561      9.1476      8.5789    147.2526
  1700.5000    291.5712     10.4848      8.8243      8.6876    176.1618
  1700.7500    291.2591     10.2993      8.7249      9.4980    184.0249
  1701.0000    290.8588     10.1137      8.7486     10.2987    186.9119
  1701.2500    290.3926     10.1814      8.7908     10.5443    196.3791
  1701.5000    290.2176     10.3558      8.9754     10.9329    178.7558
  1701.7500    290.0641     10.4461      9.1528     11.7166    150.6717
  1702.0000    290.0307     10.6053      9.4526     11.6256    159.3182
  1702.2500    290.0596     10.9117      9.9744     11.3717    142.9600
  1702.5000    289.9032     11.3310     10.6566     12.3166    134.2408
  1702.7500    289.6677     11.9071     11.4919     16.4626    146.1819
  1703.0000    289.4230     12.5826     12.4972     23.0246    141.5037
  1703.2500    288.9549     13.2400     13.6611     26.6500    149.8122
  1703.5000    288.3946     13.9850     14.7281     24.5639    137.1221
  1703.7500    287.5611     14.7518     15.9715     24.1822    112.9477
  1704.0000    286.5262     15.6040     17.0313     27.2043     94.8022
  1704.2500    285.5424     16.4907     17.9452     27.6865     78.1922
  1704.5000    284.4647     17.4503     19.3826     25.2273     90.9528
  1704.7500    283.1887     18.6031     20.4733     23.4575     77.2704
  1705.0000    281.9212     19.6628     21.8704     23.8926     71.5303
  1705.2500    280.5610     19.8949     22.9256     24.5164     58.4995
  1705.5000    279.3403     20.6877     23.9666     25.0597     67.6193
  1705.7500    278.4305     20.8752     25.3000     26.0409     67.5415
  1706.0000    277.5666     20.8563     25.4892     26.0104     66.9297
  1706.2500    276.7733     20.9890     25.6288     26.3142     76.9170
  1706.5000    276.2120     20.4730     25.7728     27.2057     63.9234
  1706.7500    275.8921     20.0450     25.5934     28.5513     56.5356
  1707.0000    275.8614     19.4470     24.7922     31.0795     64.8232
  1707.2500    275.9604     19.0884     23.7227     33.3571     67.2139
  1707.5000    276.0935     18.8543     22.2629     32.1970     55.9146
  1707.7500    276.2858     18.4809     20.4220     27.1182     62.8648
  1708.0000    276.5509     18.3423     19.0738     20.1026     61.0619
  1708.2500    276.9165     18.1688     17.9955     15.9346     64.0493
  1708.5000    277.1228     18.2122     17.1869     15.9563     85.8040
  1708.7500    277.1852     18.2452     16.7794     15.9651     82.4743
  1709.0000    277.2124     17.9930     16.5703     14.1191    107.6748
  1709.2500    277.0804     17.9159     16.6908     13.6003    129.7986
  1709.5000    276.7944     17.7729     16.9639     15.6725    143.9693
  1709.7500    276.7024     17.3766     17.2037     19.6462    131.3929
  1710.0000    276.5950     17.6363     17.4975     21.0785    140.1566
  1710.2500    276.5013     17.7727     17.8060     20.4040    132.9984
  1710.5000    276.2992     17.8218     18.0540     19.4208    114.4724
  1710.7500    276.1125     18.2577     18.3581     19.7454    116.7452
  1711.0000    276.0658     18.4456     19.0280     21.7278    103.0877
  1711.2500    276.1674     18.8313     19.7245     24.6819     95.3429
  1711.5000    276.4169     19.1952     20.8649     26.8440     96.8631
  1711.7500    276.7657     19.9285     21.7831     27.4387     95.1414
  1712.0000    277.1928     20.1108     22.7365     26.9557     78.2248
  1712.2500    277.5652     20.3436     23.2362     26.6230     81.4821
  1712.5000    278.0472     20.1293     23.4694     27.0346     80.8207
  1712.7500    278.6917     19.5363     24.1554     28.3962     53.2961
  1713.0000    279.3956     19.2988     23.3438     30.5284     52.9173
  1713.2500    280.1147     19.4108     22.6359     31.9182     58.0681
  1713.5000    280.7399     19.5534     21.3050     29.9948     64.9075
  1713.7500    281.5867     19.6156     20.3812     24.2287     62.9856
  1714.0000    282.0845     19.1228     19.3771     17.2778     76.2724
  1714.2500    282.2285     19.5246     18.9585     14.0831     84.5900
  1714.5000    281.9799     19.6016     18.6905     15.7017     91.2624
  1714.7500    281.5972     19.5783     18.8255     18.4148    100.6319
  1715.0000    281.2227     19.4845     19.1373     19.5859    106.1968
  1715.2500    281.0421     19.2736     19.3821     20.0551    101.8903
  1715.5000    280.8617     18.8967     19.8973     20.4758     91.7341
  1715.7500    280.8474     18.9049     19.9479     20.5003     85.0086
  1716.0000    280.8595     18.4052     20.3844     20.7234     59.2149
  1716.2500    280.8980     18.4392     20.8475     22.1133     68.2033
  1716.5000    280.9736     18.7016     20.9417     24.4931     65.2141
  1716.7500    281.0514     18.9210     21.1999     26.7393     57.7547
  1717.0000    281.2224     19.0109     21.7022     26.5461     59.1572
  1717.2500    281.4581     19.2368     21.4267     23.7031     61.8914
  1717.5000    281.5811     19.2129     21.2439     21.4259     72.4010
  1717.7500    281.4088     19.4739     20.8120     20.7309     67.5532
  1718.0000    281.0291     19.4548     20.5578     19.9090     77.8202
  1718.2500    280.6973     19.1875     20.3020     19.2008     76.7667
  1718.5000    280.4675     19.0880     20.2828     19.1279     56.9150
  1718.7500    280.1496     19.1492     19.9177     19.2356     47.6958
  1719.0000    279.8115     18.6647     19.4777     19.4504     49.2506
  1719.2500    279.5153     18.6394     19.6851     19.2637     57.1976
  1719.5000    279.1173     18.1344     19.1505     19.0769     47.5496
  1719.7500    278.6311     17.7060     18.9106     19.2551     51.7017
