~Version Information
VERS.                      2.0: CWLS Log ASCII Standard - VERSION 2.0
WRAP.                       NO: One line per depth step
~Well Information Block
STRT.FT                -6.5000: 
STOP.FT              1564.2500: 
STEP.FT                 0.2500: 
NULL.                -999.2500: 
COMP.          Pioneer Natural Resources: COMPANY
WELL.            Bluesky 44-17: WELL
FLD.           Purgatorie River: FIELD
LOC.           --39' FSL & 288' FEL------: LOCATION
STAT.                       CO: State
CNTY.               Las Animas: COUNTY
CTRY. USA : Country
SECT. 17 : Section
TOWN. 33S : Township
RANG. 66W : Range
SRVC.          Patterson Wireline: SERVICE COMPANY
DATE.          Tue Sep 13 13:24:14 2005: LOG DATE
API.           05 071 08511 00: UNIQUE WELL ID
~Curve Information Block
DEPT.FT            0 000 00 00: Depth
CCL.                          : Casing Collar Locator
TT3.usec                      : CBL 3' Travel Time
AMP3.mV                       : CBL 3' Amplitude
GR.GAPI                       : Gamma Ray
~Parameter Information Block
~A  Depth       CCL         TT3         AMP3         GR     
# ...
  1233.0000      0.0000    778.6517      9.6724    122.8090
  1233.2500      0.0000    783.5124      9.4468    120.0283
  1233.5000      0.0000    784.4348      9.2014    115.7912
  1233.7500      0.0000    781.9204      8.9893    110.5894
  1234.0000      0.0000    776.5066      8.8485    105.4920
  1234.2500      0.0000    768.0999      8.7889    101.6763
  1234.5000      0.0000    756.9725      8.7985     99.5218
  1234.7500      0.0000    745.2330      8.8593     98.5731
  1235.0000      0.0000    736.2630      8.9541     98.2942
  1235.2500      0.0000    732.3883      9.0585     98.3351
  1235.5000      0.0000    733.8612      9.1358     98.2703
  1235.7500      0.0000    740.0532      9.1467     97.9957
  1236.0000      0.0000    750.1660      9.0694     98.5213
  1236.2500      0.0000    762.3514      8.9171    101.3835
  1236.5000      0.0000    773.5995      8.7371    106.6408
  1236.7500      0.0000    781.5145      8.5863    111.9720
  1237.0000      0.0000    785.7600      8.4986    114.3778
  1237.2500      0.0000    787.5209      8.4739    112.7117
  1237.5000      0.0000    788.1019      8.4933    108.2932
  1237.7500      0.0000    788.1248      8.5382    103.1956
  1238.0000      0.0000    787.3951      8.5974     98.3993
  1238.2500      0.0000    784.8280      8.6627     93.8664
  1238.5000      0.0000    778.5773      8.7245     89.7988
  1238.7500      0.0000    766.9856      8.7737     86.9254
  1239.0000      0.0000    750.1171      8.8081     85.5552
  1239.2500      0.0000    730.3239      8.8371     85.0669
  1239.5000      0.0000    711.0772      8.8762     84.4762
  1239.7500      0.0000    695.4572      8.9333     83.1180
  1240.0000      0.0000    685.7783      8.9979     80.9240
  1240.2500      0.0000    683.5596      9.0466     78.4941
  1240.5000      0.0000    688.6935      9.0617     76.8245
  1240.7500      0.0000    698.3980      9.0429     76.4978
  1241.0000      0.0000    707.6129      9.0004     76.9418
  1241.2500      0.0000    711.3528      8.9413     76.8002
  1241.5000      0.0000    707.5093      8.8647     75.2781
  1241.7500      0.0000    697.9958      8.7687     72.8534
  1242.0000      0.0000    687.3838      8.6593     70.3269
  1242.2500      0.0000    679.8882      8.5513     67.5191
  1242.5000      0.0000    676.9202      8.4599     63.5668
  1242.7500      0.0000    676.8976      8.3929     58.4548
  1243.0000      0.0000    677.0922      8.3467     53.5672
  1243.2500      0.0000    675.8253      8.3095     50.5104
  1243.5000      0.0000    673.3044      8.2641     49.8078
  1243.7500      0.0000    670.7151      8.1966     50.9638
  1244.0000      0.0000    668.9227      8.1076     53.3200
  1244.2500      0.0000    668.0410      8.0171     56.3443
  1244.5000      0.0000    667.7987      7.9526     59.3414
  1244.7500      0.0000    667.8914      7.9289     61.4635
  1245.0000      0.0000    668.0739      7.9394     62.2012
  1245.2500      0.0000    668.1672      7.9670     61.7004
  1245.5000      0.0000    668.0928      7.9988     60.4574
  1245.7500      0.0000    667.8846      8.0302     58.7561
  1246.0000      0.0000    667.6509      8.0589     56.5203
  1246.2500      0.0000    667.4987      8.0805     53.7363
  1246.5000      0.0000    667.4719      8.0914     50.8462
  1246.7500      0.0000    667.5295      8.0942     48.5469
  1247.0000      0.0000    667.5823      8.0978     47.2360
  1247.2500      0.0000    667.5721      8.1113     46.9696
  1247.5000      0.0000    667.5623      8.1407     48.1190
  1247.7500      0.0000    667.8000      8.1880     51.5701
  1248.0000      0.0000    668.7443      8.2502     57.6707
  1248.2500      0.0000    670.9728      8.3207     65.2573
  1248.5000      0.0000    674.8712      8.3930     72.4308
  1248.7500      0.0000    680.2790      8.4627     78.2595
  1249.0000      0.0000    686.5125      8.5258     83.1188
  1249.2500      0.0000    692.7628      8.5758     87.4576
  1249.5000      0.0000    698.3474      8.6052     91.0240
  1249.7500      0.0000    702.7046      8.6109     93.4993
  1250.0000      0.0000    705.5319      8.5985     95.1849
  1250.2500      0.0000    707.0066      8.5803     96.5911
  1250.5000      0.0000    707.6642      8.5681     97.6881
  1250.7500      0.0000    708.0163      8.5693     98.0007
  1251.0000      0.0000    708.3286      8.5878     97.3066
  1251.2500      0.0000    708.6619      8.6247     95.8827
  1251.5000      0.0000    708.9885      8.6772     94.1108
  1251.7500      0.0000    709.2286      8.7414     92.2484
  1252.0000      0.0000    709.2422      8.8164     90.6143
  1252.2500      0.0000    708.6219      8.9040     89.6606
  1252.5000      0.0000    706.2680      9.0029     89.7740
  1252.7500      0.0000    699.9578      9.1038     91.1385
  1253.0000      0.0000    687.1564      9.1956     93.7759
  1253.2500      0.0000    668.1866      9.2767     97.4930
  1253.5000      0.0000    649.3416      9.3583    101.5213
  1253.7500      0.0000    640.4116      9.4573    104.3383
  1254.0000      0.0000    646.5342      9.5828    104.4715
  1254.2500      0.0000    663.5419      9.7311    101.8602
  1254.5000      0.0000    682.6087      9.8904     98.1758
  1254.7500      0.0000    697.3295     10.0510     95.5709
  1255.0000      0.0000    705.2668     10.2093     95.3047
  1255.2500      0.0000    705.9531     10.3606     97.3769
  1255.5000      0.0000    700.3301     10.4910    100.8191
  1255.7500      0.0000    691.2051     10.5796    104.2096
  1256.0000      0.0000    682.1650     10.6113    106.4409
  1256.2500      0.0000    675.5078     10.5836    107.2774
  1256.5000      0.0000    671.5612     10.5030    107.1199
  1256.7500      0.0000    669.7140     10.3782    106.3079
  1257.0000      0.0000    669.8032     10.2191    104.8842
  1257.2500      0.0000    672.6874     10.0387    103.0311
  1257.5000      0.0000    679.7520      9.8542    101.4719
  1257.7500      0.0000    691.5461      9.6835    101.1158
  1258.0000      0.0000    706.4321      9.5368    102.2766
  1258.2500      0.0000    720.6805      9.4117    104.3338
  1258.5000      0.0000    730.3504      9.2976    106.1857
  1258.7500      0.0000    733.4561      9.1842    107.0424
  1259.0000      0.0000    730.7526      9.0688    106.7278
  1259.2500      0.0000    724.9030      8.9548    105.3714
  1259.5000      0.0000    718.8486      8.8457    103.2819
  1259.7500      0.0000    714.4176      8.7413    101.1084
  1260.0000      0.0000    711.9401      8.6393     99.4303
  1260.2500      0.0000    710.8320      8.5386     98.0544
  1260.5000      0.0000    710.3778      8.4412     96.3216
  1260.7500      0.0000    710.0690      8.3505     94.2367
  1261.0000      0.0000    709.5028      8.2718     92.8797
  1261.2500      0.0000    708.1472      8.2133     93.4253
  1261.5000      0.0000    705.2911      8.1830     95.8745
  1261.7500      0.0000    700.4320      8.1861     98.9913
  1262.0000      0.0000    694.0257      8.2233    101.6069
  1262.2500      0.0000    687.7486      8.2927    103.5079
  1262.5000      0.0000    683.4658      8.3887    104.6740
  1262.7500      0.0000    681.6942      8.5000    104.3729
  1263.0000      0.0000    681.5172      8.6101    101.9375
  1263.2500      0.0000    682.2142      8.7029     98.1296
  1263.5000      0.0000    684.3093      8.7711     94.8620
  1263.7500      0.0000    688.4821      8.8175     93.6620
  1264.0000      0.0000    693.9223      8.8495     94.7348
  1264.2500      0.0000    698.5214      8.8710     96.9910
  1264.5000      0.0000    700.7616      8.8814     98.4999
  1264.7500      0.0000    701.0686      8.8787     97.5886
  1265.0000      0.0000    701.1656      8.8631     94.3047
  1265.2500      0.0000    702.2041      8.8386     90.5422
  1265.5000      0.0000    703.6786      8.8119     88.2462
  1265.7500      0.0000    703.9070      8.7894     87.7023
  1266.0000      0.0000    701.1014      8.7740     87.8934
  1266.2500      0.0000    693.6659      8.7633     88.0313
