~Version Information
VERS.                      2.0: CWLS Log ASCII Standard - VERSION 2.0
WRAP.                       NO: One line per depth step
~Well Information Block
STRT.FT                 0.0000: 
STOP.FT               712.5000: 
STEP.FT                 0.2500: 
NULL.                -999.2500: 
COMP.          Pioneer Natural Resources: COMPANY
WELL.                Mia 21-18: WELL
FLD.           Purgatorie River: FIELD
LOC.           1067' FNL & 1824' FWL: LOCATION
PROV.                 Colorado: PROVINCE
CNTY.               Las Animas: COUNTRY
SRVC.                Patterson: SERVICE COMPANY
DATE.          Mon Nov 28 13:12:22 2005: LOG DATE
UWI.           05-071-08559               : UNIQUE WELL ID
~Curve Information Block
DEPT.FT            0 000 00 00: Depth
CCL.                          : Casing Collar Locator
TT3.usec                      : CBL 3' Travel Time
AMP3.mV                       : CBL 3' Amplitude
GR.GAPI                       : Gamma Ray
~Parameter Information Block
~A  Depth       CCL         TT3         AMP3         GR     
# ...
    33.5000      0.0000    729.0973     10.0034     60.4604
    33.7500      0.0000    728.6557      9.9056     60.9319
    34.0000      0.0000    728.3860      9.8383     60.0964
    34.2500      0.0000    728.2573      9.8024     58.8851
    34.5000      0.0000    728.1822      9.7916     58.1913
    34.7500      0.0000    728.1481      9.7923     58.0941
    35.0000      0.0000    728.2158      9.8031     58.2236
    35.2500      0.0000    728.3819      9.8402     58.3848
    35.5000      0.0000    728.5298      9.8995     58.6464
    35.7500      0.0000    728.5304      9.9342     59.0766
    36.0000      0.0000    728.3740      9.9147     59.5838
    36.2500      0.0000    728.2125      9.8769     59.9669
    36.5000      0.0000    728.3680      9.8403     60.0427
    36.7500      0.0000    729.5726      9.7640     59.7781
    37.0000      0.0000    732.8482      9.6412     59.3296
    37.2500      0.0000    737.5418      9.5381     58.8259
    37.5000      0.0000    739.9689      9.5174     58.1566
    37.7500      0.0000    737.5372      9.5766     57.2341
    38.0000      0.0000    732.6934      9.6475     56.4057
    38.2500      0.0000    729.1226      9.6546     56.1479
    38.5000      0.0000    727.5634      9.5844     56.2563
    38.7500      0.0000    727.0308      9.4676     55.8670
    39.0000      0.0000    726.7670      9.3265     54.5101
    39.2500      0.0000    726.4995      9.1757     52.7280
    39.5000      0.0000    726.2642      9.0376     51.4838
    39.7500      0.0000    726.2258      8.9395     51.3169
    40.0000      0.0000    726.4692      8.9153     52.1803
    40.2500      0.0000    726.9513      8.9813     53.6613
    40.5000      0.0000    727.7238      9.0946     55.1231
    40.7500      0.0000    729.3643      9.1756     55.8971
    41.0000      0.0000    732.8391      9.1836     55.6406
    41.2500      0.0000    737.5099      9.1462     54.5489
    41.5000      0.0000    739.8111      9.1003     53.1797
    41.7500      0.0000    737.3024      9.0455     52.0940
    42.0000      0.0000    732.4950      8.9793     51.6453
    42.2500      0.0000    729.0375      8.9198     51.9817
    42.5000      0.0000    727.5629      8.8804     53.1576
    42.7500      0.0000    727.0133      8.8737     55.2503
    43.0000      0.0000    726.7493      8.9242     58.2957
    43.2500      0.0000    726.7009      9.0476     62.1529
    43.5000      0.0000    726.8708      9.2000     66.6225
    43.7500      0.0000    727.1334      9.2934     71.6032
    44.0000      0.0000    727.3250      9.3003     76.8386
    44.2500      0.0000    727.3676      9.2782     81.6887
    44.5000      0.0000    727.2666      9.2912     85.5356
    44.7500      0.0000    727.0582      9.3448     88.2126
    45.0000      0.0000    726.7829      9.3816     89.7534
    45.2500      0.0000    726.4683      9.3475     90.0333
    45.5000      0.0000    726.1652      9.2502     89.0861
    45.7500      0.0000    725.9310      9.1357     87.5292
    46.0000      0.0000    725.5247      9.0489     86.2949
    46.2500      0.0000    723.8348      9.0092     86.0793
    46.5000      0.0000    718.9097      8.9884     87.2015
    46.7500      0.0000    710.4580      8.9465     89.4947
    47.0000      0.0000    703.2666      8.9009     91.9007
    47.2500      0.0000    704.1202      8.9118     92.6413
    47.5000      0.0000    713.5243      9.0029     90.4871
    47.7500      0.0000    725.5848      9.1234     85.7690
    48.0000      0.0000    734.8206      9.1787     79.7403
    48.2500      0.0000    738.1757      9.1084     73.2172
    48.5000      0.0000    735.4919      8.9436     66.4020
    48.7500      0.0000    730.6046      8.7816     59.8404
    49.0000      0.0000    727.4697      8.7035     54.7738
    49.2500      0.0000    726.5642      8.7011     52.2551
    49.5000      0.0000    726.3021      8.6921     52.2889
    49.7500      0.0000    724.9095      8.6240     53.9376
    50.0000      0.0000    720.8344      8.5356     55.9521
    50.2500      0.0000    714.1340      8.4930     57.2810
    50.5000      0.0000    707.7992      8.5051     57.4351
    50.7500      0.0000    705.3263      8.5147     56.6602
    51.0000      0.0000    707.8236      8.4484     55.7773
    51.2500      0.0000    713.8793      8.2990     55.8123
    51.5000      0.0000    720.1617      8.1660     57.6972
    51.7500      0.0000    723.8006      8.1475     62.0436
    52.0000      0.0000    723.8362      8.2236     68.8163
    52.2500      0.0000    719.3705      8.3175     77.0900
    52.5000      0.0000    709.7280      8.3887     85.2907
    52.7500      0.0000    697.6882      8.4305     91.8546
    53.0000      0.0000    689.0233      8.4661     95.9041
    53.2500      0.0000    687.2522      8.5284     97.6820
    53.5000      0.0000    690.2950      8.6143     98.3051
    53.7500      0.0000    692.2552      8.6976     98.6420
    54.0000      0.0000    689.5851      8.7677     98.4557
    54.2500      0.0000    684.9500      8.8283     97.0158
    54.5000      0.0000    683.1708      8.8855     94.2532
    54.7500      0.0000    686.9304      8.9333     90.8122
    55.0000      0.0000    696.1937      8.9531     87.3386
    55.2500      0.0000    706.7329      8.9230     84.2245
    55.5000      0.0000    711.1722      8.7766     81.6948
    55.7500      0.0000    706.6108      8.4259     79.6581
    56.0000      0.0000    702.1630      7.9161     77.6572
    56.2500      0.0000    717.8202      7.3681     75.2634
    56.5000      0.0000    775.2899      6.7609     72.4191
    56.7500      0.0000    882.2114      6.1149     69.3258
    57.0000      0.0000   1011.0723      5.6617     66.2717
    57.2500      0.0000   1110.2816      5.5105     63.8337
    57.5000     -2.0000   1156.2548      5.5123     62.9313
    57.7500      0.0000   1169.5125      5.5106     64.0397
    58.0000      2.0000   1174.0448      5.4780     66.1774
    58.2500      0.0000   1165.3833      5.5119     67.1583
    58.5000      0.0000   1118.1039      5.8518     65.3425
    58.7500      0.0000   1018.8901      6.8088     61.1876
    59.0000      0.0000    896.6506      8.3100     57.0312
    59.2500      0.0000    801.5564      9.5714     55.3985
    59.5000      0.0000    752.7554      9.9317     57.3837
    59.7500      0.0000    734.6832      9.6914     62.3032
    60.0000      0.0000    729.0178      9.4580     68.5063
    60.2500      0.0000    727.2212      9.3797     74.2558
    60.5000      0.0000    726.4880      9.3178     78.1121
    60.7500      0.0000    726.0854      9.1964     79.2148
    61.0000      0.0000    725.9552      9.0595     77.6490
    61.2500      0.0000    726.1207      8.9646     74.4861
    61.5000      0.0000    726.4426      8.9060     71.3920
    61.7500      0.0000    726.6811      8.8390     70.0442
    62.0000      0.0000    726.6581      8.7352     71.4736
    62.2500      0.0000    726.3724      8.6090     75.5954
    62.5000      0.0000    725.9794      8.5154     81.3204
    62.7500      0.0000    725.6464      8.5080     87.1158
    63.0000      0.0000    725.4604      8.5766     91.4931
    63.2500      0.0000    725.4751      8.6515     93.3625
    63.5000      0.0000    725.7558      8.6793     92.5071
    63.7500      0.0000    726.3090      8.6765     89.7421
    64.0000      0.0000    726.9663      8.7138     86.1746
    64.2500      0.0000    727.4066      8.8439     82.2300
    64.5000      0.0000    727.4666      9.0746     77.6984
    64.7500      0.0000    727.5468      9.4060     72.7808
    65.0000      0.0000    728.7110      9.7986     68.7219
    65.2500      0.0000    732.1283     10.1044     67.0026
    65.5000      0.0000    737.1063     10.1795     67.9165
    65.7500      0.0000    739.8857     10.0524     70.2524
    66.0000      0.0000    737.7869      9.8599     72.4669
    66.2500      0.0000    733.4073      9.6954     74.0092
    66.5000      0.0000    731.2631      9.5814     75.4269
    66.7500      0.0000    733.2466      9.5227     77.3237
