~Version Information
VERS.                      2.0: CWLS Log ASCII Standard - VERSION 2.0
WRAP.                       NO: One line per depth step
~Well Information Block
STRT.FT                 0.0000: 
STOP.FT              1906.7500: 
STEP.FT                 0.2500: 
NULL.                -999.2500: 
COMP.          Petrogulf Corporation: COMPANY
WELL.             Kraft 17-23R: WELL
FLD.           Purgatorie River: FIELD
LOC.           1509' FSL & 1673' FWL: LOCATION
STAT.                 Colorado: State
CNTY.               Las Animas: COUNTY
CTRY. USA : Country
SECT. 17 : Section
TOWN. 33S : Township
RANG. 67W : Range
SRVC.                Patterson: SERVICE COMPANY
DATE.          Fri Jan 06 08:59:54 2006: LOG DATE
API. 05-071-08560                         : UNIQUE WELL ID
~Curve Information Block
DEPT.FT            0 000 00 00: Depth
CCL.                          : Casing Collar Locator
TT3.usec                      : CBL 3' Travel Time
AMP3.mV                       : CBL 3' Amplitude
AMP3.mV                       : CBL 3' Amplitude
GR.GAPI                       : Gamma Ray
AMP3.mV                       : CBL 3' Amplitude
~Parameter Information Block
~A  Depth       CCL         TT3         AMP3        AMP3         GR        .AMP3    
# ...
  1008.0000      0.0000    635.1307      5.3568      5.3568     31.7123      5.3568
  1008.2500      0.0000    618.4927      5.5894      5.5894     33.0310      5.5894
  1008.5000      0.0000    618.6239      5.8630      5.8630     36.0186      5.8630
  1008.7500      0.0000    632.2008      6.1720      6.1720     39.0689      6.1720
  1009.0000      0.0000    650.6789      6.4401      6.4401     40.7610      6.4401
  1009.2500      0.0000    667.3538      6.6105      6.6105     40.7748      6.6105
  1009.5000      0.0000    675.7769      6.7189      6.7189     39.8496      6.7189
  1009.7500      0.0000    669.1502      6.8178      6.8178     39.0009      6.8178
  1010.0000      0.0000    648.1402      6.9208      6.9208     38.8516      6.9208
  1010.2500      0.0000    623.4396      7.0206      7.0206     39.4483      7.0206
  1010.5000      0.0000    601.9371      7.1090      7.1090     40.3362      7.1090
  1010.7500      0.0000    584.9659      7.1806      7.1806     40.8338      7.1806
  1011.0000      0.0000    578.8604      7.2319      7.2319     40.5332      7.2319
  1011.2500      0.0000    586.9971      7.2605      7.2605     39.6787      7.2605
  1011.5000      0.0000    605.1393      7.2744      7.2744     39.0171      7.2744
  1011.7500      0.0000    628.2094      7.2815      7.2815     39.2235      7.2815
  1012.0000      0.0000    648.4487      7.2787      7.2787     40.4218      7.2787
  1012.2500      0.0000    658.4077      7.2841      7.2841     42.1840      7.2841
  1012.5000      0.0000    657.3738      7.3225      7.3225     43.9127      7.3225
  1012.7500      0.0000    649.0950      7.3512      7.3512     45.2464      7.3512
  1013.0000      0.0000    639.4207      7.2924      7.2924     46.1107      7.2924
  1013.2500      0.0000    634.9546      7.1572      7.1572     46.4172      7.1572
  1013.5000      0.0000    637.9001      7.0332      7.0332     45.9655      7.0332
  1013.7500      0.0000    643.4852      6.9642      6.9642     44.8558      6.9642
  1014.0000      0.0000    645.8906      6.9440      6.9440     43.8152      6.9440
  1014.2500      0.0000    644.1442      6.9695      6.9695     43.9051      6.9695
  1014.5000      0.0000    637.8856      7.0292      7.0292     45.8755      7.0292
  1014.7500      0.0000    625.5777      7.1062      7.1062     49.6593      7.1062
  1015.0000      0.0000    613.8970      7.2056      7.2056     54.3530      7.2056
  1015.2500      0.0000    613.5292      7.3380      7.3380     58.8066      7.3380
  1015.5000      0.0000    620.2068      7.4966      7.4966     62.2876      7.4966
  1015.7500      0.0000    621.7174      7.6506      7.6506     64.5797      7.6506
  1016.0000      0.0000    621.6578      7.7547      7.7547     65.6637      7.7547
  1016.2500      0.0000    630.1235      7.7865      7.7865     65.5657      7.7865
  1016.5000      0.0000    642.2558      7.7581      7.7581     64.5328      7.7581
  1016.7500      0.0000    648.4135      7.6882      7.6882     63.3159      7.6882
  1017.0000      0.0000    649.0696      7.6138      7.6138     63.3011      7.6138
  1017.2500      0.0000    647.5777      7.5964      7.5964     66.3082      7.5964
  1017.5000      0.0000    644.4283      7.6341      7.6341     73.9034      7.6341
  1017.7500      0.0000    643.9029      7.6441      7.6441     86.5943      7.6441
  1018.0000      0.0000    651.6964      7.6007      7.6007    103.6539      7.6007
  1018.2500      0.0000    666.5140      7.5661      7.5661    123.4681      7.5661
  1018.5000      0.0000    684.0233      7.5608      7.5608    143.4144      7.5608
  1018.7500      0.0000    701.8117      7.5498      7.5498    159.4708      7.5498
  1019.0000      0.0000    717.0084      7.5228      7.5228    167.2058      7.5228
  1019.2500      0.0000    725.5768      7.4753      7.4753    164.4088      7.4753
  1019.5000      0.0000    725.1707      7.4018      7.4018    152.9552      7.4018
  1019.7500      0.0000    718.5977      7.3549      7.3549    137.9247      7.3549
  1020.0000      0.0000    711.2374      7.3852      7.3852    124.8026      7.3852
  1020.2500      0.0000    703.0452      7.4572      7.4572    116.9081      7.4572
  1020.5000      0.0000    691.1695      7.5123      7.5123    114.3350      7.5123
  1020.7500      0.0000    678.9047      7.5390      7.5390    114.6343      7.5390
  1021.0000      0.0000    671.4763      7.5658      7.5658    114.7508      7.5658
  1021.2500      0.0000    668.7082      7.6277      7.6277    112.9716      7.6277
  1021.5000      0.0000    667.8287      7.7066      7.7066    109.5532      7.7066
  1021.7500      0.0000    667.4258      7.7503      7.7503    105.9696      7.7503
  1022.0000      0.0000    664.5378      7.7879      7.7879    103.7849      7.7879
  1022.2500      0.0000    652.3049      7.9050      7.9050    103.7545      7.9050
  1022.5000      0.0000    629.6035      8.0988      8.0988    105.3038      8.0988
  1022.7500      0.0000    608.2385      8.2853      8.2853    106.8936      8.2853
  1023.0000      0.0000    601.0737      8.4253      8.4253    107.3287      8.4253
  1023.2500      0.0000    611.3208      8.5434      8.5434    106.8346      8.5434
  1023.5000      0.0000    635.6442      8.6617      8.6617    106.7345      8.6617
  1023.7500      0.0000    667.5613      8.8114      8.8114    108.2157      8.8114
  1024.0000      0.0000    695.0333      9.0432      9.0432    111.5389      9.0432
  1024.2500      0.0000    701.9133      9.3569      9.3569    116.0751      9.3569
  1024.5000      0.0000    681.1913      9.6893      9.6893    120.6478      9.6893
  1024.7500      0.0000    646.5742      9.9718      9.9718    123.9905      9.9718
  1025.0000      0.0000    622.7214     10.1519     10.1519    125.4664     10.1519
  1025.2500      0.0000    622.1355     10.2173     10.2173    125.5302     10.2173
  1025.5000      0.0000    636.9951     10.2176     10.2176    125.0966     10.2176
  1025.7500      0.0000    652.3177     10.2129     10.2129    124.3080     10.2129
  1026.0000      0.0000    660.7736     10.2354     10.2354    122.2678     10.2354
  1026.2500      0.0000    663.8679     10.3133     10.3133    118.1672     10.3133
  1026.5000      0.0000    664.9344     10.4550     10.4550    112.3543     10.4550
  1026.7500      0.0000    665.4687     10.6046     10.6046    106.0146     10.6046
  1027.0000      0.0000    666.2919     10.6653     10.6653    100.0282     10.6653
  1027.2500      0.0000    669.6102     10.5835     10.5835     94.6025     10.5835
  1027.5000      0.0000    678.5109     10.4157     10.4157     89.9916     10.4157
  1027.7500      0.0000    691.2829     10.2838     10.2838     86.9724     10.2838
  1028.0000      0.0000    697.9817     10.2670     10.2670     86.1846     10.2670
  1028.2500      0.0000    691.6424     10.3641     10.3641     87.4055     10.3641
  1028.5000      0.0000    678.8669     10.5314     10.5314     90.1397     10.5314
  1028.7500      0.0000    669.7284     10.7254     10.7254     94.5819     10.7254
  1029.0000      0.0000    666.2891     10.9116     10.9116    101.1244     10.9116
  1029.2500      0.0000    665.6703     11.0821     11.0821    108.9459     11.0821
  1029.5000      0.0000    665.7060     11.2534     11.2534    115.8186     11.2534
  1029.7500      0.0000    665.8214     11.3719     11.3719    119.6494     11.3719
  1030.0000      0.0000    666.1518     11.3256     11.3256    120.2539     11.3256
  1030.2500      0.0000    667.2111     11.1197     11.1197    119.7202     11.1197
  1030.5000      0.0000    670.4890     10.8675     10.8675    120.8550     10.8675
  1030.7500      0.0000    678.9678     10.6088     10.6088    124.7847     10.6088
  1031.0000      0.0000    694.0241     10.3225     10.3225    129.7858     10.3225
  1031.2500      0.0000    709.0386     10.0433     10.0433    132.5984     10.0433
  1031.5000      0.0000    710.9439      9.8174      9.8174    131.0537      9.8174
  1031.7500      0.0000    694.8253      9.6172      9.6172    125.5088      9.6172
