~Version Information
VERS.                      2.0: CWLS Log ASCII Standard - VERSION 2.0
WRAP.                       NO: One line per depth step
~Well Information Block
STRT.FT               800.0000: 
STOP.FT              3500.0000: 
STEP.FT                 0.1000: 
NULL.                -999.2500: 
COMP.          Pioneer Natural Resources: COMPANY
WELL.          Cordillera 34-7: WELL
FLD.           Purgatoire River: FIELD
LOC.           598' FSL & 1770' FEL--: LOCATION
PROV.                 Colorado: PROVINCE
CNTY.               Las Animas: COUNTRY
SRVC.                Patterson: SERVICE COMPANY
DATE.          Fri Oct 28 07:22:44 2005: LOG DATE
UWI.           05 071 08552 00: UNIQUE WELL ID
~Curve Information Block
DEPT.FT            0 000 00 00: Depth
DCAL.in                       : CDL Caliper
RHOB.g/cc                     : CDL Bulk Density
RHOC.g/cc                     : CDL Density Correction
DPOR.pu                       : CDL Density Porosity
NPOR.pu                       : Neutron Porosity
GR.GAPI                       : Gamma Ray
~Parameter Information Block
~A  Depth       DCAL        RHOB        RHOC        DPOR        NPOR         GR     
# ...
   982.4000      7.9244      2.5170      0.0662      8.0608     22.0709     82.6013
   982.5000      7.9307      2.5268      0.0271      7.4678     22.3049     87.9648
   982.6000      7.9307      2.5196      0.0769      7.9005     21.8572     87.3097
   982.7000      7.9307      2.4977      0.0256      9.2274     20.9030     84.7462
   982.8000      7.9336      2.4766      0.0103     10.5121     19.9233     87.0805
   982.9000      7.9336      2.4655      0.0270     11.1810     19.1220     93.1798
   983.0000      7.9365      2.4529      0.0165     11.9471     18.6165     96.3229
   983.1000      7.9365      2.4342      0.0039     13.0789     18.0924     93.3493
   983.2000      7.9365      2.4223      0.0108     13.8004     17.2682     84.9351
   983.3000      7.9391      2.4180      0.0565     14.0604     16.4810     74.7084
   983.4000      7.9391      2.4104      0.0260     14.5192     15.8934     66.2233
   983.5000      7.9405      2.4031      0.0579     14.9628     15.3865     60.9033
   983.6000      7.9405      2.4068      0.0959     14.7416     15.1615     60.8432
   983.7000      7.9405      2.4281      0.0993     13.4494     15.5227     63.9718
   983.8000      7.9428      2.4649      0.1326     11.2191     16.0520     64.1820
   983.9000      7.9428      2.4929      0.1921      9.5209     16.2920     62.7766
   984.0000      7.9444      2.4920      0.1581      9.5771     16.6225     64.0477
   984.1000      7.9444      2.4809      0.0744     10.2455     17.2622     65.9660
   984.2000      7.9444      2.4836      0.0755     10.0848     17.9281     66.3136
   984.3000      7.9449      2.4940      0.0914      9.4528     18.4430     65.1193
   984.4000      7.9449      2.4888      0.0987      9.7703     18.9619     63.1078
   984.5000      7.9454      2.4498      0.1039     12.1314     19.7184     63.8188
   984.6000      7.9454      2.3927      0.0272     15.5962     20.6055     68.2668
   984.7000      7.9454      2.3494      0.0264     18.2159     21.6279     72.9478
   984.8000      7.9459      2.3243      0.0256     19.7413     22.9408     77.4763
   984.9000      7.9459      2.3017      0.0033     21.1087     24.0661     84.1140
   985.0000      7.9481      2.2691     -0.0158     23.0870     24.6441     90.0653
   985.1000      7.9481      2.2246     -0.0060     25.7830     25.0777     91.6436
   985.2000      7.9481      2.1863     -0.0012     28.1057     25.3751     93.1500
   985.3000      7.9597      2.1812      0.0412     28.4150     25.1246    100.7790
   985.4000      7.9597      2.2211      0.1745     25.9929     24.4705    112.9761
   985.5000      7.9931      2.2933      0.3298     21.6185     23.8087    123.2122
   985.6000      7.9931      2.3621      0.4337     17.4475     23.4124    129.0743
   985.7000      7.9931      2.3899      0.4587     15.7639     23.3141    132.2767
   985.8000      8.0431      2.3748      0.4150     16.6809     23.2228    132.5469
   985.9000      8.0431      2.3476      0.4101     18.3259     23.0374    131.5272
   986.0000      8.0823      2.3306      0.3733     19.3565     22.8100    130.3193
   986.1000      8.0823      2.3292      0.2985     19.4412     22.6343    125.9727
   986.2000      8.0823      2.3464      0.2620     18.4024     22.6532    116.3358
   986.3000      8.1025      2.3697      0.3504     16.9849     22.9516    105.6519
   986.4000      8.1025      2.3740      0.3753     16.7258     23.2795    101.4217
   986.5000      8.1195      2.3552      0.3667     17.8669     23.2814    103.5974
   986.6000      8.1195      2.3264      0.3328     19.6105     23.3250    108.3373
   986.7000      8.1195      2.2925      0.2836     21.6655     23.6257    116.8163
   986.8000      8.1466      2.2529      0.2386     24.0653     23.7643    126.6631
   986.9000      8.1466      2.2065      0.2047     26.8792     23.7042    128.7961
   987.0000      8.2010      2.1520      0.1924     30.1812     23.5956    122.8937
   987.1000      8.2010      2.1096      0.1993     32.7541     23.2303    116.7960
   987.2000      8.2010      2.1182      0.2863     32.2275     22.5586    113.6358
   987.3000      8.2893      2.1836      0.4521     28.2684     21.9017    113.5067
   987.4000      8.2893      2.2657      0.4501     23.2931     21.0853    115.9852
   987.5000      8.4221      2.3234      0.4712     19.7962     19.8755    118.4788
   987.6000      8.4221      2.3341      0.4833     19.1433     18.8718    119.4855
   987.7000      8.4221      2.2976      0.4293     21.3562     18.7748    120.4011
   987.8000      8.6634      2.2380      0.3770     24.9668     19.4091    121.5695
   987.9000      8.6634      2.1824      0.3337     28.3384     19.9277    122.2455
   988.0000      8.9979      2.1361      0.3308     31.1461     19.8795    122.0047
   988.1000      8.9979      2.0982      0.2716     33.4427     19.6342    120.7628
   988.2000      8.9979      2.0821      0.2646     34.4187     19.7409    118.4655
   988.3000      9.2240      2.0953      0.3370     33.6195     20.3838    115.6274
   988.4000      9.2240      2.1290      0.3478     31.5735     21.5256    114.4345
   988.5000      9.1561      2.1739      0.3708     28.8567     22.6920    115.7356
   988.6000      9.1561      2.2181      0.4240     26.1740     23.2878    115.2876
   988.7000      9.1561      2.2497      0.4376     24.2578     23.3488    110.6209
   988.8000      8.9031      2.2681      0.4417     23.1455     23.3260    105.7668
   988.9000      8.9031      2.2764      0.4555     22.6424     23.5648    104.2714
   989.0000      8.6514      2.2778      0.4081     22.5578     23.8570    105.9764
   989.1000      8.6514      2.2818      0.3927     22.3127     24.0095    110.1449
   989.2000      8.6514      2.2988      0.4054     21.2874     24.1662    115.3414
   989.3000      8.4262      2.3337      0.4462     19.1719     24.1453    119.5906
   989.4000      8.4262      2.3776      0.4765     16.5076     23.5320    122.4576
   989.5000      8.2795      2.4025      0.5044     14.9971     22.6705    123.8701
   989.6000      8.2795      2.3888      0.4519     15.8320     22.4510    122.8425
   989.7000      8.2795      2.3527      0.3823     18.0194     22.9858    120.1721
   989.8000      8.2029      2.3273      0.3333     19.5599     23.4746    119.3007
   989.9000      8.2029      2.3270      0.3181     19.5775     23.5342    121.0750
   990.0000      8.1776      2.3351      0.3762     19.0840     23.5634    125.4976
   990.1000      8.1776      2.3308      0.3558     19.3442     23.6985    131.9948
   990.2000      8.1776      2.3174      0.3582     20.1595     23.9198    136.0575
   990.3000      8.1881      2.3046      0.3756     20.9357     24.0922    135.5020
   990.4000      8.1881      2.2900      0.3641     21.8179     23.9208    131.8305
   990.5000      8.1517      2.2545      0.3864     23.9724     23.5301    125.1075
   990.6000      8.1517      2.1700      0.2757     29.0896     23.4139    117.9235
   990.7000      8.1517      2.0388      0.1631     37.0397     23.5783    114.9176
   990.8000      8.0676      1.9214      0.0884     44.1598     23.4923    116.5557
   990.9000      8.0676      1.8987      0.1807     45.5341     23.0267    120.8188
   991.0000      8.0462      1.9943      0.3775     39.7400     22.6470    125.6525
   991.1000      8.0462      2.1547      0.5184     30.0170     22.5540    126.6603
   991.2000      8.0462      2.2955      0.6192     21.4873     22.5799    121.9017
   991.3000      8.1034      2.3514      0.6212     18.0998     22.7778    116.3050
   991.4000      8.1034      2.3140      0.5351     20.3645     23.1453    115.6282
   991.5000      8.2158      2.2243      0.4709     25.7988     23.5967    119.4702
   991.6000      8.2158      2.1392      0.3825     30.9579     24.1779    123.6663
   991.7000      8.2158      2.1228      0.2705     31.9504     24.7280    128.0626
   991.8000      8.3628      2.2194      0.2515     26.0954     25.2432    133.0693
   991.9000      8.3628      2.3965      0.4426     15.3639     26.1706    134.5200
