~Version Information
VERS.                      2.0: CWLS Log ASCII Standard - VERSION 2.0
WRAP.                       NO: One line per depth step
~Well Information Block
STRT.FT               -16.0000: 
STOP.FT              2827.7500: 
STEP.FT                 0.2500: 
NULL.                -999.2500: 
COMP.          Pioneer Natural Resources: COMPANY
WELL.          Touchstone 11-32: WELL
FLD.           Purgatorie River: FIELD
LOC.           853' FNL & 407' FWL--: LOCATION
CNTY.               Las Animas: COUNTY
SRVC.          Patterson Wireline: SERVICE COMPANY
DATE.          Wed Mar 15 10:09:19 2006: LOG DATE
UWI.           05 071 08564 00: UNIQUE WELL ID
STAT.                       CO: STATE
~Curve Information Block
DEPT.FT            0 000 00 00: Depth
CCL.                          : Casing Collar Locator
TT3.usec                      : CBL 3' Travel Time
AMP3.mV                       : CBL 3' Amplitude
GR.GAPI                       : Gamma Ray
~Parameter Information Block
~A  Depth       CCL         TT3         AMP3         GR     
# ...
  1491.5000      0.0000    406.4238     20.1589    128.5398
  1491.7500      0.0000    390.7395     20.1707    127.4433
  1492.0000      0.0000    382.4187     20.2181    128.2382
  1492.2500      0.0000    382.9162     20.2663    130.4483
  1492.5000      0.0000    398.3867     20.2880    133.1095
  1492.7500      0.0000    436.3934     20.2724    134.6690
  1493.0000      0.0000    496.6635     20.2249    133.8098
  1493.2500      0.0000    565.1849     20.1602    130.7060
  1493.5000      0.0000    620.6152     20.0926    127.0192
  1493.7500      0.0000    649.6203     20.0252    124.2273
  1494.0000      0.0000    656.5827     19.9476    122.3090
  1494.2500      0.0000    657.8470     19.8478    120.6053
  1494.5000      0.0000    666.1246     19.7327    119.5039
  1494.7500      0.0000    680.7399     19.6325    120.3024
  1495.0000      0.0000    691.4751     19.5777    123.4625
  1495.2500      0.0000    688.8249     19.5741    127.7293
  1495.5000      0.0000    670.5159     19.5991    130.8846
  1495.7500      0.0000    642.0715     19.6198    131.1028
  1496.0000      0.0000    612.2805     19.6168    128.1072
  1496.2500      0.0000    585.9454     19.5968    123.5569
  1496.5000      0.0000    561.0430     19.5856    119.9389
  1496.7500      0.0000    535.4875     19.6066    118.4530
  1497.0000      0.0000    516.2040     19.6627    117.9865
  1497.2500      0.0000    517.2929     19.7393    116.6167
  1497.5000      0.0000    546.2855     19.8263    114.1443
  1497.7500      0.0000    593.2417     19.9412    112.5940
  1498.0000      0.0000    634.9838     20.1296    113.9221
  1498.2500      0.0000    649.3094     20.4327    117.6854
  1498.5000      0.0000    626.1276     20.8406    121.4860
  1498.7500      0.0000    570.6979     21.2786    123.3706
  1499.0000      0.0000    500.2830     21.6503    123.1511
  1499.2500      0.0000    435.1947     21.9064    121.7468
  1499.5000      0.0000    388.3531     22.0787    120.2882
  1499.7500      0.0000    361.3336     22.2409    119.7992
  1500.0000      0.0000    348.5468     22.4332    120.5460
  1500.2500      0.0000    343.4814     22.6337    121.3848
  1500.5000      0.0000    341.7664     22.8045    120.5655
  1500.7500      0.0000    341.1572     22.9486    117.4357
  1501.0000      0.0000    340.5449     23.1030    112.9381
  1501.2500      0.0000    339.3394     23.2876    108.6936
  1501.5000      0.0000    337.4610     23.4762    106.0803
  1501.7500      0.0000    335.5492     23.6190    105.6807
  1502.0000      0.0000    334.6246     23.6899    106.8700
  1502.2500      0.0000    335.2115     23.7123    108.0444
  1502.5000      0.0000    336.8349     23.7383    107.6876
  1502.7500      0.0000    338.5260     23.8009    105.3358
  1503.0000      0.0000    339.6525     23.8925    101.7072
  1503.2500      0.0000    340.1620     23.9803     98.2624
  1503.5000      0.0000    340.2873     24.0339     96.5116
  1503.7500      0.0000    340.2557     24.0368     97.0591
  1504.0000      0.0000    340.2039     23.9903     98.9902
  1504.2500      0.0000    340.1941     23.9141    100.4240
  1504.5000      0.0000    340.2375     23.8371     99.9652
  1504.7500      0.0000    340.3169     23.7784     97.8147
  1505.0000      0.0000    340.4013     23.7349     95.5816
  1505.2500      0.0000    340.4603     23.6890     94.8902
  1505.5000      0.0000    340.4707     23.6273     95.8061
  1505.7500      0.0000    340.4186     23.5480     96.5392
  1506.0000      0.0000    340.3083     23.4470     94.9076
  1506.2500      0.0000    340.1782     23.3105     90.1641
  1506.5000      0.0000    340.0923     23.1341     83.3317
  1506.7500      0.0000    340.1023     22.9406     76.0028
  1507.0000      0.0000    340.2174     22.7634     69.3522
  1507.2500      0.0000    340.4111     22.6127     64.2769
  1507.5000      0.0000    340.6463     22.4634     61.6346
  1507.7500      0.0000    340.8889     22.2734     61.7686
  1508.0000      0.0000    341.1171     22.0076     64.1739
  1508.2500      0.0000    341.5012     21.6425     68.0064
  1508.5000      0.0000    342.8819     21.1481     72.6080
  1508.7500      0.0000    347.3141     20.4681     77.2169
  1509.0000      0.0000    357.6632     19.5562     80.6951
  1509.2500      0.0000    375.4279     18.4768     82.2978
  1509.5000      0.0000    399.1312     17.4380     82.6881
  1509.7500      0.0000    426.5307     16.6381     83.5481
  1510.0000      0.0000    457.8265     16.0865     85.8209
  1510.2500      0.0000    493.7177     15.6545     88.4459
  1510.5000      0.0000    531.4939     15.2690     89.0385
  1510.7500      0.0000    567.4143     14.9547     85.9463
  1511.0000      0.0000    601.1981     14.7287     79.7456
  1511.2500     -2.0000    632.1498     14.5650     72.7880
  1511.5000      0.0000    651.3879     14.4575     67.3267
  1511.7500      0.0000    644.4144     14.4747     64.0734
  1512.0000      0.0000    605.4363     14.7395     62.3969
  1512.2500      0.0000    548.1671     15.3206     61.6732
  1512.5000      0.0000    498.7632     16.1117     62.2505
  1512.7500      0.0000    475.8032     16.8696     64.9343
  1513.0000      0.0000    478.3462     17.4324     69.6151
  1513.2500      0.0000    494.7722     17.8314     74.7503
  1513.5000      0.0000    519.6304     18.1424     78.3344
  1513.7500      0.0000    556.0098     18.3356     79.2341
  1514.0000      0.0000    603.2173     18.3398     77.7217
  1514.2500      0.0000    650.6472     18.1715     75.2293
  1514.5000      0.0000    686.3581     17.9382     73.6904
  1514.7500      0.0000    706.6359     17.7512     74.4066
  1515.0000      0.0000    715.4916     17.6589     76.8448
  1515.2500      0.0000    718.5905     17.6431     78.6983
  1515.5000      0.0000    719.5506     17.6517     77.9632
  1515.7500      0.0000    719.8560     17.6422     75.1975
  1516.0000      0.0000    719.9343     17.6023     73.0616
  1516.2500      0.0000    719.9216     17.5386     73.3770
  1516.5000      0.0000    719.9021     17.4556     75.2562
  1516.7500      0.0000    719.9277     17.3554     76.2930
  1517.0000      0.0000    720.0189     17.2554     75.0816
  1517.2500      0.0000    720.1710     17.1930     72.4725
  1517.5000      0.0000    720.3748     17.2053     70.8702
  1517.7500      0.0000    720.6279     17.3071     72.5632
  1518.0000      0.0000    720.9242     17.4885     78.3795
  1518.2500      0.0000    721.2471     17.7293     87.3541
  1518.5000      0.0000    721.5770     18.0035     97.3291
  1518.7500      0.0000    721.8877     18.2729    105.9933
  1519.0000      0.0000    722.1247     18.4888    111.7671
  1519.2500      0.0000    722.2166     18.6120    114.0333
  1519.5000      0.0000    722.1447     18.6311    113.0499
  1519.7500      0.0000    721.9843     18.5616    110.0780
  1520.0000      0.0000    721.8383     18.4338    107.1930
  1520.2500      0.0000    721.7388     18.2809    106.1250
  1520.5000      0.0000    721.6420     18.1295    107.1837
  1520.7500      0.0000    721.4974     17.9980    109.6022
  1521.0000      0.0000    721.2943     17.9051    112.6424
  1521.2500      0.0000    721.0709     17.8732    115.8190
  1521.5000      0.0000    720.9047     17.9105    118.2244
  1521.7500      0.0000    720.8727     17.9916    118.5427
  1522.0000      0.0000    721.0385     18.0704    116.1937
  1522.2500      0.0000    721.5210     18.1182    112.0541
  1522.5000      0.0000    722.5570     18.1424    107.7363
  1522.7500      0.0000    724.3315     18.1700    104.4887
  1523.0000      0.0000    726.3416     18.2199    102.9598
  1523.2500      0.0000    726.5225     18.2978    103.4548
  1523.5000      0.0000    720.8397     18.4077    105.9699
  1523.7500      0.0000    704.1859     18.5534    110.1214
  1524.0000      0.0000    673.2479     18.7288    115.2053
  1524.2500      0.0000    630.7419     18.9126    120.3039
  1524.5000      0.0000    587.7659     19.0783    124.6116
  1524.7500      0.0000    559.9675     19.2086    127.9958
