~Version Information
VERS.                      2.0: CWLS Log ASCII Standard - VERSION 2.0
WRAP.                       NO: One line per depth step
~Well Information Block
STRT.FT               529.2000: 
STOP.FT              1325.2000: 
STEP.FT                 0.1000: 
NULL.                -999.2500: 
COMP.          Pioneer Natural Resources: COMPANY
WELL.            Erin 21-15 Tr: WELL
FLD.           Purgatoire River: FIELD
LOC.           1217' FNL & 2284' FWL--: LOCATION
CNTY.               Las Animas: COUNTY
SRVC.                Patterson: SERVICE COMPANY
DATE.          Mon Mar 06 14:26:48 2006: LOG DATE
UWI.           05 071 08712 00: UNIQUE WELL ID
STAT.                 Colorado: STATE
~Curve Information Block
DEPT.FT            0 000 00 00: Depth
DCAL.in                       : CDL Caliper
RHOB.g/cc                     : CDL Bulk Density
RHOC.g/cc                     : CDL Density Correction
DPOR.pu                       : CDL Density Porosity
GR.GAPI                       : Gamma Ray
~Parameter Information Block
~A  Depth       DCAL        RHOB        RHOC        DPOR         GR     
# ...
  1290.8000      7.7972      2.5477      0.0076      6.2016    134.4519
  1290.9000      7.7972      2.5563      0.0398      5.6810    135.3304
  1291.0000      7.8001      2.5693      0.0604      4.8923    131.4800
  1291.1000      7.8001      2.5762      0.0295      4.4710    129.6622
  1291.2000      7.8001      2.5857      0.0613      3.8992    128.0266
  1291.3000      7.7990      2.5987      0.0925      3.1104    122.5224
  1291.4000      7.7990      2.5974      0.1310      3.1891    115.5534
  1291.5000      7.7967      2.5797      0.0760      4.2584    110.5390
  1291.6000      7.7967      2.5693      0.0620      4.8923    104.8665
  1291.7000      7.7967      2.5720      0.0599      4.7288     96.6774
  1291.8000      7.7958      2.5700      0.0912      4.8473     90.0267
  1291.9000      7.7958      2.5591      0.0426      5.5104     88.7371
  1292.0000      7.7991      2.5528      0.0389      5.8880     93.6505
  1292.1000      7.7991      2.5582      0.0295      5.5650    100.4985
  1292.2000      7.7991      2.5679      0.0511      4.9756    102.8096
  1292.3000      7.8015      2.5773      0.0194      4.4082    101.2437
  1292.4000      7.8015      2.5909      0.0285      3.5811     98.9597
  1292.5000      7.7983      2.6007      0.0772      2.9900     95.3469
  1292.6000      7.7983      2.5949      0.0724      3.3392     92.0178
  1292.7000      7.7983      2.5919      0.0191      3.5231     92.7079
  1292.8000      7.7941      2.6144      0.0716      2.1571     93.6328
  1292.9000      7.7941      2.6458      0.0875      0.2557     89.1604
  1293.0000      7.7935      2.6541      0.1043     -0.2473     79.9425
  1293.1000      7.7935      2.6396      0.0186      0.6296     70.3125
  1293.2000      7.7935      2.6241      0.0324      1.5691     63.3905
  1293.3000      7.7945      2.6139      0.0425      2.1892     59.6048
  1293.4000      7.7945      2.6070     -0.0063      2.6051     59.6075
  1293.5000      7.7945      2.6029      0.0063      2.8529     64.8237
  1293.6000      7.7945      2.6006      0.0045      2.9943     72.9935
  1293.7000      7.7945      2.6033      0.0434      2.8292     79.2159
  1293.8000      7.7946      2.6035      0.0598      2.8153     83.0244
  1293.9000      7.7946      2.5893      0.0491      3.6759     86.8874
  1294.0000      7.7945      2.5726     -0.0152      4.6894     92.5666
  1294.1000      7.7945      2.5702      0.0051      4.8375     97.8112
  1294.2000      7.7945      2.5793      0.0089      4.2870     99.7236
  1294.3000      7.7938      2.5980      0.0179      3.1528     98.7951
  1294.4000      7.7938      2.6237      0.0609      1.5929     97.3115
  1294.5000      7.7929      2.6412      0.0820      0.5336     96.5543
  1294.6000      7.7929      2.6442      0.0694      0.3492     95.7365
  1294.7000      7.7929      2.6392      0.0688      0.6545     93.8897
  1294.8000      7.7893      2.6351      0.0502      0.9044     93.1452
  1294.9000      7.7893      2.6380      0.0629      0.7260     96.2277
  1295.0000      7.7840      2.6413      0.0909      0.5277    101.7490
  1295.1000      7.7840      2.6355      0.0617      0.8816    103.4587
  1295.2000      7.7840      2.6241      0.0381      1.5705     98.1510
  1295.3000      7.7816      2.6146      0.0473      2.1466     95.4439
  1295.4000      7.7816      2.6094      0.0489      2.4622    102.0725
  1295.5000      7.7861      2.6080      0.0545      2.5470    110.7195
  1295.6000      7.7861      2.6084      0.0595      2.5239    115.2636
  1295.7000      7.7861      2.6112      0.0307      2.3507    115.5489
  1295.8000      7.7962      2.6184      0.0498      1.9180    113.4969
  1295.9000      7.7962      2.6279      0.0497      1.3391    114.0107
  1296.0000      7.8020      2.6393      0.0530      0.6481    117.2246
  1296.1000      7.8020      2.6519      0.0732     -0.1169    117.0369
  1296.2000      7.8020      2.6566      0.0846     -0.3990    112.0221
  1296.3000      7.8038      2.6464      0.0380      0.2164    106.9487
  1296.4000      7.8038      2.6315      0.0636      1.1238    104.2485
  1296.5000      7.8058      2.6202      0.0503      1.8041    102.0150
  1296.6000      7.8058      2.6072      0.0736      2.5970    100.5240
  1296.7000      7.8058      2.5897      0.0280      3.6576    100.3367
  1296.8000      7.8064      2.5797     -0.0007      4.2593     98.2283
  1296.9000      7.8064      2.5799      0.0410      4.2484     95.4843
  1297.0000      7.8051      2.5787      0.0573      4.3223     98.2058
  1297.1000      7.8051      2.5808     -0.0047      4.1939    104.9929
  1297.2000      7.8051      2.5989      0.0208      3.0963    110.1453
  1297.3000      7.8054      2.6234      0.0699      1.6112    113.5967
  1297.4000      7.8054      2.6341      0.0641      0.9653    117.7349
  1297.5000      7.8072      2.6265      0.0658      1.4240    120.9251
  1297.6000      7.8072      2.6089      0.0684      2.4883    114.4464
  1297.7000      7.8072      2.5891      0.0287      3.6931     86.2747
  1297.8000      7.8081      2.5703      0.0604      4.8332     44.4617
  1297.9000      7.8081      2.5554      0.0094      5.7350     14.0668
  1298.0000      7.8099      2.5526      0.0349      5.9056      2.5584
  1298.1000      7.8099      2.5615      0.0426      5.3613      0.2572
  1298.2000      7.8099      2.5683      0.0711      4.9530      0.0136
  1298.3000      7.8109      2.5716      0.0112      4.7523      0.0000
  1298.4000      7.8109      2.5846      0.0721      3.9666   -999.2500
  1298.5000      7.8108      2.6044      0.0764      2.7634   -999.2500
  1298.6000      7.8108      2.6186      0.1134      1.9059   -999.2500
  1298.7000      7.8108      2.6168      0.1165      2.0140   -999.2500
  1298.8000      7.8107      2.5969      0.0360      3.2159   -999.2500
  1298.9000      7.8107      2.5749      0.0491      4.5517   -999.2500
  1299.0000      7.8105      2.5662      0.0448      5.0771   -999.2500
  1299.1000      7.8105      2.5646      0.0700      5.1772   -999.2500
  1299.2000      7.8105      2.5539      0.0646      5.8223   -999.2500
  1299.3000      7.8102      2.5387      0.0280      6.7484   -999.2500
  1299.4000      7.8102      2.5336      0.0429      7.0538   -999.2500
  1299.5000      7.8087      2.5350      0.0365      6.9702   -999.2500
  1299.6000      7.8087      2.5363      0.0175      6.8929   -999.2500
  1299.7000      7.8087      2.5459      0.0239      6.3075   -999.2500
  1299.8000      7.8075      2.5689      0.0347      4.9123   -999.2500
  1299.9000      7.8075      2.5917      0.0879      3.5310   -999.2500
  1300.0000      7.8088      2.5983      0.0456      3.1304   -999.2500
  1300.1000      7.8088      2.5925      0.0561      3.4838   -999.2500
  1300.2000      7.8088      2.5885      0.0563      3.7287   -999.2500
  1300.3000      7.8100      2.5953      0.0797      3.3164   -999.2500
  1300.4000      7.8100      2.6088      0.0767      2.4970   -999.2500
  1300.5000      7.8099      2.6186      0.0525      1.9044   -999.2500
  1300.6000      7.8099      2.6261      0.0400      1.4479   -999.2500
  1300.7000      7.8099      2.6412      0.0421      0.5348   -999.2500
  1300.8000      7.8089      2.6611      0.0653     -0.6714   -999.2500
  1300.9000      7.8089      2.6753      0.0645     -1.5329   -999.2500
  1301.0000      7.8085      2.6811      0.0648     -1.8831   -999.2500
  1301.1000      7.8085      2.6786      0.0900     -1.7358   -999.2500
  1301.2000      7.8085      2.6730      0.0552     -1.3909   -999.2500
  1301.3000      7.8102      2.6729      0.0609     -1.3905   -999.2500
  1301.4000      7.8102      2.6636      0.0977     -0.8222   -999.2500
  1301.5000      7.8105      2.6311      0.0115      1.1460   -999.2500
  1301.6000      7.8105      2.6049     -0.0154      2.7346   -999.2500
  1301.7000      7.8105      2.6127      0.0078      2.2618   -999.2500
  1301.8000      7.8093      2.6420      0.0341      0.4832   -999.2500
  1301.9000      7.8093      2.6634      0.0677     -0.8133   -999.2500
