~Version Information
VERS.                      2.0: CWLS Log ASCII Standard - VERSION 2.0
WRAP.                       NO: One line per depth step
~Well Information Block
STRT.FT                -7.0000: 
STOP.FT              3030.2500: 
STEP.FT                 0.2500: 
NULL.                -999.2500: 
COMP.          Pioneer Natural Resources: COMPANY
WELL.            Cleaver 24-12: WELL
FLD.           Purgatorie River: FIELD
LOC.           204' FSL & 2351' FWL--: LOCATION
CNTY.               Las Animas: COUNTY
SRVC.          Patterson Wireline: SERVICE COMPANY
DATE.          Thu Feb 02 12:17:57 2006: LOG DATE
UWI.           05 071 08634 00: UNIQUE WELL ID
STAT.                       CO: STATE
~Curve Information Block
DEPT.FT            0 000 00 00: Depth
CCL.                          : Casing Collar Locator
TT3.usec                      : CBL 3' Travel Time
AMP3.mV                       : CBL 3' Amplitude
GR.GAPI                       : Gamma Ray
~Parameter Information Block
~A  Depth       CCL         TT3         AMP3         GR     
# ...
   395.0000      0.0000    262.9110     80.4131     46.4853
   395.2500      0.0000    262.9272     80.4353     46.8119
   395.5000      0.0000    262.9362     80.4706     47.7826
   395.7500      0.0000    262.9356     80.5148     49.1140
   396.0000      0.0000    262.9287     80.5554     50.4404
   396.2500      0.0000    262.9212     80.5716     51.8438
   396.5000      0.0000    262.9168     80.5501     53.4920
   396.7500      0.0000    262.9169     80.4971     55.1497
   397.0000      0.0000    262.9209     80.4267     56.5789
   397.2500      0.0000    262.9275     80.3416     58.1170
   397.5000      0.0000    262.9348     80.2340     60.4287
   397.7500      0.0000    262.9413     80.1033     63.7751
   398.0000      0.0000    262.9460     79.9683     67.7331
   398.2500      0.0000    262.9485     79.8639     71.5496
   398.5000      0.0000    262.9496     79.8196     74.6047
   398.7500      0.0000    262.9507     79.8354     76.5953
   399.0000      0.0000    262.9522     79.8794     77.6115
   399.2500      0.0000    262.9533     79.9143     78.0742
   399.5000      0.0000    262.9532     79.9248     78.1822
   399.7500      0.0000    262.9515     79.9209     77.3487
   400.0000      0.0000    262.9475     79.9221     74.7522
   400.2500      0.0000    262.9396     79.9446     70.6851
   400.5000      0.0000    262.9275     79.9922     66.9272
   400.7500      0.0000    262.9150     80.0490     65.5005
   401.0000      0.0000    262.9084     80.0798     67.1291
   401.2500      0.0000    262.9117     80.0480     70.6664
   401.5000      0.0000    262.9240     79.9422     73.6609
   401.7500      0.0000    262.9414     79.7859     73.8263
   402.0000      0.0000    262.9599     79.6186     70.6255
   402.2500      0.0000    262.9765     79.4691     65.4074
   402.5000      0.0000    262.9894     79.3476     59.8370
   402.7500      0.0000    262.9990     79.2614     54.6736
   403.0000      0.0000    263.0065     79.2259     50.3197
   403.2500      0.0000    263.0127     79.2502     47.7795
   403.5000      0.0000    263.0178     79.3114     48.2192
   403.7500      0.0000    263.0240     79.3578     51.6912
   404.0000      0.0000    263.0348     79.3424     56.8523
   404.2500      0.0000    263.0509     79.2568     61.9567
   404.5000      0.0000    263.0678     79.1363     65.8288
   404.7500      0.0000    263.0784     79.0355     68.0307
   405.0000      0.0000    263.0791     78.9857     68.5169
   405.2500      0.0000    263.0732     78.9706     67.3034
   405.5000      0.0000    263.0675     78.9505     64.4780
   405.7500      0.0000    263.0659     78.9078     60.4768
   406.0000      0.0000    263.0668     78.8568     56.0750
   406.2500      0.0000    263.0677     78.8144     51.9638
   406.5000      0.0000    263.0679     78.7804     48.5961
   406.7500      0.0000    263.0687     78.7508     46.4813
   407.0000      0.0000    263.0704     78.7337     46.1996
   407.2500      0.0000    263.0727     78.7436     47.9679
   407.5000      0.0000    263.0752     78.7878     51.3185
   407.7500      0.0000    263.0779     78.8628     55.0673
   408.0000      0.0000    263.0804     78.9535     57.5916
   408.2500      0.0000    263.0815     79.0360     57.7210
   408.5000      0.0000    263.0800     79.0908     55.7641
   408.7500      0.0000    263.0743     79.1155     53.3275
   409.0000      0.0000    263.0638     79.1266     51.7183
   409.2500      0.0000    263.0490     79.1592     50.7717
   409.5000      0.0000    263.0310     79.2564     49.5400
   409.7500      0.0000    263.0120     79.4320     47.7188
   410.0000      0.0000    262.9949     79.6387     45.9635
   410.2500      0.0000    262.9824     79.7969     45.1604
   410.5000      0.0000    262.9745     79.8666     45.8577
   410.7500      0.0000    262.9699     79.8732     48.1042
   411.0000      0.0000    262.9687     79.8664     51.3225
   411.2500      0.0000    262.9722     79.8784     54.3346
   411.5000      0.0000    262.9806     79.9236     55.8908
   411.7500      0.0000    262.9907     80.0123     55.4864
   412.0000      0.0000    262.9977     80.1478     53.6752
   412.2500      0.0000    262.9979     80.3194     51.4580
   412.5000      0.0000    262.9899     80.5064     49.4233
   412.7500      0.0000    262.9745     80.6847     47.5855
   413.0000      0.0000    262.9553     80.8272     45.8393
   413.2500      0.0000    262.9373     80.9102     44.3758
   413.5000      0.0000    262.9238     80.9312     43.8782
   413.7500      0.0000    262.9138     80.9177     45.4426
   414.0000      0.0000    262.9034     80.9048     49.9862
   414.2500      0.0000    262.8920     80.9018     57.4556
   414.5000      0.0000    262.8840     80.8865     66.5964
   414.7500      0.0000    262.8852     80.8363     75.4575
   415.0000      0.0000    262.8966     80.7580     82.2156
   415.2500      0.0000    262.9124     80.6819     85.8208
   415.5000      0.0000    262.9255     80.6308     86.0070
   415.7500      0.0000    262.9320     80.6037     82.9548
   416.0000      0.0000    262.9331     80.5859     77.4666
   416.2500      0.0000    262.9316     80.5648     71.3159
   416.5000      0.0000    262.9296     80.5341     66.6228
   416.7500      0.0000    262.9280     80.4944     64.5932
   417.0000      0.0000    262.9282     80.4519     64.8989
   417.2500      0.0000    262.9330     80.4079     66.0886
   417.5000      0.0000    262.9456     80.3347     66.6464
   417.7500      0.0000    262.9727     80.1283     65.9871
   418.0000      0.0000    263.0329     79.5407     64.4725
   418.2500      0.0000    263.1783     78.1467     62.5229
   418.5000      0.0000    263.5128     75.5283     60.2227
   418.7500      0.0000    264.1734     71.7036     58.0686
   419.0000      0.0000    265.2442     67.3630     57.5065
   419.2500      0.0000    266.6495     63.4433     59.8409
   419.5000      0.0000    268.1367     60.4257     64.3651
   419.7500      0.0000    269.4021     58.2234     68.2316
   420.0000      0.0000    270.2659     56.6273     68.8016
   420.2500      0.0000    270.7437     55.5520     65.8932
   420.5000      2.0000    270.9998     54.9101     61.4108
   420.7500      0.0000    271.2806     54.5304     57.3344
   421.0000      0.0000    271.9023     54.2510     54.6316
   421.2500      0.0000    273.1556     54.1015     53.5427
   421.5000      0.0000    274.9548     54.4795     53.9951
   421.7500      0.0000    276.4810     56.0599     55.7070
   422.0000      0.0000    276.4971     59.2502     58.2927
   422.2500      0.0000    274.4080     63.6629     61.2434
   422.5000      0.0000    270.9307     68.3354     63.7060
   422.7500      0.0000    267.4889     72.4452     64.6038
   423.0000      0.0000    265.0707     75.6441     63.2751
   423.2500      0.0000    263.7918     77.8844     59.9768
   423.5000      0.0000    263.2702     79.2538     55.7412
   423.7500      0.0000    263.1069     79.9540     51.7957
   424.0000      0.0000    263.0709     80.2396     49.0860
   424.2500      0.0000    263.0673     80.3150     48.1725
   424.5000      0.0000    263.0677     80.3010     49.1842
   424.7500      0.0000    263.0643     80.2666     51.6521
   425.0000      0.0000    263.0567     80.2495     54.6903
   425.2500      0.0000    263.0457     80.2645     57.5703
   425.5000      0.0000    263.0325     80.3105     60.0336
   425.7500      0.0000    263.0194     80.3820     62.1016
   426.0000      0.0000    263.0092     80.4743     63.7506
   426.2500      0.0000    263.0041     80.5798     64.7619
   426.5000      0.0000    263.0044     80.6857     64.7877
   426.7500      0.0000    263.0093     80.7755     63.6149
   427.0000      0.0000    263.0178     80.8338     61.4980
   427.2500      0.0000    263.0282     80.8525     59.2340
   427.5000      0.0000    263.0378     80.8363     57.7013
   427.7500      0.0000    263.0428     80.8020     57.2130
   428.0000      0.0000    263.0413     80.7710     57.4212
   428.2500      0.0000    263.0330     80.7601     57.8515
