~Version Information
VERS.                      2.0: CWLS Log ASCII Standard - VERSION 2.0
WRAP.                       NO: One line per depth step
~Well Information Block
STRT.FT               875.0000: 
STOP.FT              2947.2500: 
STEP.FT                 0.2500: 
NULL.                -999.2500: 
COMP.          Pioneer Natural Resources: COMPANY
WELL.          Hanginstone 21-27: WELL
FLD.           Purgatoire River: FIELD
LOC.           1186' FNL & 1606' FWL--: LOCATION
PROV.                 Colorado: PROVINCE
CNTY.               Las Animas: COUNTRY
SRVC.                Patterson: SERVICE COMPANY
DATE.          Sat Jan 07 09:06:14 2006: LOG DATE
UWI.           05 071 08632 00: UNIQUE WELL ID
~Curve Information Block
DEPT.FT            0 000 00 00: Depth
SN.Ohm-m                      : IEL Short Normal
SP.mV                         : IEL Spontaneous Potential
DIR.Ohm-m                     : IEL Induction Resistivity
GR.GAPI                       : Gamma Ray
~Parameter Information Block
~A  Depth        SN          SP         DIR          GR     
# ...
  1545.0000     30.9594   -146.9061     25.9780    105.7276
  1545.2500     32.8174   -148.0240     27.1619     98.2535
  1545.5000     35.0857   -149.2327     28.5009     84.8932
  1545.7500     37.7541   -150.4893     30.0471     75.2625
  1546.0000     40.7070   -151.7415     31.8223     61.5150
  1546.2500     43.6899   -152.9283     33.7859     53.9708
  1546.5000     46.3256   -153.9826     35.8128     46.4022
  1546.7500     48.1969   -154.8360     37.6814     43.9699
  1547.0000     48.9652   -155.4267     39.0899     43.5621
  1547.2500     48.4666   -155.7087     39.7288     44.8707
  1547.5000     46.7532   -155.6614     39.4003     48.4127
  1547.7500     44.0697   -155.2963     38.1059     51.6384
  1548.0000     40.7785   -154.6588     36.0346     58.0180
  1548.2500     37.2654   -153.8232     33.4800     63.6416
  1548.5000     33.8604   -152.8820     30.7521     74.5103
  1548.7500     30.7876   -151.9301     28.1099     83.2276
  1549.0000     28.1499   -151.0495     25.7183     97.6451
  1549.2500     25.9464   -150.2971     23.6393    107.4534
  1549.5000     24.1093   -149.6980     21.8578    120.9470
  1549.7500     22.5440   -149.2464     20.3230    127.9692
  1550.0000     21.1586   -148.9104     18.9828    133.4265
  1550.2500     19.8878   -148.6414     17.8041    132.9175
  1550.5000     18.7125   -148.3837     16.7776    126.4281
  1550.7500     17.6631   -148.0848     15.9133    119.7077
  1551.0000     16.7983   -147.7034     15.2308    109.4724
  1551.2500     16.1701   -147.2163     14.7476    104.2508
  1551.5000     15.7943   -146.6212     14.4698     99.8544
  1551.7500     15.6431   -145.9355     14.3878     98.6477
  1552.0000     15.6570   -145.1904     14.4739     97.8181
  1552.2500     15.7639   -144.4219     14.6842     97.5585
  1552.5000     15.8943   -143.6619     14.9633     98.4059
  1552.7500     15.9964   -142.9322     15.2554    100.4240
  1553.0000     16.0558   -142.2425     15.5191    105.6027
  1553.2500     16.1108   -141.5939     15.7390    109.7415
  1553.5000     16.2419   -140.9857     15.9245    115.2911
  1553.7500     16.5360   -140.4221     16.0976    117.8240
  1554.0000     17.0430   -139.9177     16.2784    119.6873
  1554.2500     17.7514   -139.4994     16.4772    120.2469
  1554.5000     18.5990   -139.2057     16.6983    121.5834
  1554.7500     19.5162   -139.0822     16.9486    123.1833
  1555.0000     20.4690   -139.1766     17.2443    125.6422
  1555.2500     21.4695   -139.5313     17.6102    126.1684
  1555.5000     22.5557   -140.1768     18.0737    123.6783
  1555.7500     23.7766   -141.1246     18.6583    119.5065
  1556.0000     25.2005   -142.3612     19.3830    110.0031
  1556.2500     26.9359   -143.8444     20.2666    102.2464
  1556.5000     29.1333   -145.5029     21.3309     90.0092
  1556.7500     31.9339   -147.2417     22.5974     82.2546
  1557.0000     35.3527   -148.9516     24.0728     72.2268
  1557.2500     39.1518   -150.5233     25.7256     66.9146
  1557.5000     42.8259   -151.8622     27.4595     61.1369
  1557.7500     45.7743   -152.9011     29.0985     58.7984
  1558.0000     47.5652   -153.6076     30.4093     57.8508
  1558.2500     48.0878   -153.9839     31.1792     59.0010
  1558.5000     47.4962   -154.0605     31.3133     62.8075
  1558.7500     46.0321   -153.8860     30.8701     66.0866
  1559.0000     43.8864   -153.5172     30.0012     71.3203
  1559.2500     41.1827   -153.0114     28.8627     74.8931
  1559.5000     38.0473   -152.4223     27.5705     80.2663
  1559.7500     34.6753   -151.7989     26.2088     83.7281
  1560.0000     31.3340   -151.1856     24.8520     88.7607
  1560.2500     28.2967   -150.6214     23.5701     92.2121
  1560.5000     25.7596   -150.1378     22.4174     97.5721
  1560.7500     23.7985   -149.7574     21.4215    100.8291
  1561.0000     22.3776   -149.4921     20.5822    104.2483
  1561.2500     21.3865   -149.3444     19.8792    105.3927
  1561.5000     20.6871   -149.3103     19.2835    105.9901
  1561.7500     20.1554   -149.3822     18.7690    106.0053
  1562.0000     19.7098   -149.5531     18.3208    105.5743
  1562.2500     19.3244   -149.8177     17.9391    104.9446
  1562.5000     19.0236   -150.1731     17.6387    103.6316
  1562.7500     18.8554   -150.6162     17.4409    102.6667
  1563.0000     18.8516   -151.1397     17.3639    101.2544
  1563.2500     18.9990   -151.7277     17.4141    100.3330
  1563.5000     19.2398   -152.3527     17.5822     98.7437
  1563.7500     19.5039   -152.9761     17.8458     97.2740
  1564.0000     19.7493   -153.5522     18.1783     93.9532
  1564.2500     19.9881   -154.0359     18.5599     90.9229
  1564.5000     20.2775   -154.3919     18.9846     85.8676
  1564.7500     20.6746   -154.6007     19.4576     83.0383
  1565.0000     21.1840   -154.6604     19.9833     81.0551
  1565.2500     21.7362   -154.5838     20.5493     81.4922
  1565.5000     22.2112   -154.3929     21.1161     83.8333
  1565.7500     22.4861   -154.1143     21.6187     85.4147
  1566.0000     22.4797   -153.7773     21.9810     86.0554
  1566.2500     22.1808   -153.4134     22.1377     85.0496
  1566.5000     21.6530   -153.0564     22.0554     82.7551
  1566.7500     21.0084   -152.7396     21.7426     82.0663
  1567.0000     20.3567   -152.4888     21.2463     83.8080
  1567.2500     19.7596   -152.3157     20.6363     86.6116
  1567.5000     19.2240   -152.2120     19.9851     91.2838
  1567.7500     18.7339   -152.1495     19.3497     93.1674
  1568.0000     18.2843   -152.0850     18.7620     92.2865
  1568.2500     17.8837   -151.9712     18.2277     89.2603
  1568.5000     17.5317   -151.7675     17.7353     83.0240
  1568.7500     17.2061   -151.4500     17.2703     79.2487
  1569.0000     16.8734   -151.0173     16.8289     76.0249
  1569.2500     16.5152   -150.4903     16.4238     75.9586
  1569.5000     16.1479   -149.9078     16.0805     78.8839
  1569.7500     15.8214   -149.3181     15.8261     82.4205
  1570.0000     15.5935   -148.7698     15.6772     89.1863
  1570.2500     15.4958   -148.3036     15.6325     94.2622
  1570.5000     15.5139   -147.9464     15.6722    102.0726
  1570.7500     15.5965   -147.7090     15.7637    106.7473
  1571.0000     15.6842   -147.5883     15.8697    111.3069
  1571.2500     15.7389   -147.5710     15.9577    111.9782
  1571.5000     15.7562   -147.6392     16.0089    109.8053
  1571.7500     15.7604   -147.7748     16.0244    107.4656
  1572.0000     15.7847   -147.9631     16.0238    104.9544
  1572.2500     15.8493   -148.1946     16.0344    104.4712
  1572.5000     15.9501   -148.4646     16.0783    104.5935
  1572.7500     16.0590   -148.7720     16.1640    104.1966
  1573.0000     16.1379   -149.1172     16.2862    101.8404
  1573.2500     16.1568   -149.4999     16.4292     99.4591
  1573.5000     16.1073   -149.9178     16.5685     96.5063
  1573.7500     16.0029   -150.3657     16.6720     95.8496
  1574.0000     15.8673   -150.8361     16.7048     96.9982
  1574.2500     15.7226   -151.3194     16.6426     98.7638
  1574.5000     15.5839   -151.8059     16.4852    102.3465
  1574.7500     15.4625   -152.2856     16.2588    105.2084
  1575.0000     15.3669   -152.7489     16.0027    109.8838
  1575.2500     15.2966   -153.1861     15.7489    113.0674
  1575.5000     15.2343   -153.5873     15.5113    117.9126
  1575.7500     15.1459   -153.9433     15.2879    121.2231
  1576.0000     14.9923   -154.2474     15.0715    125.9504
  1576.2500     14.7466   -154.4977     14.8603    128.4492
  1576.5000     14.4089   -154.7003     14.6604    130.2255
  1576.7500     14.0134   -154.8699     14.4855    129.7398
  1577.0000     13.6214   -155.0294     14.3541    126.8658
  1577.2500     13.3039   -155.2063     14.2874    124.3469
  1577.5000     13.1217   -155.4275     14.3048    121.1776
  1577.7500     13.1134   -155.7143     14.4192    119.6886
  1578.0000     13.2879   -156.0774     14.6313    117.5559
  1578.2500     13.6209   -156.5147     14.9285    115.8275
