~Version Information
VERS.                      2.0: CWLS Log ASCII Standard - VERSION 2.0
WRAP.                       NO: One line per depth step
~Well Information Block
STRT.FT               245.0000: 
STOP.FT              1217.7000: 
STEP.FT                 0.1000: 
NULL.                -999.2500: 
COMP.          Pioneer Natural Resources: COMPANY
WELL.          Lucky Lady 42-29: WELL
FLD.           Purgatoire River: FIELD
LOC.           2482' FNL & 662' FEL--: LOCATION
CNTY.               Las Animas: COUNTY
SRVC.                Patterson: SERVICE COMPANY
DATE.          Thu Mar 09 18:39:54 2006: LOG DATE
UWI.           05 071 08659 00: UNIQUE WELL ID
STAT.                 Colorado: STATE
~Curve Information Block
DEPT.FT            0 000 00 00: Depth
DCAL.in                       : CDL Caliper
RHOB.g/cc                     : CDL Bulk Density
RHOC.g/cc                     : CDL Density Correction
DPOR.pu                       : CDL Density Porosity
NPOR.pu                       : Neutron Porosity
GR.GAPI                       : Gamma Ray
~Parameter Information Block
~A  Depth       DCAL        RHOB        RHOC        DPOR        NPOR         GR     
# ...
  1185.8000      7.7339      2.4785      0.0322     10.3920     22.9691      1.8334
  1185.9000      7.7339      2.4768      0.0599     10.4995     22.3683      0.1869
  1186.0000      7.7327      2.4725      0.0948     10.7567     22.1636      0.0100
  1186.1000      7.7327      2.4563      0.0275     11.7376     22.1020      0.0000
  1186.2000      7.7327      2.4292      0.0125     13.3829     21.8340   -999.2500
  1186.3000      7.7421      2.3989      0.0050     15.2161     21.2428   -999.2500
  1186.4000      7.7421      2.3796     -0.0143     16.3881     20.5364   -999.2500
  1186.5000      7.7565      2.3774      0.0185     16.5218     20.2421   -999.2500
  1186.6000      7.7565      2.3873     -0.0339     15.9200     20.6518   -999.2500
  1186.7000      7.7565      2.4060      0.0111     14.7855     21.4680   -999.2500
  1186.8000      7.7672      2.4285     -0.0030     13.4220     22.2589   -999.2500
  1186.9000      7.7672      2.4509      0.0134     12.0654     22.6121   -999.2500
  1187.0000      7.7713      2.4688      0.0556     10.9844     22.2570   -999.2500
  1187.1000      7.7713      2.4715      0.0843     10.8205     21.7309   -999.2500
  1187.2000      7.7713      2.4576      0.0871     11.6603     21.5129   -999.2500
  1187.3000      7.7709      2.4465      0.0310     12.3353     21.4779   -999.2500
  1187.4000      7.7709      2.4531      0.0445     11.9338     21.9363   -999.2500
  1187.5000      7.7703      2.4640      0.0775     11.2739     23.3255   -999.2500
  1187.6000      7.7703      2.4629      0.0770     11.3397     24.9812   -999.2500
  1187.7000      7.7703      2.4582      0.0413     11.6251     26.0299   -999.2500
  1187.8000      7.7705      2.4630      0.0556     11.3350     26.4886   -999.2500
  1187.9000      7.7705      2.4750      0.0597     10.6082     26.6057   -999.2500
  1188.0000      7.7692      2.4864      0.0438      9.9165     26.4639   -999.2500
  1188.1000      7.7692      2.4946      0.0450      9.4192     26.1709   -999.2500
  1188.2000      7.7692      2.4972      0.0683      9.2576     25.8745   -999.2500
  1188.3000      7.7627      2.4908      0.0671      9.6495     25.8258   -999.2500
  1188.4000      7.7627      2.4819      0.0625     10.1908     25.9741   -999.2500
  1188.5000      7.7525      2.4842      0.0643     10.0477     25.8936   -999.2500
  1188.6000      7.7525      2.4967      0.0977      9.2908     25.5691   -999.2500
  1188.7000      7.7525      2.5060      0.0724      8.7255     25.3722   -999.2500
  1188.8000      7.7484      2.5139      0.0697      8.2501     25.3120   -999.2500
  1188.9000      7.7484      2.5272      0.0903      7.4408     25.1240   -999.2500
  1189.0000      7.7549      2.5341      0.1121      7.0216     24.7444   -999.2500
  1189.1000      7.7549      2.5192      0.0811      7.9249     24.3449   -999.2500
  1189.2000      7.7549      2.4973      0.0249      9.2517     24.3240   -999.2500
  1189.3000      7.7663      2.4958      0.0517      9.3482     24.7776   -999.2500
  1189.4000      7.7663      2.5096      0.0736      8.5111     25.0772   -999.2500
  1189.5000      7.7705      2.5170      0.0924      8.0604     24.8015   -999.2500
  1189.6000      7.7705      2.5157      0.0359      8.1404     24.3682   -999.2500
  1189.7000      7.7705      2.5167      0.0805      8.0774     24.3894   -999.2500
  1189.8000      7.7637      2.5187      0.0671      7.9567     24.8346   -999.2500
  1189.9000      7.7637      2.5098      0.1008      8.4981     25.2477   -999.2500
  1190.0000      7.7524      2.4901      0.0447      9.6916     25.4554   -999.2500
  1190.1000      7.7524      2.4793      0.0632     10.3435     25.4332   -999.2500
  1190.2000      7.7524      2.4881      0.0840      9.8113     25.1552   -999.2500
  1190.3000      7.7456      2.5072      0.0622      8.6516     24.4981   -999.2500
  1190.4000      7.7456      2.5269      0.0953      7.4597     23.5009   -999.2500
  1190.5000      7.7472      2.5435      0.0673      6.4535     22.6335   -999.2500
  1190.6000      7.7472      2.5561      0.0813      5.6939     22.1237   -999.2500
  1190.7000      7.7472      2.5620      0.0833      5.3318     21.9154   -999.2500
  1190.8000      7.7499      2.5649      0.0830      5.1590     22.3176   -999.2500
  1190.9000      7.7499      2.5717      0.0969      4.7432     24.7216   -999.2500
  1191.0000      7.7456      2.5742      0.1406      4.5943     31.1879   -999.2500
  1191.1000      7.7456      2.5644      0.0599      5.1865     40.1805   -999.2500
  1191.2000      7.7456      2.5561      0.0567      5.6884     46.5087   -999.2500
  1191.3000      7.7412      2.5563      0.0867      5.6781     48.8365   -999.2500
  1191.4000      7.7412      2.5551      0.0336      5.7485     49.2974   -999.2500
  1191.5000      7.7407      2.5416      0.0899      6.5705     49.3461   -999.2500
  1191.6000      7.7407      2.5150      0.0581      8.1832     49.3489   -999.2500
  1191.7000      7.7407      2.4902      0.0519      9.6877   -999.2500   -999.2500
  1191.8000      7.7402      2.4749      0.0310     10.6139   -999.2500   -999.2500
  1191.9000      7.7402      2.4704      0.0147     10.8866   -999.2500   -999.2500
  1192.0000      7.7428      2.4803      0.0402     10.2874   -999.2500   -999.2500
  1192.1000      7.7428      2.4986      0.0445      9.1754   -999.2500   -999.2500
  1192.2000      7.7428      2.5151      0.0583      8.1756   -999.2500   -999.2500
  1192.3000      7.7516      2.5267      0.0166      7.4716   -999.2500   -999.2500
  1192.4000      7.7516      2.5311      0.0441      7.2056   -999.2500   -999.2500
  1192.5000      7.7609      2.5230      0.0557      7.6946   -999.2500   -999.2500
  1192.6000      7.7609      2.5119      0.0389      8.3693   -999.2500   -999.2500
  1192.7000      7.7609      2.5123      0.0560      8.3432   -999.2500   -999.2500
  1192.8000      7.7591      2.5160      0.0991      8.1224   -999.2500   -999.2500
  1192.9000      7.7591      2.5138      0.0379      8.2561   -999.2500   -999.2500
  1193.0000      7.7449      2.5164      0.0855      8.0945   -999.2500   -999.2500
  1193.1000      7.7449      2.5276      0.0727      7.4183   -999.2500   -999.2500
  1193.2000      7.7449      2.5362      0.1087      6.8961   -999.2500   -999.2500
  1193.3000      7.7309      2.5379      0.0445      6.7937   -999.2500   -999.2500
  1193.4000      7.7309      2.5392      0.0719      6.7150   -999.2500   -999.2500
  1193.5000      7.7259      2.5422      0.0704      6.5318   -999.2500   -999.2500
  1193.6000      7.7259      2.5464      0.0625      6.2783   -999.2500   -999.2500
  1193.7000      7.7259      2.5517      0.0754      5.9593   -999.2500   -999.2500
  1193.8000      7.7285      2.5512      0.1054      5.9855   -999.2500   -999.2500
  1193.9000      7.7285      2.5380      0.0744      6.7884   -999.2500   -999.2500
  1194.0000      7.7331      2.5235      0.0419      7.6660   -999.2500   -999.2500
  1194.1000      7.7331      2.5246      0.0419      7.6020   -999.2500   -999.2500
  1194.2000      7.7331      2.5351      0.0662      6.9634   -999.2500   -999.2500
  1194.3000      7.7421      2.5406      0.0658      6.6324   -999.2500   -999.2500
  1194.4000      7.7421      2.5409      0.0763      6.6100   -999.2500   -999.2500
  1194.5000      7.7519      2.5411      0.0819      6.6023   -999.2500   -999.2500
  1194.6000      7.7519      2.5395      0.0647      6.6973   -999.2500   -999.2500
  1194.7000      7.7519      2.5361      0.0395      6.9009   -999.2500   -999.2500
  1194.8000      7.7554      2.5338      0.0649      7.0418   -999.2500   -999.2500
  1194.9000      7.7554      2.5359      0.0758      6.9165   -999.2500   -999.2500
  1195.0000      7.7508      2.5457      0.0788      6.3221   -999.2500   -999.2500
  1195.1000      7.7508      2.5569      0.0876      5.6402   -999.2500   -999.2500
  1195.2000      7.7508      2.5585      0.0649      5.5454   -999.2500   -999.2500
  1195.3000      7.7460      2.5518      0.0616      5.9502   -999.2500   -999.2500
