~Version Information
VERS.                      2.0: CWLS Log ASCII Standard - VERSION 2.0
WRAP.                       NO: One line per depth step
~Well Information Block
STRT.FT                -7.0000: 
STOP.FT              1155.0000: 
STEP.FT                 0.2500: 
NULL.                -999.2500: 
COMP.          Pioneer Natural Resources: COMPANY
WELL.          Whitecoat 14-36: WELL
FLD.           Purgatorie River: FIELD
LOC.           606' FSL & 260' FWL--: LOCATION
PROV.                       CO: PROVINCE
CNTY.               Las Animas: COUNTRY
SRVC.          Patterson Wireline: SERVICE COMPANY
DATE.          Mon Dec 12 12:56:49 2005: LOG DATE
UWI.           08 071 08593 00: UNIQUE WELL ID
~Curve Information Block
DEPT.FT            0 000 00 00: Depth
CCL.                          : Casing Collar Locator
TT3.usec                      : CBL 3' Travel Time
AMP3.mV                       : CBL 3' Amplitude
GR.GAPI                       : Gamma Ray
~Parameter Information Block
~A  Depth       CCL         TT3         AMP3         GR     
# ...
   361.5000      0.0000    700.8421      5.2846    123.6763
   361.7500      0.0000    700.9889      5.1490    124.9983
   362.0000      0.0000    701.1203      5.0104    124.9942
   362.2500      0.0000    701.2741      4.8986    124.5946
   362.5000      0.0000    701.6871      4.8379    124.6608
   362.7500      0.0000    702.9470      4.8331    125.4202
   363.0000      0.0000    705.9750      4.8715    126.1926
   363.2500      0.0000    711.5253      4.9344    125.8116
   363.5000      0.0000    719.2546      5.0086    123.7780
   363.7500      0.0000    727.1589      5.0915    121.0263
   364.0000      0.0000    732.2732      5.1899    119.1385
   364.2500      0.0000    732.3988      5.3109    118.6008
   364.5000      0.0000    727.5272      5.4529    118.3012
   364.7500      0.0000    719.8344      5.6053    117.2458
   365.0000      0.0000    712.2666      5.7521    116.1651
   365.2500      0.0000    706.8376      5.8722    116.6163
   365.5000      0.0000    703.9267      5.9407    118.9550
   365.7500      0.0000    702.8156      5.9434    121.9941
   366.0000      0.0000    702.5989      5.8937    124.1813
   366.2500      0.0000    702.6739      5.8289    124.3779
   366.5000      0.0000    702.7511      5.7812    122.2140
   366.7500      0.0000    702.7255      5.7562    118.7342
   367.0000      0.0000    702.5967      5.7362    116.3735
   367.2500      0.0000    702.4553      5.6976    117.2372
   367.5000      0.0000    702.5493      5.6239    121.1796
   367.7500      0.0000    703.4456      5.5119    125.9312
   368.0000      0.0000    706.0847      5.3696    129.0165
   368.2500      0.0000    711.3395      5.2100    129.3054
   368.5000      0.0000    719.1203      5.0527    127.1648
   368.7500      0.0000    727.8676      4.9264    123.9528
   369.0000      0.0000    735.2139      4.8607    121.3962
   369.2500      0.0000    739.2356      4.8699    120.6731
   369.5000      0.0000    739.0437      4.9497    121.6369
   369.7500      0.0000    734.6417      5.0891    123.2676
   370.0000      0.0000    726.9417      5.2778    125.0516
   370.2500      0.0000    717.9055      5.5005    127.5439
   370.5000      0.0000    709.9131      5.7340    131.2564
   370.7500      0.0000    704.5008      5.9549    135.3490
   371.0000      0.0000    701.7416      6.1423    138.1517
   371.2500      0.0000    700.7631      6.2697    139.0036
   371.5000      0.0000    700.6068      6.3053    138.8757
   371.7500      0.0000    700.6730      6.2352    138.8685
   372.0000      0.0000    700.7235      6.0820    138.5474
   372.2500      0.0000    700.7213      5.8946    136.3318
   372.5000      0.0000    700.6862      5.7209    131.5154
   372.7500      0.0000    700.6288      5.5867    125.1930
   373.0000      0.0000    700.5671      5.4918    118.9405
   373.2500      0.0000    700.5469      5.4215    113.3841
   373.5000      0.0000    700.6102      5.3642    108.5149
   373.7500      0.0000    700.7377      5.3226    104.7555
   374.0000      0.0000    700.8448      5.3045    103.1793
   374.2500      0.0000    700.8419      5.3069    104.8325
   374.5000      0.0000    700.6932      5.3145    110.0366
   374.7500      0.0000    700.4192      5.3120    118.2799
   375.0000      0.0000    700.0279      5.2939    128.5089
   375.2500      0.0000    699.3889      5.2612    139.1906
   375.5000      0.0000    698.0775      5.2111    148.2542
   375.7500      0.0000    695.6187      5.1426    153.7288
   376.0000      0.0000    692.8154      5.0801    154.9486
   376.2500      0.0000    694.1132      5.0752    153.0236
   376.5000      0.0000    707.9832      5.1559    149.7742
   376.7500      0.0000    740.8883      5.2797    145.8333
   377.0000      0.0000    787.0818      5.3718    139.8817
   377.2500      0.0000    827.3019      5.4012    130.3027
   377.5000      0.0000    844.2916      5.3901    117.6778
   377.7500      2.0000    840.5814      5.3712    105.2304
   378.0000     -2.0000    836.3751      5.3711     96.6845
   378.2500      0.0000    848.7700      5.4136     93.7318
   378.5000      0.0000    875.2358      5.5130     95.3110
   378.7500      0.0000    896.5871      5.6676     98.8820
   379.0000      0.0000    893.9010      5.8573    102.2336
   379.2500      0.0000    863.1807      6.0224    104.5762
   379.5000      0.0000    816.1581      6.0717    106.5614
   379.7500      0.0000    769.6226      5.9663    109.5204
   380.0000      0.0000    734.7814      5.7790    114.5293
   380.2500      0.0000    714.1083      5.6278    121.8188
   380.5000      0.0000    704.2888      5.5682    130.5648
   380.7500      0.0000    700.5775      5.5729    138.9720
   381.0000      0.0000    699.4418      5.5823    144.9659
   381.2500      0.0000    699.1021      5.5509    147.3646
   381.5000      0.0000    698.9404      5.4618    146.4239
   381.7500      0.0000    698.9401      5.3237    142.9662
   382.0000      0.0000    699.4587      5.1640    137.1663
   382.2500      0.0000    701.1805      5.0199    128.5971
   382.5000      0.0000    704.8296      4.9243    117.4641
   382.7500      0.0000    710.2737      4.8899    105.4668
   383.0000      0.0000    715.6752      4.9069     95.2277
   383.2500      0.0000    718.2183      4.9581     88.7803
   383.5000      0.0000    716.4622      5.0311     86.5170
   383.7500      0.0000    711.7311      5.1144     87.5039
   384.0000      0.0000    706.7255      5.1862     90.5927
   384.2500      0.0000    703.1785      5.2112     95.1913
   384.5000      0.0000    701.1596      5.1580    101.0966
   384.7500      0.0000    699.9783      5.0287    107.7372
   385.0000      0.0000    699.1058      4.8712    113.7631
   385.2500      0.0000    698.3910      4.7508    117.2835
   385.5000      0.0000    697.8585      4.7014    116.3594
   385.7500      0.0000    697.5050      4.7098    109.9440
   386.0000      0.0000    697.2422      4.7447     99.3270
   386.2500      0.0000    696.9779      4.7906     88.1234
   386.5000      0.0000    696.6926      4.8496     79.5442
   386.7500      0.0000    696.4400      4.9201     73.8502
   387.0000      0.0000    696.2839      4.9806     69.4238
   387.2500      0.0000    696.2465      4.9973     65.7896
   387.5000      0.0000    696.3110      4.9497     64.3126
   387.7500      0.0000    696.4600      4.8495     66.1134
   388.0000      0.0000    696.6943      4.7334     70.3506
   388.2500      0.0000    697.0105      4.6332     74.7401
   388.5000      0.0000    697.3777      4.5574     77.2155
   388.7500      0.0000    697.7661      4.5004     77.2077
   389.0000      0.0000    698.2960      4.4629     75.9943
   389.2500      0.0000    699.5115      4.4543     75.9037
   389.5000      0.0000    702.6582      4.4814     78.6767
   389.7500      0.0000    709.4896      4.5404     84.3396
   390.0000      0.0000    720.8654      4.6247     91.7543
   390.2500      0.0000    734.7355      4.7348     99.8944
   390.5000      0.0000    746.0628      4.8719    108.0526
   390.7500      0.0000    750.0317      5.0222    115.1556
   391.0000      0.0000    745.5184      5.1583    119.8357
   391.2500      0.0000    735.1556      5.2645    121.3632
   391.5000      0.0000    722.8945      5.3569    120.0554
   391.7500      0.0000    712.0495      5.4719    116.8098
   392.0000      0.0000    704.4747      5.6318    112.5573
   392.2500      0.0000    700.3562      5.8202    108.0300
   392.5000      0.0000    698.7083      5.9931    103.7200
   392.7500      0.0000    698.3061      6.1161    100.1343
   393.0000      0.0000    698.3073      6.1904     98.1954
   393.2500      0.0000    698.3186      6.2385     99.1490
   393.5000      0.0000    698.2369      6.2724    103.7781
   393.7500      0.0000    698.1364      6.2821    111.7542
   394.0000      0.0000    698.2952      6.2559    121.8810
   394.2500      0.0000    699.4138      6.2057    132.8027
   394.5000      0.0000    702.8723      6.1677    143.3148
   394.7500      0.0000    710.4925      6.1785    152.2653
