~Version Information
VERS.                      2.0: CWLS Log ASCII Standard - VERSION 2.0
WRAP.                       NO: One line per depth step
~Well Information Block
STRT.FT               325.0000: 
STOP.FT              1013.5000: 
STEP.FT                 0.1000: 
NULL.                -999.2500: 
COMP.          Pioneer Natural Resources: COMPANY
WELL.                Doc 34-30: WELL
FLD.           Purgatoire River: FIELD
LOC.           454' FSL & 1386' FEL: LOCATION
CNTY.               Las Animas: COUNTY
SRVC.                Patterson: SERVICE COMPANY
DATE.          Thu Feb 16 07:19:58 2006: LOG DATE
UWI.           05 071 08694 00: UNIQUE WELL ID
STAT.                 Colorado: STATE
~Curve Information Block
DEPT.FT            0 000 00 00: Depth
DCAL.in                       : CDL Caliper
RHOB.g/cc                     : CDL Bulk Density
RHOC.g/cc                     : CDL Density Correction
DPOR.pu                       : CDL Density Porosity
GR.GAPI                       : Gamma Ray
NPOR.pu                       : Neutron Porosity
~Parameter Information Block
~A  Depth       DCAL        RHOB        RHOC        DPOR         GR         NPOR    
# ...
   862.6000      7.9540      2.5902      0.0866      3.6272     85.9509     27.6397
   862.7000      7.9540      2.5866      0.0733      3.8437     87.0691     27.5343
   862.8000      7.9526      2.5665      0.0195      5.0624     86.5931     27.7293
   862.9000      7.9526      2.5554     -0.0020      5.7318     82.3748     28.0358
   863.0000      7.9520      2.5668      0.0253      5.0453     79.2039     28.2212
   863.1000      7.9520      2.5832      0.0638      4.0505     79.9525     28.0036
   863.2000      7.9520      2.5754      0.0664      4.5208     83.2011     27.9211
   863.3000      7.9519      2.5353      0.0088      6.9538     86.6845     28.8967
   863.4000      7.9519      2.4901     -0.0275      9.6931     89.3322     30.1655
   863.5000      7.9521      2.4706     -0.0195     10.8727     92.7893     29.9882
   863.6000      7.9521      2.4784     -0.0268     10.3993     95.5592     28.3825
   863.7000      7.9521      2.4904      0.0364      9.6732     95.6887     27.1614
   863.8000      7.9521      2.4906      0.0073      9.6598     97.3848     27.4309
   863.9000      7.9521      2.4919     -0.0199      9.5808    102.0292     28.6367
   864.0000      7.9518      2.5054      0.0197      8.7611    105.3555     29.6291
   864.1000      7.9518      2.5203      0.0361      7.8608    105.3445     29.5107
   864.2000      7.9518      2.5258      0.0663      7.5298    101.9999     28.1346
   864.3000      7.9518      2.5210      0.0789      7.8178     97.5300     26.9017
   864.4000      7.9518      2.5083      0.0488      8.5888     95.9711     27.0195
   864.5000      7.9522      2.4884      0.0248      9.7953     96.4309     27.7789
   864.6000      7.9522      2.4604      0.0312     11.4883     95.1974     28.0040
   864.7000      7.9522      2.4320      0.0135     13.2123     93.4823     27.6693
   864.8000      7.9526      2.4156      0.0063     14.2051     92.7087     27.4629
   864.9000      7.9526      2.4071      0.0283     14.7201     89.6183     27.8264
   865.0000      7.9527      2.3900      0.0189     15.7546     85.9292     28.6910
   865.1000      7.9527      2.3583      0.0278     17.6801     88.4706     29.7704
   865.2000      7.9527      2.3127      0.0231     20.4402     94.5804     30.8683
   865.3000      7.9536      2.2550     -0.0359     23.9421     96.8326     31.5451
   865.4000      7.9536      2.1847     -0.0093     28.2003     96.2839     31.0413
   865.5000      7.9551      2.0965      0.0033     33.5453     96.1185     29.6585
   865.6000      7.9551      1.9885     -0.0364     40.0929     93.3665     28.9354
   865.7000      7.9551      1.8696     -0.0490     47.2992     86.8596     29.6542
   865.8000      7.9578      1.7571     -0.0731     54.1133     79.1465     31.1419
   865.9000      7.9578      1.6726     -0.0940     59.2343     71.8377     32.5951
   866.0000      7.9622      1.6277     -0.0840     61.9566     67.4100     33.5265
   866.1000      7.9622      1.6127     -0.0062     62.8640     66.1422     33.5426
   866.2000      7.9622      1.6139      0.0140     62.7924     63.9484     32.9776
   866.3000      7.9658      1.6335      0.0404     61.6043     59.4767     32.3844
   866.4000      7.9658      1.6800      0.1017     58.7894     56.0192     31.9282
   866.5000      7.9676      1.7495      0.1619     54.5741     54.6136     31.8027
   866.6000      7.9676      1.8369      0.1635     49.2785     53.6719     31.9620
   866.7000      7.9676      1.9475      0.1515     42.5741     53.8628     31.9313
   866.8000      7.9653      2.0671      0.2022     35.3300     58.3528     31.5789
   866.9000      7.9653      2.1620      0.1895     29.5747     66.6326     31.3078
   867.0000      7.9603      2.2297      0.1374     25.4720     74.2521     31.3230
   867.1000      7.9603      2.2872      0.1927     21.9903     79.3387     31.5384
   867.2000      7.9603      2.3350      0.1662     19.0914     82.4517     31.7382
   867.3000      7.9566      2.3718      0.1428     16.8620     84.3962     31.4719
   867.4000      7.9566      2.4032      0.0645     14.9573     85.9914     30.5224
   867.5000      7.9543      2.4313      0.0430     13.2545     89.6838     29.7013
   867.6000      7.9543      2.4526      0.0472     11.9629     95.7535     29.7640
   867.7000      7.9543      2.4668      0.0618     11.1042    101.0666     30.0272
   867.8000      7.9527      2.4766      0.0176     10.5095    105.4983     30.1050
   867.9000      7.9527      2.4797     -0.0034     10.3229    109.3773     30.6042
   868.0000      7.9519      2.4760     -0.0067     10.5430    109.5491     31.2467
   868.1000      7.9519      2.4716      0.0227     10.8099    105.8725     30.6091
   868.2000      7.9519      2.4676     -0.0182     11.0536    102.5452     28.4554
   868.3000      7.9514      2.4687     -0.0120     10.9870    102.1489     26.4466
   868.4000      7.9514      2.4758      0.0349     10.5561    103.9622     25.8975
   868.5000      7.9512      2.4771      0.0379     10.4792    107.6352     26.9417
   868.6000      7.9512      2.4695      0.0051     10.9423    111.5176     28.6262
   868.7000      7.9512      2.4544      0.0238     11.8567    111.7662     29.9038
   868.8000      7.9516      2.4252      0.0125     13.6242    108.0010     30.5150
   868.9000      7.9516      2.3828     -0.0163     16.1915    102.9645     30.6312
   869.0000      7.9520      2.3348     -0.0259     19.1054    100.3995     30.5235
   869.1000      7.9520      2.2863     -0.0131     22.0404    100.7650     30.4714
   869.2000      7.9520      2.2482     -0.0437     24.3496     99.2482     30.3423
   869.3000      7.9520      2.2352     -0.0468     25.1399     94.2613     29.8289
   869.4000      7.9520      2.2438      0.0321     24.6211     91.0799     29.5597
   869.5000      7.9528      2.2551      0.0241     23.9361     92.1126     29.8808
   869.6000      7.9528      2.2608      0.0545     23.5861     94.6542     29.9172
   869.7000      7.9528      2.2593      0.0339     23.6813     96.3372     29.4603
   869.8000      7.9541      2.2492      0.0435     24.2901     94.3463     29.2893
   869.9000      7.9541      2.2393      0.0255     24.8897     89.2701     29.5023
   870.0000      7.9534      2.2442      0.0115     24.5933     86.6205     30.1217
   870.1000      7.9534      2.2651      0.0503     23.3276     89.2132     31.3175
   870.2000      7.9534      2.2879      0.0685     21.9474     96.5458     31.7975
   870.3000      7.9518      2.3073      0.0523     20.7724    103.7250     30.9258
   870.4000      7.9518      2.3283      0.0772     19.4941    104.3038     29.8753
   870.5000      7.9513      2.3472      0.0897     18.3493    101.8300     29.5908
   870.6000      7.9513      2.3573      0.0684     17.7394    102.3641     30.0698
   870.7000      7.9513      2.3605      0.0831     17.5477    106.1851     30.4619
   870.8000      7.9519      2.3604      0.0624     17.5508    111.3078     30.4905
   870.9000      7.9519      2.3578      0.0887     17.7082    114.6775     30.7585
   871.0000      7.9527      2.3571      0.0476     17.7545    115.8243     31.3243
   871.1000      7.9527      2.3696      0.0370     16.9949    116.6214     31.7254
   871.2000      7.9527      2.3989      0.0333     15.2207    115.8489     31.2968
   871.3000      7.9533      2.4339      0.0728     13.0972    111.4726     29.9417
   871.4000      7.9533      2.4585      0.1156     11.6052    108.3656     28.8476
   871.5000      7.9532      2.4614      0.1253     11.4304    111.7102     29.1742
   871.6000      7.9532      2.4479      0.0836     12.2509    115.7265     30.5971
   871.7000      7.9532      2.4380      0.0334     12.8484    113.6376     31.5408
   871.8000      7.9529      2.4434      0.0563     12.5235    109.2814     31.4402
   871.9000      7.9529      2.4556      0.0571     11.7802    107.2801     30.8777
   872.0000      7.9532      2.4688      0.0225     10.9814    104.3110     30.1531
   872.1000      7.9532      2.4891      0.0604      9.7510     97.9972     29.3203
