~Version Information
VERS.                      2.0: CWLS Log ASCII Standard - VERSION 2.0
WRAP.                       NO: One line per depth step
~Well Information Block
STRT.FT               245.0000: 
STOP.FT              1006.0000: 
STEP.FT                 0.1000: 
NULL.                -999.2500: 
COMP.          Pioneer Natural Resources: COMPANY
WELL.              Atlas 32-18: WELL
FLD.           Purgatoire River: FIELD
LOC.           1892' FNL & 1456' FEL: LOCATION
PROV.                 Colorado: PROVINCE
CNTY.               Las Animas: COUNTRY
SRVC.                Patterson: SERVICE COMPANY
DATE.          Mon Nov 21 08:58:56 2005: LOG DATE
UWI.           05 071 08556 00: UNIQUE WELL ID
~Curve Information Block
DEPT.FT            0 000 00 00: Depth
DCAL.in                       : CDL Caliper
RHOB.g/cc                     : CDL Bulk Density
RHOC.g/cc                     : CDL Density Correction
DPOR.pu                       : CDL Density Porosity
GR.GAPI                       : Gamma Ray
NPOR.pu                       : Neutron Porosity
~Parameter Information Block
~A  Depth       DCAL        RHOB        RHOC        DPOR         GR         NPOR    
# ...
   945.8000      7.9136      2.5866      0.0400      3.8436    128.4606     26.3702
   945.9000      7.9136      2.5744      0.0100      4.5812    138.0812     25.9678
   946.0000      7.9146      2.5689      0.0195      4.9146    147.1787     25.3468
   946.1000      7.9146      2.5621      0.0366      5.3294    152.4118     24.5108
   946.2000      7.9146      2.5370      0.0240      6.8480    148.6954     24.3707
   946.3000      7.9116      2.4997     -0.0006      9.1113    139.6037     25.4125
   946.4000      7.9116      2.4811     -0.0574     10.2363    132.8340     26.8911
   946.5000      7.8990      2.5034     -0.0541      8.8848    128.2182     27.7822
   946.6000      7.8990      2.5499      0.0191      6.0679    120.3907     27.6960
   946.7000      7.8990      2.5881      0.0476      3.7532    110.3184     26.7265
   946.8000      7.8619      2.6036      0.0855      2.8115    105.0080     25.4571
   946.9000      7.8619      2.6021      0.0864      2.9001    101.2558     24.7514
   947.0000      7.8492      2.6035      0.0634      2.8156     92.1436     24.5509
   947.1000      7.8492      2.6191      0.1110      1.8719     80.9448     23.8374
   947.2000      7.8492      2.6326      0.0826      1.0523     70.9526     22.6901
   947.3000      7.8373      2.6226      0.0732      1.6631     62.1911     22.3116
   947.4000      7.8373      2.5974      0.0069      3.1862     53.4599     23.0228
   947.5000      7.8456      2.5875     -0.0074      3.7868     45.5938     23.8883
   947.6000      7.8456      2.5985      0.0098      3.1193     42.5758     23.8149
   947.7000      7.8456      2.6073      0.0792      2.5875     45.2519     22.5594
   947.8000      7.8512      2.6010      0.0189      2.9687     48.3288     20.7542
   947.9000      7.8512      2.5869      0.0397      3.8252     48.4534     19.3510
   948.0000      7.8555      2.5738      0.0355      4.6198     49.0155     18.8910
   948.1000      7.8555      2.5662      0.0127      5.0799     50.9390     19.0051
   948.2000      7.8555      2.5609      0.0204      5.4023     51.1056     19.1249
   948.3000      7.8594      2.5517      0.0519      5.9580     48.6821     19.4217
   948.4000      7.8594      2.5440      0.0198      6.4272     44.5950     20.0534
   948.5000      7.8604      2.5448      0.0115      6.3759     40.7319     20.5525
   948.6000      7.8604      2.5421      0.0639      6.5394     40.0192     20.7773
   948.7000      7.8604      2.5251     -0.0049      7.5693     44.6169     21.0439
   948.8000      7.8599      2.5042     -0.0129      8.8337     53.1425     21.5389
   948.9000      7.8599      2.4856      0.0074      9.9664     59.1983     21.9903
   949.0000      7.8758      2.4705     -0.0085     10.8794     57.2913     22.0653
   949.1000      7.8758      2.4700     -0.0183     10.9066     49.0843     22.0083
   949.2000      7.8758      2.4816      0.0341     10.2037     42.6095     22.2398
   949.3000      7.8815      2.4875      0.0240      9.8506     43.3174     22.6095
   949.4000      7.8815      2.4823      0.0585     10.1635     48.2634     22.9174
   949.5000      7.9081      2.4713      0.0401     10.8295     51.9042     23.2174
   949.6000      7.9081      2.4557      0.0575     11.7766     53.2447     23.4134
   949.7000      7.9081      2.4291      0.0795     13.3900     54.3119     23.1127
   949.8000      7.9374      2.3885      0.0578     15.8476     55.1072     22.5517
   949.9000      7.9374      2.3463      0.0255     18.4032     54.0848     22.3770
   950.0000      7.9290      2.3193      0.0045     20.0394     50.9270     22.4820
   950.1000      7.9290      2.3174      0.0083     20.1579     47.5417     22.8953
   950.2000      7.9290      2.3440      0.0014     18.5480     47.0679     23.9405
   950.3000      7.8614      2.3892      0.0434     15.8090     49.2497     25.0504
   950.4000      7.8614      2.4342      0.0810     13.0773     51.6895     25.4610
   950.5000      7.8327      2.4754      0.1326     10.5819     53.9627     25.4369
   950.6000      7.8327      2.5127      0.1869      8.3202     55.9479     25.6065
   950.7000      7.8327      2.5320      0.2134      7.1529     57.6957     26.2291
   950.8000      7.8318      2.5258      0.1803      7.5267     57.8199     26.8311
   950.9000      7.8318      2.5034      0.1393      8.8827     55.6906     26.9137
   951.0000      7.8205      2.4640      0.1898     11.2703     52.3107     26.9874
   951.1000      7.8205      2.3948      0.0672     15.4653     47.4025     27.6232
   951.2000      7.8205      2.2995     -0.0130     21.2423     44.8971     28.5133
   951.3000      8.0905      2.1951     -0.0362     27.5692     47.2740     29.3828
   951.4000      8.0905      2.0872     -0.0578     34.1063     48.6247     30.2985
   951.5000      8.5800      1.9599     -0.0572     41.8247     44.6439     31.1560
   951.6000      8.5800      1.8100     -0.1447     50.9110     41.1688     31.2806
   951.7000      8.5800      1.6813     -0.1978     58.7072     44.4238     30.5937
   951.8000      9.1761      1.6242     -0.0993     62.1700     49.5609     30.1289
   951.9000      9.1761      1.6440      0.0086     60.9695     50.7739     30.3814
   952.0000      8.6563      1.7107      0.0688     56.9273     49.8508     30.8699
   952.1000      8.6563      1.7892      0.1784     52.1712     49.2693     31.4762
   952.2000      8.6563      1.8514      0.1954     48.3993     48.9960     32.2578
   952.3000      8.5583      1.8809      0.2229     46.6125     48.1349     32.6260
   952.4000      8.5583      1.8735      0.2043     47.0616     46.7494     32.1001
   952.5000      8.6557      1.8371      0.1924     49.2662     44.9720     31.0404
   952.6000      8.6557      1.7957      0.1363     51.7742     43.4355     30.3700
   952.7000      8.6557      1.7736      0.1882     53.1143     43.9448     30.6565
   952.8000      8.8487      1.7641      0.2593     53.6936     46.5516     31.7454
   952.9000      8.8487      1.7556      0.1611     54.2035     48.6591     32.7747
   953.0000      9.4345      1.7669      0.1593     53.5228     47.3227     32.6965
   953.1000      9.4345      1.8257      0.1520     49.9592     43.0968     31.5988
   953.2000      9.4345      1.9432      0.1757     42.8346     41.2071     30.8429
   953.3000      9.8735      2.0905      0.2333     33.9098     44.6274     31.1213
   953.4000      9.8735      2.2108      0.2495     26.6212     49.4474     31.4968
   953.5000      9.6016      2.2611      0.2923     23.5711     50.2513     31.5670
   953.6000      9.6016      2.2195      0.2696     26.0901     46.1795     32.3116
   953.7000      9.6016      2.0805      0.2219     34.5122     40.9133     33.7103
   953.8000      9.6601      1.8820      0.0316     46.5479     40.1359     34.5022
   953.9000      9.6601      1.7164     -0.1068     56.5788     45.4310     34.1383
   954.0000     10.2049      1.6631     -0.0808     59.8119     52.0881     33.0529
   954.1000     10.2049      1.7175      0.1122     56.5175     59.3575     31.6247
   954.2000     10.2049      1.8152      0.2391     50.5926     67.1249     30.1834
   954.3000     11.1583      1.9111      0.2576     44.7811     70.2295     29.5414
   954.4000     11.1583      2.0094      0.2727     38.8262     68.9559     29.9197
   954.5000     11.7078      2.1241      0.3013     31.8717     69.6294     30.3594
   954.6000     11.7078      2.2481      0.3379     24.3568     75.2556     30.3758
   954.7000     11.7078      2.3685      0.3178     17.0589     82.7234     30.3854
   954.8000     11.2962      2.4755      0.3530     10.5756     87.7693     30.5215
   954.9000     11.2962      2.5544      0.3789      5.7954     91.4307     30.4386
   955.0000      9.6521      2.6048      0.3332      2.7410     94.7444     29.6174
   955.1000      9.6521      2.6396      0.3220      0.6276     96.4506     28.1290
   955.2000      9.6521      2.6538      0.3476     -0.2287     98.8237     27.1001
   955.3000      8.3093      2.6348      0.2485      0.9191    104.8835     26.8523
