~Version Information
VERS.                      2.0: CWLS Log ASCII Standard - VERSION 2.0
WRAP.                       NO: One line per depth step
~Well Information Block
STRT.FT               655.0000: 
STOP.FT              2623.7000: 
STEP.FT                 0.1000: 
NULL.                -999.2500: 
COMP.          Pioneer Natural Resources: COMPANY
WELL.             Aviator 12-4: WELL
FLD.           Purgatoire River: FIELD
LOC.           1969' FNL & 732' FWL--: LOCATION
CNTY.               Las Animas: COUNTY
SRVC.                Patterson: SERVICE COMPANY
DATE.          Mon Apr 10 07:35:20 2006: LOG DATE
UWI.           05 071 08714 00: UNIQUE WELL ID
STAT.                 Colorado: STATE
~Curve Information Block
DEPT.FT            0 000 00 00: Depth
DCAL.in                       : CDL Caliper
RHOB.g/cc                     : CDL Bulk Density
RHOC.g/cc                     : CDL Density Correction
DPOR.pu                       : CDL Density Porosity
NPOR.pu                       : Neutron Porosity
GR.GAPI                       : Gamma Ray
~Parameter Information Block
~A  Depth       DCAL        RHOB        RHOC        DPOR        NPOR         GR     
# ...
   779.8000      8.0984      2.5815      0.0850      4.1537     19.2085     96.1915
   779.9000      8.0984      2.5858      0.0497      3.8910     18.8646     85.5873
   780.0000      8.0979      2.5680      0.0309      4.9705     19.0613     79.9678
   780.1000      8.0979      2.5469     -0.0156      6.2494     19.9438     84.6480
   780.2000      8.0979      2.5471     -0.0170      6.2358     21.0550     92.5730
   780.3000      8.0982      2.5775      0.0222      4.3910     21.9287     94.3666
   780.4000      8.0982      2.6164      0.1057      2.0378     22.4792     90.2630
   780.5000      8.0992      2.6289      0.0875      1.2814     22.9478     85.7570
   780.6000      8.0992      2.6147      0.0261      2.1401     23.6117     85.2988
   780.7000      8.0992      2.6001     -0.0095      3.0228     24.4282     87.4228
   780.8000      8.1008      2.5976      0.0388      3.1782     25.0529     87.8354
   780.9000      8.1008      2.6017      0.0535      2.9260     25.2610     86.4328
   781.0000      8.1017      2.5998      0.0470      3.0412     24.9257     85.1784
   781.1000      8.1017      2.5828      0.0384      4.0728     24.2538     85.9289
   781.2000      8.1017      2.5594      0.0445      5.4915     23.6518     90.2716
   781.3000      8.1027      2.5440      0.0203      6.4231     23.4637     97.2722
   781.4000      8.1027      2.5372     -0.0082      6.8339     23.8831    103.3338
   781.5000      8.1045      2.5239      0.0373      7.6449     24.3108    108.5981
   781.6000      8.1045      2.4940      0.0014      9.4535     24.0764    116.5707
   781.7000      8.1045      2.4604     -0.0291     11.4879     23.4658    126.2849
   781.8000      8.1063      2.4386      0.0173     12.8147     23.0879    129.1535
   781.9000      8.1063      2.4335     -0.0063     13.1240     22.9092    119.6483
   782.0000      8.1085      2.4452      0.0195     12.4145     22.3601    106.8079
   782.1000      8.1085      2.4600      0.0314     11.5169     21.5618    104.4371
   782.2000      8.1085      2.4631      0.0478     11.3281     21.2739    111.1038
   782.3000      8.1124      2.4661     -0.0096     11.1478     21.3977    113.6459
   782.4000      8.1124      2.4853      0.0580      9.9835     21.3598    108.9112
   782.5000      8.1172      2.5074      0.0774      8.6411     21.1685    107.3685
   782.6000      8.1172      2.5125      0.0723      8.3338     21.1272    112.3185
   782.7000      8.1172      2.5026      0.0219      8.9315     21.4467    118.2351
   782.8000      8.1160      2.4940      0.0576      9.4526     22.0683    121.2146
   782.9000      8.1160      2.5003      0.0393      9.0745     22.5984    120.9751
   783.0000      8.1086      2.5269      0.0219      7.4635     22.7404    121.7506
   783.1000      8.1086      2.5652      0.0585      5.1381     22.6533    123.3536
   783.2000      8.1086      2.6012      0.0988      2.9588     22.6059    118.7490
   783.3000      8.1036      2.6174      0.1353      1.9747     22.5780    112.6357
   783.4000      8.1036      2.5959      0.0881      3.2799     22.3943    113.7225
   783.5000      8.1036      2.5444      0.0607      6.3985     22.0217    118.7174
   783.6000      8.1036      2.5028     -0.0380      8.9221     21.6402    121.8593
   783.7000      8.1036      2.4984      0.0673      9.1880     21.3810    120.7172
   783.8000      8.1037      2.5148      0.0301      8.1926     21.2981    114.8489
   783.9000      8.1037      2.5300      0.0807      7.2712     21.2465    109.0158
   784.0000      8.1032      2.5406      0.0685      6.6297     21.0501    108.2651
   784.1000      8.1032      2.5537      0.0962      5.8378     20.6178    109.4949
   784.2000      8.1032      2.5739      0.0847      4.6124     19.9693    109.4275
   784.3000      8.1032      2.5942      0.0869      3.3821     19.4464    107.1805
   784.4000      8.1032      2.6007      0.0756      2.9895     19.4857    101.6367
   784.5000      8.1032      2.5950      0.0456      3.3305     19.9634     96.9711
   784.6000      8.1032      2.5978      0.0408      3.1606     20.6565     95.6364
   784.7000      8.1032      2.6183      0.0650      1.9221     21.5325     94.6226
   784.8000      8.1036      2.6368      0.0991      0.8014     22.2575     92.8649
   784.9000      8.1036      2.6259      0.0761      1.4583     22.7072     91.1362
   785.0000      8.1023      2.5918      0.0467      3.5281     23.3677     90.8237
   785.1000      8.1023      2.5674      0.0170      5.0075     24.4645     92.6798
   785.2000      8.1023      2.5551      0.0470      5.7493     25.6001     95.3253
   785.3000      8.1001      2.5361      0.0065      6.9016     25.9809     98.5381
   785.4000      8.1001      2.5239     -0.0332      7.6421     25.3891    102.1422
   785.5000      8.1002      2.5300      0.0334      7.2722     24.4431    107.1228
   785.6000      8.1002      2.5328     -0.0002      7.1006     23.7287    114.6555
   785.7000      8.1002      2.5170      0.0379      8.0619     23.4408    119.3947
   785.8000      8.1015      2.4910      0.0039      9.6377     23.1629    117.6606
   785.9000      8.1015      2.4766      0.0185     10.5092     22.7033    114.3890
   786.0000      8.1021      2.4882     -0.0268      9.8079     22.2911    113.3299
   786.1000      8.1021      2.5116      0.0876      8.3892     21.5345    112.4899
   786.2000      8.1021      2.5166      0.0794      8.0872     20.4116    109.9237
   786.3000      8.0998      2.5025      0.0255      8.9421     19.5404    107.6642
   786.4000      8.0998      2.4888      0.0538      9.7693     19.0472    108.5176
   786.5000      8.0946      2.4856      0.0219      9.9618     18.6286    111.4778
   786.6000      8.0946      2.4997      0.0242      9.1095     18.1311    115.6997
   786.7000      8.0946      2.5291      0.0478      7.3265     17.8654    121.3262
   786.8000      8.0882      2.5621      0.0671      5.3270     18.0263    123.0818
   786.9000      8.0882      2.5927      0.0831      3.4701     18.3191    117.0440
   787.0000      8.0807      2.6197      0.1066      1.8357     18.5064    107.1764
   787.1000      8.0807      2.6362      0.1106      0.8373     18.7788     99.6225
   787.2000      8.0807      2.6354      0.0835      0.8838     19.1936     95.6790
   787.3000      8.0805      2.6282      0.0790      1.3199     19.5890     91.3244
   787.4000      8.0805      2.6401      0.0208      0.5975     20.0336     88.2024
   787.5000      8.0897      2.6739      0.0858     -1.4494     20.5659     90.8325
   787.6000      8.0897      2.6909      0.0959     -2.4761     20.8846     93.9303
   787.7000      8.0897      2.6676      0.0200     -1.0690     20.8090     92.3109
   787.8000      8.0965      2.6325     -0.0025      1.0630     20.4023     90.6836
   787.9000      8.0965      2.6129      0.0101      2.2474     19.8603     91.2546
   788.0000      8.0978      2.6061      0.0278      2.6635     19.4290     90.0391
   788.1000      8.0978      2.6038      0.0284      2.8026     19.2021     84.9971
   788.2000      8.0978      2.6039      0.0562      2.7920     19.3632     77.9922
   788.3000      8.0982      2.5991      0.0348      3.0866     19.8663     73.4712
   788.4000      8.0982      2.5817      0.0611      4.1399     20.2115     72.9250
   788.5000      8.0989      2.5663     -0.0125      5.0702     20.4562     73.0740
   788.6000      8.0989      2.5785     -0.0255      4.3318     21.2162     73.3403
   788.7000      8.0989      2.6114      0.0538      2.3388     22.4871     74.6179
   788.8000      8.0998      2.6367      0.0640      0.8048     23.3737     75.4941
   788.9000      8.0998      2.6429      0.0749      0.4310     23.4233     75.8911
   789.0000      8.1014      2.6226      0.0843      1.6616     23.1270     78.3910
   789.1000      8.1014      2.5854     -0.0222      3.9182     22.7942     84.0321
   789.2000      8.1014      2.5582      0.0117      5.5626     22.4065     89.1677
   789.3000      8.1031      2.5393      0.0300      6.7080     21.8688     89.5735
