~Version Information
VERS.                      2.0: CWLS Log ASCII Standard - VERSION 2.0
WRAP.                       NO: One line per depth step
~Well Information Block
STRT.FT                -6.7500: 
STOP.FT              2034.2500: 
STEP.FT                 0.2500: 
NULL.                -999.2500: 
COMP.          Evergreen Operating Corp.: COMPANY
WELL.           Big Pine 32-15: WELL
FLD.           Purgatorie River: FIELD
LOC.           2590 FNL & 1442 FEL--: LOCATION
STAT.                       CO: State
CNTY.               Las Animas: COUNTY
CTRY. USA : Country
SECT. 15 : Section
TOWN. 33S : township
RANG. 67W : Range
SRVC.          Patterson Wireline, Inc.: SERVICE COMPANY
DATE.          Mon Mar 24 12:45:01 2003: LOG DATE
API.           05 071 07772 00: UNIQUE WELL ID
~Curve Information Block
DEPT.FT            0 000 00 00: Depth
HVOLTA.V                      : Head Voltage Apparent
CCL.                          : Casing Collar Locator
TT3.usec                      : CBL 3' Travel Time
AMP3.mV                       : CBL 3' Amplitude
GR.GAPI                       : Gamma Ray
~Parameter Information Block
~A  Depth      HVOLTA       CCL         TT3         AMP3         GR     
    -6.7500   -999.2500   -999.2500   -999.2500   -999.2500     99.7050
    -6.5000   -999.2500   -999.2500   -999.2500   -999.2500     98.7355
    -6.2500   -999.2500   -999.2500   -999.2500   -999.2500     98.1842
    -6.0000   -999.2500   -999.2500   -999.2500   -999.2500     98.5377
    -5.7500   -999.2500   -999.2500   -999.2500   -999.2500     99.9315
    -5.5000   -999.2500   -999.2500   -999.2500   -999.2500    102.1641
    -5.2500   -999.2500   -999.2500   -999.2500   -999.2500    104.6559
    -5.0000   -999.2500   -999.2500   -999.2500   -999.2500    106.3488
    -4.7500   -999.2500   -999.2500   -999.2500   -999.2500    106.2032
    -4.5000   -999.2500   -999.2500   -999.2500   -999.2500    104.1607
    -4.2500   -999.2500   -999.2500   -999.2500   -999.2500    101.4197
    -4.0000   -999.2500   -999.2500   -999.2500   -999.2500     99.5007
    -3.7500   -999.2500   -999.2500   -999.2500   -999.2500     98.9121
    -3.5000   -999.2500   -999.2500   -999.2500   -999.2500     98.7191
    -3.2500   -999.2500   -999.2500   -999.2500   -999.2500     97.7399
    -3.0000   -999.2500   -999.2500   -999.2500   -999.2500     96.2785
    -2.7500   -999.2500   -999.2500   -999.2500   -999.2500     96.0308
    -2.5000   -999.2500   -999.2500   -999.2500   -999.2500     97.9881
    -2.2500   -999.2500   -999.2500   1402.6321      1.2855    101.0943
    -2.0000   -999.2500   -999.2500   1402.5248      1.3175    103.1832
    -1.7500   -999.2500   -999.2500   1402.3396      1.4135    102.7196
    -1.5000   -999.2500   -999.2500   1402.1901      1.4892     99.6284
    -1.2500   -999.2500   -999.2500   1402.1891      1.5039     95.0831
    -1.0000   -999.2500   -999.2500   1402.3312      1.4860     90.7561
    -0.7500   -999.2500   -999.2500   1402.4812      1.4683     88.0879
    -0.5000   -999.2500   -999.2500   1402.4867      1.4603     88.0001
    -0.2500   -999.2500   -999.2500   1402.3585      1.4741     90.7579
     0.0000   -999.2500   -999.2500   1402.2559      1.5016     95.3937
     0.2500   -999.2500   -999.2500   1402.3108      1.4723    100.0640
     0.5000   -999.2500   -999.2500   1402.3245      1.4649     96.6748
     0.7500   -999.2500   -999.2500   1402.3300      1.5007     90.9646
     1.0000   -999.2500   -999.2500   1402.3383      1.5596     85.1259
     1.2500   -999.2500   -999.2500   1402.3311      1.6168     79.7834
     1.5000   -999.2500   -999.2500   1402.3309      1.6351     74.1414
     1.7500   -999.2500   -999.2500   1402.3381      1.5997     67.6332
     2.0000   -999.2500   -999.2500   1402.3301      1.5566     60.6700
     2.2500   -999.2500   -999.2500   1402.3235      1.5485     53.8364
     2.5000   -999.2500   -999.2500   1402.3033      1.5603     47.3088
     2.7500   -999.2500   -999.2500   1402.2294      1.5624     41.4930
     3.0000   -999.2500   -999.2500   1402.1541      1.5562     37.4474
     3.2500   -999.2500   -999.2500   1402.1815      1.5597     36.0575
     3.5000   -999.2500      0.0000   1402.3302      1.5832     37.1712
     3.7500   -999.2500      0.0000   1402.4812      1.6159     39.9511
     4.0000    121.0879      0.0000   1402.4868      1.6237     43.7596
     4.2500    121.0075      0.0000   1402.3594      1.6005     48.3021
     4.5000    120.9753      0.0000   1402.2625      1.5908     53.1805
     4.7500    121.1723      0.0000   1402.2938      1.6125     57.7820
     5.0000    121.0398      0.0000   1402.3917      1.6428     61.5641
     5.2500    121.0288      0.0000   1402.4641      1.7171     64.1628
     5.5000    120.9492      0.0000   1402.4924      1.8942     65.3774
     5.7500    120.9760      0.0000   1402.4982      2.1133     65.3475
     6.0000    121.1126      0.0000   1402.4934      2.2576     64.6373
     6.2500    120.9787      0.0000   1402.4708      2.3166     63.8532
     6.5000    120.9471      0.0000   1402.4202      2.3448     63.1016
     6.7500    121.0295      0.0000   1402.3682      2.3568     61.9523
     7.0000    121.1380      0.0000   1402.3746      2.3480     60.0739
     7.2500    121.0618      0.0000   1402.4572      2.3570     57.8534
     7.5000    120.8668      0.0000   1402.5867      2.4424     56.0910
     7.7500    121.3344      0.0000   1402.7347      2.5618     55.0533
     8.0000    121.3062      0.0000   1402.8374      2.5498     54.2628
     8.2500    121.2170      0.0000   1402.8090      2.3766     53.3543
     8.5000    121.0879      0.0000   1402.6265      2.2457     52.6013
     8.7500    121.1256      0.0000   1402.3737      2.2862     52.3066
     9.0000    121.3866      0.0000   1402.1910      2.3936     52.1436
     9.2500    121.2451      0.0000   1402.1617      2.4455     51.5513
     9.5000    121.1401      0.0000   1402.2588      2.4476     50.5951
     9.7500    121.2197      0.0000   1402.3842      2.4374     50.0646
    10.0000    121.2760      0.0000   1402.4622      2.4150     50.7335
    10.2500    121.1092      0.0000   1402.4858      2.3807     52.7417
    10.5000    121.2527      0.0000   1402.4698      2.3533     55.6697
    10.7500    121.3309      0.0000   1402.4200      2.3371     58.8952
    11.0000    121.3303      0.0000   1402.3672      2.3069     61.7757
    11.2500    121.2197      0.0000   1402.3671      2.2392     63.8081
    11.5000    121.2767      0.0000   1402.4202      2.1629     64.8936
    11.7500    121.1950      0.0000   1402.4697      2.1303     65.2856
    12.0000    121.3900      0.0000   1402.4857      2.1358     65.1233
    12.2500    121.3049      0.0000   1402.4622      2.1411     64.1880
    12.5000    121.2177      0.0000   1402.3842      2.1704     62.2731
    12.7500    121.2815      0.0000   1402.2588      2.2860     59.6120
    13.0000    121.1936      0.0000   1402.1490      2.4838     56.7970
    13.2500    121.2479      0.0000   1401.9519      2.6513     54.5099
    13.5000    121.3049      0.0000   1400.1230      2.7264     53.4505
    13.7500    121.3035      0.0000   1388.2671      2.9682     54.2909
    14.0000    121.3364      0.0000   1339.2770      4.1253     57.4830
    14.2500    121.2506      0.0000   1205.7332      7.3459     63.0674
    14.5000    121.0851      0.0000    965.5120     13.0680     70.5634
    14.7500    121.3358      0.0000    685.1719     19.2893     79.0112
    15.0000    121.2801      0.0000    488.3041     22.7439     87.1799
    15.2500    121.1428      0.0000    449.5813     22.4942     93.8468
    15.5000    121.1160      0.0000    553.9429     20.1669     98.1160
    15.7500    121.2781      0.0000    720.3500     17.2917     99.7549
    16.0000    121.3591      0.0000    850.0293     14.4593     99.3836
    16.2500    121.3035      0.0000    897.6743     12.0022     98.3562
    16.5000    121.8789      0.0000    894.3508     10.0971     98.2529
    16.7500    121.3886      0.0000    889.5543      8.6367    100.0247
    17.0000    121.2238      0.0000    896.7596      7.4566    103.2995
    17.2500    121.1957      0.0000    906.1302      6.5128    106.6560
    17.5000    121.2774      0.0000    912.0068      5.8369    108.7870
    17.7500    121.2252      0.0000    909.8234      5.4805    109.3565
    18.0000    121.4154      0.0000    889.6431      5.4223    108.8174
    18.2500    121.2472      0.0000    845.6334      5.5144    107.9296
    18.5000    121.2012      0.0000    789.5694      5.6061    107.5704
    18.7500    121.2499      0.0000    744.3586      5.6613    108.3114
    19.0000    121.2218      0.0000    720.9188      5.7089    109.7446
    19.2500    121.2190      0.0000    713.0638      5.7609    110.6400
    19.5000    121.1950      0.0000    711.3888      5.8052    109.9009
    19.7500    121.2204      0.0000    711.1978      5.8331    107.1306
    20.0000    121.3309      0.0000    711.1207      5.8502    102.6363
    20.2500    121.1971      0.0000    710.8832      5.8761     97.4546
    20.5000    121.3049      0.0000    710.5955      5.9123     93.1236
    20.7500    121.3049      0.0000    710.4564      5.9223     90.8619
    21.0000    121.1936      0.0000    710.5169      5.9022     90.9290
