~Version Information
VERS.                      2.0: CWLS Log ASCII Standard - VERSION 2.0
WRAP.                       NO: One line per depth step
~Well Information Block
STRT.FT               670.0000: 
STOP.FT              2108.5000: 
STEP.FT                 0.1000: 
NULL.                -999.2500: 
COMP.          Petrogulf Corporation: COMPANY
WELL.           Montoya 12-44R: WELL
FLD.           Purgatorie River: FIELD
LOC.           713' FSL & 798' FEL: LOCATION
PROV.                 Colorado: PROVINCE
CNTY.               Las Animas: COUNTRY
SRVC.                Patterson: SERVICE COMPANY
DATE.          Mon Oct 03 07:50:59 2005: LOG DATE
UWI.           05-071-08538               : UNIQUE WELL ID
~Curve Information Block
DEPT.FT            0 000 00 00: Depth
DCAL.in                       : CDL Caliper
RHOB.g/cc                     : CDL Bulk Density
RHOC.g/cc                     : CDL Density Correction
DPOR.pu                       : CDL Density Porosity
GR.GAPI                       : Gamma Ray
NPOR.pu                       : Neutron Porosity
~Parameter Information Block
~A  Depth       DCAL        RHOB        RHOC        DPOR         GR         NPOR    
# ...
  1802.8000      7.7956      2.6287      0.1227      1.2891    131.5930     25.3079
  1802.9000      7.7956      2.6450      0.0916      0.3054    129.2309     24.8749
  1803.0000      7.7910      2.6345      0.1106      0.9398    131.3257     24.2157
  1803.1000      7.7910      2.6208      0.0567      1.7711    133.7205     23.5575
  1803.2000      7.7910      2.6176      0.0774      1.9612    135.2522     23.0266
  1803.3000      7.7975      2.6136      0.0937      2.2077    135.8079     22.5877
  1803.4000      7.7975      2.5977      0.0789      3.1695    135.2214     21.9880
  1803.5000      7.7820      2.5794      0.0458      4.2813    134.5200     21.3753
  1803.6000      7.7820      2.5752      0.0509      4.5349    133.9612     21.3469
  1803.7000      7.7820      2.5860      0.0484      3.8772    133.0234     21.9631
  1803.8000      7.7791      2.5996      0.0841      3.0540    132.6487     22.6264
  1803.9000      7.7791      2.6115      0.0717      2.3322    133.3241     22.7857
  1804.0000      7.7914      2.6263      0.0900      1.4355    133.2308     22.5551
  1804.1000      7.7914      2.6384      0.1206      0.7059    132.2509     22.4140
  1804.2000      7.7914      2.6403      0.1163      0.5865    131.5160     22.5821
  1804.3000      7.8048      2.6372      0.1034      0.7729    129.6739     22.8933
  1804.4000      7.8048      2.6318      0.1127      1.1045    128.3083     23.1447
  1804.5000      7.7748      2.6211      0.1251      1.7533    130.5840     23.3864
  1804.6000      7.7748      2.6033      0.1160      2.8300    134.9887     23.7504
  1804.7000      7.7748      2.5766      0.0866      4.4471    135.5795     24.1819
  1804.8000      7.7784      2.5533      0.0049      5.8582    129.7923     24.2366
  1804.9000      7.7784      2.5569      0.0316      5.6425    122.0861     23.7502
  1805.0000      7.7959      2.5876      0.0500      3.7796    115.7170     23.3072
  1805.1000      7.7959      2.6177      0.0954      1.9558    110.7955     23.1959
  1805.2000      7.7959      2.6245      0.0476      1.5428    107.3719     22.9834
  1805.3000      7.8197      2.6152      0.0001      2.1113    104.9993     22.5135
  1805.4000      7.8197      2.6118      0.0253      2.3126    103.5648     21.9841
  1805.5000      7.8083      2.6250      0.0562      1.5132    103.3352     21.4955
  1805.6000      7.8083      2.6467      0.0644      0.2018    103.2451     21.1618
  1805.7000      7.8083      2.6585      0.0874     -0.5124    102.4974     20.9607
  1805.8000      7.7959      2.6496      0.1032      0.0229    101.0091     20.9896
  1805.9000      7.7959      2.6329      0.0913      1.0362    100.6937     21.5130
  1806.0000      7.7804      2.6264      0.1422      1.4328    104.2586     22.1740
  1806.1000      7.7804      2.6282      0.0929      1.3230    110.7676     22.3230
  1806.2000      7.7804      2.6273      0.0841      1.3741    117.4722     22.1235
  1806.3000      7.8052      2.6215      0.0373      1.7292    124.4454     22.2886
  1806.4000      7.8052      2.6141      0.0350      2.1757    131.2160     22.8805
  1806.5000      7.8368      2.6053      0.0422      2.7114    135.3469     23.3563
  1806.6000      7.8368      2.5948      0.0674      3.3438    138.1169     23.6863
  1806.7000      7.8368      2.5805      0.0588      4.2105    141.2428     24.0421
  1806.8000      7.8664      2.5618      0.0542      5.3436    144.0879     24.2275
  1806.9000      7.8664      2.5470     -0.0026      6.2436    146.1780     24.3516
  1807.0000      7.8688      2.5389      0.0214      6.7342    148.1586     24.8719
  1807.1000      7.8688      2.5332     -0.0352      7.0800    151.4892     25.7600
  1807.2000      7.8688      2.5251      0.0163      7.5696    156.1061     26.3880
  1807.3000      7.8976      2.5071      0.0102      8.6580    159.3758     26.4171
  1807.4000      7.8976      2.4892     -0.0539      9.7426    158.3499     26.3059
  1807.5000      7.9016      2.4882     -0.0132      9.8088    152.3506     26.5761
  1807.6000      7.9016      2.5027     -0.0073      8.9266    143.4693     26.9269
  1807.7000      7.9016      2.5280      0.0055      7.3966    134.6895     26.7475
  1807.8000      7.8711      2.5548      0.0759      5.7705    127.4247     26.2169
  1807.9000      7.8711      2.5743      0.0684      4.5898    122.9014     25.8848
  1808.0000      7.8536      2.5904      0.0705      3.6129    121.5895     25.6040
  1808.1000      7.8536      2.6011      0.1312      2.9635    121.3496     25.0137
  1808.2000      7.8536      2.5966      0.1199      3.2392    120.8176     24.3169
  1808.3000      7.8158      2.5824      0.0896      4.0966    121.4323     23.9859
  1808.4000      7.8158      2.5730      0.0898      4.6643    123.8754     24.1259
  1808.5000      7.8243      2.5804      0.0391      4.2158    127.3253     24.4304
  1808.6000      7.8243      2.6031      0.0710      2.8437    130.8917     24.6662
  1808.7000      7.8243      2.6171      0.0765      1.9967    134.4019     24.6694
  1808.8000      7.8380      2.6077      0.0752      2.5614    137.5585     24.2336
  1808.9000      7.8380      2.5891      0.0703      3.6921    139.7863     23.5012
  1809.0000      7.8580      2.5747      0.0602      4.5627    141.0895     23.0585
  1809.1000      7.8580      2.5621      0.0659      5.3263    140.9690     23.4385
  1809.2000      7.8580      2.5505      0.0446      6.0319    140.4290     24.4787
  1809.3000      7.8504      2.5430      0.0358      6.4829    138.4160     25.2693
  1809.4000      7.8504      2.5397     -0.0024      6.6848    130.9464     25.1934
  1809.5000      7.8171      2.5373      0.0421      6.8322    117.9875     24.7781
  1809.6000      7.8171      2.5240      0.0526      7.6343    102.2388     24.6276
  1809.7000      7.8171      2.5018      0.0084      8.9796     87.4679     24.5987
  1809.8000      7.7957      2.4922     -0.0086      9.5635     75.8067     24.6279
  1809.9000      7.7957      2.4995      0.0259      9.1223     66.5691     24.7345
  1810.0000      7.8030      2.5102      0.0053      8.4733     59.6239     24.5238
  1810.1000      7.8030      2.5177      0.0649      8.0178     54.9431     23.8858
  1810.2000      7.8030      2.5246      0.0349      7.6017     50.7627     23.2516
  1810.3000      7.8119      2.5372      0.0519      6.8354     45.9636     22.7107
  1810.4000      7.8119      2.5495      0.0739      6.0915     42.0900     22.1661
  1810.5000      7.8451      2.5462      0.0978      6.2910     39.7350     21.6846
  1810.6000      7.8451      2.5307      0.0348      7.2288     36.8673     21.2269
  1810.7000      7.8451      2.5211      0.0667      7.8096     33.3681     20.7149
  1810.8000      7.8982      2.5161      0.0770      8.1180     31.5720     20.1755
  1810.9000      7.8982      2.5007      0.0294      9.0468     31.9292     19.7465
  1811.0000      7.9051      2.4777      0.0397     10.4399     33.5475     19.5589
  1811.1000      7.9051      2.4651      0.0021     11.2055     35.7458     19.4324
  1811.2000      7.9051      2.4724      0.0555     10.7655     37.0628     19.1607
  1811.3000      7.9058      2.4886      0.0656      9.7792     36.8972     19.0747
  1811.4000      7.9058      2.5032      0.0587      8.8947     35.5068     19.3268
  1811.5000      7.9032      2.5108      0.0836      8.4373     33.4557     19.5736
  1811.6000      7.9032      2.5044      0.0880      8.8236     32.6969     19.7492
  1811.7000      7.9032      2.4883      0.0796      9.7976     33.2087     19.8151
  1811.8000      7.8975      2.4721      0.1028     10.7800     33.5590     19.7222
  1811.9000      7.8975      2.4625      0.0371     11.3615     33.6503     19.8830
  1812.0000      7.8941      2.4662      0.0468     11.1419     33.7531     20.3730
  1812.1000      7.8941      2.4769      0.0763     10.4890     34.6917     20.7352
  1812.2000      7.8941      2.4820      0.0880     10.1801     37.4349     20.8262
  1812.3000      7.8880      2.4790      0.0546     10.3612     41.0755     20.7379
