~Version Information
 VERS.                                  2.0 : CWLS LAS VERSION
 WRAP.                                   NO : WRAPING MODE
 SWARE .                 MController 2.5.0J : SOFTWARE VERSION
~Well Information
 WELL.                        Keiko 14-06Tr : WELL
 COMP.   Pioneer Natural Resources USA Inc. : COMPANY
 FLD.                      Purgatoire River : FIELD
 LOC.                 SW/SW Sec.6 T33S R66W : LOCATION
 DATE.                             12/30/05 : DATE(S) LOGGED
 SRVC.       BLANCO Geological Services LLC : SERVICE COMPANY
 STAT.                                   CO : STATE
 CNTY.                           Las Animas : COUNTY
 CTRY.                                  USA : COUNTRY
 API.                       05-071-08629-00 : API NUMBER
 STRT.FT                             481.00 : START DEPTH
 STOP.FT                            1290.00 : STOP DEPTH
 STEP.FT                               1.00 : DEPTH INCREMENT
 NULL.                                -9999 : NULL VALUE
~Curve information
 DEPTH.FT                                   :
 ROP.MIN/FT                                 :
 GAS.UNITS                                  :
~ASCII Log data
# ...
       881.0         0.27        783.1 
       882.0         0.23        780.9 
       883.0         0.23        786.6 
       884.0         0.47        783.8 
       885.0         0.88        762.2 
       886.0         0.80        744.7 
       887.0         0.70        727.6 
       888.0         0.57        710.1 
       889.0         0.37        677.4 
       890.0         0.20        631.4 
       891.0         3.90       1163.4 
       892.0         0.40        911.7 
       893.0         0.40        906.0 
       894.0         0.27        859.6 
       895.0         0.33        815.5 
       896.0         0.35        794.6 
       897.0         0.43        800.0 
       898.0         0.43        773.6 
       899.0         0.33        749.2 
       900.0         0.37        736.8 
       901.0         0.37        733.0 
       902.0         0.37        730.1 
       903.0         0.30        729.8 
       904.0         0.30        732.0 
       905.0         0.30        735.5 
       906.0         0.28        741.2 
       907.0         0.30        740.3 
       908.0         0.27        742.8 
       909.0         0.27        755.5 
       910.0         0.27        771.1 
       911.0         0.30        801.5 
       912.0         0.37        811.7 
       913.0         0.30        780.6 
       914.0         0.27        774.2 
       915.0         0.30        785.4 
       916.0         0.27        797.4 
       917.0         0.32        794.9 
       918.0         0.37        778.1 
       919.0         0.27        712.0 
       920.0         0.10        705.7 
       921.0         3.75       1183.0 
       922.0         0.57        968.8 
       923.0         0.50        946.6 
       924.0         0.43        871.4 
       925.0         0.40        782.2 
       926.0         0.45        769.2 
       927.0         0.47        758.4 
       928.0         0.43        760.9 
       929.0         0.50        756.8 
       930.0         0.53        737.8 
       931.0         0.53        727.9 
       932.0         0.47        725.4 
       933.0         0.52        728.2 
       934.0         0.47        736.2 
       935.0         0.47        745.7 
       936.0         0.47        746.6 
       937.0         0.47        740.3 
       938.0         0.47        727.9 
       939.0         0.47        725.7 
       940.0         0.48        736.8 
       941.0         0.53        743.1 
       942.0         0.53        742.5 
       943.0         0.47        739.0 
       944.0         0.50        732.0 
       945.0         0.47        735.2 
       946.0         0.57        744.1 
       947.0         0.58        742.8 
       948.0         0.40        731.4 
       949.0         0.43        702.2 
       950.0         0.37        640.9 
       951.0         6.80       1355.4 
       952.0         0.40        906.0 
       953.0         0.37        876.4 
       954.0         0.37        843.4 
       955.0         0.33        801.5 
       956.0         0.35        775.5 
       957.0         0.33        757.4 
       958.0         0.43        754.3 
       959.0         0.27        715.9 
       960.0         0.27        724.1 
       961.0         0.30        720.9 
       962.0         0.27        719.0 
       963.0         0.27        724.1 
       964.0         0.27        730.5 
       965.0         0.33        730.5 
       966.0         0.30        723.5 
       967.0         0.28        722.8 
       968.0         0.23        724.1 
       969.0         0.33        722.8 
       970.0         0.27        725.1 
       971.0         0.27        723.5 
       972.0         0.30        728.2 
       973.0         0.30        727.3 
       974.0         0.27        726.3 
       975.0         0.27        728.9 
       976.0         0.27        733.6 
       977.0         0.33        729.5 
       978.0         0.28        725.7 
       979.0         0.40        652.7 
       980.0         0.67        627.9 
       981.0         3.62       1125.0 
       982.0         0.20        846.6 
       983.0         0.30        842.8 
       984.0         0.43        839.3 
       985.0         0.33        814.9 
       986.0         0.30        789.5 
       987.0         0.33        766.0 
       988.0         0.32        763.5 
       989.0         0.30        761.9 
       990.0         0.33        741.6 
       991.0         0.23        699.3 
       992.0         0.23        685.1 
       993.0         0.20        699.3 
       994.0         0.23        737.1 
       995.0         0.20        737.1 
       996.0         0.40        791.4 
       997.0         0.57        803.4 
       998.0         0.37        779.0 
       999.0         0.38        758.7 
      1000.0         0.33        736.2 
      1001.0         0.27        721.9 
      1002.0         0.23        716.2 
      1003.0         0.27        713.6 
      1004.0         0.23        718.1 
      1005.0         0.27        725.1 
      1006.0         0.27        728.5 
      1007.0         0.23        715.9 
      1008.0         0.23        679.0 
      1009.0         0.10        659.0 
      1010.0         0.13        659.0 
      1011.0         3.90       1239.2 
      1012.0         0.23        940.9 
      1013.0         0.43       1011.0 
      1014.0         0.27        953.9 
      1015.0         0.27        912.9 
      1016.0         0.27        880.6 
      1017.0         0.37        852.3 
      1018.0         0.40        815.8 
      1019.0         0.23        768.5 
      1020.0         0.27        758.4 
      1021.0         0.23        759.3 
      1022.0         0.28        765.0 
      1023.0         0.23        761.6 
      1024.0         0.27        760.3 
      1025.0         0.30        782.2 
      1026.0         0.37        775.2 
      1027.0         0.30        728.5 
      1028.0         0.27        707.9 
      1029.0         0.23        740.3 
      1030.0         0.37        791.4 
      1031.0         0.33        790.8 
      1032.0         0.37        765.4 
      1033.0         0.38        740.6 
      1034.0         0.37        733.3 
      1035.0         0.37        735.2 
      1036.0         0.43        741.2 
      1037.0         0.37        746.3 
      1038.0         0.33        748.2 
      1039.0         0.53        678.7 
      1040.0         0.10        645.7 
      1041.0         3.25       1157.3 
      1042.0         0.43        914.8 
      1043.0         0.65        910.4 
      1044.0         0.37        898.0 
      1045.0         0.33        797.4 
      1046.0         0.33        786.3 
      1047.0         0.37        768.5 
      1048.0         0.33        763.5 
      1049.0         0.33        745.0 
      1050.0         0.30        740.3 
      1051.0         0.33        753.0 
      1052.0         0.65        774.6 
      1053.0         0.47        758.4 
      1054.0         0.37        726.3 
      1055.0         0.37        711.7 
      1056.0         0.37        704.4 
      1057.0         0.37        712.0 
      1058.0         0.40        745.7 
      1059.0         0.67        763.5 
      1060.0         0.38        724.1 
      1061.0         0.40        720.9 
      1062.0         0.37        736.2 
      1063.0         0.47        750.1 
      1064.0         0.43        754.6 
      1065.0         0.53        751.7 
      1066.0         0.47        737.1 
      1067.0         0.48        732.4 
      1068.0         0.43        723.2 
      1069.0         0.43        722.2 
      1070.0         0.53        679.7 
      1071.0         4.95       1266.8 
      1072.0         0.58        874.5 
      1073.0         0.77        838.7 
      1074.0         0.70        768.2 
      1075.0         0.80        754.6 
      1076.0         0.92        743.8 
      1077.0         0.80        739.3 
      1078.0         0.77        729.2 
      1079.0         0.80        735.5 
      1080.0         1.02        742.2 
