~Version Information
VERS.                      2.0: CWLS Log ASCII Standard - VERSION 2.0
WRAP.                       NO: One line per depth step
~Well Information Block
STRT.FT                -4.2500: 
STOP.FT               745.0000: 
STEP.FT                 0.2500: 
NULL.                -999.2500: 
COMP.          Pioneer Natural Resources: COMPANY
WELL.                Zed 11-23: WELL
FLD.           Purgatoire River: FIELD
LOC.           641' FNL & 952' FWL: LOCATION
CNTY.               Las Animas: COUNTY
SRVC.                         : SERVICE COMPANY
DATE.          Fri Mar 03 16:43:06 2006: LOG DATE
UWI.           05 071 08702 00: UNIQUE WELL ID
STAT.                       CO: STATE
~Curve Information Block
DEPT.FT            0 000 00 00: Depth
GR.GAPI                       : Gamma Ray
CCL.                          : Casing Collar Locator
TT3.usec                      : CBL 3' Travel Time
AMP3.mV                       : CBL 3' Amplitude
~Parameter Information Block
~A  Depth        GR         CCL         TT3         AMP3    
# ...
   431.2500     65.7482      0.0000    765.0893     10.8668
   431.5000     65.3064      0.0000    758.0640     10.6903
   431.7500     63.7078      0.0000    749.7869     10.5063
   432.0000     61.4274      0.0000    741.2549     10.3526
   432.2500     58.9313      0.0000    733.9408     10.2441
   432.5000     56.3432      0.0000    728.8784     10.1680
   432.7500     53.7668      0.0000    726.0316     10.0996
   433.0000     51.8544      0.0000    724.6837     10.0269
   433.2500     51.6114      0.0000    724.1378      9.9607
   433.5000     53.3283      0.0000    724.0672      9.9241
   433.7500     55.9388      0.0000    724.5093      9.9344
   434.0000     57.8296      0.0000    725.8641      9.9919
   434.2500     58.1347      0.0000    728.8502     10.0786
   434.5000     56.9512      0.0000    734.0515     10.1591
   434.7500     54.6276      0.0000    741.0563     10.1932
   435.0000     51.3961      0.0000    748.0741     10.1681
   435.2500     47.7322      0.0000    752.9225     10.1182
   435.5000     44.5581      0.0000    754.5932     10.0971
   435.7500     42.6852      0.0000    753.5083     10.1308
   436.0000     42.0635      0.0000    750.3239     10.2029
   436.2500     41.8473      0.0000    745.2937     10.2788
   436.5000     41.2425      0.0000    739.0297     10.3328
   436.7500     40.1877      0.0000    732.9897     10.3575
   437.0000     39.2834      0.0000    728.6022     10.3603
   437.2500     39.2151      0.0000    726.2589     10.3591
   437.5000     40.1601      0.0000    725.3980     10.3823
   437.7500     41.5719      0.0000    725.2330     10.4634
   438.0000     42.5218      0.0000    725.2472     10.6248
   438.2500     42.3352      0.0000    725.2569     10.8588
   438.5000     41.0472      0.0000    725.3112     11.1244
   438.7500     39.3815      0.0000    725.6073     11.3655
   439.0000     38.2482      0.0000    726.4793     11.5391
   439.2500     38.1209      0.0000    728.3204     11.6299
   439.5000     38.8358      0.0000    731.2688     11.6463
   439.7500     39.9746      0.0000    734.9516     11.6114
   440.0000     41.2421      0.0000    738.8770     11.5580
   440.2500     42.4310      0.0000    743.1505     11.5207
   440.5000     43.2626      0.0000    748.2021     11.5168
   440.7500     43.4428      0.0000    753.4411     11.5311
   441.0000     42.8132      0.0000    756.7494     11.5240
   441.2500     41.4157      0.0000    755.9197     11.4609
   441.5000     39.5012      0.0000    750.5929     11.3378
   441.7500     37.5082      0.0000    742.6974     11.1823
   442.0000     35.8388      0.0000    735.0692     11.0317
   442.2500     34.4328      0.0000    729.6263     10.9122
   442.5000     32.7505      0.0000    726.6464     10.8338
   442.7500     30.4917      0.0000    725.3598     10.8013
   443.0000     28.2564      0.0000    724.8870     10.8193
   443.2500     27.2362      0.0000    724.7054     10.8840
   443.5000     28.2448      0.0000    724.6784     10.9746
   443.7500     31.0673      0.0000    725.0045     11.0599
   444.0000     34.5906      0.0000    726.2342     11.1157
   444.2500     37.5773      0.0000    729.2142     11.1348
   444.5000     39.4921      0.0000    734.6740     11.1246
   444.7500     40.5762      0.0000    742.4654     11.1005
   445.0000     41.1857      0.0000    751.1571     11.0780
   445.2500     41.3904      0.0000    758.7040     11.0636
   445.5000     41.2986      0.0000    763.7038     11.0494
   445.7500     41.2852      0.0000    765.9249     11.0207
   446.0000     41.5458      0.0000    765.6943     10.9719
   446.2500     41.6630      0.0000    763.0820     10.9166
   446.5000     40.9740      0.0000    757.8920     10.8817
   446.7500     39.3362      0.0000    750.4403     10.8871
   447.0000     37.3521      0.0000    742.1185     10.9256
   447.2500     35.7861      0.0000    734.8557     10.9606
   447.5000     34.8101      0.0000    729.9088     10.9524
   447.7500     33.9359      0.0000    727.2667     10.8901
   448.0000     32.7576      0.0000    726.1183     10.7944
   448.2500     31.6584      0.0000    725.6367     10.6907
   448.5000     31.5771      0.0000    725.3524     10.5886
   448.7500     32.9904      0.0000    725.1031     10.4884
   449.0000     35.2089      0.0000    724.8675     10.3968
   449.2500     36.8227      0.0000    724.6272     10.3278
   449.5000     36.9883      0.0000    724.2541     10.2837
   449.7500     36.1716      0.0000    723.4226     10.2423
   450.0000     35.5127      0.0000    721.7227     10.1730
   450.2500     35.6749      0.0000    719.1395     10.0728
   450.5000     36.4204      0.0000    716.5354      9.9790
   450.7500     36.9848      0.0000    715.3154      9.9353
   451.0000     36.7436      0.0000    716.2374      9.9505
   451.2500     35.8988      0.0000    718.7005      9.9990
   451.5000     35.7241      0.0000    721.4595     10.0517
   451.7500     37.7212      0.0000    723.8666     10.0938
   452.0000     42.2347      0.0000    726.1652     10.1167
   452.2500     48.0992      0.0000    728.6182     10.1072
   452.5000     53.6623      0.0000    730.5073     10.0548
   452.7500     57.8273      0.0000    730.1638      9.9635
   453.0000     60.2015      0.0000    726.1831      9.8425
   453.2500     60.8816      0.0000    718.6955      9.6942
   453.5000     60.4071      0.0000    709.6868      9.5271
   453.7500     59.5833      0.0000    702.3454      9.3728
   454.0000     59.0183      0.0000    699.6975      9.2767
   454.2500     58.8941      0.0000    702.9614      9.2705
   454.5000     59.3726      0.0000    710.7599      9.3561
   454.7500     61.0180      0.0000    719.9729      9.5135
   455.0000     64.3000      0.0000    727.4623      9.7164
   455.2500     68.6666      0.0000    731.4218      9.9396
   455.5000     72.6352      0.0000    731.9305     10.1554
   455.7500     74.9744      0.0000    730.6700     10.3399
   456.0000     75.5407      0.0000    729.8979     10.4880
   456.2500     75.0101      0.0000    731.2261     10.6161
   456.5000     74.2210      0.0000    734.7095     10.7383
   456.7500     73.8367      0.0000    738.5508     10.8425
   457.0000     74.2324      0.0000    740.0897     10.8910
   457.2500     75.3619      0.0000    737.8994     10.8439
   457.5000     76.7837      0.0000    732.9018     10.6879
   457.7500     77.9667      0.0000    727.0527     10.4536
   458.0000     78.4801      0.0000    721.2895     10.2044
   458.2500     77.8779      0.0000    715.2910      9.9989
   458.5000     75.8357      0.0000    708.9236      9.8620
   458.7500     72.7100      0.0000    703.0362      9.7917
   459.0000     69.6404      0.0000    698.2870      9.7819
   459.2500     67.7891      0.0000    693.3995      9.8300
   459.5000     67.4361      0.0000    685.6705      9.9255
   459.7500     67.7781      0.0000    674.3983     10.0344
   460.0000     67.5570      0.0000    663.7455     10.0971
   460.2500     65.9763      0.0000    660.3472     10.0566
   460.5000     63.1061      0.0000    666.7725      9.9009
   460.7500     59.5321      0.0000    678.5959      9.6762
   461.0000     55.9341      0.0000    689.0351      9.4522
   461.2500     53.1845      0.0000    695.1411      9.2822
   461.5000     52.3521      0.0000    698.7206      9.1966
   461.7500     53.8976      0.0000    702.8041      9.2076
   462.0000     56.8973      0.0000    708.4521      9.3009
   462.2500     59.5536      0.0000    714.4849      9.4324
   462.5000     60.6243      0.0000    719.2260      9.5536
   462.7500     60.3142      0.0000    721.9691      9.6390
   463.0000     59.8442      0.0000    723.0771      9.6828
   463.2500     60.1408      0.0000    723.3049      9.6827
   463.5000     60.9142      0.0000    723.2893      9.6373
   463.7500     61.1337      0.0000    723.3679      9.5557
   464.0000     60.3718      0.0000    723.5865      9.4574
   464.2500     59.4002      0.0000    723.8307      9.3636
   464.5000     59.3406      0.0000    723.9902      9.2942
