~Version Information
VERS.                      2.0: CWLS Log ASCII Standard - VERSION 2.0
WRAP.                       NO: One line per depth step
~Well Information Block
STRT.FT                 0.0000: 
STOP.FT              1528.0000: 
STEP.FT                 0.1000: 
NULL.                -999.2500: 
COMP.          Pioneer Natural Resources: COMPANY
WELL.             Andrew 23-15: WELL
FLD.           Purgatorie River: FIELD
LOC.           2137' FSL & 2292' FWL: LOCATION
PROV.                 Colorado: PROVINCE
CNTY.               Las Animas: COUNTRY
SRVC.                Patterson: SERVICE COMPANY
DATE.          Sat Aug 13 12:06:57 2005: LOG DATE
UWI.                          : UNIQUE WELL ID
~Curve Information Block
DEPT.FT            0 000 00 00: Depth
DCAL.in                       : CDL Caliper
RHOB.g/cc                     : CDL Bulk Density
RHOC.g/cc                     : CDL Density Correction
DPOR.pu                       : CDL Density Porosity
GR.GAPI                       : Gamma Ray
NPOR.pu                       : Neutron Porosity
~Parameter Information Block
~A  Depth       DCAL        RHOB        RHOC        DPOR         GR         NPOR    
# ...
   403.2000      8.0946      2.5870      0.1329      3.8185    134.9847     24.9437
   403.3000      8.1084      2.5668      0.0890      5.0444    133.0674     25.1978
   403.4000      8.1084      2.5489      0.0972      6.1265    129.0104     25.3291
   403.5000      8.1030      2.5331      0.0571      7.0878    126.5898     25.1962
   403.6000      8.1030      2.5133      0.0773      8.2861    125.7487     25.0266
   403.7000      8.1030      2.4840      0.0773     10.0635    124.2193     24.6294
   403.8000      8.1213      2.4394      0.0700     12.7609    120.6933     23.7594
   403.9000      8.1213      2.3740      0.0783     16.7245    117.2188     22.6974
   404.0000      8.1060      2.2872      0.0562     21.9862    117.1566     21.4845
   404.1000      8.1060      2.1828      0.0457     28.3167    119.1509     19.7236
   404.2000      8.1060      2.0611      0.0563     35.6917    118.7567     17.5961
   404.3000      8.1137      1.9281      0.0310     43.7501    114.8700     15.6802
   404.4000      8.1137      1.8052     -0.0014     51.1980    109.9469     14.1865
   404.5000      8.1244      1.7105      0.0629     56.9423    106.0094     13.1006
   404.6000      8.1244      1.6319      0.1667     61.7018    102.5687     12.4377
   404.7000      8.1244      1.5535      0.1498     66.4559     99.2087     12.0864
   404.8000      8.2425      1.4879      0.1777     70.4284     95.6933     11.9545
   404.9000      8.2425      1.4601      0.1671     72.1159     92.5365     12.1082
   405.0000      8.5939      1.4884      0.1869     70.3973     92.8398     12.6106
   405.1000      8.5939      1.5699      0.2197     65.4605     98.8253     13.5404
   405.2000      8.5939      1.6775      0.2453     58.9412    109.3014     14.9770
   405.3000      8.8916      1.7952      0.2193     51.8078    120.8964     16.7658
   405.4000      8.8916      1.9274      0.2902     43.7960    128.4916     18.5819
   405.5000      8.6709      2.0647      0.3729     35.4755    129.4138     20.2299
   405.6000      8.6709      2.1853      0.3662     28.1625    127.7098     21.7683
   405.7000      8.6709      2.2825      0.3232     22.2743    128.8927     23.3325
   405.8000      8.5919      2.3620      0.2647     17.4535    134.3060     24.8465
   405.9000      8.5919      2.4213      0.2213     13.8612    140.0480     26.1750
   406.0000      8.6149      2.4528      0.1703     11.9494    141.8032     27.4160
   406.1000      8.6149      2.4670      0.1245     11.0885    140.9218     28.4962
   406.2000      8.6149      2.4795      0.1150     10.3357    140.2600     29.0927
   406.3000      8.4104      2.4949      0.0958      9.4006    138.3602     29.2801
   406.4000      8.4104      2.5156      0.0722      8.1433    132.9248     29.3507
   406.5000      8.2334      2.5376      0.0815      6.8131    126.4511     29.2774
   406.6000      8.2334      2.5567      0.0637      5.6557    124.0520     28.9771
   406.7000      8.2334      2.5817      0.0917      4.1378    125.0569     28.7116
   406.8000      8.1580      2.6133      0.1370      2.2222    124.2492     28.5069
   406.9000      8.1580      2.6375      0.1434      0.7550    120.1576     27.9265
   407.0000      8.1638      2.6453      0.1625      0.2833    116.3420     27.0137
   407.1000      8.1638      2.6414      0.1313      0.5207    115.0421     26.1793
   407.2000      8.1638      2.6365      0.1205      0.8193    116.0415     25.4122
   407.3000      8.1045      2.6300      0.1735      1.2134    119.9551     24.6994
   407.4000      8.1045      2.6152      0.1400      2.1104    124.7307     24.4318
   407.5000      8.1030      2.5960      0.1199      3.2744    126.8813     24.5329
   407.6000      8.1030      2.5823      0.0747      4.1020    127.8822     24.5344
   407.7000      8.1030      2.5800      0.0889      4.2452    129.9625     24.5813
   407.8000      8.1224      2.5843      0.1103      3.9810    130.1550     24.9909
   407.9000      8.1224      2.5880      0.1193      3.7583    127.4613     25.5215
   408.0000      8.1737      2.5928      0.0857      3.4645    125.7730     25.9277
   408.1000      8.1737      2.6005      0.1214      2.9973    127.2617     26.2875
   408.2000      8.1737      2.6032      0.1483      2.8374    128.9239     26.5538
   408.3000      8.2385      2.5964      0.0847      3.2456    126.3438     26.5585
   408.4000      8.2385      2.5797      0.1252      4.2597    121.9437     26.4268
   408.5000      8.2106      2.5514      0.0775      5.9775    120.4333     26.3442
   408.6000      8.2106      2.5233      0.0421      7.6776    120.7783     26.1691
   408.7000      8.2106      2.5122      0.0464      8.3493    121.0091     25.8095
   408.8000      8.2617      2.5185      0.0573      7.9706    122.5843     25.4743
   408.9000      8.2617      2.5248      0.1130      7.5885    127.4128     25.3883
   409.0000      8.2091      2.5216      0.0481      7.7827    132.7295     25.3974
   409.1000      8.2091      2.5235      0.0849      7.6653    134.8537     25.1973
   409.2000      8.2091      2.5370      0.1446      6.8478    136.2339     24.8910
   409.3000      8.2747      2.5437      0.1628      6.4398    139.0495     24.5715
   409.4000      8.2747      2.5265      0.1456      7.4858    140.1595     24.1424
   409.5000      8.3411      2.4861      0.0952      9.9311    138.6236     23.6929
   409.6000      8.3411      2.4308      0.0888     13.2846    137.4040     23.2401
   409.7000      8.3411      2.3553      0.1187     17.8588    137.2925     22.4855
   409.8000      8.3994      2.2536      0.0800     24.0241    138.4995     21.2529
   409.9000      8.3994      2.1484      0.0303     30.3987    142.0622     19.7892
   410.0000      8.4510      2.0691      0.0551     35.2034    144.5376     18.4726
   410.1000      8.4510      2.0161      0.0835     38.4154    140.9133     17.6151
   410.2000      8.4510      1.9791      0.0445     40.6599    132.8141     17.3325
   410.3000      8.4299      1.9593      0.0372     41.8590    126.5996     17.1767
   410.4000      8.4299      1.9473      0.1676     42.5874    123.5474     16.7219
   410.5000      8.4616      1.9195      0.2285     44.2717    121.5076     16.2482
   410.6000      8.4616      1.8717      0.2522     47.1686    120.8487     16.0390
   410.7000      8.4616      1.8137      0.2826     50.6839    121.3637     15.9854
   410.8000      8.5303      1.7538      0.2117     54.3151    121.5621     16.1395
   410.9000      8.5303      1.7104      0.0689     56.9470    120.0937     16.7089
   411.0000      8.4804      1.7015      0.0349     57.4844    117.5828     17.6976
   411.1000      8.4804      1.7260      0.0100     56.0021    116.5440     18.8638
   411.2000      8.4804      1.7738      0.0909     53.1033    117.0107     19.8462
   411.3000      8.4099      1.8433      0.1032     48.8918    117.0291     20.4979
   411.4000      8.4099      1.9395      0.1678     43.0602    117.7956     21.0041
   411.5000      8.3941      2.0556      0.2510     36.0259    122.2858     21.5685
   411.6000      8.3941      2.1764      0.2229     28.7031    127.9534     22.2053
   411.7000      8.3941      2.2857      0.2891     22.0784    130.0625     22.8081
   411.8000      8.3845      2.3689      0.1971     17.0356    128.3724     23.2901
   411.9000      8.3845      2.4331      0.1503     13.1467    125.6974     23.7482
   412.0000      8.4125      2.4868      0.2392      9.8928    124.9057     24.2425
   412.1000      8.4125      2.5227      0.2161      7.7138    126.9166     24.7566
   412.2000      8.4125      2.5395      0.2405      6.6949    130.0572     25.3880
   412.3000      8.3482      2.5443      0.1672      6.4041    131.6494     25.9940
   412.4000      8.3482      2.5437      0.1421      6.4421    132.5464     26.4159
   412.5000      8.3813      2.5422      0.1078      6.5354    135.4319     26.8640
   412.6000      8.3813      2.5408      0.1230      6.6184    138.9324     27.3679
   412.7000      8.3813      2.5348      0.1180      6.9832    140.3692     27.5521
