~Version Information
VERS.                      2.0: CWLS Log ASCII Standard - VERSION 2.0
WRAP.                       NO: One line per depth step
~Well Information Block
STRT.FT               240.0000: 
STOP.FT              1043.5000: 
STEP.FT                 0.2500: 
NULL.                -999.2500: 
COMP.          Pioneer Natural Resources: COMPANY
WELL.          Stags Leap 13-30: WELL
FLD.           Purgatorie River: FIELD
LOC.           1813' FSL & 117' FWL: LOCATION
PROV.                 Colorado: PROVINCE
CNTY.               Las Animas: COUNTRY
SRVC.                Patterson: SERVICE COMPANY
DATE.          Thu Dec 08 19:20:57 2005: LOG DATE
UWI.                          : UNIQUE WELL ID
~Curve Information Block
DEPT.FT            0 000 00 00: Depth
DIR.Ohm-m                     : IEL Induction Resistivity
GR.GAPI                       : Gamma Ray
~Parameter Information Block
~A  Depth       DIR          GR     
   240.0000   -999.2500     64.1181
   240.2500   -999.2500     63.9951
   240.5000      8.2649     63.3162
   240.7500      8.2951     62.4843
   241.0000      8.3348     60.6779
   241.2500      8.3784     59.1993
   241.5000      8.4219     56.9072
   241.7500      8.4614     55.6140
   242.0000      8.4928     54.5620
   242.2500      8.5135     54.6787
   242.5000      8.5250     56.1275
   242.7500      8.5337     57.7820
   243.0000      8.5478     60.9662
   243.2500      8.5718     63.4914
   243.5000      8.6050     67.9667
   243.7500      8.6422     71.3687
   244.0000      8.6777     76.5757
   244.2500      8.7079     79.6283
   244.5000      8.7319     82.9066
   244.7500      8.7494     84.1223
   245.0000      8.7591     84.7998
   245.2500      8.7567     84.7974
   245.5000      8.7352     84.5440
   245.7500      8.6854     84.3064
   246.0000      8.6001     83.7892
   246.2500      8.4799     83.2876
   246.5000      8.3397     82.4067
   246.7500      8.2081     81.9388
   247.0000      8.1167     81.8166
   247.2500      8.0854     82.2013
   247.5000      8.1108     83.1953
   247.7500      8.1674     83.8629
   248.0000      8.2193     84.5793
   248.2500      8.2407     84.8155
   248.5000      8.2293     84.6528
   248.7500      8.2080     83.9903
   249.0000      8.2182     81.8108
   249.2500      8.3093     79.5927
   249.5000      8.5277     75.8210
   249.7500      8.8959     73.6627
   250.0000      9.3814     71.8635
   250.2500      9.8655     71.7948
   250.5000     10.1620     73.0965
   250.7500     10.1297     74.5327
   251.0000      9.7954     76.9017
   251.2500      9.3306     78.4251
   251.5000      8.9237     80.6803
   251.7500      8.7132     82.3175
   252.0000      8.8193     85.0843
   252.2500      9.4294     86.9605
   252.5000     10.9428     89.1946
   252.7500     14.3214     89.9908
   253.0000     22.1959     90.0350
   253.2500     42.0945     89.3829
   253.5000     77.7771     87.5558
   253.7500     63.0895     85.9425
   254.0000     32.4838     83.4086
   254.2500     19.8199     81.8638
   254.5000     15.2305     79.7580
   254.7500     14.2416     78.3604
   255.0000     15.6345     76.1901
   255.2500     19.1601     74.8052
   255.5000     23.0810     73.1548
   255.7500     21.4541     72.4667
   256.0000     14.2885     71.8810
   256.2500      8.5659     71.5023
   256.5000      5.5298     75.8565
   256.7500      4.0805     75.7314
   257.0000      3.4831     77.5287
   257.2500      3.4273     80.5516
   257.5000      3.8459     98.9665
   257.7500      4.8455    104.8271
   258.0000      6.7412    113.1714
   258.2500     10.2770    117.8427
   258.5000     17.5736    122.9002
   258.7500     37.4445    124.7850
   259.0000    155.9924    125.4799
   259.2500 100000.0000    124.8770
   259.5000  20129.8828    123.3774
   259.7500     69.6149    122.6389
   260.0000     27.6869    122.7609
   260.2500     17.0147    123.7760
   260.5000     13.0581    126.2558
   260.7500     11.4772    128.1850
   261.0000     10.9516    131.2118
   261.2500     10.9308    133.3439
   261.5000     11.1455    136.7126
   261.7500     11.4748    139.0336
   262.0000     11.8901    142.9465
   262.2500     12.4131    146.2606
   262.5000     13.0896    152.3450
   262.7500     13.9664    156.1709
   263.0000     15.0614    158.6622
   263.2500     16.3217    156.8642
   263.5000     17.6051    149.0234
   263.7500     18.7420    141.4751
   264.0000     19.6618    128.7721
   264.2500     20.4566    120.1670
   264.5000     21.3020    107.8632
   264.7500     22.3261    100.5574
   265.0000     23.5406     91.8792
   265.2500     24.8607     87.9548
   265.5000     26.1921     84.6261
   265.7500     27.5149     83.4853
   266.0000     28.8804     82.0914
   266.2500     30.3063     80.9978
   266.5000     31.6689     79.4907
   266.7500     32.7162     79.0097
   267.0000     33.2305     79.2040
   267.2500     33.1953     79.6213
   267.5000     32.7833     80.2771
   267.7500     32.2001     80.9379
   268.0000     31.5581     83.0557
   268.2500     30.8521     85.4933
   268.5000     29.9990     90.3656
   268.7500     28.9076     93.8895
   269.0000     27.5520     98.6907
   269.2500     26.0071    101.3556
   269.5000     24.4142    104.8501
   269.7500     22.9115    107.2240
   270.0000     21.5877    111.3335
   270.2500     20.4818    114.4549
   270.5000     19.6024    119.3200
   270.7500     18.9431    122.4045
   271.0000     18.4860    126.7546
   271.2500     18.2014    129.8855
   271.5000     18.0513    135.9868
   271.7500     17.9955    141.2637
   272.0000     17.9997    150.1181
   272.2500     18.0396    155.4702
   272.5000     18.1031    160.5908
   272.7500     18.1888    161.4310
   273.0000     18.3060    159.0977
   273.2500     18.4735    155.8418
   273.5000     18.7213    149.9437
   273.7500     19.0884    146.3045
   274.0000     19.6169    142.8018
   274.2500     20.3406    142.1929
   274.5000     21.2704    143.2533
   274.7500     22.3842    144.3633
   275.0000     23.6278    145.3110
   275.2500     24.9297    145.2660
   275.5000     26.2202    144.5884
   275.7500     27.4403    143.9946
   276.0000     28.5372    143.0397
   276.2500     29.4609    142.3710
   276.5000     30.1728    141.3183
   276.7500     30.6615    140.3992
   277.0000     30.9489    137.8684
   277.2500     31.0827    134.9110
   277.5000     31.1206    128.5093
   277.7500     31.1168    123.4798
   278.0000     31.1103    116.1467
   278.2500     31.1196    112.0626
   278.5000     31.1428    107.8062
   278.7500     31.1684    106.3486
   279.0000     31.1903    106.1193
   279.2500     31.2126    107.1035
   279.5000     31.2390    110.0774
   279.7500     31.2528    113.0472
   280.0000     31.2115    118.9357
   280.2500     31.0608    123.5629
   280.5000     30.7633    130.5828
   280.7500     30.3118    134.5733
   281.0000     29.7254    138.3813
   281.2500     29.0363    139.0154
   281.5000     28.2898    136.7054
   281.7500     27.5567    133.0270
   282.0000     26.9438    125.2980
   282.2500     26.5844    119.9356
   282.5000     26.6056    114.0941
   282.7500     27.0834    112.5199
   283.0000     28.0019    113.4120
   283.2500     29.2362    115.4716
   283.5000     30.5793    119.5760
   283.7500     31.8172    122.3806
   284.0000     32.8123    125.4493
   284.2500     33.5388    126.0087
   284.5000     34.0613    124.1223
   284.7500     34.4903    121.4236
   285.0000     34.9415    116.6063
   285.2500     35.5058    113.7080
   285.5000     36.2343    110.6135
   285.7500     37.1351    109.3103
   286.0000     38.1826    107.6951
   286.2500     39.3307    106.3588
   286.5000     40.5333    103.7623
   286.7500     41.7607    102.0032
   287.0000     43.0054    100.4725
   287.2500     44.2728    100.7860
   287.5000     45.5616    103.3968
   287.7500     46.8477    106.0149
   288.0000     48.0846    109.9408
   288.2500     49.2256    112.1540
   288.5000     50.2568    115.1026
   288.7500     51.2105    117.0885
   289.0000     52.1450    119.9103
   289.2500     53.1110    121.1676
   289.5000     54.1350    121.1043
   289.7500     55.2308    119.3747
   290.0000     56.4180    114.0842
   290.2500     57.7216    109.0047
   290.5000     59.1481    100.2175
   290.7500     60.6597     94.5641
   291.0000     62.1695     87.7970
   291.2500     63.5634     84.6942
   291.5000     64.7319     81.7451
   291.7500     65.5923     80.5329
   292.0000     66.0966     79.3110
   292.2500     66.2324     78.6096
   292.5000     66.0249     77.3573
   292.7500     65.5430     76.4015
   293.0000     64.8941     75.1969
   293.2500     64.1927     74.8093
   293.5000     63.5017     75.1137
   293.7500     62.7841     75.9463
   294.0000     61.9195     77.9549
   294.2500     60.7884     79.5353
   294.5000     59.3646     81.7432
   294.7500     57.7296     82.8963
   295.0000     56.0049     83.9839
   295.2500     54.2744     84.2580
   295.5000     52.5614     84.0992
