~Version Information
VERS.                      2.0: CWLS Log ASCII Standard - VERSION 2.0
WRAP.                       NO: One line per depth step
~Well Information Block
STRT.FT               260.0000: 
STOP.FT               713.2000: 
STEP.FT                 0.1000: 
NULL.                -999.2500: 
COMP.          Pioneer Natural Resources: COMPANY
WELL.           Quintessa 23-7: WELL
FLD.           Purgatoire River: FIELD
LOC.           1964' FSL & 2589' FWL--: LOCATION
PROV.                 Colorado: PROVINCE
CNTY.               Las Animas: COUNTRY
SRVC.                Patterson: SERVICE COMPANY
DATE.          Sat Nov 19 09:15:07 2005: LOG DATE
UWI.           05 071 08558 00: UNIQUE WELL ID
~Curve Information Block
DEPT.FT            0 000 00 00: Depth
DCAL.in                       : CDL Caliper
RHOB.g/cc                     : CDL Bulk Density
RHOC.g/cc                     : CDL Density Correction
DPOR.pu                       : CDL Density Porosity
NPOR.pu                       : Neutron Porosity
GR.GAPI                       : Gamma Ray
~Parameter Information Block
~A  Depth       DCAL        RHOB        RHOC        DPOR        NPOR         GR     
# ...
   461.6000      8.0550      1.8997      0.2124     45.4722     33.3302     85.3206
   461.7000      8.0550      1.9879      0.2129     40.1269     32.3101     84.2045
   461.8000      8.0414      2.0673      0.2167     35.3178     31.2514     82.0242
   461.9000      8.0414      2.1479      0.1615     30.4274     30.7524     83.3005
   462.0000      8.0234      2.2349      0.1535     25.1577     31.0233     89.2157
   462.1000      8.0234      2.3118      0.1478     20.4988     31.4420     96.3952
   462.2000      8.0234      2.3573      0.0862     17.7381     31.2852    103.9313
   462.3000      8.0107      2.3710      0.0695     16.9105     30.9631    111.9801
   462.4000      8.0107      2.3650      0.0811     17.2743     31.0995    118.7031
   462.5000      8.0094      2.3501      0.0635     18.1782     31.1939    122.3838
   462.6000      8.0094      2.3408      0.0283     18.7418     30.7369    124.6116
   462.7000      8.0094      2.3516      0.0367     18.0844     30.3533    125.9953
   462.8000      8.0087      2.3799      0.0657     16.3700     30.4959    123.8542
   462.9000      8.0087      2.4128      0.0498     14.3734     30.4522    121.0776
   463.0000      8.0044      2.4476      0.0880     12.2650     29.7168    123.4844
   463.1000      8.0044      2.4846      0.1252     10.0256     28.6506    123.6967
   463.2000      8.0044      2.5174      0.1367      8.0377     27.7352    114.0819
   463.3000      8.0010      2.5384      0.1166      6.7648     27.1126    107.2494
   463.4000      8.0010      2.5433      0.1099      6.4647     26.7309    115.3738
   463.5000      7.9921      2.5367      0.0674      6.8664     26.7744    128.4674
   463.6000      7.9921      2.5266      0.0854      7.4794     27.3784    134.9247
   463.7000      7.9921      2.5111      0.0589      8.4176     28.1639    136.6547
   463.8000      7.9737      2.4904      0.0292      9.6752     28.7066    136.8677
   463.9000      7.9737      2.4745      0.0337     10.6376     28.7035    135.9471
   464.0000      7.9611      2.4670      0.0217     11.0923     28.1293    133.5770
   464.1000      7.9611      2.4630      0.0079     11.3316     27.7830    129.1897
   464.2000      7.9611      2.4628      0.0259     11.3436     28.1069    124.1057
   464.3000      7.9571      2.4727      0.0137     10.7461     28.4852    117.1714
   464.4000      7.9571      2.4894      0.0867      9.7355     28.6879    109.5616
   464.5000      7.9509      2.4985      0.0739      9.1805     28.7747    107.4922
   464.6000      7.9509      2.4985      0.0608      9.1842     28.4929    112.1063
   464.7000      7.9509      2.4974      0.0542      9.2489     28.0174    119.1475
   464.8000      7.9415      2.4971      0.0786      9.2663     27.7019    123.3011
   464.9000      7.9415      2.4986      0.0695      9.1745     27.3733    121.4231
   465.0000      7.9366      2.5060      0.0710      8.7298     27.2050    116.0599
   465.1000      7.9366      2.5128      0.0891      8.3133     27.7787    113.1562
   465.2000      7.9366      2.5045      0.0851      8.8207     28.8045    114.4216
   465.3000      7.9371      2.4862      0.0323      9.9261     29.2349    116.9844
   465.4000      7.9371      2.4847      0.0393     10.0184     28.7741    118.3776
   465.5000      7.9417      2.5012      0.0932      9.0173     27.8519    118.8039
   465.6000      7.9417      2.5100      0.0718      8.4857     27.0615    119.6903
   465.7000      7.9417      2.5065      0.0402      8.6988     26.8410    118.0209
   465.8000      7.9511      2.5096      0.0212      8.5069     26.9717    110.3094
   465.9000      7.9511      2.5262      0.0440      7.5032     27.1328    104.8815
   466.0000      7.9612      2.5420      0.0722      6.5463     27.1670    108.9791
   466.1000      7.9612      2.5497      0.0125      6.0764     27.0052    115.7714
   466.2000      7.9612      2.5550      0.0620      5.7593     26.7087    120.0500
   466.3000      7.9685      2.5548      0.0529      5.7706     26.3602    123.0155
   466.4000      7.9685      2.5479      0.0343      6.1884     26.2403    122.8811
   466.5000      7.9723      2.5381      0.0226      6.7800     26.3796    118.4740
   466.6000      7.9723      2.5223      0.0222      7.7370     26.3149    114.7898
   466.7000      7.9723      2.5003      0.0241      9.0705     25.9936    115.0310
   466.8000      7.9714      2.4828     -0.0363     10.1328     25.6594    114.2729
   466.9000      7.9714      2.4780     -0.0065     10.4261     25.3852    110.7872
   467.0000      7.9640      2.4827     -0.0263     10.1374     25.3423    110.7535
   467.1000      7.9640      2.4931      0.0014      9.5116     25.5920    114.6821
   467.2000      7.9640      2.5045     -0.0031      8.8163     25.8197    117.9602
   467.3000      7.9538      2.5148      0.0374      8.1946     25.6393    116.9865
   467.4000      7.9538      2.5228      0.0480      7.7084     25.2342    111.0895
   467.5000      7.9433      2.5255      0.0448      7.5473     25.1772    105.9042
   467.6000      7.9433      2.5245     -0.0152      7.6059     25.5864    102.7654
   467.7000      7.9433      2.5272      0.0337      7.4452     25.8077     96.5454
   467.8000      7.9386      2.5379      0.0362      6.7912     24.9423     88.8431
   467.9000      7.9386      2.5520      0.0768      5.9412     23.2183     87.4755
   468.0000      7.9394      2.5549      0.0472      5.7609     21.8634     90.9711
   468.1000      7.9394      2.5479      0.0208      6.1882     21.6285     90.1211
   468.2000      7.9394      2.5498      0.0366      6.0712     22.3658     85.5974
   468.3000      7.9403      2.5692      0.0539      4.8999     23.5072     83.9690
   468.4000      7.9403      2.5953      0.0838      3.3157     24.4546     83.7400
   468.5000      7.9383      2.6092      0.0888      2.4750     24.7518     83.6816
   468.6000      7.9383      2.5991      0.0355      3.0839     24.6312     85.6173
   468.7000      7.9383      2.5677      0.0131      4.9849     24.6993     88.0130
   468.8000      7.9359      2.5274     -0.0120      7.4314     24.9835     89.0675
   468.9000      7.9359      2.4950     -0.0287      9.3923     24.9638     92.9087
   469.0000      7.9357      2.4783     -0.0040     10.4045     24.7059    102.6952
   469.1000      7.9357      2.4751     -0.0161     10.5977     24.5859    109.9495
   469.2000      7.9357      2.4796      0.0209     10.3247     24.7366    109.3159
   469.3000      7.9402      2.4811      0.0197     10.2356     25.3729    107.7338
   469.4000      7.9402      2.4815      0.0351     10.2134     26.0222    111.5424
   469.5000      7.9464      2.4960      0.0237      9.3349     25.6694    119.3735
   469.6000      7.9464      2.5269      0.0854      7.4615     24.7050    122.1189
   469.7000      7.9464      2.5559      0.0973      5.7029     24.4826    116.3563
   469.8000      7.9476      2.5693      0.0602      4.8920     25.0336    111.4622
   469.9000      7.9476      2.5708      0.0434      4.8021     25.4804    113.2195
   470.0000      7.9435      2.5687      0.0464      4.9257     25.5888    116.4378
   470.1000      7.9435      2.5714      0.0314      4.7645     25.4677    116.6448
   470.2000      7.9435      2.5827      0.0291      4.0764     24.9132    114.0960
   470.3000      7.9423      2.5963      0.0576      3.2556     23.8754    108.2909
   470.4000      7.9423      2.6054      0.0535      2.7060     23.0131    102.0209
   470.5000      7.9490      2.6076      0.0870      2.5715     22.9480    101.2913
   470.6000      7.9490      2.6050      0.0523      2.7254     23.3371    102.0176
   470.7000      7.9490      2.6040      0.0645      2.7903     23.3988     99.3463
   470.8000      7.9557      2.6023      0.0796      2.8904     23.2259     95.9790
   470.9000      7.9557      2.5961      0.0759      3.2671     23.4756     90.8499
   471.0000      7.9492      2.5891      0.0873      3.6934     24.2551     86.3179
   471.1000      7.9492      2.5815      0.0857      4.1544     25.1971     90.3764
