~Version Information
VERS.                      2.0: CWLS Log ASCII Standard - VERSION 2.0
WRAP.                       NO: One line per depth step
~Well Information Block
STRT.FT                 0.0000: 
STOP.FT               878.7500: 
STEP.FT                 0.2500: 
NULL.                -999.2500: 
COMP.          Pioneer Natural Resources: COMPANY
WELL.          Screamin 12-29 Tr: WELL
FLD.           Purgatoire River: FIELD
LOC.           1979' FNL & 532' FWL--: LOCATION
CNTY.               Las Animas: COUNTY
SRVC.                Patterson: SERVICE COMPANY
DATE.          Thu Apr 13 22:21:38 2006: LOG DATE
UWI.           05 071 08660 00: UNIQUE WELL ID
STAT.                 Colorado: STATE
~Curve Information Block
DEPT.FT            0 000 00 00: Depth
GR.GAPI                       : Gamma Ray
CCL.                          : Casing Collar Locator
TT3.usec                      : CBL 3' Travel Time
AMP3.mV                       : CBL 3' Amplitude
~Parameter Information Block
~A  Depth        GR         CCL         TT3         AMP3    
     0.0000   -999.2500   -999.2500   -999.2500   -999.2500
     0.2500   -999.2500   -999.2500   -999.2500   -999.2500
     0.5000   -999.2500   -999.2500   -999.2500   -999.2500
     0.7500   -999.2500   -999.2500   -999.2500   -999.2500
     1.0000   -999.2500   -999.2500   -999.2500   -999.2500
     1.2500   -999.2500   -999.2500   1419.0000      2.9049
     1.5000   -999.2500   -999.2500   1419.0000      2.9150
     1.7500   -999.2500   -999.2500   1419.0000      2.9195
     2.0000   -999.2500   -999.2500   1419.0000      2.9147
     2.2500   -999.2500   -999.2500   1419.0000      2.9099
     2.5000   -999.2500   -999.2500   1419.0000      2.9156
     2.7500   -999.2500   -999.2500   1419.0000      2.9309
     3.0000   -999.2500   -999.2500   1419.0000      2.9639
     3.2500   -999.2500   -999.2500   1419.0000      2.9868
     3.5000   -999.2500   -999.2500   1419.0000      3.0181
     3.7500   -999.2500   -999.2500   1419.0000      3.0366
     4.0000   -999.2500      0.0000   1419.0000      3.0595
     4.2500   -999.2500     -2.0000   1419.0000      3.0719
     4.5000   -999.2500      0.0000   1419.0000      3.0908
     4.7500   -999.2500      0.0000   1419.0000      3.1058
     5.0000   -999.2500      0.0000   1419.0000      3.1237
     5.2500   -999.2500      0.0000   1419.0000      3.1222
     5.5000   -999.2500      0.0000   1419.0000      3.0883
     5.7500   -999.2500      0.0000   1419.0000      3.0485
     6.0000   -999.2500      0.0000   1418.9879      2.9827
     6.2500   -999.2500      0.0000   1418.9061      2.9446
     6.5000   -999.2500      0.0000   1418.1031      2.8992
     6.7500   -999.2500      0.0000   1415.9026      2.8744
     7.0000   -999.2500      0.0000   1403.9647      2.8614
     7.2500   -999.2500      0.0000   1382.7603      2.9101
     7.5000   -999.2500      0.0000   1312.9911      3.2171
     7.7500   -999.2500      0.0000   1233.2854      3.6900
     8.0000   -999.2500      0.0000   1070.5437      4.8965
     8.2500   -999.2500      0.0000    951.4283      5.9312
     8.5000   -999.2500      0.0000    796.2511      7.3823
     8.7500   -999.2500      0.0000    723.3586      8.0145
     9.0000   -999.2500      0.0000    662.6004      8.3134
     9.2500   -999.2500      0.0000    647.4494      8.2005
     9.5000     73.8422      0.0000    646.8284      7.8861
     9.7500     73.1683      0.0000    652.5369      7.7081
    10.0000     72.4863      0.0000    659.9823      7.5515
    10.2500     72.0509      0.0000    661.9988      7.5063
    10.5000     71.9546      0.0000    661.8128      7.4920
    10.7500     72.7641      0.0000    661.0452      7.5059
    11.0000     74.8537      0.0000    660.3455      7.5508
    11.2500     75.5917      0.0000    660.2693      7.5918
    11.5000     73.7052      0.0000    660.2946      7.6604
    11.7500     70.4953      0.0000    659.9460      7.7055
    12.0000     64.9076      0.0000    657.7529      7.7655
    12.2500     62.0505      0.0000    654.4947      7.7979
    12.5000     60.0266      0.0000    646.8975      7.8297
    12.7500     60.0161      0.0000    641.2662      7.8338
    13.0000     61.5949      0.0000    634.7950      7.8060
    13.2500     63.5947      0.0000    631.8518      7.7655
    13.5000     67.2690      0.0000    625.6843      7.6820
    13.7500     69.2002      0.0000    618.4627      7.6168
    14.0000     69.9837      0.0000    605.6603      7.5059
    14.2500     69.3908      0.0000    600.2121      7.4175
    14.5000     68.9546      0.0000    602.2262      7.2488
    14.7500     69.9577      0.0000    610.4314      7.1075
    15.0000     73.0184      0.0000    630.4451      6.8511
    15.2500     74.9967      0.0000    647.7256      6.6518
    15.5000     76.2471      0.0000    677.8688      6.3300
    15.7500     75.6255      0.0000    699.4109      6.1291
    16.0000     72.8949      1.7725    731.9705      5.9004
    16.2500     70.5870      1.5466    753.3613      5.8051
    16.5000     68.3544     -2.0000    783.0814      5.7247
    16.7500     68.7371      1.1646    798.5775      5.6975
    17.0000     72.1545      0.0000    810.1719      5.6996
    17.2500     75.0340      0.0000    809.1808      5.7471
    17.5000     77.4622      0.0000    797.8810      5.9098
    17.7500     77.2693      0.0000    787.3690      6.0655
    18.0000     75.7814      0.0000    772.8504      6.2963
    18.2500     75.2779      0.0000    765.8444      6.4020
    18.5000     76.1168      0.0000    759.6188      6.4532
    18.7500     77.5031      0.0000    757.5654      6.4259
    19.0000     80.2703      0.0000    756.1696      6.3394
    19.2500     82.3081      0.0000    755.5747      6.2799
    19.5000     84.6977      0.0000    753.5536      6.2211
    19.7500     84.9429      0.0000    750.3973      6.2086
    20.0000     82.1615      0.0000    742.0366      6.2224
    20.2500     78.4751      0.0000    734.7855      6.2447
    20.5000     72.5193      0.0000    724.7979      6.2895
    20.7500     70.0214      0.0000    720.8856      6.3271
    21.0000     70.4479      0.0000    720.5684      6.3918
    21.2500     73.6469      0.0000    722.8775      6.4314
    21.5000     81.7378      0.0000    725.8193      6.4662
    21.7500     88.1047      0.0000    725.2916      6.4682
    22.0000     96.1756      0.0000    720.2527      6.4498
    22.2500     98.9424      0.0000    715.3395      6.4351
    22.5000     98.2727      0.0000    708.2197      6.4264
    22.7500     95.4358      0.0000    704.6903      6.4320
    23.0000     90.0896      0.0000    702.3849      6.4490
    23.2500     87.0309      0.0000    703.0449      6.4564
    23.5000     84.3145      0.0000    706.3455      6.4486
    23.7500     84.0004      0.0000    708.9882      6.4298
    24.0000     85.7863      0.0000    712.0900      6.3905
    24.2500     88.1115      0.0000    713.2541      6.3647
    24.5000     91.9752      0.0000    713.7856      6.3379
    24.7500     94.0890      0.0000    713.4614      6.3331
    25.0000     96.2491      0.0000    711.4801      6.3529
    25.2500     97.1581      0.0000    707.9479      6.3842
    25.5000     97.8880      0.0000    695.4485      6.4456
    25.7500     98.1701      0.0000    680.3104      6.4837
    26.0000     99.3963      0.0000    649.2886      6.5204
    26.2500    101.4083      0.0000    628.7879      6.5305
    26.5000    105.8592      0.0000    611.7021      6.5334
    26.7500    108.5708      0.0000    614.7843      6.5335
    27.0000    110.0729      0.0000    642.3806      6.5355
    27.2500    109.1027      0.0000    673.8241      6.5373
    27.5000    106.1681      0.0000    734.4463      6.5343
    27.7500    104.2657      0.0000    778.5461      6.5245
    28.0000    101.8989      0.0000    837.7645      6.4950
    28.2500    100.0783      0.0000    865.1025      6.4670
    28.5000     95.8508      0.0000    879.3138      6.4183
    28.7500     91.8425      0.0000    870.1418      6.3855
    29.0000     84.8268      0.0000    834.7979      6.3413
    29.2500     80.4506      0.0000    803.8890      6.3150
    29.5000     75.9580      0.0000    759.6562      6.2776
    29.7500     74.6728      0.0000    737.0286      6.2570
    30.0000     74.7006      0.0000    716.1959      6.2484
    30.2500     75.6036      0.0000    709.7871      6.2653
    30.5000     78.2096      0.0000    708.4432      6.3187
    30.7500     80.7957      0.0000    712.5838      6.3587
    31.0000     85.3275      0.0000    727.3806      6.3986
    31.2500     88.0650      0.0000    742.7701      6.4036
    31.5000     90.3623      0.0000    769.1985      6.3829
    31.7500     90.0846      0.0000    784.1415      6.3605
    32.0000     86.9942      0.0000    796.3937      6.3350
    32.2500     84.0152      0.0000    797.9722      6.3339
    32.5000     80.4198      0.0000    796.0284      6.3693
    32.7500     79.6204      0.0000    795.4383      6.4208
    33.0000     81.2783      0.0000    798.3770      6.5302
    33.2500     83.9661      0.0000    802.2612      6.6055
