~Version Information
VERS.                      2.0: CWLS Log ASCII Standard - VERSION 2.0
WRAP.                       NO: One line per depth step
~Well Information Block
STRT.FT               570.0000: 
STOP.FT              2090.5000: 
STEP.FT                 0.1000: 
NULL.                -999.2500: 
COMP.          XTO Energy Inc.: COMPANY
WELL.          Golden Eagle 19-10: WELL
FLD.           Purgatoire River: FIELD
LOC.           2684' FSL & 1825' FEL: LOCATION
CNTY.               Las Animas: COUNTY
SRVC.                Patterson: SERVICE COMPANY
DATE.          Mon Mar 06 07:05:15 2006: LOG DATE
UWI.           05 071 08697 00: UNIQUE WELL ID
STAT.                 Colorado: STATE
~Curve Information Block
DEPT.FT            0 000 00 00: Depth
DCAL.in                       : CDL Caliper
RHOB.g/cc                     : CDL Bulk Density
RHOC.g/cc                     : CDL Density Correction
DPOR.pu                       : CDL Density Porosity
GR.GAPI                       : Gamma Ray
NPOR.pu                       : Neutron Porosity
~Parameter Information Block
~A  Depth       DCAL        RHOB        RHOC        DPOR         GR         NPOR    
# ...
   771.6000      7.8002      2.4004     -0.0505     15.1261     59.2525     16.8297
   771.7000      7.8002      2.4356     -0.0015     12.9927     58.5834     16.6926
   771.8000      7.7999      2.4808      0.0218     10.2530     56.3585     16.3927
   771.9000      7.7999      2.5150      0.0633      8.1806     52.9778     16.0451
   772.0000      7.7980      2.5266      0.0722      7.4817     47.7658     15.7909
   772.1000      7.7980      2.5247      0.0550      7.5927     43.0796     15.8523
   772.2000      7.7980      2.5297      0.0724      7.2896     42.1146     16.2336
   772.3000      7.7954      2.5382      0.0944      6.7729     43.5749     16.5380
   772.4000      7.7954      2.5323      0.0926      7.1311     44.5823     16.3737
   772.5000      7.7939      2.5160      0.0352      8.1183     45.1152     15.9312
   772.6000      7.7939      2.5139      0.0137      8.2508     46.2564     15.8357
   772.7000      7.7939      2.5274      0.0341      7.4332     49.4714     16.2276
   772.8000      7.7921      2.5359      0.0211      6.9123     52.3785     16.5571
   772.9000      7.7921      2.5314      0.0237      7.1884     51.4485     16.4434
   773.0000      7.7905      2.5133      0.0462      8.2821     50.2853     16.1759
   773.1000      7.7905      2.4858     -0.0051      9.9535     51.3481     16.0393
   773.2000      7.7905      2.4654     -0.0111     11.1864     51.4308     16.0981
   773.3000      7.7910      2.4622      0.0079     11.3809     51.9095     16.3885
   773.4000      7.7910      2.4633      0.0165     11.3134     56.4963     16.8411
   773.5000      7.7937      2.4554      0.0084     11.7918     60.7296     17.1777
   773.6000      7.7937      2.4491      0.0220     12.1739     58.5615     16.8445
   773.7000      7.7937      2.4606      0.0069     11.4788     50.9918     15.9734
   773.8000      7.7971      2.4794      0.0581     10.3375     42.8224     15.4212
   773.9000      7.7971      2.4878     -0.0043      9.8321     40.0354     15.4042
   774.0000      7.7992      2.4956     -0.0163      9.3600     44.1029     15.5831
   774.1000      7.7992      2.5085      0.0426      8.5738     50.3283     15.9377
   774.2000      7.7992      2.5060      0.0431      8.7297     54.8281     16.4660
   774.3000      7.8003      2.4839     -0.0136     10.0677     57.7518     16.6610
   774.4000      7.8003      2.4657     -0.0308     11.1688     59.3792     16.3822
   774.5000      7.8006      2.4641      0.0097     11.2668     58.5827     16.0971
   774.6000      7.8006      2.4773      0.0123     10.4668     57.3432     16.0301
   774.7000      7.8006      2.5004      0.0519      9.0638     58.2883     16.1152
   774.8000      7.8009      2.5156      0.0618      8.1476     60.6722     16.1850
   774.9000      7.8009      2.5094      0.0238      8.5199     62.2116     16.0861
   775.0000      7.8011      2.4982     -0.0121      9.2012     61.2585     15.8862
   775.1000      7.8011      2.4987      0.0349      9.1717     59.1071     15.6810
   775.2000      7.8011      2.5047      0.0108      8.8060     57.7682     15.6843
   775.3000      7.7994      2.5054      0.0492      8.7609     57.9113     16.1262
   775.4000      7.7994      2.4975      0.0246      9.2436     59.6957     16.6451
   775.5000      7.7975      2.4927     -0.0024      9.5312     60.6542     17.0054
   775.6000      7.7975      2.5023      0.0228      8.9514     59.0518     17.3057
   775.7000      7.7975      2.5129      0.0365      8.3067     57.8672     17.5816
   775.8000      7.7962      2.5075      0.0030      8.6364     58.1079     17.8810
   775.9000      7.7962      2.4893      0.0064      9.7385     57.3038     17.9248
   776.0000      7.7947      2.4722      0.0184     10.7746     56.8887     17.7658
   776.1000      7.7947      2.4678     -0.0180     11.0395     59.6346     18.1405
   776.2000      7.7947      2.4774      0.0208     10.4611     63.8144     19.0791
   776.3000      7.7934      2.4956     -0.0442      9.3575     66.9150     19.5765
   776.4000      7.7934      2.5168      0.0071      8.0704     68.5307     19.2334
   776.5000      7.7913      2.5272      0.0204      7.4413     69.7095     19.0139
   776.6000      7.7913      2.5221      0.0156      7.7502     70.4855     19.4870
   776.7000      7.7913      2.5160     -0.0201      8.1214     69.5378     19.9843
   776.8000      7.7863      2.5214      0.0180      7.7910     66.0704     19.9499
   776.9000      7.7863      2.5394      0.0344      6.7060     61.9577     19.8419
   777.0000      7.7789      2.5611      0.0585      5.3878     59.8271     20.0272
   777.1000      7.7789      2.5731      0.0477      4.6581     58.5141     20.1141
   777.2000      7.7789      2.5694      0.0599      4.8877     56.2543     19.8457
   777.3000      7.7705      2.5587     -0.0156      5.5357     55.6701     19.5957
   777.4000      7.7705      2.5559      0.0480      5.7040     57.3722     19.7837
   777.5000      7.7668      2.5658      0.0378      5.1014     58.0714     20.0770
   777.6000      7.7668      2.5815      0.0844      4.1538     57.5381     19.8327
   777.7000      7.7668      2.5895      0.0666      3.6649     59.6774     19.3040
   777.8000      7.7713      2.5831      0.0645      4.0527     65.6225     18.9220
   777.9000      7.7713      2.5642      0.0468      5.1981     69.7815     18.6454
   778.0000      7.7704      2.5437      0.0667      6.4435     67.6316     18.6189
   778.1000      7.7704      2.5347      0.0375      6.9875     61.7452     18.8967
   778.2000      7.7704      2.5378      0.0546      6.8026     58.7993     18.9420
   778.3000      7.7574      2.5466      0.0148      6.2684     62.2762     18.5441
   778.4000      7.7574      2.5668      0.0295      5.0399     69.3108     17.8094
   778.5000      7.7366      2.6095      0.0840      2.4554     76.6572     16.9187
   778.6000      7.7366      2.6640      0.1258     -0.8492     84.7794     16.5892
   778.7000      7.7366      2.6868      0.2314     -2.2301     93.0437     17.0918
   778.8000      7.7228      2.6480      0.1679      0.1237     97.1573     17.6258
   778.9000      7.7228      2.5796      0.0779      4.2681     96.7860     17.6628
   779.0000      7.7495      2.5186      0.0851      7.9631     97.6998     17.8867
   779.1000      7.7495      2.4654      0.0235     11.1870    102.8286     19.0393
   779.2000      7.7495      2.4288     -0.0378     13.4060    109.8524     20.7245
   779.3000      7.8112      2.4334     -0.0822     13.1281    115.1559     21.7023
   779.4000      7.8112      2.4781      0.0180     10.4198    116.8961     21.7010
   779.5000      7.8505      2.5325      0.1190      7.1217    116.0554     21.9070
   779.6000      7.8505      2.5689      0.1955      4.9177    116.6414     22.7762
   779.7000      7.8505      2.5802      0.1894      4.2273    119.3586     23.4276
   779.8000      7.8555      2.5825      0.1955      4.0935    122.3480     23.5206
   779.9000      7.8555      2.5954      0.2061      3.3120    123.6069     23.4246
   780.0000      7.8505      2.6183      0.2372      1.9240    122.9073     23.3153
   780.1000      7.8505      2.6319      0.2249      1.0965    123.9657     23.2283
   780.2000      7.8505      2.6249      0.1639      1.5239    126.9011     23.1174
   780.3000      7.8502      2.6025      0.0885      2.8781    125.5890     22.9125
   780.4000      7.8502      2.5712      0.1198      4.7752    119.1183     23.0369
   780.5000      7.8537      2.5324      0.0778      7.1266    114.0422     23.6043
   780.6000      7.8537      2.4974      0.0381      9.2482    114.3277     24.1207
   780.7000      7.8537      2.4798      0.0349     10.3174    116.8649     24.3187
   780.8000      7.8559      2.4774      0.0226     10.4610    119.7236     23.9097
   780.9000      7.8559      2.4799      0.0111     10.3096    126.8718     23.2747
   781.0000      7.8564      2.4802     -0.0077     10.2913    135.7816     23.2178
   781.1000      7.8564      2.4789      0.0027     10.3688    138.6324     23.6000
