~Version Information
VERS.                      2.0: CWLS Log ASCII Standard - VERSION 2.0
WRAP.                       NO: One line per depth step
~Well Information Block
STRT.FT               555.0000: 
STOP.FT              2286.5000: 
STEP.FT                 0.1000: 
NULL.                -999.2500: 
COMP.          Pioneer Natural Resources: COMPANY
WELL.          Roadster 41-33 Kv: WELL
FLD.           Purgatoire River: FIELD
LOC.           903' FNL & 248' FEL: LOCATION
PROV.                 Colorado: PROVINCE
CNTY.               Las Animas: COUNTRY
SRVC.                Patterson: SERVICE COMPANY
DATE.          Thu Dec 15 10:28:25 2005: LOG DATE
UWI.           05 071 08615 00: UNIQUE WELL ID
~Curve Information Block
DEPT.FT            0 000 00 00: Depth
DCAL.in                       : CDL Caliper
RHOB.g/cc                     : CDL Bulk Density
RHOC.g/cc                     : CDL Density Correction
DPOR.pu                       : CDL Density Porosity
GR.GAPI                       : Gamma Ray
NPOR.pu                       : Neutron Porosity
~Parameter Information Block
~A  Depth       DCAL        RHOB        RHOC        DPOR         GR         NPOR    
# ...
  1582.2000      8.1332      2.6366      0.0347      0.8107    159.3963     27.8310
  1582.3000      8.1598      2.6318      0.0525      1.1021    155.4338     26.2992
  1582.4000      8.1598      2.6229      0.0332      1.6434    145.5109     25.1408
  1582.5000      8.1931      2.6105      0.0348      2.3965    138.4557     25.5418
  1582.6000      8.1931      2.5935     -0.0106      3.4224    137.8922     26.6528
  1582.7000      8.1931      2.5755     -0.0051      4.5153    139.0129     26.9167
  1582.8000      8.2038      2.5593     -0.0275      5.4998    143.4477     26.4236
  1582.9000      8.2038      2.5380     -0.0143      6.7866    151.0052     26.3516
  1583.0000      8.2116      2.5063     -0.0178      8.7107    154.7713     27.0076
  1583.1000      8.2116      2.4759     -0.0447     10.5540    150.1833     27.5912
  1583.2000      8.2116      2.4651     -0.0189     11.2065    139.0397     27.3811
  1583.3000      8.1797      2.4750     -0.0475     10.6080    134.3651     26.6203
  1583.4000      8.1797      2.4937     -0.0036      9.4748    142.8347     26.1361
  1583.5000      8.1691      2.5177     -0.0007      8.0172    149.9366     26.1846
  1583.6000      8.1691      2.5462      0.0651      6.2910    146.2637     26.4956
  1583.7000      8.1691      2.5589      0.0556      5.5205    138.4799     27.0870
  1583.8000      8.1598      2.5449      0.0314      6.3703    132.6690     27.5268
  1583.9000      8.1598      2.5265      0.0261      7.4877    129.7930     27.1037
  1584.0000      8.1799      2.5282      0.0517      7.3832    126.8815     26.6071
  1584.1000      8.1799      2.5540      0.0336      5.8155    121.7145     26.7345
  1584.2000      8.1799      2.5900      0.0966      3.6370    117.3878     26.6862
  1584.3000      8.1375      2.6156      0.1101      2.0829    116.1565     26.4026
  1584.4000      8.1375      2.6219      0.0726      1.7038    117.0170     26.5994
  1584.5000      8.1189      2.6124      0.0704      2.2767    119.0726     26.9800
  1584.6000      8.1189      2.5948      0.0263      3.3464    120.8781     26.9895
  1584.7000      8.1189      2.5731      0.0376      4.6606    122.1792     26.6960
  1584.8000      8.1211      2.5503     -0.0068      6.0438    123.5293     26.4499
  1584.9000      8.1211      2.5332     -0.0139      7.0777    120.6249     26.3409
  1585.0000      8.1181      2.5324     -0.0152      7.1249    114.0566     26.4969
  1585.1000      8.1181      2.5525      0.0044      5.9117    112.4367     26.7277
  1585.2000      8.1181      2.5749      0.0603      4.5519    117.6763     26.1761
  1585.3000      8.1300      2.5785      0.0207      4.3346    126.6122     24.7410
  1585.4000      8.1300      2.5718      0.0358      4.7424    133.8302     23.5494
  1585.5000      8.1905      2.5702      0.0436      4.8352    136.1028     23.2534
  1585.6000      8.1905      2.5736      0.0271      4.6278    137.5627     23.6695
  1585.7000      8.1905      2.5772      0.0848      4.4147    138.6454     24.1531
  1585.8000      8.1866      2.5795      0.0851      4.2703    137.4214     23.8653
  1585.9000      8.1866      2.5818      0.0226      4.1329    135.7202     23.2124
  1586.0000      8.1799      2.5832      0.0079      4.0498    133.3156     23.1454
  1586.1000      8.1799      2.5830      0.0132      4.0635    128.7388     23.3860
  1586.2000      8.1799      2.5852     -0.0211      3.9257    124.0538     23.1718
  1586.3000      8.1423      2.5944     -0.0071      3.3685    120.3425     22.6073
  1586.4000      8.1423      2.6060      0.0165      2.6656    118.8166     21.9481
  1586.5000      8.0904      2.6133      0.0227      2.2239    120.9145     21.3826
  1586.6000      8.0904      2.6133      0.0694      2.2259    123.0917     21.2980
  1586.7000      8.0904      2.6036      0.0343      2.8100    120.7961     21.4484
  1586.8000      8.0775      2.5913      0.0018      3.5588    117.3879     21.5152
  1586.9000      8.0775      2.5884     -0.0107      3.7307    116.9195     21.6587
  1587.0000      8.1021      2.5964      0.0055      3.2505    115.9307     21.7655
  1587.1000      8.1021      2.6051      0.0466      2.7196    114.8594     21.8740
  1587.2000      8.1021      2.6030      0.0489      2.8491    116.9433     22.2227
  1587.3000      8.1254      2.5901      0.0323      3.6302    120.7602     22.2540
  1587.4000      8.1254      2.5775      0.0568      4.3962    122.6335     21.3332
  1587.5000      8.1351      2.5684      0.0453      4.9440    118.5482     19.9820
  1587.6000      8.1351      2.5648      0.0024      5.1617    112.1789     19.3842
  1587.7000      8.1351      2.5699      0.0532      4.8541    110.9671     20.1395
  1587.8000      8.1474      2.5701      0.0442      4.8405    117.1472     21.8148
  1587.9000      8.1474      2.5533      0.0107      5.8632    125.8725     23.5443
  1588.0000      8.1490      2.5328      0.0042      7.1012    130.2319     24.6896
  1588.1000      8.1490      2.5270     -0.0092      7.4546    130.9879     25.2923
  1588.2000      8.1490      2.5337      0.0153      7.0510    129.0918     25.9121
  1588.3000      8.1051      2.5358      0.0403      6.9234    124.5886     26.3844
  1588.4000      8.1051      2.5241      0.0193      7.6281    121.1046     26.4375
  1588.5000      8.1071      2.5104      0.0141      8.4593    119.5001     26.4882
  1588.6000      8.1071      2.5144     -0.0225      8.2157    116.1089     26.5802
  1588.7000      8.1071      2.5359      0.0166      6.9150    112.1461     26.3006
  1588.8000      8.1022      2.5500      0.0487      6.0599    112.3580     25.8093
  1588.9000      8.1022      2.5442      0.0374      6.4127    116.5540     25.5576
  1589.0000      8.0941      2.5264      0.0524      7.4914    121.5078     25.2836
  1589.1000      8.0941      2.5063      0.0417      8.7086    126.1711     24.6323
  1589.2000      8.0941      2.4987      0.0031      9.1699    133.2677     24.0599
  1589.3000      8.0601      2.5107      0.0591      8.4418    139.9834     23.8378
  1589.4000      8.0601      2.5259      0.0551      7.5234    139.6283     23.9387
  1589.5000      8.0425      2.5268      0.0608      7.4663    135.2729     24.5371
  1589.6000      8.0425      2.5096      0.0716      8.5116    133.1958     25.2369
  1589.7000      8.0425      2.4840      0.0358     10.0583    134.0999     25.3206
  1589.8000      8.0575      2.4717      0.0296     10.8068    135.3164     24.8699
  1589.9000      8.0575      2.4815      0.0356     10.2112    135.2396     24.5739
  1590.0000      8.0739      2.4980      0.0740      9.2116    136.8416     24.5521
  1590.1000      8.0739      2.5052      0.0795      8.7736    143.4404     24.2794
  1590.2000      8.0739      2.5081      0.0502      8.6015    150.0202     23.4139
  1590.3000      8.0764      2.5177      0.0849      8.0209    150.2847     22.6044
  1590.4000      8.0764      2.5326      0.1022      7.1166    146.3520     22.4885
  1590.5000      8.0657      2.5461      0.1006      6.2964    141.3450     22.5100
  1590.6000      8.0657      2.5540      0.1149      5.8152    133.3956     21.9057
  1590.7000      8.0657      2.5585      0.0616      5.5444    123.9755     21.5081
  1590.8000      8.0725      2.5657      0.0708      5.1064    117.2730     21.7047
  1590.9000      8.0725      2.5700      0.0843      4.8473    114.4068     21.6861
  1591.0000      8.0743      2.5576      0.1010      5.6016    113.2269     21.6221
  1591.1000      8.0743      2.5309      0.0340      7.2173    108.4572     22.2659
  1591.2000      8.0743      2.5078      0.0124      8.6198     98.8511     23.3530
  1591.3000      8.0784      2.5029     -0.0006      8.9182     91.5550     24.1332
  1591.4000      8.0784      2.5241     -0.0082      7.6310     90.6091     24.1059
  1591.5000      8.0700      2.5628      0.0204      5.2833     90.8678     22.8944
  1591.6000      8.0700      2.5965      0.0809      3.2407     88.2440     21.2344
  1591.7000      8.0700      2.6147      0.0734      2.1397     85.5472     20.4324
