~Version Information
VERS.                      2.0: CWLS Log ASCII Standard - VERSION 2.0
WRAP.                       NO: One line per depth step
~Well Information Block
STRT.FT               615.0000: 
STOP.FT              1607.0000: 
STEP.FT                 0.1000: 
NULL.                -999.2500: 
COMP.          Pioneer Natural Resources: COMPANY
WELL.          Galloway 32-13 Tr: WELL
FLD.           Purgatoire River: FIELD
LOC.           1910' FNL & 2002' FEL: LOCATION
PROV.                 Colorado: PROVINCE
CNTY.               Las Animas: COUNTRY
SRVC.                Patterson: SERVICE COMPANY
DATE.          Mon Nov 14 07:13:22 2005: LOG DATE
UWI.           05 071 08608 00: UNIQUE WELL ID
~Curve Information Block
DEPT.FT            0 000 00 00: Depth
DCAL.in                       : CDL Caliper
RHOB.g/cc                     : CDL Bulk Density
RHOC.g/cc                     : CDL Density Correction
DPOR.pu                       : CDL Density Porosity
GR.GAPI                       : Gamma Ray
NPOR.pu                       : Neutron Porosity
~Parameter Information Block
~A  Depth       DCAL        RHOB        RHOC        DPOR         GR         NPOR    
# ...
  1402.2000      7.8796      2.4689      0.0061     10.9778     81.9866     20.7615
  1402.3000      7.8855      2.4763      0.0637     10.5298     85.1140     21.2252
  1402.4000      7.8855      2.4827      0.0251     10.1386     84.7172     19.8054
  1402.5000      7.9090      2.5002      0.0131      9.0797     81.5060     17.8885
  1402.6000      7.9090      2.5321      0.0769      7.1470     80.6382     16.9626
  1402.7000      7.9090      2.5560      0.0642      5.6975     82.5262     17.2983
  1402.8000      7.9013      2.5553      0.0785      5.7409     83.3581     18.5144
  1402.9000      7.9013      2.5403      0.0409      6.6464     82.0698     19.7911
  1403.0000      7.8903      2.5346      0.0636      6.9936     82.1760     20.0941
  1403.1000      7.8903      2.5438      0.0866      6.4380     85.6057     19.6611
  1403.2000      7.8903      2.5505      0.1016      6.0283     88.5374     19.6227
  1403.3000      7.8701      2.5437      0.0608      6.4433     87.8542     20.0159
  1403.4000      7.8701      2.5312      0.0637      7.1990     87.7035     20.4115
  1403.5000      7.8630      2.5216      0.0537      7.7837     91.3738     20.8715
  1403.6000      7.8630      2.5182      0.0545      7.9906     93.6430     21.2094
  1403.7000      7.8630      2.5234      0.0833      7.6717     92.0795     21.1449
  1403.8000      7.8640      2.5359      0.0993      6.9124     90.4551     21.2058
  1403.9000      7.8640      2.5481      0.1179      6.1752     90.0259     21.6876
  1404.0000      7.8661      2.5536      0.0833      5.8426     89.3460     21.8125
  1404.1000      7.8661      2.5518      0.0999      5.9531     87.5606     21.2788
  1404.2000      7.8661      2.5425      0.0963      6.5145     86.1575     20.5713
  1404.3000      7.8665      2.5254      0.0338      7.5522     84.4249     20.0326
  1404.4000      7.8665      2.5046      0.0452      8.8111     80.6402     19.9703
  1404.5000      7.8716      2.4863      0.0651      9.9233     79.8943     20.7374
  1404.6000      7.8716      2.4722      0.0359     10.7758     87.1294     21.9000
  1404.7000      7.8716      2.4652      0.0078     11.2027     97.2179     22.3937
  1404.8000      7.8756      2.4666      0.0198     11.1135    100.8210     22.1852
  1404.9000      7.8756      2.4764      0.0009     10.5230     96.9519     21.8735
  1405.0000      7.8828      2.4932      0.0632      9.5004     95.2415     21.7260
  1405.1000      7.8828      2.5121      0.0638      8.3551    101.4381     21.8745
  1405.2000      7.8828      2.5295      0.0807      7.3037    108.5887     22.2400
  1405.3000      7.9033      2.5360      0.1084      6.9086    109.5436     22.6575
  1405.4000      7.9033      2.5259      0.0825      7.5218    105.9291     23.3197
  1405.5000      7.8859      2.5122      0.0602      8.3533    102.3852     24.4935
  1405.6000      7.8859      2.5047      0.1263      8.8033    100.3300     25.5036
  1405.7000      7.8859      2.5010      0.0765      9.0319     98.4800     25.1352
  1405.8000      7.8609      2.5030      0.0691      8.9100     96.8272     23.8723
  1405.9000      7.8609      2.5109      0.0733      8.4317     96.3275     23.3902
  1406.0000      7.8209      2.5158      0.0436      8.1311     94.7279     23.6679
  1406.1000      7.8209      2.5123      0.0489      8.3465     90.1401     23.5849
  1406.2000      7.8209      2.5026      0.0894      8.9337     83.7911     23.3583
  1406.3000      7.8299      2.4923      0.0735      9.5568     78.4664     23.5148
  1406.4000      7.8299      2.4787      0.1156     10.3824     76.3795     23.3893
  1406.5000      7.8398      2.4561      0.0544     11.7512     77.1769     22.8731
  1406.6000      7.8398      2.4384      0.0002     12.8263     80.0804     22.5660
  1406.7000      7.8398      2.4421      0.0078     12.5985     81.9623     22.3493
  1406.8000      7.8723      2.4542      0.0753     11.8675     81.1089     21.9258
  1406.9000      7.8723      2.4547      0.0467     11.8354     82.2000     21.5641
  1407.0000      7.8870      2.4518      0.0442     12.0123     85.6846     21.8508
  1407.1000      7.8870      2.4618      0.0333     11.4041     88.0610     22.9323
  1407.2000      7.8870      2.4836      0.0964     10.0869     88.8581     23.9094
  1407.3000      7.9130      2.5056      0.0999      8.7513     89.8919     23.9687
  1407.4000      7.9130      2.5197      0.1155      7.8984     91.1535     23.0913
  1407.5000      7.9099      2.5257      0.0940      7.5342     90.7061     21.8315
  1407.6000      7.9099      2.5259      0.1186      7.5188     89.8343     20.9088
  1407.7000      7.9099      2.5191      0.0994      7.9311     89.7709     20.7327
  1407.8000      7.8675      2.5085      0.1023      8.5759     90.5627     21.3036
  1407.9000      7.8675      2.5021      0.0704      8.9657     93.2241     22.0862
  1408.0000      7.8299      2.4994      0.0969      9.1302     97.6876     22.4947
  1408.1000      7.8299      2.4943      0.0542      9.4341    100.3515     22.1608
  1408.2000      7.8299      2.4961      0.0454      9.3295     97.8521     20.8716
  1408.3000      7.8071      2.5134      0.0952      8.2789     92.6921     19.4721
  1408.4000      7.8071      2.5357      0.0894      6.9287     88.9649     19.0083
  1408.5000      7.8217      2.5483      0.1322      6.1624     86.5870     19.4407
  1408.6000      7.8217      2.5451      0.1405      6.3555     83.3111     20.2439
  1408.7000      7.8217      2.5351      0.0891      6.9656     80.6609     21.0405
  1408.8000      7.8149      2.5355      0.1046      6.9382     83.0226     21.7915
  1408.9000      7.8149      2.5460      0.1426      6.3018     90.1694     22.7863
  1409.0000      7.8268      2.5487      0.1560      6.1374     95.9145     23.7797
  1409.1000      7.8268      2.5355      0.1041      6.9404     95.6032     24.1093
  1409.2000      7.8268      2.5150      0.0848      8.1806     89.4816     23.9116
  1409.3000      7.8206      2.5018      0.0414      8.9815     81.3425     23.7524
  1409.4000      7.8206      2.5020      0.0473      8.9711     77.0851     23.7210
  1409.5000      7.8564      2.5095      0.0368      8.5174     76.8534     23.4842
  1409.6000      7.8564      2.5139      0.1125      8.2505     76.8942     22.8122
  1409.7000      7.8564      2.5074      0.0519      8.6451     77.2634     22.2711
  1409.8000      7.8615      2.4940      0.0518      9.4548     81.3893     22.4875
  1409.9000      7.8615      2.4868      0.0090      9.8898     87.0504     23.1566
  1410.0000      7.8676      2.4943      0.0380      9.4360     86.3295     23.4161
  1410.1000      7.8676      2.5089      0.0760      8.5529     80.0269     22.9432
  1410.2000      7.8676      2.5130      0.0750      8.3056     75.6708     22.0092
  1410.3000      7.8885      2.5012      0.0356      9.0196     75.9162     21.6376
  1410.4000      7.8885      2.4808      0.0385     10.2567     78.6944     22.4300
  1410.5000      7.8835      2.4571      0.0389     11.6937     80.6769     23.4168
  1410.6000      7.8835      2.4394      0.0052     12.7632     80.3191     23.5310
  1410.7000      7.8835      2.4383      0.0324     12.8299     79.9643     22.9365
  1410.8000      7.8803      2.4527      0.0167     11.9584     80.4601     22.4324
  1410.9000      7.8803      2.4757      0.0544     10.5662     79.4764     22.3085
  1411.0000      7.8821      2.4991      0.0432      9.1461     78.5678     22.3894
  1411.1000      7.8821      2.5143      0.0712      8.2272     81.0639     22.7968
  1411.2000      7.8821      2.5147      0.0704      8.1994     84.1067     23.4127
  1411.3000      7.8848      2.5070      0.0312      8.6663     83.3920     23.3695
  1411.4000      7.8848      2.5078      0.0324      8.6185     80.4202     22.6156
  1411.5000      7.8918      2.5148      0.0666      8.1968     78.2364     21.7398
  1411.6000      7.8918      2.5098      0.0509      8.4960     77.7794     20.8191
  1411.7000      7.8918      2.4950      0.0247      9.3929     79.0400     20.0639
