~Version Information
VERS.                      2.0: CWLS Log ASCII Standard - VERSION 2.0
WRAP.                       NO: One line per depth step
~Well Information Block
STRT.FT                -4.2500: 
STOP.FT               745.0000: 
STEP.FT                 0.2500: 
NULL.                -999.2500: 
COMP.          Pioneer Natural Resources: COMPANY
WELL.                Zed 11-23: WELL
FLD.           Purgatoire River: FIELD
LOC.           641' FNL & 952' FWL: LOCATION
CNTY.               Las Animas: COUNTY
SRVC.                         : SERVICE COMPANY
DATE.          Fri Mar 03 16:43:06 2006: LOG DATE
UWI.           05 071 08702 00: UNIQUE WELL ID
STAT.                       CO: STATE
~Curve Information Block
DEPT.FT            0 000 00 00: Depth
GR.GAPI                       : Gamma Ray
CCL.                          : Casing Collar Locator
TT3.usec                      : CBL 3' Travel Time
AMP3.mV                       : CBL 3' Amplitude
~Parameter Information Block
~A  Depth        GR         CCL         TT3         AMP3    
    -4.2500   -999.2500   -999.2500   -999.2500   -999.2500
    -4.0000   -999.2500   -999.2500   -999.2500   -999.2500
    -3.7500   -999.2500   -999.2500   -999.2500   -999.2500
    -3.5000   -999.2500   -999.2500   -999.2500   -999.2500
    -3.2500   -999.2500   -999.2500   -999.2500   -999.2500
    -3.0000   -999.2500   -999.2500   -999.2500   -999.2500
    -2.7500   -999.2500   -999.2500   -999.2500   -999.2500
    -2.5000   -999.2500   -999.2500   -999.2500   -999.2500
    -2.2500   -999.2500   -999.2500   -999.2500   -999.2500
    -2.0000   -999.2500   -999.2500   -999.2500   -999.2500
    -1.7500   -999.2500   -999.2500   -999.2500   -999.2500
    -1.5000   -999.2500   -999.2500   1230.0000      0.7245
    -1.2500   -999.2500   -999.2500   1230.0000      0.7247
    -1.0000   -999.2500   -999.2500   1230.0000      0.7256
    -0.7500   -999.2500   -999.2500   1230.0000      0.7289
    -0.5000   -999.2500   -999.2500   1230.0000      0.7392
    -0.2500   -999.2500   -999.2500   1230.0000      0.7635
     0.0000   -999.2500   -999.2500   1230.0000      0.8085
     0.2500   -999.2500   -999.2500   1230.0000      0.8754
     0.5000   -999.2500   -999.2500   1230.0000      1.0415
     0.7500   -999.2500   -999.2500   1230.0000      1.1203
     1.0000   -999.2500   -999.2500   1230.0000      1.1868
     1.2500   -999.2500   -999.2500   1230.0000      1.2361
     1.5000   -999.2500   -999.2500   1230.0000      1.2667
     1.7500   -999.2500   -999.2500   1230.0000      1.2831
     2.0000   -999.2500   -999.2500   1230.0000      1.2927
     2.2500   -999.2500   -999.2500   1229.9451      1.3013
     2.5000   -999.2500   -999.2500   1229.5770      1.3148
     2.7500   -999.2500   -999.2500   1227.6935      1.3523
     3.0000   -999.2500   -999.2500   1220.1736      1.4900
     3.2500   -999.2500   -999.2500   1196.7311      1.9667
     3.5000   -999.2500   -999.2500   1139.6500      3.3187
     3.7500   -999.2500      0.0000   1031.0441      6.3408
     4.0000   -999.2500      0.0000    869.5475     11.5770
     4.2500   -999.2500      0.0000    681.9611     18.5034
     4.5000   -999.2500      0.0000    512.1081     25.3301
     4.7500   -999.2500      0.0000    392.8930     30.0919
     5.0000   -999.2500      0.0000    328.9516     32.1390
     5.2500   -999.2500      0.0000    303.7640     32.4152
     5.5000   -999.2500      1.5054    297.5547     32.3544
     5.7500   -999.2500      2.0000    298.0621     32.6946
     6.0000   -999.2500     -1.0049    301.1707     33.1657
     6.2500   -999.2500      2.0000    307.8697     32.9557
     6.5000   -999.2500     -2.0000    321.6220     31.4234
     6.7500   -999.2500     -2.0000    345.4626     28.5499
     7.0000   -999.2500      2.0000    378.3924     24.8646
     7.2500   -999.2500      2.0000    413.9470     21.0389
     7.5000   -999.2500     -2.0000    443.8671     17.5756
     7.7500   -999.2500     -2.0000    463.7622     14.7674
     8.0000   -999.2500     -2.0000    474.6455     12.7613
     8.2500   -999.2500      2.0000    479.6538     11.5620
     8.5000      0.0000      0.0000    480.9190     11.0112
     8.7500      0.0000      0.0000    479.5929     10.8428
     9.0000      0.0025      0.0000    477.1141     10.7996
     9.2500      0.0196      0.0000    475.2649     10.7192
     9.5000      0.1092      0.0000    475.2239     10.5582
     9.7500      0.4737      0.0000    476.9282     10.3721
    10.0000      1.6408      0.0000    479.2281     10.2505
    10.2500      4.5829      0.0000    480.9059     10.2321
    10.5000     10.4421      0.0000    482.0690     10.2698
    10.7500     19.6900      0.0000    484.5759     10.2825
    11.0000     31.2965      0.0000    490.7968     10.2331
    11.2500     42.9282      0.0000    502.1465     10.1452
    11.5000     52.3143      0.0000    518.7351     10.0517
    11.7500     58.5842      0.0000    539.1080      9.9560
    12.0000     62.4326      0.0000    559.1129      9.8555
    12.2500     65.1938      0.0000    572.0383      9.7793
    12.5000     67.7044      0.0000    572.1990      9.7684
    12.7500     69.8092      0.0000    559.4727      9.8242
    13.0000     70.8629      0.0000    539.9507      9.8978
    13.2500     70.5691      0.0000    521.9541      9.9313
    13.5000     69.1135      0.0000    511.4339      9.8976
    13.7500     66.7676      0.0000    510.5313      9.8017
    14.0000     63.9433      0.0000    519.2105      9.6636
    14.2500     61.5312      0.0000    536.5617      9.5065
    14.5000     60.5693      0.0000    559.0274      9.3475
    14.7500     61.4322      0.0000    577.8451      9.1862
    15.0000     63.5895      0.0000    581.4269      9.0203
    15.2500     66.0032      0.0000    563.2419      8.8861
    15.5000     67.5055      0.0000    527.3772      8.8545
    15.7500     67.1243      0.0000    485.3617      8.9654
    16.0000     64.6210      0.0000    447.9009      9.1817
    16.2500     60.8464      0.0000    419.9350      9.4224
    16.5000     57.4971      0.0000    402.0403      9.6271
    16.7500     56.4053      0.0000    394.9196      9.7897
    17.0000     58.5538      0.0000    401.9689      9.9495
    17.2500     63.2555      0.0000    426.8540     10.1532
    17.5000     68.4505      0.0000    467.6311     10.3983
    17.7500     72.2209      0.0000    514.0474     10.6083
    18.0000     74.1158      0.0000    552.8892     10.6926
    18.2500     75.0735      0.0000    576.4117     10.6301
    18.5000     76.2779      0.0000    584.1480     10.4717
    18.7500     78.1656      0.0000    577.5607     10.2756
    19.0000     80.4136      0.0000    557.1633     10.0678
    19.2500     82.6886      0.0000    526.2061      9.8536
    19.5000     85.0498      0.0000    493.0750      9.6425
    19.7500     87.4706      0.0000    466.6944      9.4591
    20.0000     89.5514      0.0000    450.6405      9.3311
    20.2500     91.2236      0.0000    442.8201      9.2679
    20.5000     93.3056      0.0000    439.2192      9.2517
    20.7500     96.5510      0.0000    436.7289      9.2536
    21.0000    100.2703      0.0000    433.4898      9.2578
    21.2500    102.6616      0.0000    428.4977      9.2699
    21.5000    102.5054      0.0000    421.7793      9.3014
    21.7500     99.9522      0.0000    414.7145      9.3498
    22.0000     95.9036      0.0000    409.5687      9.3963
    22.2500     91.4371      0.0000    408.3990      9.4205
    22.5000     87.8537      0.0000    412.2939      9.4161
    22.7500     86.4458      0.0000    421.1684      9.3920
    23.0000     87.5310      0.0000    433.7127      9.3616
    23.2500     89.8455      0.0000    447.5172      9.3333
    23.5000     91.3982      0.0000    459.6715      9.3084
    23.7500     91.1975      0.0000    467.6074      9.2854
    24.0000     89.9737      0.0000    469.5865      9.2660
    24.2500     89.1903      0.0000    464.7904      9.2574
    24.5000     89.6753      0.0000    453.6408      9.2662
    24.7500     91.3709      0.0000    438.3581      9.2913
    25.0000     94.0134      0.0000    422.6058      9.3262
    25.2500     97.4946      0.0000    409.6718      9.3697
    25.5000    101.5242      0.0000    400.5966      9.4247
    25.7500    105.3977      0.0000    393.9989      9.4850
    26.0000    108.3774      0.0000    387.6303      9.5276
    26.2500    110.1011      0.0000    380.2531      9.5296
    26.5000    110.4705      0.0000    372.4705      9.4945
    26.7500    109.4398      0.0000    366.0605      9.4577
    27.0000    107.2759      0.0000    362.6536      9.4571
    27.2500    104.8895      0.0000    363.0027      9.4991
    27.5000    103.4438      0.0000    367.0517      9.5569
    27.7500    103.4371      0.0000    374.1028      9.6005
    28.0000    104.2278      0.0000    382.9804      9.6205
    28.2500    104.6844      0.0000    392.6095      9.6239
    28.5000    104.4422      0.0000    402.5409      9.6186
    28.7500    104.3830      0.0000    412.4763      9.6080
    29.0000    105.5646      0.0000    421.2121      9.5945
