~Version Information
VERS.                      2.0: CWLS Log ASCII Standard - VERSION 2.0
WRAP.                       NO: One line per depth step
~Well Information Block
STRT.FT               695.5000: 
STOP.FT              1499.5000: 
STEP.FT                 0.2500: 
NULL.                -999.2500: 
COMP.          Pioneer Natural Resources: COMPANY
WELL.          Pallet Ranch 34-25 Tr: WELL
FLD.           Purgatoire River: FIELD
LOC.           465' FSL & 2138' FEL: LOCATION
PROV.                 Colorado: PROVINCE
CNTY.               Las Animas: COUNTRY
SRVC.                Patterson: SERVICE COMPANY
DATE.          Wed Jan 18 18:58:46 2006: LOG DATE
UWI.           05 071 08657 00: UNIQUE WELL ID
~Curve Information Block
DEPT.FT            0 000 00 00: Depth
SN.Ohm-m                      : IEL Short Normal
SP.mV                         : IEL Spontaneous Potential
DIR.Ohm-m                     : IEL Induction Resistivity
GR.GAPI                       : Gamma Ray
~Parameter Information Block
~A  Depth        SN          SP         DIR          GR     
# ...
   896.5000   2000.0000   2000.0000      8.9171    143.3220
   896.7500   2000.0000   2000.0000      8.7738    140.3041
   897.0000   2000.0000   2000.0000      8.6875    137.4390
   897.2500   2000.0000   2000.0000      8.6586    136.7279
   897.5000   2000.0000   2000.0000      8.6900    136.0275
   897.7500   2000.0000   2000.0000      8.7823    135.0733
   898.0000   2000.0000   2000.0000      8.9300    133.1689
   898.2500   2000.0000   2000.0000      9.1219    132.1398
   898.5000   2000.0000   2000.0000      9.3462    131.0531
   898.7500   2000.0000   2000.0000      9.5963    130.0624
   899.0000   2000.0000   2000.0000      9.8727    127.0492
   899.2500   2000.0000   2000.0000     10.1810    123.7611
   899.5000   2000.0000   2000.0000     10.5295    117.5600
   899.7500   2000.0000   2000.0000     10.9285    113.5178
   900.0000   2000.0000   2000.0000     11.3900    109.2196
   900.2500   2000.0000   2000.0000     11.9271    107.9367
   900.5000   2000.0000   2000.0000     12.5493    108.1088
   900.7500   2000.0000   2000.0000     13.2564    109.1909
   901.0000   2000.0000   2000.0000     14.0340    111.2322
   901.2500   2000.0000   2000.0000     14.8544    112.1849
   901.5000   2000.0000   2000.0000     15.6832    112.4316
   901.7500   2000.0000   2000.0000     16.4859    112.0793
   902.0000   2000.0000   2000.0000     17.2289    111.5603
   902.2500   2000.0000   2000.0000     17.8786    111.3801
   902.5000   2000.0000   2000.0000     18.4047    111.1861
   902.7500   2000.0000   2000.0000     18.7898    111.0854
   903.0000   2000.0000   2000.0000     19.0387    111.2137
   903.2500   2000.0000   2000.0000     19.1791    111.5829
   903.5000   2000.0000   2000.0000     19.2541    112.3859
   903.7500   2000.0000   2000.0000     19.3099    112.7841
   904.0000   2000.0000   2000.0000     19.3844    112.5024
   904.2500   2000.0000   2000.0000     19.5019    111.5055
   904.5000   2000.0000   2000.0000     19.6759    109.3290
   904.7500   2000.0000   2000.0000     19.9151    108.2495
   905.0000   2000.0000   2000.0000     20.2320    108.3485
   905.2500   2000.0000   2000.0000     20.6488    109.4309
   905.5000   2000.0000   2000.0000     21.1908    111.0464
   905.7500   2000.0000   2000.0000     21.8593    111.1620
   906.0000   2000.0000   2000.0000     22.5870    109.4495
   906.2500   2000.0000   2000.0000     23.2180    107.5824
   906.5000   2000.0000   2000.0000     23.5663    105.0939
   906.7500   2000.0000   2000.0000     23.5440    104.1967
   907.0000   2000.0000   2000.0000     23.2391    104.1058
   907.2500   2000.0000   2000.0000     22.8521    104.5282
   907.5000   2000.0000   2000.0000     22.5663    105.0370
   907.7500   2000.0000   2000.0000     22.4710    105.0018
   908.0000   2000.0000   2000.0000     22.5642    104.5191
   908.2500   2000.0000   2000.0000     22.7928    104.1655
   908.5000   2000.0000   2000.0000     23.0919    103.8533
   908.7500   2000.0000   2000.0000     23.4019    103.7714
   909.0000   2000.0000   2000.0000     23.6718    103.5667
   909.2500   2000.0000   2000.0000     23.8620    103.1416
   909.5000   2000.0000   2000.0000     23.9529    101.8899
   909.7500   2000.0000   2000.0000     23.9485    100.8684
   910.0000   2000.0000   2000.0000     23.8725     99.8734
   910.2500   2000.0000   2000.0000     23.7604    100.0489
   910.5000   2000.0000   2000.0000     23.6561    102.2235
   910.7500   2000.0000   2000.0000     23.6054    105.1771
   911.0000   2000.0000   2000.0000     23.6433    111.3169
   911.2500   2000.0000   2000.0000     23.7840    115.3611
   911.5000   2000.0000   2000.0000     24.0243    118.6951
   911.7500   2000.0000   2000.0000     24.3546    118.1909
   912.0000   2000.0000   2000.0000     24.7655    113.8033
   912.2500   2000.0000   2000.0000     25.2329    109.5763
   912.5000   2000.0000   2000.0000     25.6943    103.6297
   912.7500   2000.0000   2000.0000     26.0491    101.0275
   913.0000   2000.0000   2000.0000     26.2172     99.6429
   913.2500   2000.0000   2000.0000     26.2223     99.7784
   913.5000   2000.0000   2000.0000     26.2071    100.1381
   913.7500   2000.0000   2000.0000     26.3460    100.1928
   914.0000   2000.0000   2000.0000     26.7395    100.6139
   914.2500   2000.0000   2000.0000     27.3767    101.4928
   914.5000   2000.0000   2000.0000     28.1763    103.2817
   914.7500   2000.0000   2000.0000     29.0542    104.0652
   915.0000   2000.0000   2000.0000     29.9545    103.7337
   915.2500   2000.0000   2000.0000     30.8206    102.4731
   915.5000   2000.0000   2000.0000     31.5559     99.3297
   915.7500   2000.0000   2000.0000     32.0417     96.5868
   916.0000   2000.0000   2000.0000     32.2249     91.9371
   916.2500   2000.0000   2000.0000     32.1900     88.8432
   916.5000   2000.0000   2000.0000     32.1319     84.8096
   916.7500   2000.0000   2000.0000     32.2483     82.7610
   917.0000   2000.0000   2000.0000     32.6475     80.8664
   917.2500   2000.0000   2000.0000     33.3179     80.3759
   917.5000   2000.0000   2000.0000     34.1557     80.3414
   917.7500   2000.0000   2000.0000     35.0182     80.2698
   918.0000   2000.0000   2000.0000     35.7770     79.2268
   918.2500   2000.0000   2000.0000     36.3538     77.6703
   918.5000   2000.0000   2000.0000     36.7315     74.0718
   918.7500   2000.0000   2000.0000     36.9412     70.9587
   919.0000   2000.0000   2000.0000     37.0345     65.6219
   919.2500   2000.0000   2000.0000     37.0549     62.0385
   919.5000   2000.0000   2000.0000     37.0281     57.5853
   919.7500   2000.0000   2000.0000     36.9866     55.6592
   920.0000   2000.0000   2000.0000     37.0162     54.2912
   920.2500   2000.0000   2000.0000     37.2719     53.9257
   920.5000   2000.0000   2000.0000     37.8962     53.3899
   920.7500   2000.0000   2000.0000     38.8450     52.9420
   921.0000   2000.0000   2000.0000     39.7233     52.4080
   921.2500   2000.0000   2000.0000     39.8512     52.1884
   921.5000   2000.0000   2000.0000     38.7184     51.8687
   921.7500   2000.0000   2000.0000     36.4526     51.7558
   922.0000   2000.0000   2000.0000     33.6907     52.6516
   922.2500   2000.0000   2000.0000     31.0538     54.6316
   922.5000   2000.0000   2000.0000     28.8646     60.2587
   922.7500   2000.0000   2000.0000     27.1897     65.7325
   923.0000   2000.0000   2000.0000     25.9659     76.4332
   923.2500   2000.0000   2000.0000     25.0850     85.3514
   923.5000   2000.0000   2000.0000     24.4312    101.1544
   923.7500   2000.0000   2000.0000     23.8945    112.2781
   924.0000   2000.0000   2000.0000     23.3792    126.7545
   924.2500   2000.0000   2000.0000     22.8111    133.2623
   924.5000   2000.0000   2000.0000     22.1456    137.1174
   924.7500   2000.0000   2000.0000     21.3722    136.0704
   925.0000   2000.0000   2000.0000     20.5240    130.7475
   925.2500   2000.0000   2000.0000     19.6833    126.0198
   925.5000   2000.0000   2000.0000     18.9667    119.3197
   925.7500   2000.0000   2000.0000     18.4837    115.8849
   926.0000   2000.0000   2000.0000     18.2911    112.4588
   926.2500   2000.0000   2000.0000     18.3716    111.0153
   926.5000   2000.0000   2000.0000     18.6413    109.7203
   926.7500   2000.0000   2000.0000     18.9825    109.5962
   927.0000   2000.0000   2000.0000     19.2879    111.0737
   927.2500   2000.0000   2000.0000     19.4934    113.1330
   927.5000   2000.0000   2000.0000     19.5805    116.7840
   927.7500   2000.0000   2000.0000     19.5560    118.7388
   928.0000   2000.0000   2000.0000     19.4274    119.9263
   928.2500   2000.0000   2000.0000     19.1948    119.5032
   928.5000   2000.0000   2000.0000     18.8618    118.0545
   928.7500   2000.0000   2000.0000     18.4529    117.4676
   929.0000   2000.0000   2000.0000     18.0185    118.0978
   929.2500   2000.0000   2000.0000     17.6164    119.2718
   929.5000   2000.0000   2000.0000     17.2833    120.9546
   929.7500   2000.0000   2000.0000     17.0189    121.6097
