~Version Information
VERS.                      2.0: CWLS Log ASCII Standard - VERSION 2.0
WRAP.                       NO: One line per depth step
~Well Information Block
STRT.FT                 0.0000: 
STOP.FT              1147.5000: 
STEP.FT                 0.2500: 
NULL.                -999.2500: 
COMP.          Pioneer Natural Resources: COMPANY
WELL.          Tin Barn 14-20 TR: WELL
FLD.           Purgatorie River: FIELD
LOC.           925 FSL & 1151 FWL: LOCATION
PROV.                 Colorado: PROVINCE
CNTY.               Las Animas: COUNTRY
SRVC.                Patterson: SERVICE COMPANY
DATE.          Wed Jan 18 12:02:25 2006: LOG DATE
UWI.                          : UNIQUE WELL ID
~Curve Information Block
DEPT.FT            0 000 00 00: Depth
CCL.                          : Casing Collar Locator
TT3.usec                      : CBL 3' Travel Time
AMP3.mV                       : CBL 3' Amplitude
GR.GAPI                       : Gamma Ray
~Parameter Information Block
~A  Depth       CCL         TT3         AMP3         GR     
# ...
   871.0000      0.0000    662.9950     10.0676     87.4726
   871.2500      0.0000    666.4636      9.9773     84.9153
   871.5000      0.0000    667.5820      9.8828     83.7060
   871.7500      0.0000    666.5660      9.7864     84.4770
   872.0000      0.0000    662.2282      9.6520     87.4545
   872.2500      0.0000    654.2317      9.4735     91.9165
   872.5000      0.0000    646.9689      9.2773     96.7319
   872.7500      0.0000    646.7510      9.0861    101.2814
   873.0000      0.0000    653.6171      8.9247    105.2486
   873.2500      0.0000    661.3287      8.8393    107.8026
   873.5000      0.0000    665.4991      8.8856    107.6709
   873.7500      0.0000    666.1616      9.0769    104.0601
   874.0000      0.0000    663.9585      9.3392     97.4002
   874.2500      0.0000    658.9905      9.5599     89.4957
   874.5000      0.0000    653.5281      9.6983     83.0731
   874.7500      0.0000    652.4417      9.8052     80.7238
   875.0000      0.0000    658.9125      9.9073     83.6897
   875.2500      0.0000    669.9709      9.9368     91.3268
   875.5000      0.0000    677.9798      9.8544    101.5069
   875.7500      0.0000    678.7175      9.7661    111.4435
   876.0000      0.0000    675.6109      9.8152    118.6768
   876.2500      0.0000    674.3350     10.0234    122.2180
   876.5000      0.0000    677.9084     10.2768    123.0111
   876.7500      0.0000    686.2667     10.4247    122.9369
   877.0000      0.0000    695.0729     10.4072    123.2289
   877.2500      0.0000    696.8903     10.2932    123.8397
   877.5000      0.0000    688.6191     10.1932    124.0798
   877.7500      0.0000    676.6526     10.1506    123.7368
   878.0000      0.0000    669.2576     10.1287    123.6348
   878.2500      0.0000    665.3821     10.0860    125.0031
   878.5000      0.0000    659.3672     10.0284    128.1196
   878.7500      0.0000    651.8199      9.9944    131.6825
   879.0000      0.0000    646.6584      9.9938    133.7971
   879.2500      0.0000    644.4575      9.9840    133.6302
   879.5000      0.0000    643.6561      9.9343    131.9129
   879.7500      0.0000    643.2652      9.8661    129.7923
   880.0000      0.0000    643.0958      9.8048    127.6941
   880.2500      0.0000    643.6509      9.7279    125.6425
   880.5000      0.0000    646.1973      9.5877    124.0659
   880.7500      0.0000    651.5906      9.3744    123.7175
   881.0000      0.0000    658.4174      9.1393    125.0144
   881.2500      0.0000    663.5842      8.9550    127.5155
   881.5000      0.0000    664.7669      8.8486    129.6695
   881.7500      0.0000    660.6924      8.7779    129.3976
   882.0000      0.0000    651.0302      8.6935    125.6819
   882.2500      0.0000    638.4947      8.5983    119.4778
   882.5000      0.0000    628.0820      8.5261    112.7103
   882.7500      0.0000    622.3597      8.4872    106.8306
   883.0000      0.0000    620.1407      8.4547    102.6628
   883.2500      0.0000    619.3373      8.4072    100.8102
   883.5000      0.0000    618.8512      8.3625    101.4040
   883.7500      0.0000    618.4756      8.3458    103.6964
   884.0000      0.0000    618.2486      8.3437    106.4871
   884.2500      0.0000    618.0430      8.3102    108.9128
   884.5000      0.0000    617.7411      8.2212    110.6155
   884.7500      0.0000    617.7223      8.1068    111.4078
   885.0000      0.0000    619.2684      8.0179    111.1831
   885.2500      0.0000    624.6150      7.9841    110.1435
   885.5000      0.0000    635.1631      8.0112    108.9380
   885.7500      0.0000    648.3861      8.0860    108.4170
   886.0000      0.0000    659.0436      8.1900    108.7914
   886.2500      0.0000    664.5749      8.3171    108.7897
   886.5000      0.0000    666.3885      8.4514    106.3260
   886.7500      0.0000    666.6785      8.5645    100.7361
   887.0000      0.0000    666.6242      8.6427     94.1082
   887.2500      0.0000    666.6185      8.6780     89.8384
   887.5000      0.0000    666.6982      8.6545     89.8073
   887.7500      0.0000    666.7917      8.5623     92.9429
   888.0000      0.0000    666.4984      8.4168     96.3546
   888.2500      0.0000    664.0923      8.2657     97.9848
   888.5000      0.0000    656.0260      8.1513     98.2524
   888.7500      0.0000    639.9216      8.0602     98.9314
   889.0000      0.0000    619.6403      7.9545    100.7390
   889.2500      0.0000    603.6156      7.8420    102.7545
   889.5000      0.0000    597.0018      7.7721    104.1763
   889.7500      0.0000    599.8068      7.7745    105.5903
   890.0000      0.0000    609.9392      7.8402    107.8977
   890.2500      0.0000    623.1980      7.9322    110.6802
   890.5000      0.0000    634.5483      8.0034    112.3985
   890.7500      0.0000    642.7037      8.0376    111.9561
   891.0000      0.0000    649.9045      8.0663    109.5759
   891.2500      0.0000    657.0189      8.1272    106.2392
   891.5000      0.0000    662.4460      8.2140    102.5172
   891.7500      0.0000    665.1913      8.2882     98.0886
   892.0000      0.0000    666.0486      8.3258     92.5062
   892.2500      0.0000    666.2449      8.3321     86.2716
   892.5000      0.0000    666.4199      8.3348     80.7415
   892.7500      0.0000    666.5894      8.3659     76.9824
   893.0000      0.0000    666.7684      8.4238     75.1721
   893.2500      0.0000    667.7302      8.4773     75.0941
   893.5000      0.0000    670.7095      8.5094     76.4751
   893.7500      0.0000    675.1708      8.5254     78.4734
   894.0000      0.0000    677.5205      8.5327     79.4868
   894.2500      0.0000    675.2429      8.5392     78.3532
   894.5000      0.0000    670.7413      8.5579     75.8708
   894.7500      0.0000    667.5753      8.5884     74.6509
   895.0000      0.0000    666.3345      8.5971     77.0921
   895.2500      0.0000    665.9895      8.5554     83.3104
   895.5000      0.0000    666.0081      8.4970     90.7470
   895.7500      0.0000    666.3760      8.4838     95.8249
   896.0000      0.0000    667.0009      8.5346     96.6401
   896.2500      0.0000    667.5995      8.6101     94.5262
   896.5000      0.0000    667.9122      8.6451     92.8554
   896.7500      0.0000    667.8726      8.6087     94.1559
   897.0000      0.0000    667.6116      8.5324     98.3631
   897.2500      0.0000    667.2432      8.4776    103.4085
   897.5000      0.0000    666.5435      8.4991    106.9366
   897.7500      0.0000    664.7074      8.6092    107.6761
   898.0000      0.0000    660.5497      8.7502    105.9079
   898.2500      0.0000    654.1061      8.8410    102.9912
   898.5000      0.0000    648.0052      8.8471    100.2910
   898.7500      0.0000    645.4038      8.7812     98.3860
   899.0000      0.0000    647.5410      8.6629     97.2399
   899.2500      0.0000    653.3782      8.5119     96.9620
   899.5000      0.0000    659.7334      8.3637     98.0556
   899.7500      0.0000    663.8270      8.2554    100.7630
   900.0000      0.0000    665.3888      8.2043    104.5069
   900.2500      0.0000    664.6783      8.2055    108.3476
   900.5000      0.0000    659.4023      8.2290    111.8127
   900.7500      0.0000    644.1261      8.2342    114.9922
   901.0000      0.0000    616.9351      8.2202    118.0123
   901.2500      0.0000    589.5374      8.2219    120.6743
   901.5000      0.0000    579.9268      8.2459    122.4591
   901.7500      0.0000    590.1367      8.2704    122.7891
   902.0000      0.0000    604.7729      8.2910    121.6405
   902.2500      0.0000    610.7553      8.3252    120.0634
   902.5000      0.0000    606.5508      8.3815    119.6135
   902.7500      0.0000    597.6603      8.4312    120.8888
   903.0000      0.0000    590.4003      8.4255    122.9306
   903.2500      0.0000    587.3626      8.3561    124.3279
   903.5000      0.0000    587.3136      8.2714    124.5285
   903.7500      0.0000    588.4879      8.2188    123.8561
   904.0000      0.0000    591.0150      8.2018    122.8159
   904.2500      0.0000    597.2141      8.1951    121.8661
