~Version Information
VERS.                      2.0: CWLS Log ASCII Standard - VERSION 2.0
WRAP.                       NO: One line per depth step
~Well Information Block
STRT.FT               -12.0000: 
STOP.FT              1728.0000: 
STEP.FT                 0.2500: 
NULL.                -999.2500: 
COMP.          XTO Energy Inc.: COMPANY
WELL.          Apache Canyon 35-06: WELL
FLD.              Vermejo Coal: FIELD
LOC.           2422' FNL & 1889' FWL--: LOCATION
STAT.                       CO: State
CNTY.               Las Animas: COUNTY
CTRY. USA : Country
SECT.  : Section
TOWN.  : Township
RANG.  : Range
SRVC.          Patterson Wireline: SERVICE COMPANY
DATE.          Fri Jan 06 08:11:44 2006: LOG DATE
API.              05 071 08540: UNIQUE WELL ID
~Curve Information Block
DEPT.FT            0 000 00 00: Depth
CCL.                          : Casing Collar Locator
TT3.usec                      : CBL 3' Travel Time
AMP3.mV                       : CBL 3' Amplitude
GR.GAPI                       : Gamma Ray
~Parameter Information Block
~A  Depth       CCL         TT3         AMP3         GR     
# ...
   323.0000      0.0000    584.2976      5.8566    119.0476
   323.2500      0.0000    581.7808      5.8280    115.4130
   323.5000      0.0000    585.1111      5.7961    113.7458
   323.7500      0.0000    594.0782      5.7602    112.1277
   324.0000      0.0000    608.4903      5.7142    109.3210
   324.2500      0.0000    627.6867      5.6557    105.3790
   324.5000      0.0000    650.1285      5.5910    100.9569
   324.7500      0.0000    673.1213      5.5306     96.2131
   325.0000      0.0000    693.2952      5.4818     90.6576
   325.2500      0.0000    708.0515      5.4489     84.2468
   325.5000      0.0000    716.8316      5.4350     78.2593
   325.7500      0.0000    720.9661      5.4407     74.6088
   326.0000      0.0000    722.3965      5.4618     74.1384
   326.2500      0.0000    722.5223      5.4890     75.5658
   326.5000      0.0000    721.8442      5.5113     76.2620
   326.7500      0.0000    720.2202      5.5233     74.5570
   327.0000      0.0000    717.4542      5.5313     71.3376
   327.2500      0.0000    713.9318      5.5489     68.8780
   327.5000      0.0000    710.7806      5.5844     68.0751
   327.7500      0.0000    709.2157      5.6338     67.3703
   328.0000      0.0000    709.6621      5.6892     64.4569
   328.2500      0.0000    711.2813      5.7484     58.6492
   328.5000      0.0000    711.6382      5.8153     51.5598
   328.7500      0.0000    706.0336      5.8919     45.7729
   329.0000      0.0000    687.8407      5.9744     42.9433
   329.2500      0.0000    652.3828      6.0507     43.0443
   329.5000      0.0000    604.0991      6.0996     45.2465
   329.7500      0.0000    560.1013      6.0996     49.0082
   330.0000      0.0000    542.0744      6.0468     53.8417
   330.2500      0.0000    560.1393      5.9645     58.4986
   330.5000      0.0000    604.3811      5.8918     61.4355
   330.7500      0.0000    653.3771      5.8612     62.2326
   331.0000      0.0000    690.3030      5.8844     61.8131
   331.2500      0.0000    710.8524      5.9543     61.2214
   331.5000      0.0000    719.4729      6.0546     60.9140
   331.7500      0.0000    722.1799      6.1680     61.3263
   332.0000      0.0000    722.8586      6.2800     63.2240
   332.2500      0.0000    723.1615      6.3774     66.9267
   332.5000      0.0000    723.5275      6.4453     71.5720
   332.7500      0.0000    723.8963      6.4710     75.4378
   333.0000      0.0000    724.0405      6.4545     76.8823
   333.2500      0.0000    723.4294      6.4149     75.2649
   333.5000      0.0000    720.5282      6.3767     71.4226
   333.7500      0.0000    711.5503      6.3534     67.1528
   334.0000      0.0000    690.0677      6.3431     63.9568
   334.2500      0.0000    649.9858      6.3369     62.1719
   334.5000      0.0000    592.0288      6.3231     61.1320
   334.7500      0.0000    527.8768      6.2914     59.9644
   335.0000      0.0000    475.5681      6.2407     58.4897
   335.2500      0.0000    448.6570      6.1792     57.7557
   335.5000      0.0000    448.4171      6.1164     59.5240
   335.7500      0.0000    465.0509      6.0547     64.6407
   336.0000      0.0000    486.4396      5.9923     71.7379
   336.2500      0.0000    507.5129      5.9291     77.9071
   336.5000      0.0000    531.6431      5.8672     80.8826
   336.7500      0.0000    563.5005      5.8104     80.5999
   337.0000      0.0000    602.5449      5.7632     78.9409
   337.2500      0.0000    642.9686      5.7296     78.5414
   337.5000      0.0000    677.5161      5.7091     81.8088
   337.7500      0.0000    701.4767      5.6977     90.0956
   338.0000      0.0000    714.7385      5.6990    102.7136
   338.2500      0.0000    720.7462      5.7317    116.5950
   338.5000      0.0000    723.9229      5.8167    127.7658
   338.7500      0.0000    728.1098      5.9518    133.9786
   339.0000      0.0000    736.1058      6.1022    135.9717
   339.2500      0.0000    748.4656      6.2227    135.9702
   339.5000      0.0000    761.8491      6.2923    135.3879
   339.7500      0.0000    770.5089      6.3244    134.3841
   340.0000      0.0000    771.9236      6.3463    132.9504
   340.2500      0.0000    771.1116      6.3740    131.1493
   340.5000      0.0000    777.7903      6.4176    128.0956
   340.7500      0.0000    798.8667      6.5000    121.8628
   341.0000      0.0000    833.0692      6.6517    111.3160
   341.2500      0.0000    871.1328      6.8774     97.7804
   341.5000      0.0000    901.0566      7.1346     84.2578
   341.7500      0.0000    915.5454      7.3545     73.0670
   342.0000      0.0000    916.3766      7.4970     64.5252
   342.2500      0.0000    911.7221      7.5938     57.6085
   342.5000      0.0000    907.8761      7.7261     51.3815
   342.7500      0.0000    903.1643      7.9394     45.8417
   343.0000      0.0000    891.7288      8.1822     41.8317
   343.2500      0.0000    872.8365      8.3418     40.3748
   343.5000      0.0000    852.7542      8.3434     41.9966
   343.7500      0.0000    837.9365      8.2016     46.4871
   344.0000      0.0000    831.5385      7.9774     53.1248
   344.2500      0.0000    836.9780      7.7116     60.9651
   344.5000      0.0000    857.5815      7.4145     69.0539
   344.7500      0.0000    887.6874      7.0978     76.9108
   345.0000      0.0000    908.7589      6.7927     85.0012
   345.2500      0.0000    902.2426      6.5345     94.1909
   345.5000      0.0000    866.9122      6.3411    104.3305
   345.7500      0.0000    819.4691      6.2105    113.7266
   346.0000      0.0000    778.9189      6.1343    120.3056
   346.2500      0.0000    753.9546      6.1089    122.9653
   346.5000      0.0000    743.0299      6.1322    121.7790
   346.7500      0.0000    740.6680      6.1900    117.7020
   347.0000      0.0000    742.1481      6.2504    112.3811
   347.2500      0.0000    744.5569      6.2774    107.6429
   347.5000      0.0000    745.8609      6.2551    104.9166
   347.7500      0.0000    744.5787      6.1961    105.1769
   348.0000      0.0000    740.6732      6.1262    108.8128
   348.2500      0.0000    735.7847      6.0660    114.8941
   348.5000      0.0000    731.8859      6.0237    120.9354
   348.7500      0.0000    730.0017      5.9947    124.1683
   349.0000      0.0000    730.1321      5.9632    123.3375
   349.2500      0.0000    731.6220      5.9120    119.2750
   349.5000      0.0000    733.2624      5.8331    113.8899
   349.7500      0.0000    733.6516      5.7301    108.7766
   350.0000      0.0000    732.1453      5.6131    104.8689
   350.2500      0.0000    729.3962      5.4968    103.1599
   350.5000      0.0000    726.6722      5.4007    105.1248
   350.7500      0.0000    724.7815      5.3444    111.7805
   351.0000      0.0000    723.7602      5.3385    122.1350
   351.2500      0.0000    723.2492      5.3815    133.0275
   351.5000      0.0000    722.7734      5.4600    141.1545
   351.7500      0.0000    721.5637      5.5517    145.3637
   352.0000      0.0000    718.1344      5.6295    146.6823
   352.2500      0.0000    710.4261      5.6704    146.4805
   352.5000      0.0000    697.5946      5.6649    145.3739
   352.7500      0.0000    682.8530      5.6196    143.6365
   353.0000      0.0000    673.6432      5.5530    141.7412
   353.2500      0.0000    676.4177      5.4881    140.2709
   353.5000      0.0000    690.3380      5.4456    139.7323
   353.7500      0.0000    707.6265      5.4387    140.5638
   354.0000      0.0000    720.6216      5.4705    142.9429
   354.2500      0.0000    727.2821      5.5349    146.2595
   354.5000      0.0000    730.1010      5.6225    149.0570
   354.7500      0.0000    731.7151      5.7224    150.0706
   355.0000      0.0000    732.4248      5.8227    149.3610
   355.2500      0.0000    731.0806      5.9130    147.8622
   355.5000      0.0000    727.4337      5.9886    145.8292
   355.7500      0.0000    723.2653      6.0523    142.6599
   356.0000      0.0000    721.0247      6.1095    138.4775
   356.2500      0.0000    721.4765      6.1613    134.8077
