~Version Information
VERS.                      2.0: CWLS Log ASCII Standard - VERSION 2.0
WRAP.                       NO: One line per depth step
~Well Information Block
STRT.FT                 6.0000: 
STOP.FT              1577.7500: 
STEP.FT                 0.2500: 
NULL.                -999.2500: 
COMP.          Pioneer Natural Resources: COMPANY
WELL.           Kermit 32-7 Tr: WELL
FLD.           Purgatoire River: FIELD
LOC.           2009' FNL & 2196' FEL: LOCATION
PROV.                 Colorado: PROVINCE
CNTY.               Las Animas: COUNTRY
SRVC.                Patterson: SERVICE COMPANY
DATE.          Wed Jan 18 14:19:39 2006: LOG DATE
UWI.           05 071 08664 00: UNIQUE WELL ID
~Curve Information Block
DEPT.FT            0 000 00 00: Depth
GR.GAPI                       : Gamma Ray
CCL.                          : Casing Collar Locator
TT3.usec                      : CBL 3' Travel Time
AMP3.mV                       : CBL 3' Amplitude
~Parameter Information Block
~A  Depth        GR         CCL         TT3         AMP3    
# ...
  1446.5000     64.0058      0.0000    720.4498      7.3504
  1446.7500     65.7977      0.0000    728.8935      7.5198
  1447.0000     68.4567      0.0000    735.7759      7.7425
  1447.2500     71.6747      0.0000    739.6216      7.9534
  1447.5000     75.3114      0.0000    739.2923      8.1088
  1447.7500     79.5391      0.0000    734.2948      8.1945
  1448.0000     84.6989      0.0000    724.8442      8.2156
  1448.2500     90.9844      0.0000    711.8813      8.1884
  1448.5000     98.1464      0.0000    697.5400      8.1424
  1448.7500    105.4693      0.0000    684.9360      8.1201
  1449.0000    112.0208      0.0000    676.2404      8.1635
  1449.2500    116.8000      0.0000    671.1405      8.2893
  1449.5000    118.7491      0.0000    668.2749      8.4683
  1449.7500    117.2800      0.0000    667.7220      8.6347
  1450.0000    113.2943      0.0000    670.7061      8.7266
  1450.2500    109.3218      0.0000    677.1805      8.7238
  1450.5000    108.1115      0.0000    685.4705      8.6540
  1450.7500    110.9540      0.0000    694.6218      8.5681
  1451.0000    117.3165      0.0000    705.5739      8.5106
  1451.2500    125.6698      0.0000    718.9729      8.5013
  1451.5000    134.2898      0.0000    732.2047      8.5315
  1451.7500    141.5829      0.0000    739.1901      8.5716
  1452.0000    146.4317      0.0000    733.4022      8.5887
  1452.2500    148.6722      0.0000    711.9650      8.5642
  1452.5000    149.0291      0.0000    678.8228      8.5008
  1452.7500    148.4442      0.0000    645.0400      8.4146
  1453.0000    147.6794      0.0000    623.9852      8.3260
  1453.2500    147.3274      0.0000    622.5366      8.2579
  1453.5000    147.6380      0.0000    634.5024      8.2356
  1453.7500    148.3646      0.0000    642.6891      8.2797
  1454.0000    148.9587      0.0000    630.0218      8.3955
  1454.2500    148.6315      0.0000    592.2115      8.5666
  1454.5000    146.2390      0.0000    541.3065      8.7574
  1454.7500    140.7019      0.0000    496.9090      8.9268
  1455.0000    131.9173      0.0000    473.2492      9.0494
  1455.2500    121.0639      0.0000    472.1933      9.1275
  1455.5000    110.0127      0.0000    484.9521      9.1805
  1455.7500    100.6601      0.0000    499.7223      9.2239
  1456.0000     94.5826      0.0000    509.8983      9.2578
  1456.2500     92.6586      0.0000    516.0081      9.2713
  1456.5000     94.5761      0.0000    520.8651      9.2555
  1456.7500     98.8616      0.0000    526.0808      9.2154
  1457.0000    103.6951      0.0000    533.3525      9.1684
  1457.2500    107.7258      0.0000    544.8584      9.1252
  1457.5000    110.1056      0.0000    560.9312      9.0659
  1457.7500    110.1004      0.0000    579.6204      8.9304
  1458.0000    107.1534      0.0000    598.6359      8.6298
  1458.2500    101.5191      0.0000    615.5988      8.0949
  1458.5000     94.7851      0.0000    627.3404      7.3550
  1458.7500     89.5136      0.0000    632.3385      6.5713
  1459.0000     87.9180      0.0000    634.1754      5.9448
  1459.2500     90.5923      0.0000    639.4875      5.5723
  1459.5000     96.4044      0.0000    650.9838      5.4054
  1459.7500    103.3718     -3.0000    664.0103      5.3355
  1460.0000    109.5429      0.0000    671.1428      5.2951
  1460.2500    113.4153      0.0000    669.8149      5.2997
  1460.5000    114.0078      0.0000    665.0428      5.4241
  1460.7500    110.8909      0.0000    664.5157      5.7318
  1461.0000    104.5297      0.0000    670.9057      6.2041
  1461.2500     96.7668      0.0000    679.1850      6.7421
  1461.5000     90.3971      0.0000    681.0367      7.2433
  1461.7500     87.5512      0.0000    671.5206      7.6602
  1462.0000     88.3093      0.0000    652.6389      7.9878
  1462.2500     90.8931      0.0000    631.4797      8.2277
  1462.5000     93.1140      0.0000    614.8581      8.3794
  1462.7500     93.9307      0.0000    605.3193      8.4495
  1463.0000     94.2037      0.0000    601.6420      8.4550
  1463.2500     95.9325      0.0000    601.8900      8.4168
  1463.5000    100.1996      0.0000    605.7347      8.3543
  1463.7500    105.8281      0.0000    614.7231      8.2850
  1464.0000    110.3343      0.0000    630.5349      8.2254
  1464.2500    112.0010      0.0000    652.1384      8.1882
  1464.5000    110.7808      0.0000    674.0800      8.1766
  1464.7500    107.6238      0.0000    688.1319      8.1850
  1465.0000    103.6121      0.0000    687.8285      8.2040
  1465.2500     99.7931      0.0000    673.2341      8.2230
  1465.5000     97.3894      0.0000    652.2632      8.2285
  1465.7500     97.8305      0.0000    636.0691      8.2087
  1466.0000    102.2845      0.0000    631.6898      8.1626
  1466.2500    110.7372      0.0000    639.1844      8.1046
  1466.5000    121.2881      0.0000    654.7930      8.0579
  1466.7500    130.7817      0.0000    674.1647      8.0441
  1467.0000    136.7196      0.0000    692.8805      8.0739
  1467.2500    138.6953      0.0000    707.6014      8.1408
  1467.5000    138.0266      0.0000    718.2006      8.2214
  1467.7500    136.3340      0.0000    727.0094      8.2867
  1468.0000    134.7000      0.0000    735.5560      8.3177
  1468.2500    133.8846      0.0000    743.1968      8.3121
  1468.5000    134.5541      0.0000    748.6461      8.2775
  1468.7500    136.6779      0.0000    751.5858      8.2207
  1469.0000    138.9243      0.0000    752.6183      8.1481
  1469.2500    139.3021      0.0000    752.3717      8.0749
  1469.5000    136.6625      0.0000    750.8301      8.0277
  1469.7500    131.3637      0.0000    747.2035      8.0286
  1470.0000    124.3450      0.0000    740.5695      8.0742
  1470.2500    115.9219      0.0000    731.2571      8.1316
  1470.5000    105.9371      0.0000    721.5845      8.1599
  1470.7500     95.0014      0.0000    714.1069      8.1387
  1471.0000     84.9332      0.0000    708.6890      8.0773
  1471.2500     77.5597      0.0000    702.6861      7.9999
  1471.5000     73.2636      0.0000    694.9769      7.9256
  1471.7500     70.9271      0.0000    688.6349      7.8566
  1472.0000     69.1829      0.0000    688.2208      7.7828
  1472.2500     67.5969      0.0000    694.7645      7.6926
  1472.5000     66.7554      0.0000    704.4153      7.5797
  1472.7500     67.4060      0.0000    712.2357      7.4409
  1473.0000     69.6654      0.0000    716.6463      7.2765
  1473.2500     72.9935      0.0000    719.7848      7.0988
  1473.5000     76.8446      0.0000    724.2407      6.9373
  1473.7500     81.2588      0.0000    730.1109      6.8279
  1474.0000     86.6444      0.0000    735.1370      6.7931
  1474.2500     93.0531      0.0000    737.4583      6.8352
  1474.5000    100.0606      0.0000    738.0173      6.9445
  1474.7500    107.2907      0.0000    739.8027      7.1100
  1475.0000    114.4621      0.0000    744.6606      7.3204
  1475.2500    120.9600      0.0000    751.6060      7.5612
  1475.5000    126.0531      0.0000    758.3544      7.8092
  1475.7500    129.6072      0.0000    763.2542      8.0267
  1476.0000    132.1808      0.0000    765.3019      8.1577
  1476.2500    134.3789      0.0000    763.8458      8.1408
  1476.5000    136.2546      0.0000    759.3158      7.9365
  1476.7500    137.2207      0.0000    753.4937      7.5495
  1477.0000    136.2438      0.0000    748.3222      7.0306
  1477.2500    132.1005      0.0000    744.6899      6.4637
  1477.5000    124.0891      0.0000    742.4214      5.9418
  1477.7500    113.1562      0.0000    740.8489      5.5315
  1478.0000    102.2750      0.0000    739.0326      5.2444
  1478.2500     95.1565      0.0000    735.7099      5.0432
  1478.5000     93.9955      0.0000    729.6863      4.8784
  1478.7500     97.9562      0.0000    720.8668      4.7256
  1479.0000    103.6446      0.0000    710.9921      4.6011
  1479.2500    107.3326      0.0000    702.9649      4.5487
  1479.5000    107.2773      0.0000    699.2794      4.6060
  1479.7500    104.4599      0.0000    701.2050      4.7776
