~Version Information
VERS.                      2.0: CWLS Log ASCII Standard - VERSION 2.0
WRAP.                       NO: One line per depth step
~Well Information Block
STRT.FT               309.8000: 
STOP.FT              2184.7000: 
STEP.FT                 0.1000: 
NULL.                -999.2500: 
COMP.          Pioneer Natural Resources: COMPANY
WELL.             AMX 13-13 Tr: WELL
FLD.           Purgatoire River: FIELD
LOC.           2401' FSL & 895' FWL--: LOCATION
PROV.                 Colorado: PROVINCE
CNTY.               Las Animas: COUNTRY
SRVC.                Patterson: SERVICE COMPANY
DATE.          Thu Dec 22 15:57:57 2005: LOG DATE
UWI.           05 071 08631 00: UNIQUE WELL ID
~Curve Information Block
DEPT.FT            0 000 00 00: Depth
DCAL.in                       : CDL Caliper
RHOB.g/cc                     : CDL Bulk Density
RHOC.g/cc                     : CDL Density Correction
DPOR.pu                       : CDL Density Porosity
GR.GAPI                       : Gamma Ray
~Parameter Information Block
~A  Depth       DCAL        RHOB        RHOC        DPOR         GR     
# ...
  1788.2000      7.9543      2.5327      0.0373      7.1099     83.3805
  1788.3000      7.9570      2.5898      0.1077      3.6464     78.0879
  1788.4000      7.9570      2.6574      0.1203     -0.4460     74.7707
  1788.5000      7.9558      2.7222      0.1681     -4.3728     75.9452
  1788.6000      7.9558      2.7725      0.2709     -7.4250     74.6472
  1788.7000      7.9558      2.8046      0.1886     -9.3691     68.4970
  1788.8000      7.9558      2.8248      0.1487    -10.5930     62.9592
  1788.9000      7.9558      2.8339      0.1303    -11.1446     61.9776
  1789.0000      7.9592      2.8401      0.0253    -11.5201     64.4371
  1789.1000      7.9592      2.8590      0.0820    -12.6655     68.1668
  1789.2000      7.9592      2.8831      0.0832    -14.1252     69.9403
  1789.3000      7.9636      2.8911      0.1173    -14.6095     68.0012
  1789.4000      7.9636      2.8660      0.0778    -13.0905     64.1756
  1789.5000      7.9642      2.8144     -0.0311     -9.9635     61.2658
  1789.6000      7.9642      2.7617      0.0105     -6.7711     61.5092
  1789.7000      7.9642      2.7154     -0.0159     -3.9609     63.9104
  1789.8000      7.9593      2.6613     -0.0111     -0.6853     63.8124
  1789.9000      7.9593      2.5727     -0.0306      4.6839     60.8332
  1790.0000      7.9531      2.4480     -0.0712     12.2417     59.9479
  1790.1000      7.9531      2.3361     -0.1903     19.0215     61.7706
  1790.2000      7.9531      2.2746     -0.1135     22.7511     62.9048
  1790.3000      7.9517      2.2541     -0.1053     23.9922     62.0669
  1790.4000      7.9517      2.2582     -0.0780     23.7434     61.6849
  1790.5000      7.9569      2.2737      0.0077     22.8038     64.6787
  1790.6000      7.9569      2.2887      0.0288     21.8958     68.2474
  1790.7000      7.9569      2.3125      0.0663     20.4570     69.9736
  1790.8000      7.9647      2.3574      0.1373     17.7330     72.0795
  1790.9000      7.9647      2.4087      0.2072     14.6224     72.7691
  1791.0000      7.9689      2.4499      0.1698     12.1275     69.7579
  1791.1000      7.9689      2.4880      0.1966      9.8197     68.3653
  1791.2000      7.9689      2.5259      0.1952      7.5205     70.7462
  1791.3000      7.9717      2.5527      0.1688      5.8954     72.0487
  1791.4000      7.9717      2.5560      0.1325      5.6954     69.9917
  1791.5000      7.9754      2.5294      0.0821      7.3065     67.9095
  1791.6000      7.9754      2.4775      0.0399     10.4540     67.9282
  1791.7000      7.9754      2.4131     -0.0190     14.3563     67.8808
  1791.8000      7.9739      2.3501     -0.0392     18.1753     67.0220
  1791.9000      7.9739      2.2938     -0.0795     21.5886     66.8453
  1792.0000      7.9709      2.2368     -0.0595     25.0421     69.3814
  1792.1000      7.9709      2.1709     -0.0689     29.0345     74.6012
  1792.2000      7.9709      2.0972     -0.0728     33.5003     77.4031
  1792.3000      7.9701      2.0179     -0.1005     38.3068     73.5311
  1792.4000      7.9701      1.9363     -0.0997     43.2538     66.0800
  1792.5000      7.9712      1.8692     -0.1089     47.3211     63.0598
  1792.6000      7.9712      1.8377     -0.0546     49.2293     66.3741
  1792.7000      7.9712      1.8380      0.0189     49.2111     69.0817
  1792.8000      7.9776      1.8403      0.0969     49.0745     70.0122
  1792.9000      7.9776      1.8296      0.0426     49.7229     75.4962
  1793.0000      7.9890      1.8296      0.0203     49.7224     87.2002
  1793.1000      7.9890      1.8603      0.0822     47.8591     99.1596
  1793.2000      7.9890      1.9116      0.0991     44.7521    104.5482
  1793.3000      7.9966      1.9700      0.1114     41.2111    102.4954
  1793.4000      7.9966      2.0367      0.1087     37.1709     95.1782
  1793.5000      7.9991      2.1205      0.1480     32.0931     86.0526
  1793.6000      7.9991      2.2155      0.2110     26.3358     81.4738
  1793.7000      7.9991      2.2942      0.2346     21.5622     84.6205
  1793.8000      8.0071      2.3395      0.2189     18.8205     91.3338
  1793.9000      8.0071      2.3665      0.1630     17.1842     97.2640
  1794.0000      8.0243      2.3973      0.1403     15.3127    103.8328
  1794.1000      8.0243      2.4293      0.1354     13.3746    112.3970
  1794.2000      8.0243      2.4451      0.0983     12.4204    120.4984
  1794.3000      8.0417      2.4439      0.0558     12.4895    126.3340
  1794.4000      8.0417      2.4425      0.0816     12.5780    132.7298
  1794.5000      8.0524      2.4501      0.0738     12.1139    143.0860
  1794.6000      8.0524      2.4575      0.1134     11.6656    155.4623
  1794.7000      8.0524      2.4553      0.0701     11.8013    165.6685
  1794.8000      8.0574      2.4576      0.0666     11.6619    168.8102
  1794.9000      8.0574      2.4793      0.0578     10.3443    161.7045
  1795.0000      8.0587      2.5089      0.1433      8.5536    148.8847
  1795.1000      8.0587      2.5243      0.1205      7.6173    137.3285
  1795.2000      8.0587      2.5213      0.1304      7.7984    130.5000
  1795.3000      8.0565      2.5096      0.0974      8.5064    129.6369
  1795.4000      8.0565      2.4970      0.1167      9.2722    133.4420
  1795.5000      8.0524      2.4856      0.0641      9.9639    140.0431
  1795.6000      8.0524      2.4831      0.0026     10.1182    147.4503
  1795.7000      8.0524      2.4948      0.0449      9.4046    149.1614
  1795.8000      8.0504      2.5106      0.0488      8.4471    143.0025
  1795.9000      8.0504      2.5171      0.0926      8.0536    136.2090
  1796.0000      8.0506      2.5119      0.0820      8.3673    132.9655
  1796.1000      8.0506      2.5058      0.0758      8.7371    134.0797
  1796.2000      8.0506      2.5096      0.0532      8.5098    137.6344
  1796.3000      8.0511      2.5213      0.0325      7.8022    136.6309
  1796.4000      8.0511      2.5321      0.0854      7.1458    130.7678
  1796.5000      8.0516      2.5338      0.0550      7.0434    126.5363
  1796.6000      8.0516      2.5247      0.0585      7.5946    126.0984
  1796.7000      8.0516      2.5104      0.0115      8.4629    126.4061
  1796.8000      8.0525      2.4957      0.0201      9.3524    126.1555
  1796.9000      8.0525      2.4847      0.0497     10.0194    128.4168
  1797.0000      8.0539      2.4860      0.0760      9.9378    134.2688
  1797.1000      8.0539      2.5092      0.0493      8.5351    139.4292
  1797.2000      8.0539      2.5498      0.1507      6.0712    137.5084
  1797.3000      8.0555      2.5843      0.1160      3.9841    129.6389
  1797.4000      8.0555      2.5976      0.1248      3.1734    126.2469
  1797.5000      8.0578      2.5926      0.1369      3.4765    129.4858
  1797.6000      8.0578      2.5745      0.1574      4.5782    129.9096
  1797.7000      8.0578      2.5511      0.1060      5.9917    126.1309
  1797.8000      8.0614      2.5313      0.1160      7.1957    124.0441
  1797.9000      8.0614      2.5102      0.0933      8.4706    124.4410
  1798.0000      8.0724      2.4829      0.0578     10.1273    126.8320
  1798.1000      8.0724      2.4616      0.0087     11.4191    131.6002
  1798.2000      8.0724      2.4501      0.0480     12.1163    137.3235
  1798.3000      8.0923      2.4347     -0.0127     13.0503    141.9542
  1798.4000      8.0923      2.4155      0.0048     14.2143    143.4720
  1798.5000      8.1113      2.4011     -0.0043     15.0860    141.7231
  1798.6000      8.1113      2.3997      0.0194     15.1714    136.7300
  1798.7000      8.1113      2.4200      0.0562     13.9411    128.0533
  1798.8000      8.1439      2.4534      0.1077     11.9159    120.0754
  1798.9000      8.1439      2.4761      0.1895     10.5367    118.9651
  1799.0000      8.2009      2.4835      0.1568     10.0938    122.4547
  1799.1000      8.2009      2.4905      0.1781      9.6658    123.0696
  1799.2000      8.2009      2.5000      0.1590      9.0935    120.3071
  1799.3000      8.2535      2.5050      0.1590      8.7854    118.6351
