~Version Information
VERS.                      2.0: CWLS Log ASCII Standard - VERSION 2.0
WRAP.                       NO: One line per depth step
~Well Information Block
STRT.FT                -7.0000: 
STOP.FT              1155.0000: 
STEP.FT                 0.2500: 
NULL.                -999.2500: 
COMP.          Pioneer Natural Resources: COMPANY
WELL.          Whitecoat 14-36: WELL
FLD.           Purgatorie River: FIELD
LOC.           606' FSL & 260' FWL--: LOCATION
PROV.                       CO: PROVINCE
CNTY.               Las Animas: COUNTRY
SRVC.          Patterson Wireline: SERVICE COMPANY
DATE.          Mon Dec 12 12:56:49 2005: LOG DATE
UWI.           08 071 08593 00: UNIQUE WELL ID
~Curve Information Block
DEPT.FT            0 000 00 00: Depth
CCL.                          : Casing Collar Locator
TT3.usec                      : CBL 3' Travel Time
AMP3.mV                       : CBL 3' Amplitude
GR.GAPI                       : Gamma Ray
~Parameter Information Block
~A  Depth       CCL         TT3         AMP3         GR     
# ...
   964.5000      0.0000    673.4455      3.3118     71.9087
   964.7500      0.0000    681.9044      3.2067     69.7674
   965.0000      0.0000    688.7552      3.1300     68.6178
   965.2500      0.0000    693.6016      3.1053     70.0601
   965.5000      0.0000    696.7358      3.1497     74.8739
   965.7500      0.0000    698.0923      3.2543     81.9267
   966.0000      0.0000    697.9138      3.3880     88.4534
   966.2500      0.0000    697.4615      3.5169     91.8325
   966.5000      0.0000    698.1888      3.6196     91.3556
   966.7500      0.0000    700.1840      3.6835     88.3847
   967.0000      0.0000    701.5357      3.6959     85.0304
   967.2500      0.0000    699.4278      3.6430     82.8908
   967.5000      0.0000    692.3858      3.5239     82.6932
   967.7500      0.0000    681.8649      3.3649     84.3277
   968.0000      0.0000    670.9333      3.2158     86.8487
   968.2500      0.0000    661.1660      3.1247     88.8032
   968.5000      0.0000    652.5612      3.1086     89.0720
   968.7500      0.0000    646.8545      3.1485     87.6989
   969.0000      0.0000    647.7480      3.2089     85.7955
   969.2500      0.0000    656.3052      3.2592     84.2312
   969.5000      0.0000    668.5701      3.2801     82.3983
   969.7500      0.0000    679.0826      3.2641     78.7470
   970.0000      0.0000    684.9792      3.2239     72.7302
   970.2500      0.0000    685.9647      3.1951     65.8747
   970.5000      0.0000    681.8177      3.2196     60.6378
   970.7500      0.0000    671.5876      3.3175     58.3203
   971.0000      0.0000    656.0392      3.4733     58.2967
   971.2500      0.0000    640.3934      3.6435     59.1321
   971.5000      0.0000    632.0636      3.7736     60.0548
   971.7500      0.0000    633.3289      3.8189     61.2633
   972.0000      0.0000    637.8904      3.7652     63.1486
   972.2500      0.0000    637.7521      3.6361     65.5062
   972.5000      0.0000    632.9215      3.4797     67.5320
   972.7500      0.0000    631.4222      3.3410     68.4911
   973.0000      0.0000    639.5845      3.2411     68.4202
   973.2500      0.0000    655.1246      3.1787     68.3106
   973.5000      0.0000    670.5956      3.1525     69.6561
   973.7500      0.0000    680.8704      3.1762     73.6039
   974.0000      0.0000    685.7203      3.2604     80.1229
   974.2500      0.0000    687.3746      3.3820     87.6774
   974.5000      0.0000    687.7839      3.4833     94.0110
   974.7500      0.0000    687.8652      3.5113     97.8974
   975.0000      0.0000    687.8936      3.4598    100.3016
   975.2500      0.0000    687.9796      3.3728    103.4292
   975.5000      0.0000    688.3204      3.3095    108.3211
   975.7500      0.0000    689.2032      3.3039    113.5153
   976.0000      0.0000    690.8857      3.3546    116.3247
   976.2500      0.0000    693.2639      3.4421    115.2722
   976.5000      0.0000    695.5427      3.5458    111.1415
   976.7500      0.0000    696.5103      3.6458    106.0139
   977.0000      0.0000    695.4955      3.7185    101.7000
   977.2500      0.0000    692.7843      3.7376     98.9515
   977.5000      0.0000    688.4950      3.6863     97.7772
   977.7500      0.0000    680.7078      3.5756     98.1563
   978.0000      0.0000    664.9515      3.4539    100.0524
   978.2500      0.0000    636.8782      3.3885    102.7665
   978.5000      0.0000    597.5226      3.4263    104.9968
   978.7500      0.0000    556.6239      3.5667    105.9606
   979.0000      0.0000    528.8406      3.7715    106.0950
   979.2500      0.0000    523.7936      3.9894    106.2866
   979.5000      0.0000    537.7831      4.1711    106.5226
   979.7500      0.0000    555.1898      4.2764    105.6398
   980.0000      0.0000    560.2619      4.2817    102.6742
   980.2500      0.0000    550.2564      4.1832     98.4247
   980.5000      0.0000    537.7236      3.9958     95.3468
   980.7500      0.0000    539.3909      3.7539     95.6468
   981.0000      0.0000    562.0421      3.5082     99.5664
   981.2500      0.0000    597.5764      3.3096    105.4859
   981.5000      0.0000    629.6002      3.1886    111.3310
   981.7500      0.0000    643.8564      3.1482    115.6702
   982.0000      0.0000    634.3783      3.1753    117.6890
   982.2500      0.0000    604.4153      3.2573    116.7574
   982.5000      0.0000    564.8203      3.3911    112.6437
   982.7500      0.0000    530.4493      3.5714    106.2129
   983.0000      0.0000    514.6005      3.7721     99.3310
   983.2500      0.0000    523.7524      3.9469     93.6143
   983.5000      0.0000    554.8708      4.0525     89.4101
   983.7500      0.0000    596.6979      4.0692     86.1554
   984.0000      0.0000    635.6132      4.0043     83.3431
   984.2500      0.0000    662.9327      3.8822     80.8211
   984.5000      0.0000    677.7686      3.7319     78.5830
   984.7500      0.0000    684.0500      3.5756     76.7922
   985.0000      0.0000    686.0893      3.4224     75.8651
   985.2500      0.0000    686.5038      3.2707     76.2210
   985.5000      0.0000    686.3147      3.1176     78.0024
   985.7500      0.0000    685.6003      2.9679     81.0425
   986.0000      0.0000    684.0688      2.8378     84.9430
   986.2500      0.0000    681.7143      2.7479     89.2878
   986.5000      0.0000    679.3329      2.7136     94.0431
   986.7500      0.0000    678.2311      2.7393     99.6097
   987.0000      0.0000    679.0989      2.8176    106.0470
   987.2500      0.0000    681.3137      2.9266    112.2759
   987.5000      0.0000    683.5559      3.0342    116.5641
   987.7500      0.0000    684.9280      3.1119    118.0427
   988.0000      0.0000    685.3662      3.1498    117.2781
   988.2500      0.0000    685.2854      3.1589    114.9087
   988.5000      0.0000    685.1060      3.1576    110.2697
   988.7500      0.0000    685.0449      3.1571    102.2980
   989.0000      0.0000    685.1490      3.1613     91.7447
   989.2500      0.0000    685.3918      3.1745     81.7402
   989.5000      0.0000    685.7206      3.2023     75.8704
   989.7500      0.0000    686.0558      3.2427     75.8147
   990.0000      0.0000    686.3148      3.2778     80.7111
   990.2500      0.0000    686.4515      3.2808     88.3436
   990.5000      0.0000    686.4752      3.2372     96.5899
   990.7500      0.0000    686.4400      3.1637    104.0261
   991.0000      0.0000    686.4187      3.1020    109.9630
   991.2500      0.0000    686.4539      3.0875    114.2536
   991.5000      0.0000    686.4957      3.1236    116.7347
   991.7500      0.0000    686.2405      3.1878    116.9000
   992.0000      0.0000    684.7145      3.2598    114.6490
   992.2500      0.0000    679.5451      3.3400    111.0765
   992.5000      0.0000    666.5988      3.4397    107.6756
   992.7500      0.0000    641.4493      3.5637    104.9204
   993.0000      0.0000    603.1957      3.7044    102.3333
   993.2500      0.0000    557.9012      3.8505     99.6178
   993.5000      0.0000    517.8766      3.9929     96.9411
   993.7500      0.0000    496.7010      4.1178     94.3362
   994.0000      0.0000    502.9415      4.1993     91.5179
   994.2500      0.0000    534.7586      4.2075     88.2151
   994.5000      0.0000    577.6977      4.1272     84.2987
   994.7500      0.0000    609.4476      3.9691     79.7865
   995.0000      0.0000    611.3566      3.7664     75.0336
   995.2500      0.0000    579.4409      3.5639     70.7327
   995.5000      0.0000    526.6524      3.4079     67.4869
   995.7500      0.0000    474.6922      3.3306     65.4413
   996.0000      0.0000    442.3518      3.3333     64.2958
   996.2500      0.0000    438.8547      3.3814     63.4769
   996.5000      0.0000    463.3906      3.4231     62.4356
   996.7500      0.0000    506.4756      3.4258     61.1471
   997.0000      0.0000    552.8901      3.3959     60.3198
   997.2500      0.0000    588.9599      3.3613     60.8189
   997.5000      0.0000    609.4478      3.3541     62.7318
   997.7500      0.0000    614.8615      3.4226     65.0516
