~Version Information
VERS.                      2.0: CWLS Log ASCII Standard - VERSION 2.0
WRAP.                       NO: One line per depth step
~Well Information Block
STRT.FT               555.0000: 
STOP.FT              2283.0000: 
STEP.FT                 0.2500: 
NULL.                -999.2500: 
COMP.          Pioneer Natural Resources: COMPANY
WELL.          Roadster 41-33 Kv: WELL
FLD.           Purgatoire River: FIELD
LOC.           903' FNL & 248' FEL: LOCATION
PROV.                 Colorado: PROVINCE
CNTY.               Las Animas: COUNTRY
SRVC.                Patterson: SERVICE COMPANY
DATE.          Wed Dec 14 23:52:42 2005: LOG DATE
UWI.           05 071 08615 00: UNIQUE WELL ID
~Curve Information Block
DEPT.FT            0 000 00 00: Depth
SN.Ohm-m                      : IEL Short Normal
SP.mV                         : IEL Spontaneous Potential
DIR.Ohm-m                     : IEL Induction Resistivity
GR.GAPI                       : Gamma Ray
~Parameter Information Block
~A  Depth        SN          SP         DIR          GR     
# ...
  2163.0000     30.8526     86.9682     26.8719    107.5068
  2163.2500     29.0872     87.5309     26.1928    110.2479
  2163.5000     27.6884     87.9617     25.2653    111.1986
  2163.7500     26.5709     88.2721     24.2455    110.2410
  2164.0000     25.6942     88.4893     23.2891    107.3519
  2164.2500     25.0520     88.6501     22.5028    104.6995
  2164.5000     24.6305     88.7887     21.9323     99.6045
  2164.7500     24.3871     88.9251     21.5705     95.5550
  2165.0000     24.2666     89.0622     21.3717     89.2485
  2165.2500     24.2234     89.1912     21.2748     85.5434
  2165.5000     24.2255     89.2986     21.2337     81.7318
  2165.7500     24.2465     89.3741     21.2424     80.6538
  2166.0000     24.2646     89.4141     21.3292     81.0489
  2166.2500     24.2650     89.4176     21.5232     82.1131
  2166.5000     24.2305     89.3819     21.8124     83.4801
  2166.7500     24.1440     89.3032     22.1236     83.4966
  2167.0000     24.0121     89.1820     22.3436     81.9291
  2167.2500     23.8604     89.0286     22.3799     80.4191
  2167.5000     23.7023     88.8639     22.2173     78.9885
  2167.7500     23.5371     88.7159     21.9206     79.2017
  2168.0000     23.3586     88.6108     21.5822     81.4637
  2168.2500     23.1491     88.5645     21.2708     83.9980
  2168.5000     22.8982     88.5773     21.0133     88.4044
  2168.7500     22.6379     88.6348     20.8044     91.0308
  2169.0000     22.4209     88.7149     20.6242     93.5377
  2169.2500     22.2615     88.7952     20.4514     94.0530
  2169.5000     22.1257     88.8589     20.2695     93.0899
  2169.7500     21.9794     88.8976     20.0675     91.3114
  2170.0000     21.8254     88.9146     19.8404     87.3651
  2170.2500     21.6852     88.9238     19.5890     84.5514
  2170.5000     21.5548     88.9441     19.3204     81.2915
  2170.7500     21.3919     88.9903     19.0457     80.0481
  2171.0000     21.1409     89.0665     18.7774     79.4388
  2171.2500     20.7855     89.1607     18.5289     79.7965
  2171.5000     20.3747     89.2435     18.3134     81.4228
  2171.7500     19.9672     89.2736     18.1397     83.0440
  2172.0000     19.5694     89.2132     18.0071     85.7334
  2172.2500     19.1549     89.0470     17.9033     87.4193
  2172.5000     18.7195     88.7902     17.8083     89.5646
  2172.7500     18.3076     88.4787     17.7043     90.8486
  2173.0000     17.9923     88.1517     17.5833     93.0831
  2173.2500     17.8284     87.8361     17.4498     94.8732
  2173.5000     17.8179     87.5384     17.3151     97.0725
  2173.7500     17.9130     87.2441     17.1880     97.2457
  2174.0000     18.0517     86.9278     17.0687     94.5616
  2174.2500     18.1995     86.5701     16.9500     91.1532
  2174.5000     18.3501     86.1694     16.8249     85.5307
  2174.7500     18.4865     85.7335     16.6948     82.6751
  2175.0000     18.5650     85.2633     16.5708     80.7999
  2175.2500     18.5417     84.7458     16.4687     80.9535
  2175.5000     18.3959     84.1626     16.4014     82.2868
  2175.7500     18.1414     83.5032     16.3747     83.5576
  2176.0000     17.8200     82.7715     16.3885     86.2365
  2176.2500     17.4682     81.9861     16.4367     88.7702
  2176.5000     17.1003     81.1779     16.5085     93.5305
  2176.7500     16.7351     80.3827     16.5901     96.8696
  2177.0000     16.4200     79.6291     16.6709    101.1341
  2177.2500     16.2149     78.9282     16.7508    103.0950
  2177.5000     16.1565     78.2758     16.8419    104.5784
  2177.7500     16.2377     77.6622     16.9640    104.7090
  2178.0000     16.4279     77.0828     17.1375    103.7380
  2178.2500     16.7150     76.5434     17.3796    102.2096
  2178.5000     17.1105     76.0592     17.7035     98.1283
  2178.7500     17.5944     75.6513     18.1183     93.9734
  2179.0000     18.0812     75.3388     18.6268     85.9229
  2179.2500     18.4997     75.1313     19.2225     80.1986
  2179.5000     18.8823     75.0210     19.8857     73.1292
  2179.7500     19.3050     74.9828     20.5818     70.3104
  2180.0000     19.7871     74.9840     21.2639     69.1009
  2180.2500     20.2688     74.9960     21.8803     69.7456
  2180.5000     20.6407     75.0022     22.3838     71.6586
  2180.7500     20.8111     75.0005     22.7392     73.0571
  2181.0000     20.7691     74.9987     22.9258     74.8323
  2181.2500     20.5907     75.0047     22.9409     75.5552
  2181.5000     20.3908     75.0199     22.8029     75.7829
  2181.7500     20.2403     75.0379     22.5513     75.6807
  2182.0000     20.1112     75.0486     22.2364     76.2029
  2182.2500     19.9198     75.0416     21.9016     77.2973
  2182.5000     19.6291     75.0090     21.5680     79.3215
  2182.7500     19.2788     74.9451     21.2311     80.3471
  2183.0000     18.9245     74.8447     20.8726     81.8338
  2183.2500     18.5873     74.7012     20.4783     83.7699
  2183.5000     18.2525     74.5075     20.0502     88.7854
  2183.7500     17.8968     74.2595     19.6040     92.6346
  2184.0000     17.5149     73.9614     19.1567     96.8020
  2184.2500     17.1243     73.6288     18.7205     97.9429
  2184.5000     16.7626     73.2842     18.3071     98.2255
  2184.7500     16.4849     72.9486     17.9369     98.5018
  2185.0000     16.3396     72.6326     17.6376     99.8973
  2185.2500     16.3422     72.3326     17.4319    101.0614
  2185.5000     16.4812     72.0350     17.3251    101.5373
  2185.7500     16.7134     71.7244     17.3039    100.2641
  2186.0000     16.9583     71.3937     17.3469     95.9263
  2186.2500     17.1634     71.0492     17.4358     92.0511
  2186.5000     17.3449     70.7064     17.5578     86.1620
  2186.7500     17.5266     70.3832     17.6990     82.7051
  2187.0000     17.6906     70.0931     17.8387     78.3890
  2187.2500     17.8161     69.8445     17.9536     76.0345
  2187.5000     17.9233     69.6401     18.0334     73.3898
  2187.7500     18.0481     69.4749     18.0943     72.3740
  2188.0000     18.1999     69.3344     18.1761     72.0916
  2188.2500     18.3651     69.1973     18.3197     72.6861
  2188.5000     18.5302     69.0424     18.5400     74.6960
  2188.7500     18.6852     68.8581     18.8139     76.7603
  2189.0000     18.8192     68.6455     19.0915     80.5836
  2189.2500     18.9307     68.4148     19.3233     83.1180
  2189.5000     19.0253     68.1779     19.4815     85.9267
  2189.7500     19.0953     67.9435     19.5653     86.8361
  2190.0000     19.1288     67.7159     19.5914     86.9744
  2190.2500     19.1410     67.4963     19.5836     86.5947
  2190.5000     19.1524     67.2847     19.5666     85.5025
  2190.7500     19.1462     67.0802     19.5592     84.1789
  2191.0000     19.0902     66.8810     19.5675     81.1186
  2191.2500     18.9820     66.6853     19.5830     78.8872
  2191.5000     18.8499     66.4899     19.5913     76.8064
  2191.7500     18.7290     66.2889     19.5832     76.7425
  2192.0000     18.6420     66.0746     19.5604     77.9659
  2192.2500     18.5931     65.8426     19.5293     78.8565
  2192.5000     18.5744     65.5974     19.4913     79.4849
  2192.7500     18.5702     65.3535     19.4416     79.4324
  2193.0000     18.5664     65.1284     19.3768     78.9776
  2193.2500     18.5600     64.9328     19.3036     78.7109
  2193.5000     18.5512     64.7639     19.2384     79.0476
  2193.7500     18.5412     64.6056     19.1976     80.0176
  2194.0000     18.5427     64.4346     19.1870     82.2004
  2194.2500     18.5695     64.2300     19.1978     83.5696
  2194.5000     18.6216     63.9847     19.2151     84.9580
  2194.7500     18.6924     63.7111     19.2296     85.6942
  2195.0000     18.7722     63.4373     19.2463     87.2222
  2195.2500     18.8514     63.1958     19.2844     88.4870
  2195.5000     18.9350     63.0083     19.3664     89.9613
  2195.7500     19.0404     62.8776     19.5059     90.3795
  2196.0000     19.1856     62.7873     19.6959     90.6206
  2196.2500     19.3826     62.7108     19.9059     91.0349
