~Version Information
VERS.                      2.0: CWLS Log ASCII Standard - VERSION 2.0
WRAP.                       NO: One line per depth step
~Well Information Block
STRT.FT               196.3000: 
STOP.FT              1631.0000: 
STEP.FT                 0.1000: 
NULL.                -999.2500: 
COMP.          Petrogulf Corporation: COMPANY
WELL.             State 16-44R: WELL
FLD.           Purgatoire River: FIELD
LOC.           632' FSL & 223' FEL--: LOCATION
PROV.                 Colorado: PROVINCE
CNTY.               Las Animas: COUNTRY
SRVC.                Patterson: SERVICE COMPANY
DATE.          Fri Oct 21 14:20:18 2005: LOG DATE
UWI.           05 071 08457 00: UNIQUE WELL ID
~Curve Information Block
DEPT.FT            0 000 00 00: Depth
DCAL.in                       : CDL Caliper
RHOB.g/cc                     : CDL Bulk Density
RHOC.g/cc                     : CDL Density Correction
DPOR.pu                       : CDL Density Porosity
NPOR.pu                       : Neutron Porosity
GR.GAPI                       : Gamma Ray
~Parameter Information Block
~A  Depth       DCAL        RHOB        RHOC        DPOR        NPOR         GR     
# ...
  1588.3000      7.7760      2.5171      0.0808      8.0569     22.7798     61.3221
  1588.4000      7.7760      2.5064      0.0621      8.7038     22.5329     61.9578
  1588.5000      7.7768      2.4979      0.0376      9.2168     22.1639     55.8567
  1588.6000      7.7768      2.5001      0.0813      9.0872     21.9198     49.5240
  1588.7000      7.7768      2.5051      0.0571      8.7821     22.1045     48.2174
  1588.8000      7.7780      2.5053      0.0631      8.7682     22.4791     51.8926
  1588.9000      7.7780      2.4943      0.0757      9.4385     22.4792     54.4262
  1589.0000      7.7788      2.4721      0.0304     10.7834     22.2333     50.0673
  1589.1000      7.7788      2.4580      0.0488     11.6371     22.2182     43.9204
  1589.2000      7.7788      2.4637      0.0565     11.2908     22.2936     43.3399
  1589.3000      7.7796      2.4768      0.0707     10.4999     22.4915     46.8900
  1589.4000      7.7796      2.4889      0.0620      9.7631     23.1330     48.3339
  1589.5000      7.7799      2.5032      0.0927      8.8985     23.8878     47.4782
  1589.6000      7.7799      2.5154      0.0923      8.1604     24.0308     49.4465
  1589.7000      7.7799      2.5176      0.1010      8.0214     23.2116     54.2955
  1589.8000      7.7795      2.5067      0.0996      8.6865     21.7896     57.4145
  1589.9000      7.7795      2.4833      0.0859     10.1022     20.7642     56.7037
  1590.0000      7.7792      2.4550      0.0422     11.8205     20.8218     53.0581
  1590.1000      7.7792      2.4346      0.0215     13.0537     21.4149     46.4236
  1590.2000      7.7792      2.4277      0.0577     13.4744     21.7368     33.9486
  1590.3000      7.7780      2.4272      0.0648     13.5039     21.7370     17.5446
  1590.4000      7.7780      2.4270      0.0588     13.5141     21.6388      5.6193
  1590.5000      7.7760      2.4281      0.0575     13.4515     21.8073      1.0331
  1590.6000      7.7760      2.4248      0.0716     13.6495     22.2477      0.1046
  1590.7000      7.7760      2.4092      0.0443     14.5930     22.0645      0.0056
  1590.8000      7.7744      2.3930      0.0271     15.5751     20.9542      0.0000
  1590.9000      7.7744      2.3953      0.0467     15.4386     20.0229   -999.2500
  1591.0000      7.7748      2.4141      0.0604     14.2973     19.8639   -999.2500
  1591.1000      7.7748      2.4312      0.0833     13.2586     19.9171   -999.2500
  1591.2000      7.7748      2.4367      0.0748     12.9266     19.5815   -999.2500
  1591.3000      7.7774      2.4327      0.0789     13.1722     18.9353   -999.2500
  1591.4000      7.7774      2.4252      0.0487     13.6214     18.6564   -999.2500
  1591.5000      7.7792      2.4214      0.0591     13.8574     18.7210   -999.2500
  1591.6000      7.7792      2.4213      0.0941     13.8586     18.3263   -999.2500
  1591.7000      7.7792      2.4223      0.0537     13.8013     17.6461   -999.2500
  1591.8000      7.7784      2.4233      0.0589     13.7382     17.4380   -999.2500
  1591.9000      7.7784      2.4199      0.0512     13.9436     17.5858   -999.2500
  1592.0000      7.7762      2.4070      0.0543     14.7292     17.5700   -999.2500
  1592.1000      7.7762      2.3918      0.0310     15.6502     17.4508   -999.2500
  1592.2000      7.7762      2.3937      0.0041     15.5320     17.5012   -999.2500
  1592.3000      7.7766      2.4146      0.0612     14.2679     17.4765   -999.2500
  1592.4000      7.7766      2.4377      0.0660     12.8658     17.2565   -999.2500
  1592.5000      7.7776      2.4572      0.0739     11.6830     16.9684   -999.2500
  1592.6000      7.7776      2.4734      0.1018     10.7033     16.7869   -999.2500
  1592.7000      7.7776      2.4849      0.0712     10.0037     17.0071   -999.2500
  1592.8000      7.7764      2.4874      0.1170      9.8526     17.5141   -999.2500
  1592.9000      7.7764      2.4693      0.1342     10.9519     17.8908   -999.2500
  1593.0000      7.7752      2.4362      0.0417     12.9571     17.9830   -999.2500
  1593.1000      7.7752      2.4150      0.0401     14.2452     17.7601   -999.2500
  1593.2000      7.7752      2.4115      0.0918     14.4533     17.2258   -999.2500
  1593.3000      7.7747      2.4127      0.0480     14.3830     16.9531   -999.2500
  1593.4000      7.7747      2.4187      0.0443     14.0174     17.5780   -999.2500
  1593.5000      7.7739      2.4261      0.0985     13.5693     18.6448   -999.2500
  1593.6000      7.7739      2.4215      0.0766     13.8462     18.9801   -999.2500
  1593.7000      7.7739      2.4079      0.0672     14.6706     18.3187   -999.2500
  1593.8000      7.7745      2.3936      0.0662     15.5379     17.8196   -999.2500
  1593.9000      7.7745      2.3787      0.0646     16.4417     18.0285   -999.2500
  1594.0000      7.7788      2.3710      0.0074     16.9063     18.3701   -999.2500
  1594.1000      7.7788      2.3795      0.0463     16.3935     18.7108   -999.2500
  1594.2000      7.7788      2.3940      0.0398     15.5178     19.1709   -999.2500
  1594.3000      7.7898      2.3979      0.0578     15.2776     19.5180   -999.2500
  1594.4000      7.7898      2.3870      0.0618     15.9409     19.7429   -999.2500
  1594.5000      7.7988      2.3683      0.0444     17.0720     19.8142   -999.2500
  1594.6000      7.7988      2.3578     -0.0000     17.7092     19.7670   -999.2500
  1594.7000      7.7988      2.3681      0.0512     17.0825     19.8244   -999.2500
  1594.8000      7.7990      2.3906      0.0332     15.7186     19.7700   -999.2500
  1594.9000      7.7990      2.4060      0.0636     14.7891     19.3388   -999.2500
  1595.0000      7.7980      2.4007      0.0763     15.1092     18.9221   -999.2500
  1595.1000      7.7980      2.3853      0.0370     16.0422     18.9295   -999.2500
  1595.2000      7.7980      2.3830      0.0603     16.1832     19.2105   -999.2500
  1595.3000      7.8003      2.3953      0.0633     15.4382     19.6458   -999.2500
  1595.4000      7.8003      2.4090      0.0897     14.6050     20.2655   -999.2500
  1595.5000      7.8033      2.4197      0.0808     13.9565     20.5117   -999.2500
  1595.6000      7.8033      2.4319      0.0701     13.2175     20.3485   -999.2500
  1595.7000      7.8033      2.4456      0.0824     12.3855     22.0567   -999.2500
  1595.8000      7.8038      2.4550      0.0556     11.8156     28.6745   -999.2500
  1595.9000      7.8038      2.4613      0.0604     11.4390     38.5486   -999.2500
  1596.0000      7.7999      2.4675      0.0818     11.0601     45.4055   -999.2500
  1596.1000      7.7999      2.4707      0.0830     10.8690     47.8450   -999.2500
  1596.2000      7.7999      2.4681      0.0696     11.0220     48.3200   -999.2500
  1596.3000      7.7904      2.4601      0.0979     11.5102     48.3701   -999.2500
  1596.4000      7.7904      2.4445      0.0717     12.4570     48.3729   -999.2500
  1596.5000      7.7806      2.4167      0.0694     14.1422   -999.2500   -999.2500
  1596.6000      7.7806      2.3829      0.0031     16.1857   -999.2500   -999.2500
  1596.7000      7.7806      2.3709     -0.0293     16.9155   -999.2500   -999.2500
  1596.8000      7.7772      2.3909      0.0564     15.7015   -999.2500   -999.2500
  1596.9000      7.7772      2.4146      0.0743     14.2641   -999.2500   -999.2500
  1597.0000      7.7763      2.4200      0.0341     13.9385   -999.2500   -999.2500
  1597.1000      7.7763      2.4183      0.0196     14.0405   -999.2500   -999.2500
  1597.2000      7.7763      2.4227      0.0393     13.7781   -999.2500   -999.2500
  1597.3000      7.7752      2.4270      0.0408     13.5131   -999.2500   -999.2500
  1597.4000      7.7752      2.4283      0.0339     13.4335   -999.2500   -999.2500
  1597.5000      7.7744      2.4303      0.0672     13.3168   -999.2500   -999.2500
  1597.6000      7.7744      2.4297      0.0628     13.3518   -999.2500   -999.2500
  1597.7000      7.7744      2.4231      0.0763     13.7532   -999.2500   -999.2500
  1597.8000      7.7734      2.4174      0.0403     14.0945   -999.2500   -999.2500
