~Version Information
VERS.                      2.0: CWLS Log ASCII Standard - VERSION 2.0
WRAP.                       NO: One line per depth step
~Well Information Block
STRT.FT               550.0000: 
STOP.FT              1664.0000: 
STEP.FT                 0.2500: 
NULL.                -999.2500: 
COMP.          Pioneer Natural Resources: COMPANY
WELL.          Stock Canyon 34-33: WELL
FLD.           Purgatorie River: FIELD
LOC.           980' FSL & 2191' FEL: LOCATION
PROV.                 Colorado: PROVINCE
CNTY.               Las Animas: COUNTRY
SRVC.                Patterson: SERVICE COMPANY
DATE.          Mon Dec 05 09:58:03 2005: LOG DATE
UWI.                          : UNIQUE WELL ID
~Curve Information Block
DEPT.FT            0 000 00 00: Depth
SN.Ohm-m                      : IEL Short Normal
SP.mV                         : IEL Spontaneous Potential
DIR.Ohm-m                     : IEL Induction Resistivity
GR.GAPI                       : Gamma Ray
~Parameter Information Block
~A  Depth        SN          SP         DIR          GR     
   550.0000   2000.0000   2000.0000      6.0664     92.5302
   550.2500   2000.0000   2000.0000      6.0719     93.7774
   550.5000   2000.0000   2000.0000      6.0807     93.6698
   550.7500   2000.0000   2000.0000      6.0916     92.7677
   551.0000   2000.0000   2000.0000      6.1043     91.2667
   551.2500   2000.0000   2000.0000      6.1183     90.1861
   551.5000   2000.0000   2000.0000      6.1317     87.4737
   551.7500   2000.0000   2000.0000      6.1417     84.5660
   552.0000   2000.0000   2000.0000      6.1453     79.3170
   552.2500   2000.0000   2000.0000      6.1413     76.1753
   552.5000   2000.0000   2000.0000      6.1307     73.1550
   552.7500   2000.0000   2000.0000      6.1158     72.3907
   553.0000   2000.0000   2000.0000      6.0995     72.7802
   553.2500   2000.0000   2000.0000      6.0835     73.7001
   553.5000   2000.0000   2000.0000      6.0690     75.1864
   553.7500   2000.0000   2000.0000      6.0569     75.6972
   554.0000   2000.0000   2000.0000      6.0484     75.0336
   554.2500   2000.0000   2000.0000      6.0449     73.4612
   554.5000   2000.0000   2000.0000      6.0475     69.8391
   554.7500   2000.0000   2000.0000      6.0563     67.4084
   555.0000   2000.0000   2000.0000      6.0703     65.5228
   555.2500   2000.0000   2000.0000      6.0876     65.9400
   555.5000   2000.0000   2000.0000      6.1058     68.4355
   555.7500   2000.0000   2000.0000      6.1232     70.6318
   556.0000   2000.0000   2000.0000      6.1389     73.9967
   556.2500   2000.0000   2000.0000      6.1530     76.0428
   556.5000   2000.0000   2000.0000      6.1655     78.0900
   556.7500   2000.0000   2000.0000      6.1749     78.3419
   557.0000   2000.0000   2000.0000      6.1785     77.0570
   557.2500   2000.0000   2000.0000      6.1735     75.5424
   557.5000   2000.0000   2000.0000      6.1586     73.1118
   557.7500   2000.0000   2000.0000      6.1358     71.6274
   558.0000   2000.0000   2000.0000      6.1101     69.8179
   558.2500   2000.0000   2000.0000      6.0873     69.1475
   558.5000   2000.0000   2000.0000      6.0727     69.5728
   558.7500   2000.0000   2000.0000      6.0687     70.9770
   559.0000   2000.0000   2000.0000      6.0744     74.2490
   559.2500   2000.0000   2000.0000      6.0862     76.5452
   559.5000   2000.0000   2000.0000      6.1001     79.2025
   559.7500   2000.0000   2000.0000      6.1139     80.3938
   560.0000   2000.0000   2000.0000      6.1281     81.8867
   560.2500   2000.0000   2000.0000      6.1446     82.8455
   560.5000   2000.0000   2000.0000      6.1640     83.6903
   560.7500   2000.0000   2000.0000      6.1835     83.4777
   561.0000   2000.0000   2000.0000      6.1965     81.9892
   561.2500   2000.0000   2000.0000      6.1948     80.4503
   561.5000   2000.0000   2000.0000      6.1739     77.6635
   561.7500   2000.0000   2000.0000      6.1371     75.7424
   562.0000   2000.0000   2000.0000      6.0980     73.5034
   562.2500   2000.0000   2000.0000      6.0754     72.9102
   562.5000   2000.0000   2000.0000      6.0839     74.0104
   562.7500   2000.0000   2000.0000      6.1255     76.2796
   563.0000   2000.0000   2000.0000      6.1880     81.5339
   563.2500   2000.0000   2000.0000      6.2514     85.2984
   563.5000   2000.0000   2000.0000      6.2986     89.2543
   563.7500   2000.0000   2000.0000      6.3237     90.2211
   564.0000   2000.0000   2000.0000      6.3337     90.0648
   564.2500   2000.0000   2000.0000      6.3465     89.8367
   564.5000   2000.0000   2000.0000      6.3870     90.1312
   564.7500   2000.0000   2000.0000      6.4814     90.6446
   565.0000   2000.0000   2000.0000      6.6457     91.4460
   565.2500   2000.0000   2000.0000      6.8684     91.8595
   565.5000   2000.0000   2000.0000      7.0960     92.2026
   565.7500   2000.0000   2000.0000      7.2425     92.2053
   566.0000   2000.0000   2000.0000      7.2381     91.8377
   566.2500   2000.0000   2000.0000      7.0858     91.3831
   566.5000   2000.0000   2000.0000      6.8610     90.5662
   566.7500   2000.0000   2000.0000      6.6578     90.0099
   567.0000   2000.0000   2000.0000      6.5475     89.0547
   567.2500   2000.0000   2000.0000      6.5821     88.1830
   567.5000   2000.0000   2000.0000      6.8261     86.5366
   567.7500   2000.0000   2000.0000      7.3906     85.5474
   568.0000   2000.0000   2000.0000      8.4533     85.0204
   568.2500   2000.0000   2000.0000     10.2057     85.5137
   568.5000   2000.0000   2000.0000     12.5043     87.0819
   568.7500   2000.0000   2000.0000     14.0831     88.1044
   569.0000   2000.0000   2000.0000     13.2917     88.4795
   569.2500   2000.0000   2000.0000     10.9754     87.3754
   569.5000   2000.0000   2000.0000      8.9935     83.1729
   569.7500   2000.0000   2000.0000      7.9562     78.8656
   570.0000   2000.0000   2000.0000      7.8157     71.3387
   570.2500   2000.0000   2000.0000      8.4856     66.4864
   570.5000   2000.0000   2000.0000      9.8689     60.4242
   570.7500   2000.0000   2000.0000     11.3886     57.3195
   571.0000   2000.0000   2000.0000     11.4032     54.2297
   571.2500   2000.0000   2000.0000      9.0825     53.6674
   571.5000   2000.0000   2000.0000      6.2773     56.0723
   571.7500   2000.0000   2000.0000      4.3560     59.9827
   572.0000   2000.0000   2000.0000      3.3084     68.5266
   572.2500   2000.0000   2000.0000      2.8454     75.3479
   572.5000   2000.0000   2000.0000      2.7960     86.2741
   572.7500   2000.0000   2000.0000      3.1292     93.3790
   573.0000   2000.0000   2000.0000      3.9520    102.6140
   573.2500   2000.0000   2000.0000      5.5844    107.5754
   573.5000   2000.0000   2000.0000      8.8882    113.9153
   573.7500   2000.0000   2000.0000     16.9570    117.8415
   574.0000   2000.0000   2000.0000     53.7724    122.7523
   574.2500   2000.0000   2000.0000 100000.0000    124.5027
   574.5000   2000.0000   2000.0000 100000.0000    123.9317
   574.7500   2000.0000   2000.0000 100000.0000    121.7284
   575.0000   2000.0000   2000.0000 100000.0000    117.3854
   575.2500   2000.0000   2000.0000     80.7271    114.9778
   575.5000   2000.0000   2000.0000     25.6754    113.3927
   575.7500   2000.0000   2000.0000     16.1053    113.6443
   576.0000   2000.0000   2000.0000     12.8015    115.0327
   576.2500   2000.0000   2000.0000     11.4746    116.2197
   576.5000   2000.0000   2000.0000     10.9351    118.3954
   576.7500   2000.0000   2000.0000     10.7067    120.1474
   577.0000   2000.0000   2000.0000     10.5771    122.7982
   577.2500   2000.0000   2000.0000     10.4623    124.3294
   577.5000   2000.0000   2000.0000     10.3419    126.5913
   577.7500   2000.0000   2000.0000     10.2248    128.4556
   578.0000   2000.0000   2000.0000     10.1292    131.3480
   578.2500   2000.0000   2000.0000     10.0653    132.1690
   578.5000   2000.0000   2000.0000     10.0187    129.6990
   578.7500   2000.0000   2000.0000      9.9517    125.6491
   579.0000   2000.0000   2000.0000      9.8256    118.7203
   579.2500   2000.0000   2000.0000      9.6301    115.5538
   579.5000   2000.0000   2000.0000      9.3898    114.7922
   579.7500   2000.0000   2000.0000      9.1436    116.7834
   580.0000   2000.0000   2000.0000      8.9187    122.2546
   580.2500   2000.0000   2000.0000      8.7211    126.8013
   580.5000   2000.0000   2000.0000      8.5443    133.7323
   580.7500   2000.0000   2000.0000      8.3862    137.5185
   581.0000   2000.0000   2000.0000      8.2593    140.2240
   581.2500   2000.0000   2000.0000      8.1890    139.5805
   581.5000   2000.0000   2000.0000      8.2008    136.0865
   581.7500   2000.0000   2000.0000      8.3060    133.4545
   582.0000   2000.0000   2000.0000      8.4944    130.6114
   582.2500   2000.0000   2000.0000      8.7354    129.2346
   582.5000   2000.0000   2000.0000      8.9870    126.5465
   582.7500   2000.0000   2000.0000      9.2100    123.9381
   583.0000   2000.0000   2000.0000      9.3812    119.4953
   583.2500   2000.0000   2000.0000      9.4980    116.7528
