~Version Information
VERS.                      2.0: CWLS Log ASCII Standard - VERSION 2.0
WRAP.                       NO: One line per depth step
~Well Information Block
STRT.FT                -8.0000: 
STOP.FT              1661.0000: 
STEP.FT                 0.2500: 
NULL.                -999.2500: 
COMP.          Pioneer Natural Resources: COMPANY
WELL.          Rollerball 34-30: WELL
FLD.           Purgatorie River: FIELD
LOC.           893' FSL & 2408' FEL----: LOCATION
CNTY.               Las Animas: COUNTY
SRVC.          Patterson Wireline: SERVICE COMPANY
DATE.          Mon Feb 20 08:34:38 2006: LOG DATE
UWI.           05 071 08581 00: UNIQUE WELL ID
STAT.                       CO: STATE
~Curve Information Block
DEPT.FT            0 000 00 00: Depth
CCL.                          : Casing Collar Locator
TT3.usec                      : CBL 3' Travel Time
AMP3.mV                       : CBL 3' Amplitude
GR.GAPI                       : Gamma Ray
~Parameter Information Block
~A  Depth       CCL         TT3         AMP3         GR     
# ...
   963.5000      0.0000    738.0515      6.2938    105.0626
   963.7500      0.0000    736.6241      6.0924    102.2201
   964.0000      0.0000    727.2272      6.0230     97.0308
   964.2500      2.0000    709.6575      6.0488     90.2911
   964.5000      0.0000    683.2456      6.1491     82.6330
   964.7500      0.0000    650.7665      6.3486     75.4113
   965.0000      0.0000    619.9932      6.6710     70.6175
   965.2500      0.0000    600.6804      7.0597     69.7850
   965.5000      0.0000    598.9439      7.3798     73.3616
   965.7500      0.0000    613.0223      7.5363     81.0034
   966.0000      0.0000    634.2515      7.5597     91.7564
   966.2500      0.0000    653.1840      7.5454    103.7248
   966.5000      0.0000    665.2448      7.5475    114.2820
   966.7500      0.0000    671.1022      7.5601    121.3448
   967.0000      0.0000    673.4143      7.5625    124.3391
   967.2500      0.0000    674.2667      7.5469    123.8610
   967.5000      0.0000    674.6517      7.5116    121.1062
   967.7500      0.0000    674.9084      7.4520    117.9244
   968.0000      0.0000    675.0190      7.3681    116.3622
   968.2500      0.0000    674.7374      7.2756    117.0577
   968.5000      0.0000    673.6107      7.2058    118.1886
   968.7500      0.0000    671.1655      7.1909    116.5868
   969.0000      0.0000    667.2013      7.2464    110.1760
   969.2500      0.0000    661.7196      7.3630     99.5122
   969.5000      0.0000    653.8242      7.5126     87.3568
   969.7500      0.0000    640.8088      7.6658     77.1283
   970.0000      0.0000    620.6309      7.8013     71.4326
   970.2500      0.0000    597.4311      7.8996     71.1174
   970.5000      0.0000    582.7234      7.9367     75.2030
   970.7500      0.0000    587.1227      7.8982     81.9233
   971.0000      0.0000    610.3095      7.7981     89.9693
   971.2500      0.0000    641.1211      7.6747     98.8967
   971.5000      0.0000    666.9216      7.5631    108.8048
   971.7500      0.0000    681.3949      7.4758    119.8171
   972.0000      0.0000    685.3268      7.4082    131.4873
   972.2500      0.0000    683.2232      7.3525    142.5877
   972.5000      0.0000    679.6191      7.3062    151.6909
   972.7500      0.0000    677.0109      7.2737    157.8816
   973.0000      0.0000    675.8290      7.2624    160.8268
   973.2500      0.0000    675.5483      7.2735    160.5823
   973.5000      0.0000    675.5967      7.2963    157.6579
   973.7500      0.0000    675.6631      7.3111    153.0839
   974.0000      0.0000    675.6824      7.3012    148.1463
   974.2500      0.0000    675.7935      7.2639    143.9008
   974.5000      0.0000    676.3934      7.2125    140.6530
   974.7500      0.0000    678.2697      7.1678    137.9142
   975.0000      0.0000    682.4712      7.1461    135.2869
   975.2500      0.0000    689.4957      7.1538    133.4553
   975.5000      0.0000    698.1379      7.1848    133.7553
   975.7500      0.0000    705.6678      7.2206    136.5863
   976.0000      0.0000    710.2654      7.2353    140.5468
   976.2500      0.0000    713.2592      7.2105    143.2665
   976.5000      0.0000    717.8026      7.1468    143.3910
   976.7500      0.0000    725.2103      7.0612    142.1920
   977.0000      0.0000    733.5892      6.9724    142.7504
   977.2500      0.0000    739.9351      6.8920    146.7953
   977.5000      0.0000    742.2873      6.8252    152.7980
   977.7500      0.0000    739.7504      6.7747    157.7930
   978.0000      0.0000    731.9208      6.7420    160.2172
   978.2500      0.0000    719.4755      6.7261    160.2570
   978.5000      0.0000    704.9834      6.7194    158.5542
   978.7500      0.0000    692.0542      6.7056    155.6753
   979.0000      0.0000    683.1826      6.6664    152.2320
   979.2500      0.0000    678.5482      6.5966    148.6955
   979.5000      0.0000    676.7514      6.5095    145.2486
   979.7500      0.0000    676.2590      6.4224    142.1456
   980.0000      0.0000    676.1793      6.3411    140.0439
   980.2500      0.0000    676.2175      6.2612    139.5907
   980.5000      0.0000    676.3370      6.1794    140.5995
   980.7500      0.0000    676.5211      6.0971    141.9034
   981.0000      0.0000    676.7161      6.0150    142.3087
   981.2500      0.0000    676.9736      5.9329    141.8019
   981.5000      0.0000    677.7202      5.8568    141.8310
   981.7500      0.0000    679.9931      5.8023    144.0933
   982.0000      0.0000    685.1313      5.7871    148.6937
   982.2500      0.0000    693.4195      5.8196    153.7822
   982.5000      0.0000    702.4921      5.8919    157.5024
   982.7500      0.0000    707.9044      5.9839    159.8778
   983.0000      0.0000    706.7701      6.0740    162.0333
   983.2500      0.0000    701.1048      6.1519    163.9844
   983.5000      0.0000    696.9778      6.2218    164.2139
   983.7500      0.0000    700.3475      6.2940    161.4504
   984.0000      0.0000    713.3486      6.3703    156.2047
   984.2500      0.0000    732.9941      6.4394    150.5656
   984.5000      0.0000    752.3763      6.4869    146.8444
   984.7500      0.0000    764.0914      6.5094    146.2346
   985.0000      0.0000    764.6241      6.5148    148.3864
   985.2500      0.0000    756.9872      6.5126    152.0950
   985.5000      0.0000    748.8870      6.5066    156.0378
   985.7500      0.0000    746.5394      6.4946    158.7529
   986.0000      0.0000    749.2662      6.4697    158.8370
   986.2500      0.0000    751.2097      6.4245    156.1017
   986.5000      0.0000    748.8717      6.3589    152.1838
   986.7500      0.0000    745.3986      6.2836    149.3219
   987.0000      0.0000    746.2294      6.2124    148.6055
   987.2500      0.0000    752.0407      6.1511    149.4564
   987.5000      0.0000    758.1479      6.0954    150.2603
   987.7500      0.0000    760.0862      6.0355    149.4017
   988.0000      0.0000    757.0856      5.9647    146.1639
   988.2500      0.0000    750.1951      5.8855    141.0999
   988.5000      0.0000    740.2157      5.8096    135.7197
   988.7500      0.0000    728.5555      5.7483    131.7543
   989.0000      0.0000    717.5999      5.7012    130.2584
   989.2500      0.0000    708.8781      5.6571    130.9223
   989.5000      0.0000    702.1721      5.6074    132.0095
   989.7500      0.0000    696.6469      5.5549    130.9969
   990.0000      0.0000    691.8632      5.5095    125.6284
   990.2500      0.0000    688.0660      5.4789    115.2462
   990.5000      0.0000    686.4751      5.4655    101.7648
   990.7500      0.0000    688.9384      5.4671     88.9101
   991.0000      0.0000    696.2245      5.4786     79.7554
   991.2500      0.0000    706.2336      5.4944     74.9250
   991.5000      0.0000    714.5656      5.5120     73.0446
   991.7500      0.0000    717.9628      5.5337     72.3082
   992.0000      0.0000    717.3177      5.5622     71.4358
   992.2500      0.0000    716.5966      5.5948     69.8959
   992.5000      0.0000    718.6467      5.6207     67.8989
   992.7500      0.0000    722.4891      5.6274     66.1922
   993.0000      0.0000    724.7236      5.6120     65.6554
   993.2500      0.0000    723.1682      5.5851     66.8730
   993.5000      0.0000    718.7797      5.5619     69.6577
   993.7500      0.0000    714.1696      5.5488     72.9084
   994.0000      0.0000    711.1859      5.5389     75.5228
   994.2500      0.0000    710.4479      5.5184     77.6771
   994.5000      0.0000    712.2289      5.4770     80.5517
   994.7500      0.0000    716.6571      5.4168     84.4245
   995.0000      0.0000    723.3765      5.3567     87.6878
   995.2500      0.0000    731.4380      5.3239     88.3168
   995.5000      0.0000    739.1249      5.3339     86.0844
   995.7500      0.0000    743.9471      5.3790     82.9706
   996.0000      0.0000    743.5684      5.4374     81.2658
   996.2500      0.0000    737.0488      5.4916     81.4919
   996.5000      0.0000    725.6441      5.5395     82.5601
   996.7500      0.0000    713.0758      5.5959     83.7413
