~Version Information
VERS.                      2.0: CWLS Log ASCII Standard - VERSION 2.0
WRAP.                       NO: One line per depth step
~Well Information Block
STRT.FT               880.0000: 
STOP.FT              1996.5000: 
STEP.FT                 0.1000: 
NULL.                -999.2500: 
COMP.          Petrogulf Corporation: COMPANY
WELL.          Collister 17-31R: WELL
FLD.           Purgatorie River: FIELD
LOC.           962' FNL & 1520' FEL: LOCATION
PROV.                 Colorado: PROVINCE
CNTY.               Las Animas: COUNTRY
SRVC.                Patterson: SERVICE COMPANY
DATE.          Mon Sep 26 09:28:52 2005: LOG DATE
UWI.                          : UNIQUE WELL ID
~Curve Information Block
DEPT.FT            0 000 00 00: Depth
DCAL.in                       : CDL Caliper
RHOB.g/cc                     : CDL Bulk Density
RHOC.g/cc                     : CDL Density Correction
DPOR.pu                       : CDL Density Porosity
GR.GAPI                       : Gamma Ray
NPOR.pu                       : Neutron Porosity
~Parameter Information Block
~A  Depth       DCAL        RHOB        RHOC        DPOR         GR         NPOR    
# ...
  1321.6000      7.9033      2.5413      0.0869      6.5877    133.0731     26.7016
  1321.7000      7.9033      2.5497      0.0556      6.0772    129.0182     26.8849
  1321.8000      7.9090      2.5504      0.0184      6.0368    125.4270     26.9853
  1321.9000      7.9090      2.5597      0.0116      5.4755    119.9954     26.9768
  1322.0000      7.9072      2.5901     -0.0040      3.6302    111.2783     26.7791
  1322.1000      7.9072      2.6320      0.0727      1.0911    102.4718     26.3421
  1322.2000      7.9072      2.6576      0.1390     -0.4598     97.1912     25.7744
  1322.3000      7.8999      2.6590      0.0223     -0.5453     95.3914     25.2745
  1322.4000      7.8999      2.6603      0.0139     -0.6231     92.9224     24.9269
  1322.5000      7.8855      2.6737      0.0597     -1.4349     88.6962     24.7591
  1322.6000      7.8855      2.6840      0.0515     -2.0588     84.8096     24.6308
  1322.7000      7.8855      2.6743      0.0610     -1.4733     82.5687     24.0163
  1322.8000      7.8809      2.6449      0.0221      0.3089     82.6772     22.7391
  1322.9000      7.8809      2.6176      0.0065      1.9614     83.3454     21.2492
  1323.0000      7.8747      2.6106      0.0370      2.3865     81.7983     19.8981
  1323.1000      7.8747      2.6111      0.0509      2.3562     78.2259     18.8453
  1323.2000      7.8747      2.5964      0.0118      3.2464     75.6349     18.0991
  1323.3000      7.8701      2.5689      0.0107      4.9155     77.8381     17.6360
  1323.4000      7.8701      2.5469      0.0012      6.2500     85.5332     17.6058
  1323.5000      7.8816      2.5331      0.0316      7.0858     95.0608     18.0448
  1323.6000      7.8816      2.5127      0.0138      8.3183    104.3841     18.7875
  1323.7000      7.8816      2.4793      0.0355     10.3444    115.6028     19.7429
  1323.8000      7.9044      2.4467     -0.0427     12.3230    128.8829     20.9036
  1323.9000      7.9044      2.4267      0.0301     13.5346    139.9826     22.3000
  1324.0000      7.9091      2.4059      0.0350     14.7939    147.2995     24.0452
  1324.1000      7.9091      2.3729      0.0280     16.7941    154.9761     25.8576
  1324.2000      7.9091      2.3405      0.0117     18.7573    164.1835     27.1468
  1324.3000      7.9525      2.3176      0.0604     20.1480    167.7174     28.0643
  1324.4000      7.9525      2.2942      0.0558     21.5639    163.2202     29.1401
  1324.5000      8.0633      2.2672      0.0646     23.1990    159.8175     30.1577
  1324.6000      8.0633      2.2492      0.0639     24.2894    163.8238     30.6839
  1324.7000      8.0633      2.2541      0.0042     23.9914    172.3737     31.0152
  1324.8000      8.0163      2.2848      0.0390     22.1361    179.6729     31.5816
  1324.9000      8.0163      2.3314      0.0804     19.3102    182.8993     32.1619
  1325.0000      8.0985      2.3878      0.1129     15.8920    183.2656     32.4839
  1325.1000      8.0985      2.4529      0.2146     11.9433    182.7695     32.7163
  1325.2000      8.0985      2.5108      0.2858      8.4341    182.3493     33.0332
  1325.3000      8.1991      2.5325      0.3594      7.1217    181.4765     33.1600
  1325.4000      8.1991      2.5097      0.2977      8.5032    181.1414     32.8248
  1325.5000      8.1423      2.4683      0.2318     11.0124    183.9895     32.4824
  1325.6000      8.1423      2.4331      0.1770     13.1429    187.3211     32.5375
  1325.7000      8.1423      2.4090      0.1173     14.6083    185.7306     32.6146
  1325.8000      8.1117      2.3935      0.0856     15.5431    180.6845     32.5125
  1325.9000      8.1117      2.3870      0.0688     15.9371    178.6809     32.4441
  1326.0000      8.0599      2.3895      0.0325     15.7850    183.3576     32.5055
  1326.1000      8.0599      2.3972      0.0529     15.3212    192.1618     32.5360
  1326.2000      8.0599      2.4049      0.0562     14.8546    199.6794     32.3946
  1326.3000      8.0786      2.4105      0.0762     14.5156    204.2248     32.3065
  1326.4000      8.0786      2.4086      0.1290     14.6316    210.3179     32.4330
  1326.5000      8.1512      2.3938      0.0674     15.5280    218.3755     32.4086
  1326.6000      8.1512      2.3703      0.0614     16.9531    222.9503     31.9568
  1326.7000      8.1512      2.3450      0.0256     18.4859    224.3903     31.4783
  1326.8000      8.0705      2.3236      0.0352     19.7795    225.8035     31.3239
  1326.9000      8.0705      2.3101      0.0053     20.6002    227.8527     31.2328
  1327.0000      8.0370      2.3013      0.0570     21.1333    230.6397     30.8409
  1327.1000      8.0370      2.2838      0.0898     22.1968    234.1185     30.3891
  1327.2000      8.0370      2.2540      0.0557     24.0006    236.8671     30.4460
  1327.3000      8.0393      2.2382      0.0547     24.9554    234.5542     30.9019
  1327.4000      8.0393      2.2654      0.1058     23.3120    225.6597     31.3203
  1327.5000      8.0920      2.3317      0.1984     19.2932    215.0453     31.7094
  1327.6000      8.0920      2.4127      0.2741     14.3828    205.0108     32.0710
  1327.7000      8.0920      2.4880      0.3607      9.8209    195.5346     32.2623
  1327.8000      8.2622      2.5418      0.4024      6.5579    188.3582     32.2684
  1327.9000      8.2622      2.5674      0.3867      5.0068    182.3025     32.2108
  1328.0000      8.3164      2.5757      0.3166      4.5041    175.5255     32.2178
  1328.1000      8.3164      2.5801      0.2886      4.2387    171.7012     32.3477
  1328.2000      8.3164      2.5725      0.3353      4.6953    172.8532     32.5287
  1328.3000      8.2028      2.5412      0.2316      6.5915    174.0963     32.5957
  1328.4000      8.2028      2.5016      0.1568      8.9940    172.2569     32.5756
  1328.5000      8.2597      2.4778      0.1359     10.4372    168.7318     32.5333
  1328.6000      8.2597      2.4779      0.1238     10.4281    164.2967     32.3803
  1328.7000      8.2597      2.4931      0.1381      9.5099    160.2864     32.0928
  1328.8000      8.5007      2.5018      0.2081      8.9826    156.6259     31.7761
  1328.9000      8.5007      2.4882      0.2085      9.8041    155.0480     31.5060
  1329.0000      8.4989      2.4599      0.1518     11.5192    158.8669     31.2860
  1329.1000      8.4989      2.4352      0.1460     13.0198    167.0381     31.0887
  1329.2000      8.4989      2.4184      0.1671     14.0357    175.6433     30.8812
  1329.3000      8.1569      2.3982      0.1523     15.2630    178.1520     30.6787
  1329.4000      8.1569      2.3601      0.1385     17.5669    171.6490     30.6705
  1329.5000      8.0187      2.3040      0.0653     20.9723    164.1392     30.9517
  1329.6000      8.0187      2.2454      0.0708     24.5194    163.0807     31.2532
  1329.7000      8.0187      2.2045      0.0288     26.9990    165.7548     31.4332
  1329.8000      8.0004      2.1978      0.0536     27.4069    166.6342     31.6645
  1329.9000      8.0004      2.2203      0.0629     26.0403    161.9303     31.9629
  1330.0000      7.9899      2.2485      0.0938     24.3338    151.7628     32.2173
  1330.1000      7.9899      2.2734      0.0936     22.8255    142.9117     32.3816
  1330.2000      7.9899      2.3156      0.1352     20.2683    140.4140     32.3907
  1330.3000      8.1251      2.3861      0.3217     15.9952    140.9516     32.2170
  1330.4000      8.1251      2.4551      0.3873     11.8151    139.9183     32.0502
  1330.5000      8.3008      2.4849      0.4051     10.0043    136.9457     32.2802
  1330.6000      8.3008      2.4607      0.3496     11.4729    133.9205     32.8902
  1330.7000      8.3008      2.4019      0.1907     15.0372    131.5063     33.3528
  1330.8000      8.1756      2.3515      0.0954     18.0898    127.4981     33.3614
  1330.9000      8.1756      2.3278      0.0484     19.5282    123.5337     33.0989
  1331.0000      7.9645      2.3161      0.0393     20.2349    122.6602     32.8970
  1331.1000      7.9645      2.3047      0.0306     20.9279    123.1012     32.8158
