~Version Information
VERS.                      2.0: CWLS Log ASCII Standard - VERSION 2.0
WRAP.                       NO: One line per depth step
~Well Information Block
STRT.FT               294.3000: 
STOP.FT              1461.0000: 
STEP.FT                 0.1000: 
NULL.                -999.2500: 
COMP.          Pioneer Natural Resources: COMPANY
WELL.              Lucky 21-36: WELL
FLD.           Purgatoire River: FIELD
CDN. :
PROV. :
UWI. :
STAT. :
CNTY. :
CTRY. :
API. :
COMP. :
WELL. :
FLD. :
LOC. :
DATE. :
SRVC. :
LOC.           799' FNL & 1578' FWL--: LOCATION
CNTY.               Las Animas: COUNTY
SRVC.          Superior Well Services: SERVICE COMPANY
DATE.          Tue Jul 08 08-29-33 2008: LOG DATE
UWI.           05 071 08456 00: UNIQUE WELL ID
STAT.                 Colorado: STATE
~Curve Information Block
DEPT.FT            0 000 00 00: Depth
DCAL.in                       : CDL Caliper
RHOB.g/cc                     : CDL Bulk Density
RHOC.g/cc                     : CDL Density Correction
DPOR.pu                       : CDL Density Porosity
NPOR.pu                       : Neutron Porosity
GR.GAPI                       : Gamma Ray
~Parameter Information Block
~A  Depth       DCAL        RHOB        RHOC        DPOR        NPOR         GR     
# ...
  1206.3000      8.2181      2.8655      0.2405    -13.0592     24.7289     75.5841
  1206.4000      8.2089      2.8519      0.1884    -12.2373     24.4101     72.8392
  1206.5000      8.1919      2.8417      0.0998    -11.6201     23.8431     71.5713
  1206.6000      8.1650      2.8490      0.0796    -12.0590     23.3058     71.5021
  1206.7000      8.1276      2.8692      0.0671    -13.2823     23.3145     68.7083
  1206.8000      8.0817      2.8952      0.0263    -14.8626     23.5898     60.9862
  1206.9000      8.0317      2.9202      0.0674    -16.3784     23.4986     57.9358
  1207.0000      7.9837      2.9175      0.0973    -16.2120     22.7025     66.0940
  1207.1000      7.9433      2.8777      0.0000    -13.8017     21.5345     77.6701
  1207.2000      7.9138      2.8246      0.0601    -10.5845     20.9051     84.2183
  1207.3000      7.8954      2.7764     -0.0068     -7.6626     21.0242     85.9030
  1207.4000      7.8854      2.7567     -0.0621     -6.4651     21.1170     86.3212
  1207.5000      7.8805      2.7823      0.0019     -8.0157     20.6877     86.7893
  1207.6000      7.8780      2.8252      0.0563    -10.6177     20.0536     88.2736
  1207.7000      7.8759      2.8481      0.0443    -12.0035     19.7427     88.4751
  1207.8000      7.8735      2.8426      0.0312    -11.6724     19.8052     83.3110
  1207.9000      7.8706      2.8253      0.0071    -10.6224     19.7475     75.1172
  1208.0000      7.8674      2.8285      0.0018    -10.8166     19.2696     67.3968
  1208.1000      7.8644      2.8740     -0.0057    -13.5776     18.7066     62.7392
  1208.2000      7.8620      2.9434      0.0681    -17.7804     18.3438     60.8643
  1208.3000      7.8600      2.9930      0.0752    -20.7854     17.9493     59.3161
  1208.4000      7.8584      2.9990      0.1061    -21.1515     17.4350     58.4806
  1208.5000      7.8565      2.9745      0.0600    -19.6641     17.1870     57.8852
  1208.6000      7.8541      2.9491      0.0072    -18.1258     17.3038     55.1829
  1208.7000      7.8515      2.9425     -0.0055    -17.7296     17.6592     52.5494
  1208.8000      7.8488      2.9424      0.0780    -17.7218     18.4015     52.9161
  1208.9000      7.8467      2.9130      0.0680    -15.9412     19.4173     53.5057
  1209.0000      7.8452      2.8587     -0.0328    -12.6487     20.1744     50.7631
  1209.1000      7.8443      2.8154      0.0181    -10.0228     20.4245     46.8021
  1209.2000      7.8436      2.7906      0.0263     -8.5229     20.2962     48.3357
  1209.3000      7.8430      2.7746      0.0299     -7.5496     19.9477     60.7414
  1209.4000      7.8423      2.7648      0.0205     -6.9562     19.7584     77.9032
  1209.5000      7.8413      2.7530      0.0956     -6.2398     19.8294     88.1884
  1209.6000      7.8401      2.7214      0.0692     -4.3271     19.7715     91.6253
  1209.7000      7.8388      2.6712      0.0551     -1.2849     19.6047     94.8003
  1209.8000      7.8376      2.6273      0.0165      1.3787     19.7603     95.4380
  1209.9000      7.8369      2.6122      0.0570      2.2925     20.2254     87.8942
  1210.0000      7.8372      2.6185      0.0980      1.9073     20.5713     77.7133
  1210.1000      7.8390      2.6213      0.1073      1.7421     20.7456     75.3947
  1210.2000      7.8428      2.6065      0.0994      2.6343     20.9559     83.2042
  1210.3000      7.8486      2.5779      0.0858      4.3702     21.0147     95.7471
  1210.4000      7.8560      2.5531      0.0228      5.8744     20.7271    103.3196
  1210.5000      7.8637      2.5475      0.0248      6.2149     20.5045    100.6396
  1210.6000      7.8707      2.5550      0.0358      5.7565     20.8011     94.4678
  1210.7000      7.8758      2.5566      0.0929      5.6585     21.5153     92.3620
  1210.8000      7.8787      2.5453      0.0574      6.3444     21.9749     95.5736
  1210.9000      7.8797      2.5350      0.0389      6.9717     21.9910    100.1101
  1211.0000      7.8793      2.5421      0.0467      6.5383     21.8434    101.0479
  1211.1000      7.8783      2.5642      0.0803      5.2003     21.4618     97.9394
  1211.2000      7.8773      2.5791      0.1116      4.2972     21.0235     92.5665
  1211.3000      7.8766      2.5757      0.0918      4.5049     20.9594     87.9743
  1211.4000      7.8761      2.5683      0.0442      4.9503     21.2967     85.4641
  1211.5000      7.8758      2.5679      0.0760      4.9753     21.7652     84.0583
  1211.6000      7.8756      2.5687      0.0778      4.9276     22.0720     83.2896
  1211.7000      7.8754      2.5623      0.1059      5.3161     22.0805     83.6808
  1211.8000      7.8752      2.5466      0.0630      6.2665     22.0348     84.8944
  1211.9000      7.8752      2.5324      0.0328      7.1263     22.3042     84.3223
  1212.0000      7.8755      2.5297      0.0533      7.2888     22.8403     81.3159
  1212.1000      7.8763      2.5375      0.0290      6.8161     23.0688     80.2345
  1212.2000      7.8775      2.5486      0.0361      6.1471     22.7988     82.6645
  1212.3000      7.8791      2.5542      0.0453      5.8071     22.5460     87.8603
  1212.4000      7.8808      2.5594      0.0471      5.4896     22.7077     96.6155
  1212.5000      7.8823      2.5690      0.0835      4.9079     23.1432    105.2150
  1212.6000      7.8832      2.5743      0.0473      4.5883     23.3258    105.3468
  1212.7000      7.8833      2.5731      0.0752      4.6612     22.9269     98.3996
  1212.8000      7.8826      2.5659      0.0687      5.0942     22.2984     95.9983
  1212.9000      7.8813      2.5569      0.0573      5.6449     21.8438    102.4718
  1213.0000      7.8795      2.5585      0.0607      5.5441     21.4573    107.8670
  1213.1000      7.8778      2.5725      0.0993      4.6963     21.0698    105.6731
  1213.2000      7.8764      2.5814      0.1133      4.1557     20.8720     99.9352
  1213.3000      7.8754      2.5738      0.0673      4.6205     21.0254     94.5165
  1213.4000      7.8749      2.5569      0.0564      5.6450     21.6142     90.2309
  1213.5000      7.8746      2.5412      0.0510      6.5950     22.3535     86.4142
  1213.6000      7.8745      2.5324      0.0477      7.1253     22.6980     83.5217
  1213.7000      7.8745      2.5344      0.0526      7.0073     22.7193     82.1515
  1213.8000      7.8749      2.5478      0.0465      6.1969     22.9577     81.4562
  1213.9000      7.8757      2.5695      0.0976      4.8808     23.5026     78.9348
  1214.0000      7.8766      2.5966      0.0984      3.2377     24.1961     74.5350
  1214.1000      7.8773      2.6142      0.1470      2.1677     24.8326     73.3857
  1214.2000      7.8773      2.5979      0.1354      3.1566     25.1318     79.5274
  1214.3000      7.8766      2.5590      0.0570      5.5168     25.0688     89.9187
  1214.4000      7.8752      2.5413      0.0288      6.5900     24.6410     98.1439
  1214.5000      7.8736      2.5549      0.0679      5.7625     24.2970    102.4455
  1214.6000      7.8724      2.5614      0.1376      5.3691     24.5912    103.3460
  1214.7000      7.8718      2.5379      0.0592      6.7916     25.0595    103.1488
  1214.8000      7.8722      2.5168      0.0115      8.0722     25.1676    109.6201
  1214.9000      7.8735      2.5271      0.0659      7.4512     25.2006    123.6566
  1215.0000      7.8755      2.5471      0.1199      6.2366     25.3433    133.8264
  1215.1000      7.8779      2.5524      0.0727      5.9122     25.4044    132.7725
  1215.2000      7.8807      2.5493      0.0926      6.1024     25.5005    126.9402
  1215.3000      7.8841      2.5502      0.0773      6.0510     25.6301    127.5173
  1215.4000      7.8884      2.5584      0.0849      5.5527     25.4898    132.1062
  1215.5000      7.8940      2.5672      0.0706      5.0167     25.2339    131.4194
  1215.6000      7.9008      2.5705      0.0464      4.8206     25.1503    127.8679
  1215.7000      7.9081      2.5704      0.0378      4.8267     25.2939    125.9813
  1215.8000      7.9149      2.5706      0.0388      4.8147     25.6802    123.2951
