~Version Information
VERS.                      2.0: CWLS Log ASCII Standard - VERSION 2.0
WRAP.                       NO: One line per depth step
~Well Information Block
STRT.FT                10.0000: 
STOP.FT              1458.0000: 
STEP.FT                 0.1000: 
NULL.                -999.2500: 
COMP.          Pioneer Natural Resources: COMPANY
WELL.            Bordeaux 42-2: WELL
FLD.           Purgatorie River: FIELD
LOC.           1963' FNL & 1148' FEL: LOCATION
PROV.                 Colorado: PROVINCE
CNTY.               Las Animas: COUNTRY
SRVC.                Patterson: SERVICE COMPANY
DATE.          Tue Nov 29 07:11:03 2005: LOG DATE
UWI.                          : UNIQUE WELL ID
~Curve Information Block
DEPT.FT            0 000 00 00: Depth
DCAL.in                       : CDL Caliper
RHOB.g/cc                     : CDL Bulk Density
RHOC.g/cc                     : CDL Density Correction
DPOR.pu                       : CDL Density Porosity
GR.GAPI                       : Gamma Ray
NPOR.pu                       : Neutron Porosity
~Parameter Information Block
~A  Depth       DCAL        RHOB        RHOC        DPOR         GR         NPOR    
# ...
   960.4000      7.9225      2.5257     -0.0325      7.5334    139.4987     25.2785
   960.5000      7.9054      2.5277     -0.0106      7.4101    142.9755     25.7381
   960.6000      7.9054      2.5308     -0.0085      7.2254    143.6104     26.2173
   960.7000      7.9054      2.5348      0.0145      6.9844    141.2370     26.6129
   960.8000      7.8949      2.5450     -0.0227      6.3607    138.7885     26.9434
   960.9000      7.8949      2.5671      0.0372      5.0235    137.5016     27.1188
   961.0000      7.8978      2.5859      0.1253      3.8821    135.4108     27.1040
   961.1000      7.8978      2.5879      0.0596      3.7610    133.5293     27.0687
   961.2000      7.8978      2.5809      0.1118      4.1886    134.2782     27.0768
   961.3000      7.9002      2.5700      0.0951      4.8479    137.2224     26.9547
   961.4000      7.9002      2.5542      0.1024      5.8072    141.7773     26.7740
   961.5000      7.9156      2.5372      0.0845      6.8368    146.4344     26.8439
   961.6000      7.9156      2.5304      0.0612      7.2488    148.6124     27.0394
   961.7000      7.9156      2.5379      0.0679      6.7967    147.8022     26.9572
   961.8000      7.9325      2.5503      0.0947      6.0402    146.1985     26.6269
   961.9000      7.9325      2.5625      0.0995      5.3026    147.0119     26.3480
   962.0000      7.9377      2.5693      0.1020      4.8933    151.6591     26.2171
   962.1000      7.9377      2.5670      0.0724      5.0324    159.4190     26.1271
   962.2000      7.9377      2.5678      0.1240      4.9792    167.7350     25.9891
   962.3000      7.9329      2.5822      0.1651      4.1069    174.0713     25.9838
   962.4000      7.9329      2.6040      0.1881      2.7881    176.2550     26.1815
   962.5000      7.9389      2.6205      0.1854      1.7887    174.4391     26.3637
   962.6000      7.9389      2.6287      0.1675      1.2901    172.3634     26.4839
   962.7000      7.9389      2.6337      0.1604      0.9907    173.0824     26.6412
   962.8000      7.9437      2.6351      0.1365      0.9006    175.2935     26.8569
   962.9000      7.9437      2.6276      0.1154      1.3590    175.3959     27.0749
   963.0000      7.9435      2.6069      0.1054      2.6094    174.0879     27.3293
   963.1000      7.9435      2.5785      0.0541      4.3313    174.6844     27.7206
   963.2000      7.9435      2.5603      0.0197      5.4336    177.2760     27.9549
   963.3000      7.9433      2.5687      0.0697      4.9273    179.4121     27.7884
   963.4000      7.9433      2.5914      0.1096      3.5519    179.2825     27.5560
   963.5000      7.9296      2.5997      0.1227      3.0497    176.1543     27.6938
   963.6000      7.9296      2.5901      0.0964      3.6330    170.5250     28.2229
   963.7000      7.9296      2.5869      0.0791      3.8236    165.1714     28.8440
   963.8000      7.9370      2.6080      0.0887      2.5435    162.2651     29.3661
   963.9000      7.9370      2.6441      0.0881      0.3600    160.5044     29.6498
   964.0000      7.9239      2.6657      0.1119     -0.9505    159.5903     29.6445
   964.1000      7.9239      2.6531      0.0892     -0.1851    160.5764     29.6019
   964.2000      7.9239      2.6175      0.0889      1.9680    161.6335     29.7058
   964.3000      7.9223      2.5843      0.0049      3.9811    160.3594     29.8323
   964.4000      7.9223      2.5672      0.0222      5.0211    158.4142     29.7963
   964.5000      7.9319      2.5626     -0.0204      5.2980    158.2446     29.5174
   964.6000      7.9319      2.5602      0.0166      5.4414    158.6792     29.0527
   964.7000      7.9319      2.5572     -0.0882      5.6213    159.8651     28.5819
   964.8000      7.9295      2.5549      0.0314      5.7635    163.2691     28.2800
   964.9000      7.9295      2.5490      0.0164      6.1214    166.3013     28.2503
   965.0000      7.9308      2.5463      0.0206      6.2870    167.1422     28.4621
   965.1000      7.9308      2.5526      0.0984      5.9038    167.1707     28.7415
   965.2000      7.9308      2.5643      0.0895      5.1934    166.9592     28.8842
   965.3000      7.9291      2.5815      0.0814      4.1511    166.4405     28.7904
   965.4000      7.9291      2.5995      0.1069      3.0576    166.2431     28.6718
   965.5000      7.9219      2.6066      0.0904      2.6304    166.0345     28.6747
   965.6000      7.9219      2.5965      0.0991      3.2454    163.3931     28.5388
   965.7000      7.9219      2.5863      0.0082      3.8583    157.6861     28.1830
   965.8000      7.9215      2.5995      0.0860      3.0632    153.1649     27.8242
   965.9000      7.9215      2.6295      0.1071      1.2451    152.6437     27.5395
   966.0000      7.9185      2.6566      0.1329     -0.4025    153.9100     27.3465
   966.1000      7.9185      2.6730      0.1423     -1.3943    154.6989     27.4130
   966.2000      7.9185      2.6771      0.1377     -1.6434    154.7416     27.7370
   966.3000      7.9151      2.6638      0.1422     -0.8373    153.0234     27.9882
   966.4000      7.9151      2.6350      0.0919      0.9120    150.4680     27.8783
   966.5000      7.8902      2.6113      0.0551      2.3470    150.5349     27.5580
   966.6000      7.8902      2.6090      0.0314      2.4853    154.7970     27.3635
   966.7000      7.8902      2.6169      0.0350      2.0043    159.4991     27.3451
   966.8000      7.8696      2.6119      0.0053      2.3112    162.3020     27.4747
   966.9000      7.8696      2.5931     -0.0219      3.4460    165.0229     27.7280
   967.0000      7.9119      2.5812     -0.0195      4.1687    167.9499     27.9814
   967.1000      7.9119      2.5817      0.0193      4.1412    170.3163     28.0845
   967.2000      7.9119      2.5835      0.0077      4.0309    171.6985     28.0554
   967.3000      7.9188      2.5854     -0.0006      3.9147    171.2438     28.1285
   967.4000      7.9188      2.5961     -0.0190      3.2661    169.1614     28.2819
   967.5000      7.9252      2.6163      0.0290      2.0422    168.9789     28.1610
   967.6000      7.9252      2.6271      0.0525      1.3856    171.6839     27.8354
   967.7000      7.9252      2.6151      0.0521      2.1170    171.3939     27.7628
   967.8000      7.9343      2.5978     -0.0069      3.1607    166.5066     28.0643
   967.9000      7.9343      2.5898      0.0726      3.6482    163.7618     28.5311
   968.0000      7.9290      2.5798      0.0195      4.2540    167.8745     28.8224
   968.1000      7.9290      2.5704     -0.0388      4.8242    175.5318     29.0163
   968.2000      7.9290      2.5703      0.0589      4.8301    181.1629     29.4004
   968.3000      7.9349      2.5726      0.0247      4.6924    183.2264     29.5781
   968.4000      7.9349      2.5783     -0.0003      4.3481    182.0265     29.1358
   968.5000      7.9483      2.5965     -0.0421      3.2444    177.5680     28.4491
   968.6000      7.9483      2.6200      0.0420      1.8180    170.9881     28.1099
   968.7000      7.9483      2.6269      0.0116      1.4010    165.5417     28.1360
   968.8000      7.9537      2.6124      0.0279      2.2762    164.2551     28.2679
   968.9000      7.9537      2.5904      0.0371      3.6091    166.9053     28.4138
   969.0000      7.9709      2.5704      0.0130      4.8261    169.9664     28.5482
   969.1000      7.9709      2.5581     -0.0101      5.5674    172.4823     28.6343
   969.2000      7.9709      2.5632      0.0059      5.2618    177.1460     28.6241
   969.3000      8.0022      2.5803      0.0132      4.2225    182.5809     28.6076
   969.4000      8.0022      2.5878      0.0287      3.7719    185.8046     28.6269
   969.5000      7.9797      2.5838     -0.0269      4.0102    187.8726     28.5799
   969.6000      7.9797      2.5852      0.0273      3.9287    188.6555     28.5502
   969.7000      7.9797      2.5916      0.0578      3.5402    187.2987     28.5905
   969.8000      7.9690      2.5945      0.0235      3.3623    186.2887     28.5418
   969.9000      7.9690      2.5938      0.0715      3.4070    186.6975     28.1946
