~Version Information
VERS.                      2.0: CWLS Log ASCII Standard - VERSION 2.0
WRAP.                       NO: One line per depth step
~Well Information Block
STRT.FT               555.0000: 
STOP.FT              2322.2500: 
STEP.FT                 0.2500: 
NULL.                -999.2500: 
COMP.          Pioneer Natural Resources: COMPANY
WELL.          Fittipaldi 21-12: WELL
FLD.           Purgatoire River: FIELD
LOC.           207' FNL & 2110' FWL--: LOCATION
CNTY.               Las Animas: COUNTY
SRVC.                Patterson: SERVICE COMPANY
DATE.          Tue Mar 21 10:27:48 2006: LOG DATE
UWI.           05 071 08492 00: UNIQUE WELL ID
STAT.                 Colorado: STATE
~Curve Information Block
DEPT.FT            0 000 00 00: Depth
SN.Ohm-m                      : IEL Short Normal
SP.mV                         : IEL Spontaneous Potential
DIR.Ohm-m                     : IEL Induction Resistivity
GR.GAPI                       : Gamma Ray
~Parameter Information Block
~A  Depth        SN          SP         DIR          GR     
# ...
  1258.5000   2000.0000   1990.0000     22.4937    102.5809
  1258.7500   2000.0000   1990.0000     22.3310    100.7214
  1259.0000   2000.0000   1990.0000     22.1852     96.7798
  1259.2500   2000.0000   1990.0000     22.0221     93.9021
  1259.5000   2000.0000   1990.0000     21.8268     90.3097
  1259.7500   2000.0000   1990.0000     21.5953     89.0432
  1260.0000   2000.0000   1990.0000     21.3241     89.4889
  1260.2500   2000.0000   1990.0000     21.0059     91.3361
  1260.5000   2000.0000   1990.0000     20.6349     95.9750
  1260.7500   2000.0000   1990.0000     20.2178     99.9443
  1261.0000   2000.0000   1990.0000     19.7761    106.3392
  1261.2500   2000.0000   1990.0000     19.3379    110.1366
  1261.5000   2000.0000   1990.0000     18.9250    113.5700
  1261.7500   2000.0000   1990.0000     18.5473    113.6741
  1262.0000   2000.0000   1990.0000     18.2096    110.7265
  1262.2500   2000.0000   1990.0000     17.9215    107.6722
  1262.5000   2000.0000   1990.0000     17.6994    103.5109
  1262.7500   2000.0000   1990.0000     17.5551    101.5987
  1263.0000   2000.0000   1990.0000     17.4791     99.6239
  1263.2500   2000.0000   1990.0000     17.4310     98.4835
  1263.5000   2000.0000   1990.0000     17.3461     97.2402
  1263.7500   2000.0000   1990.0000     17.1590     97.3826
  1264.0000   2000.0000   1990.0000     16.8329     99.9962
  1264.2500   2000.0000   1990.0000     16.3727    103.2349
  1264.5000   2000.0000   1990.0000     15.8156    109.0639
  1264.7500   2000.0000   1990.0000     15.2093    112.6672
  1265.0000   2000.0000   1990.0000     14.5970    116.6294
  1265.2500   2000.0000   1990.0000     14.0132    118.2959
  1265.5000   2000.0000   1990.0000     13.4858    120.1244
  1265.7500   2000.0000   1990.0000     13.0342    121.4112
  1266.0000   2000.0000   1990.0000     12.6649    123.6181
  1266.2500   2000.0000   1990.0000     12.3693    125.0040
  1266.5000   2000.0000   1990.0000     12.1283    126.7173
  1266.7500   2000.0000   1990.0000     11.9230    127.8955
  1267.0000   2000.0000   1990.0000     11.7438    130.2891
  1267.2500   2000.0000   1990.0000     11.5932    132.1867
  1267.5000   2000.0000   1990.0000     11.4825    134.5912
  1267.7500   2000.0000   1990.0000     11.4257    135.5302
  1268.0000   2000.0000   1990.0000     11.4335    136.1667
  1268.2500   2000.0000   1990.0000     11.5116    136.3691
  1268.5000   2000.0000   1990.0000     11.6609    136.2245
  1268.7500   2000.0000   1990.0000     11.8789    135.3823
  1269.0000   2000.0000   1990.0000     12.1588    132.2665
  1269.2500   2000.0000   1990.0000     12.4878    128.8052
  1269.5000   2000.0000   1990.0000     12.8473    121.7319
  1269.7500   2000.0000   1990.0000     13.2176    116.1838
  1270.0000   2000.0000   1990.0000     13.5852    108.2762
  1270.2500   2000.0000   1990.0000     13.9459    104.7564
  1270.5000   2000.0000   1990.0000     14.3020    104.2373
  1270.7500   2000.0000   1990.0000     14.6553    107.2294
  1271.0000   2000.0000   1990.0000     15.0017    114.8828
  1271.2500   2000.0000   1990.0000     15.3284    120.4352
  1271.5000   2000.0000   1990.0000     15.6163    127.1613
  1271.7500   2000.0000   1990.0000     15.8459    130.0715
  1272.0000   2000.0000   1990.0000     16.0031    132.5242
  1272.2500   2000.0000   1990.0000     16.0859    133.4428
  1272.5000   2000.0000   1990.0000     16.1084    134.1929
  1272.7500   2000.0000   1990.0000     16.1028    134.0312
  1273.0000   2000.0000   1990.0000     16.1143    132.1641
  1273.2500   2000.0000   1990.0000     16.1901    129.8944
  1273.5000   2000.0000   1990.0000     16.3662    126.1085
  1273.7500   2000.0000   1990.0000     16.6593    124.2602
  1274.0000   2000.0000   1990.0000     17.0648    123.5894
  1274.2500   2000.0000   1990.0000     17.5614    124.5726
  1274.5000   2000.0000   1990.0000     18.1158    127.1721
  1274.7500   2000.0000   1990.0000     18.6873    128.7361
  1275.0000   2000.0000   1990.0000     19.2327    129.5223
  1275.2500   2000.0000   1990.0000     19.7160    128.7024
  1275.5000   2000.0000   1990.0000     20.1232    125.6904
  1275.7500   2000.0000   1990.0000     20.4719    122.8163
  1276.0000   2000.0000   1990.0000     20.8062    117.6268
  1276.2500   2000.0000   1990.0000     21.1768    113.7630
  1276.5000   2000.0000   1990.0000     21.6189    108.0385
  1276.7500   2000.0000   1990.0000     22.1397    104.9373
  1277.0000   2000.0000   1990.0000     22.7184    102.2677
  1277.2500   2000.0000   1990.0000     23.3204    101.7203
  1277.5000   2000.0000   1990.0000     23.9131    101.4637
  1277.7500   2000.0000   1990.0000     24.4774    100.7389
  1278.0000   2000.0000   1990.0000     25.0071     97.9840
  1278.2500   2000.0000   1990.0000     25.5027     95.2376
  1278.5000   2000.0000   1990.0000     25.9652     91.0212
  1278.7500   2000.0000   1990.0000     26.3940     89.0779
  1279.0000   2000.0000   1990.0000     26.7857     88.6686
  1279.2500   2000.0000   1990.0000     27.1323     90.1170
  1279.5000   2000.0000   1990.0000     27.4203     93.5214
  1279.7500   2000.0000   1990.0000     27.6332     95.4180
  1280.0000   2000.0000   1990.0000     27.7613     96.3869
  1280.2500   2000.0000   1990.0000     27.8162     95.8087
  1280.5000   2000.0000   1990.0000     27.8384     94.0179
  1280.7500   2000.0000   1990.0000     27.8921     92.7732
  1281.0000   2000.0000   1990.0000     28.0466     91.2267
  1281.2500   2000.0000   1990.0000     28.3549     90.1876
  1281.5000   2000.0000   1990.0000     28.8370     87.8137
  1281.7500   2000.0000   1990.0000     29.4718     85.3711
  1282.0000   2000.0000   1990.0000     30.2002     80.6286
  1282.2500   2000.0000   1990.0000     30.9415     77.2627
  1282.5000   2000.0000   1990.0000     31.6196     72.8930
  1282.7500   2000.0000   1990.0000     32.1910     70.7588
  1283.0000   2000.0000   1990.0000     32.6565     68.6685
  1283.2500   2000.0000   1990.0000     33.0485     67.7460
  1283.5000   2000.0000   1990.0000     33.4021     66.5560
  1283.7500   2000.0000   1990.0000     33.7273     65.7387
  1284.0000   2000.0000   1990.0000     33.9967     64.6647
  1284.2500   2000.0000   1990.0000     34.1560     64.3130
  1284.5000   2000.0000   1990.0000     34.1529     64.5358
  1284.7500   2000.0000   1990.0000     33.9691     65.0047
  1285.0000   2000.0000   1990.0000     33.6320     65.5986
  1285.2500   2000.0000   1990.0000     33.2013     65.7027
  1285.5000   2000.0000   1990.0000     32.7387     65.6603
  1285.7500   2000.0000   1990.0000     32.2826     65.9226
  1286.0000   2000.0000   1990.0000     31.8428     67.2251
  1286.2500   2000.0000   1990.0000     31.4171     68.5210
  1286.5000   2000.0000   1990.0000     31.0166     70.3511
  1286.7500   2000.0000   1990.0000     30.6739     71.1688
  1287.0000   2000.0000   1990.0000     30.4232     71.6090
  1287.2500   2000.0000   1990.0000     30.2726     71.3808
  1287.5000   2000.0000   1990.0000     30.1930     70.4979
  1287.7500   2000.0000   1990.0000     30.1357     69.8628
  1288.0000   2000.0000   1990.0000     30.0632     69.2974
  1288.2500   2000.0000   1990.0000     29.9711     69.1782
  1288.5000   2000.0000   1990.0000     29.8848     69.0498
  1288.7500   2000.0000   1990.0000     29.8338     68.8088
  1289.0000   2000.0000   1990.0000     29.8268     68.0107
  1289.2500   2000.0000   1990.0000     29.8474     67.1419
  1289.5000   2000.0000   1990.0000     29.8756     65.6022
  1289.7500   2000.0000   1990.0000     29.9102     64.8076
  1290.0000   2000.0000   1990.0000     29.9673     64.4576
  1290.2500   2000.0000   1990.0000     30.0555     64.6166
  1290.5000   2000.0000   1990.0000     30.1567     64.6240
  1290.7500   2000.0000   1990.0000     30.2335     64.1821
  1291.0000   2000.0000   1990.0000     30.2539     63.0184
  1291.2500   2000.0000   1990.0000     30.2081     62.1893
  1291.5000   2000.0000   1990.0000     30.1007     61.3340
  1291.7500   2000.0000   1990.0000     29.9292     61.2570
