~Version Information
VERS.                      2.0: CWLS Log ASCII Standard - VERSION 2.0
WRAP.                       NO: One line per depth step
~Well Information Block
STRT.FT               670.0000: 
STOP.FT              2110.0000: 
STEP.FT                 0.2500: 
NULL.                -999.2500: 
COMP.          Petrogulf Corporation: COMPANY
WELL.           Montoya 12-44R: WELL
FLD.           Purgatorie River: FIELD
LOC.           713' FSL & 798' FEL: LOCATION
PROV.                 Colorado: PROVINCE
CNTY.               Las Animas: COUNTRY
SRVC.                Patterson: SERVICE COMPANY
DATE.          Sun Oct 02 01:06:45 2005: LOG DATE
UWI.           05-071-08538               : UNIQUE WELL ID
~Curve Information Block
DEPT.FT            0 000 00 00: Depth
SP.mV                         : DIL Spontaneous Potential
RILD.Ohm-m                    : DIL Deep Resistivity
RILM.Ohm-m                    : DIL Medium Resistivity
RLL3.Ohm-m                    : DIL Shallow Resistivity
GR.GAPI                       : Gamma Ray
~Parameter Information Block
~A  Depth        SP         RILD        RILM        RLL3         GR     
# ...
  1510.0000    200.0852     14.5612     15.3727     16.4562    125.0169
  1510.2500    200.4396     14.3477     15.6048     19.0812    125.1987
  1510.5000    200.8103     14.0027     15.7558     21.7708    123.8350
  1510.7500    201.2008     13.5759     15.7647     23.8995    122.1113
  1511.0000    201.5996     13.1211     15.5893     25.0334    119.2139
  1511.2500    201.9828     12.6836     15.2186     25.0221    117.5435
  1511.5000    202.3190     12.2927     14.6752     24.0103    115.9696
  1511.7500    202.5760     11.9606     14.0075     22.3181    115.7173
  1512.0000    202.7284     11.6868     13.2757     20.2535    116.4056
  1512.2500    202.7589     11.4651     12.5386     18.0296    117.3519
  1512.5000    202.6565     11.2896     11.8449     15.8288    119.6389
  1512.7500    202.4146     11.1579     11.2302     13.8629    122.2757
  1513.0000    202.0313     11.0707     10.7181     12.3149    128.6025
  1513.2500    201.5124     11.0288     10.3229     11.2430    134.0356
  1513.5000    200.8750     11.0315     10.0528     10.5791    142.2855
  1513.7500    200.1492     11.0745      9.9130     10.2302    146.9319
  1514.0000    199.3830     11.1515      9.9073     10.2115    151.9877
  1514.2500    198.6491     11.2564     10.0393     10.7857    153.9966
  1514.5000    198.0479     11.3871     10.3123     12.6227    154.5129
  1514.7500    197.6951     11.5480     10.7279     16.8497    152.7101
  1515.0000    197.6930     11.7503     11.2837     24.6263    146.2596
  1515.2500    198.0945     12.0091     11.9710     36.0194    139.6364
  1515.5000    198.8818     12.3415     12.7722     48.8231    127.1603
  1515.7500    199.9671     12.7643     13.6609     58.8083    117.8924
  1516.0000    201.2132     13.2927     14.6048     62.0765    104.6297
  1516.2500    202.4650     13.9383     15.5716     57.8392     98.0840
  1516.5000    203.5816     14.7036     16.5353     48.9369     94.7690
  1516.7500    204.4645     15.5740     17.4788     39.5870     97.3690
  1517.0000    205.0702     16.5091     18.3912     32.6625    106.3136
  1517.2500    205.4046     17.4381     19.2596     28.7701    113.5386
  1517.5000    205.5035     18.2670     20.0617     27.1182    123.1212
  1517.7500    205.4156     18.9024     20.7610     26.7334    127.4361
  1518.0000    205.1929     19.2864     21.3105     27.0561    129.9204
  1518.2500    204.8859     19.4204     21.6644     27.8915    129.4295
  1518.5000    204.5413     19.3602     21.7942     29.0619    127.6887
  1518.7500    204.1988     19.1893     21.7028     30.1012    126.9405
  1519.0000    203.8888     18.9886     21.4289     30.2942    126.5772
  1519.2500    203.6281     18.8186     21.0383     29.1078    126.3177
  1519.5000    203.4163     18.7137     20.6087     26.6415    125.7603
  1519.7500    203.2346     18.6844     20.2116     23.6547    126.0949
  1520.0000    203.0503     18.7217     19.9017     21.1683    129.6980
  1520.2500    202.8259     18.8046     19.7105     20.0117    134.7106
  1520.5000    202.5282     18.9088     19.6471     20.5755    144.6220
  1520.7500    202.1359     19.0160     19.7017     22.7145    150.6267
  1521.0000    201.6408     19.1200     19.8518     25.7212    154.7807
  1521.2500    201.0416     19.2277     20.0699     28.5083    153.3509
  1521.5000    200.3368     19.3544     20.3318     30.0935    146.7392
  1521.7500    199.5244     19.5173     20.6224     30.1074    141.6226
  1522.0000    198.6131     19.7287     20.9379     28.9128    135.8328
  1522.2500    197.6357     19.9925     21.2829     27.2969    133.4828
  1522.5000    196.6503     20.3039     21.6640     26.0433    131.2522
  1522.7500    195.7236     20.6513     22.0831     25.6255    130.4470
  1523.0000    194.9090     21.0189     22.5333     26.0726    131.0265
  1523.2500    194.2332     21.3895     22.9982     27.0121    132.7454
  1523.5000    193.6960     21.7470     23.4555     27.8939    135.6714
  1523.7500    193.2783     22.0792     23.8825     28.3082    136.1789
  1524.0000    192.9495     22.3779     24.2619     28.2218    132.9643
  1524.2500    192.6719     22.6366     24.5834     27.9663    128.7456
  1524.5000    192.4031     22.8467     24.8426     27.9658    122.7003
  1524.7500    192.0985     22.9956     25.0365     28.4052    120.7029
  1525.0000    191.7182     23.0687     25.1592     29.1145    121.0889
  1525.2500    191.2383     23.0565     25.1999     29.7455    122.3771
  1525.5000    190.6634     22.9626     25.1447     30.0577    123.8707
  1525.7500    190.0320     22.8072     24.9819     30.0776    124.3247
  1526.0000    189.4050     22.6238     24.7082     30.0181    124.8682
  1526.2500    188.8409     22.4480     24.3350     29.9948    125.5872
  1526.5000    188.3716     22.3054     23.8906     29.7766    127.3395
  1526.7500    187.9943     22.2074     23.4170     28.8990    128.4747
  1527.0000    187.6830     22.1550     22.9624     27.1450    128.8488
  1527.2500    187.4095     22.1468     22.5731     24.9056    127.9716
  1527.5000    187.1620     22.1818     22.2858     22.9761    126.2214
  1527.7500    186.9512     22.2556     22.1245     21.9737    125.9232
  1528.0000    186.8048     22.3558     22.1001     21.9571    127.8872
  1528.2500    186.7554     22.4615     22.2130     22.5471    130.7134
  1528.5000    186.8259     22.5536     22.4553     23.3457    136.4462
  1528.7500    187.0207     22.6269     22.8135     24.2696    140.7142
  1529.0000    187.3254     22.6966     23.2688     25.5816    146.4612
  1529.2500    187.7108     22.7904     23.7962     27.6568    148.7291
  1529.5000    188.1396     22.9317     24.3638     30.6484    148.1078
  1529.7500    188.5726     23.1241     24.9320     34.2323    145.1159
  1530.0000    188.9747     23.3486     25.4565     37.6044    139.3209
  1530.2500    189.3206     23.5720     25.8935     39.8251    136.4376
  1530.5000    189.5958     23.7638     26.2079     40.3594    134.7575
  1530.7500    189.7910     23.9105     26.3802     39.3872    134.5365
  1531.0000    189.8983     24.0188     26.4104     37.5836    132.9431
  1531.2500    189.9121     24.1070     26.3167     35.6003    130.0208
  1531.5000    189.8329     24.1920     26.1307     33.7497    123.1504
  1531.7500    189.6683     24.2800     25.8914     32.0599    118.2181
  1532.0000    189.4280     24.3670     25.6390     30.4662    113.2667
  1532.2500    189.1202     24.4437     25.4106     28.9362    112.8491
  1532.5000    188.7536     24.5030     25.2373     27.5314    116.7347
  1532.7500    188.3470     24.5463     25.1417     26.4297    121.3503
  1533.0000    187.9357     24.5855     25.1369     25.8665    128.8702
  1533.2500    187.5692     24.6407     25.2260     25.9950    133.1213
  1533.5000    187.2949     24.7303     25.4035     26.7642    137.4263
  1533.7500    187.1393     24.8631     25.6575     27.9163    138.8873
  1534.0000    187.0960     25.0362     25.9745     29.1165    139.4468
  1534.2500    187.1315     25.2417     26.3427     30.1347    139.2282
  1534.5000    187.2030     25.4748     26.7559     30.9623    138.9145
  1534.7500    187.2773     25.7390     27.2148     31.7776    138.9162
  1535.0000    187.3410     26.0451     27.7250     32.7606    138.5782
  1535.2500    187.3965     26.4047     28.2945     33.8949    137.3857
  1535.5000    187.4513     26.8219     28.9296     34.9567    133.5098
  1535.7500    187.5095     27.2879     29.6304     35.7362    129.8719
  1536.0000    187.5730     27.7790     30.3879     36.2617    123.7653
  1536.2500    187.6475     28.2615     31.1807     36.7862    119.4431
  1536.5000    187.7446     28.7007     31.9738     37.5984    112.5827
  1536.7500    187.8761     29.0707     32.7195     38.8912    108.0287
  1537.0000    188.0490     29.3577     33.3628     40.7216    101.9564
  1537.2500    188.2651     29.5600     33.8502     42.9281     98.5910
  1537.5000    188.5261     29.6829     34.1413     45.0271     94.5803
  1537.7500    188.8348     29.7337     34.2196     46.2927     92.7807
