~Version Information
VERS.                      2.0: CWLS Log ASCII Standard - VERSION 2.0
WRAP.                       NO: One line per depth step
~Well Information Block
STRT.FT               570.0000: 
STOP.FT              1954.5000: 
STEP.FT                 0.1000: 
NULL.                -999.2500: 
COMP.          Petrogulf Corporation: COMPANY
WELL.            Montoya 7-14R: WELL
FLD.           Purgatorie River: FIELD
LOC.           628' FSL & 454' FWL: LOCATION
PROV.                 Colorado: PROVINCE
CNTY.               Las Animas: COUNTRY
SRVC.                Patterson: SERVICE COMPANY
DATE.          Mon Oct 10 07:31:15 2005: LOG DATE
UWI.                          : UNIQUE WELL ID
~Curve Information Block
DEPT.FT            0 000 00 00: Depth
DCAL.in                       : CDL Caliper
RHOB.g/cc                     : CDL Bulk Density
RHOC.g/cc                     : CDL Density Correction
DPOR.pu                       : CDL Density Porosity
GR.GAPI                       : Gamma Ray
NPOR.pu                       : Neutron Porosity
~Parameter Information Block
~A  Depth       DCAL        RHOB        RHOC        DPOR         GR         NPOR    
# ...
  1299.6000      7.9158      2.5610      0.0522      5.3951    133.5777     25.9244
  1299.7000      7.9158      2.5668      0.0424      5.0441    137.2459     25.4494
  1299.8000      7.9042      2.5668      0.0608      5.0399    136.6340     25.0956
  1299.9000      7.9042      2.5636      0.0105      5.2347    135.6572     24.8641
  1300.0000      7.9214      2.5608      0.0555      5.4052    136.4071     24.4386
  1300.1000      7.9214      2.5555      0.0538      5.7297    136.1914     23.7178
  1300.2000      7.9214      2.5402      0.0254      6.6556    133.8417     22.9367
  1300.3000      7.9359      2.5124      0.0450      8.3402    131.5515     22.1696
  1300.4000      7.9359      2.4783      0.0561     10.4048    130.3417     21.7710
  1300.5000      7.9363      2.4504     -0.0109     12.0954    131.4426     22.2316
  1300.6000      7.9363      2.4228      0.0160     13.7670    134.5352     23.3737
  1300.7000      7.9363      2.3677      0.0327     17.1079    135.9408     24.4748
  1300.8000      7.9546      2.2790     -0.0039     22.4854    135.2859     25.0767
  1300.9000      7.9546      2.1911     -0.0209     27.8096    133.4443     25.5858
  1301.0000      8.0581      2.1318      0.0196     31.4077    130.2077     26.5590
  1301.1000      8.0581      2.0859      0.0693     34.1869    126.3115     27.7535
  1301.2000      8.0581      2.0390      0.0273     37.0322    121.9168     28.7083
  1301.3000      8.1626      2.0087      0.0393     38.8675    116.3484     29.3631
  1301.4000      8.1626      2.0050      0.0412     39.0884    110.0246     29.8644
  1301.5000      8.2075      2.0092      0.0926     38.8339    105.5286     30.2573
  1301.6000      8.2075      2.0018      0.1283     39.2843    105.6476     30.4000
  1301.7000      8.2075      1.9847      0.1262     40.3193    108.8848     30.3150
  1301.8000      8.1149      1.9692      0.1418     41.2583    112.7311     30.4185
  1301.9000      8.1149      1.9629      0.0370     41.6404    115.2228     30.8762
  1302.0000      8.1168      1.9689      0.0206     41.2816    114.0569     31.2656
  1302.1000      8.1168      1.9725      0.0460     41.0588    111.9301     31.3421
  1302.2000      8.1168      1.9595      0.0137     41.8504    111.2370     31.3312
  1302.3000      8.3027      1.9346      0.0715     43.3603    109.8486     31.4409
  1302.4000      8.3027      1.9054      0.0926     45.1277    107.6071     31.7636
  1302.5000      8.6209      1.8873      0.1318     46.2234    105.4306     32.2516
  1302.6000      8.6209      1.8984      0.2099     45.5489    102.8061     32.6426
  1302.7000      8.6209      1.9372      0.2677     43.2010    101.1608     32.8573
  1302.8000      8.8291      1.9921      0.3087     39.8713    101.1727     33.0187
  1302.9000      8.8291      2.0577      0.3189     35.8960    101.7923     33.0578
  1303.0000      8.6167      2.1264      0.3354     31.7322    102.5432     32.9440
  1303.1000      8.6167      2.1790      0.3539     28.5469    101.8820     33.0473
  1303.2000      8.6167      2.2026      0.3535     27.1178    100.1016     33.5396
  1303.3000      8.8015      2.2060      0.3398     26.9096     98.8275     34.0903
  1303.4000      8.8015      2.2031      0.3212     27.0871     98.6465     34.2624
  1303.5000      9.3697      2.1987      0.2770     27.3502    101.5289     33.8114
  1303.6000      9.3697      2.2026      0.1965     27.1152    108.9963     33.0064
  1303.7000      9.3697      2.2280      0.1968     25.5760    117.8303     32.4573
  1303.8000      9.5030      2.2746      0.2080     22.7529    122.6663     32.2784
  1303.9000      9.5030      2.3364      0.2543     19.0082    122.1268     32.0441
  1304.0000      8.9782      2.4093      0.3139     14.5908    118.3960     31.6082
  1304.1000      8.9782      2.4793      0.3838     10.3481    116.3146     31.2107
  1304.2000      8.9782      2.5251      0.3952      7.5711    119.7760     30.9478
  1304.3000      8.3148      2.5454      0.3214      6.3404    126.4414     30.4979
  1304.4000      8.3148      2.5623      0.2641      5.3133    131.7990     29.7168
  1304.5000      8.0610      2.5790      0.2792      4.3028    134.9723     29.0710
  1304.6000      8.0610      2.5759      0.2266      4.4917    137.3380     28.6262
  1304.7000      8.0610      2.5586      0.1665      5.5410    139.6848     28.0576
  1304.8000      7.9651      2.5464      0.2018      6.2806    141.3374     27.5471
  1304.9000      7.9651      2.5350      0.2093      6.9697    143.9837     27.4328
  1305.0000      7.9581      2.5162      0.1620      8.1112    147.9866     27.7570
  1305.1000      7.9581      2.4917      0.1132      9.5914    146.6735     28.2211
  1305.2000      7.9581      2.4592      0.0867     11.5622    136.3541     28.5087
  1305.3000      7.9734      2.4146      0.0565     14.2639    125.5608     28.7036
  1305.4000      7.9734      2.3689      0.0087     17.0356    124.2294     28.9187
  1305.5000      7.9871      2.3403      0.0722     18.7690    131.3253     29.0932
  1305.6000      7.9871      2.3291      0.0934     19.4477    139.4562     29.3788
  1305.7000      7.9871      2.3245      0.1181     19.7284    141.7971     29.8036
  1305.8000      8.0343      2.3228      0.1405     19.8310    137.0089     30.1401
  1305.9000      8.0343      2.3208      0.1535     19.9520    130.2733     30.2855
  1306.0000      8.0282      2.3083      0.1781     20.7094    126.2265     30.1614
  1306.1000      8.0282      2.2866      0.1414     22.0268    125.5105     29.7706
  1306.2000      8.0282      2.2763      0.1489     22.6513    127.1665     29.4509
  1306.3000      8.0430      2.2945      0.1047     21.5446    130.2265     29.5121
  1306.4000      8.0430      2.3329      0.1738     19.2170    132.9854     29.8269
  1306.5000      8.0194      2.3606      0.1372     17.5377    134.6391     30.0006
  1306.6000      8.0194      2.3679      0.0268     17.0985    136.3448     29.8468
  1306.7000      8.0194      2.3735      0.0951     16.7554    137.2342     29.5270
  1306.8000      8.0210      2.3846      0.0907     16.0837    135.4794     29.1603
  1306.9000      8.0210      2.3983      0.0707     15.2546    131.6391     28.7832
  1307.0000      7.9761      2.4147      0.0690     14.2618    126.4567     28.5628
  1307.1000      7.9761      2.4385      0.0375     12.8181    121.3910     28.4647
  1307.2000      7.9761      2.4782      0.0378     10.4108    120.1816     27.9945
  1307.3000      7.9556      2.5270      0.0748      7.4517    122.2916     26.9553
  1307.4000      7.9556      2.5591      0.1106      5.5099    123.9524     26.0259
  1307.5000      7.9434      2.5626      0.0986      5.2949    124.9222     25.8114
  1307.6000      7.9434      2.5546      0.1035      5.7801    125.9803     25.9938
  1307.7000      7.9434      2.5478      0.1523      6.1938    126.5790     25.9805
  1307.8000      7.8656      2.5408      0.0514      6.6175    125.3061     25.6738
  1307.9000      7.8656      2.5366      0.0713      6.8721    122.3982     25.3450
  1308.0000      7.8378      2.5426      0.0415      6.5092    120.7757     24.9173
  1308.1000      7.8378      2.5684      0.0614      4.9444    121.6319     24.0665
  1308.2000      7.8378      2.6072      0.1282      2.5939    122.0101     22.8095
  1308.3000      7.8265      2.6367      0.0967      0.8070    118.8296     21.6159
  1308.4000      7.8265      2.6461      0.1199      0.2351    114.3671     21.0006
  1308.5000      7.8144      2.6421      0.1029      0.4815    114.9184     20.9084
  1308.6000      7.8144      2.6282      0.1558      1.3195    122.7376     20.9016
  1308.7000      7.8144      2.6032      0.1104      2.8336    134.4060     20.9043
  1308.8000      7.8362      2.5872      0.0446      3.8045    143.4579     21.2259
  1308.9000      7.8362      2.5955      0.0739      3.3046    145.0754     22.0409
  1309.0000      7.8951      2.6045      0.0997      2.7553    142.3676     23.0144
  1309.1000      7.8951      2.5909      0.0225      3.5842    140.1120     23.6313
