~Version Information
VERS.                      2.0: CWLS Log ASCII Standard - VERSION 2.0
WRAP.                       NO: One line per depth step
~Well Information Block
STRT.FT               440.0000: 
STOP.FT              1702.7000: 
STEP.FT                 0.1000: 
NULL.                -999.2500: 
COMP.          Pioneer Natural Resources: COMPANY
WELL.          Culver 14-12 Tr: WELL
FLD.           Purgatoire River: FIELD
LOC.           915' FSL & 1048' FWL--: LOCATION
STAT.                 Colorado: State
CNTY.               Las Animas: COUNTY
CTRY. USA : Country
SECT. 12 : Section
TOWN. 32S : Township
RANG. 66W : Range
SRVC.                Patterson: SERVICE COMPANY
DATE.          Wed Sep 28 10:00:59 2005: LOG DATE
API.           05 071 08520 00: UNIQUE WELL ID
~Curve Information Block
DEPT.FT            0 000 00 00: Depth
DCAL.in                       : CDL Caliper
RHOB.g/cc                     : CDL Bulk Density
RHOC.g/cc                     : CDL Density Correction
DPOR.pu                       : CDL Density Porosity
NPOR.pu                       : Neutron Porosity
GR.GAPI                       : Gamma Ray
~Parameter Information Block
~A  Depth       DCAL        RHOB        RHOC        DPOR        NPOR         GR     
# ...
  1668.8000      7.9017      2.5527      0.0607      5.8988     27.3997    139.9102
  1668.9000      7.9017      2.5892      0.0950      3.6837     27.8173    145.7126
  1669.0000      7.8941      2.5976      0.0667      3.1760     27.7927    152.3730
  1669.1000      7.8941      2.5884      0.0257      3.7327     28.0005    158.7399
  1669.2000      7.8941      2.5840      0.0694      3.9991     28.3916    160.6875
  1669.3000      7.9026      2.5864      0.0872      3.8524     28.1970    156.4085
  1669.4000      7.9026      2.5891      0.0675      3.6924     27.3594    149.8022
  1669.5000      7.9001      2.5873      0.0460      3.7971     26.8429    147.4555
  1669.6000      7.9001      2.5817      0.0429      4.1405     27.0581    150.7859
  1669.7000      7.9001      2.5809      0.0512      4.1874     27.6264    155.2540
  1669.8000      7.8868      2.5838      0.0573      4.0115     28.1243    159.8506
  1669.9000      7.8868      2.5795      0.0549      4.2737     28.2493    166.3830
  1670.0000      7.8751      2.5683      0.0417      4.9526     27.9971    171.9050
  1670.1000      7.8751      2.5612      0.0471      5.3829     27.7246    173.3827
  1670.2000      7.8751      2.5654      0.0547      5.1253     27.4905    170.2150
  1670.3000      7.8644      2.5842      0.0610      3.9880     26.9345    159.6050
  1670.4000      7.8644      2.6108      0.1019      2.3771     26.2065    134.9959
  1670.5000      7.8541      2.6203      0.1124      1.7997     25.8771     92.6042
  1670.6000      7.8541      2.6068      0.0462      2.6186     25.8881     45.0872
  1670.7000      7.8541      2.5921      0.0513      3.5072     25.9542     13.8661
  1670.8000      7.8477      2.5835      0.0339      4.0289     26.2616      2.4887
  1670.9000      7.8477      2.5731      0.0415      4.6606     26.8577      0.2484
  1671.0000      7.8434      2.5677      0.0088      4.9849     27.5166      0.0130
  1671.1000      7.8434      2.5790      0.0537      4.3047     28.0225      0.0000
  1671.2000      7.8434      2.5969      0.0816      3.2159     28.3043   -999.2500
  1671.3000      7.8412      2.6073      0.0662      2.5852     28.3938   -999.2500
  1671.4000      7.8412      2.6075      0.0579      2.5785     28.2660   -999.2500
  1671.5000      7.8501      2.5956      0.0852      3.2997     27.8706   -999.2500
  1671.6000      7.8501      2.5782      0.0458      4.3498     27.3368   -999.2500
  1671.7000      7.8501      2.5716      0.0365      4.7531     26.9254   -999.2500
  1671.8000      7.8659      2.5732      0.0995      4.6541     26.8507   -999.2500
  1671.9000      7.8659      2.5698      0.0495      4.8621     26.9118   -999.2500
  1672.0000      7.8615      2.5632      0.0885      5.2576     26.8624   -999.2500
  1672.1000      7.8615      2.5600      0.0379      5.4543     26.7512   -999.2500
  1672.2000      7.8615      2.5632      0.0335      5.2631     26.6015   -999.2500
  1672.3000      7.8329      2.5771     -0.0010      4.4186     26.2299   -999.2500
  1672.4000      7.8329      2.6065      0.0382      2.6343     25.4835   -999.2500
  1672.5000      7.8052      2.6439      0.0820      0.3707     24.9184   -999.2500
  1672.6000      7.8052      2.6695      0.1214     -1.1803     25.0128   -999.2500
  1672.7000      7.8052      2.6720      0.0976     -1.3335     25.1474   -999.2500
  1672.8000      7.7872      2.6547      0.1111     -0.2824     24.6814   -999.2500
  1672.9000      7.7872      2.6246      0.1017      1.5392     24.0343   -999.2500
  1673.0000      7.7713      2.5977      0.0495      3.1698     23.7960   -999.2500
  1673.1000      7.7713      2.5850      0.0557      3.9382     23.6498   -999.2500
  1673.2000      7.7713      2.5759      0.0218      4.4894     23.1418   -999.2500
  1673.3000      7.7603      2.5659     -0.0123      5.0962     22.5680   -999.2500
  1673.4000      7.7603      2.5596      0.0187      5.4795     22.4286   -999.2500
  1673.5000      7.7682      2.5501      0.0329      6.0533     22.6819   -999.2500
  1673.6000      7.7682      2.5361     -0.0086      6.9007     22.9199   -999.2500
  1673.7000      7.7682      2.5291      0.0125      7.3283     22.9080   -999.2500
  1673.8000      7.7874      2.5285      0.0002      7.3653     22.7641   -999.2500
  1673.9000      7.7874      2.5313     -0.0284      7.1968     22.7486   -999.2500
  1674.0000      7.7984      2.5420      0.0076      6.5463     22.9247   -999.2500
  1674.1000      7.7984      2.5507      0.0503      6.0189     22.9852   -999.2500
  1674.2000      7.7984      2.5407      0.0381      6.6254     22.7856   -999.2500
  1674.3000      7.8014      2.5180      0.0331      8.0024     22.5551   -999.2500
  1674.4000      7.8014      2.5032      0.0129      8.8987     22.3788   -999.2500
  1674.5000      7.8014      2.4987      0.0502      9.1670     22.1843   -999.2500
  1674.6000      7.8014      2.4929      0.0048      9.5195     21.9206   -999.2500
  1674.7000      7.8014      2.4910      0.0296      9.6389     21.8803   -999.2500
  1674.8000      7.7999      2.5004      0.0240      9.0670     22.4311   -999.2500
  1674.9000      7.7999      2.5119      0.0612      8.3715     23.3127   -999.2500
  1675.0000      7.7950      2.5152      0.0411      8.1715     23.8782   -999.2500
  1675.1000      7.7950      2.5142      0.0569      8.2330     23.8905   -999.2500
  1675.2000      7.7950      2.5186      0.0505      7.9610     23.6686   -999.2500
  1675.3000      7.7908      2.5319      0.0787      7.1589     23.3490   -999.2500
  1675.4000      7.7908      2.5471      0.0680      6.2380     22.7745   -999.2500
  1675.5000      7.7948      2.5553      0.0900      5.7377     22.2841   -999.2500
  1675.6000      7.7948      2.5536      0.0797      5.8406     22.1304   -999.2500
  1675.7000      7.7948      2.5479      0.0519      6.1883     22.0246   -999.2500
  1675.8000      7.8010      2.5409      0.0684      6.6114     21.8842   -999.2500
  1675.9000      7.8010      2.5267      0.0675      7.4715     23.3371   -999.2500
  1676.0000      7.8020      2.5064      0.0757      8.7060     29.7717   -999.2500
  1676.1000      7.8020      2.4873      0.0578      9.8630     40.4136   -999.2500
  1676.2000      7.8020      2.4700      0.0439     10.9068     48.2623   -999.2500
  1676.3000      7.8008      2.4551      0.0006     11.8092     51.1298   -999.2500
  1676.4000      7.8008      2.4530      0.0100     11.9366     51.6952   -999.2500
  1676.5000      7.8016      2.4657      0.0401     11.1698     51.7553   -999.2500
  1676.6000      7.8016      2.4803      0.0156     10.2835     51.7587   -999.2500
  1676.7000      7.8016      2.4888      0.0247      9.7674   -999.2500   -999.2500
  1676.8000      7.8029      2.4893      0.0635      9.7400   -999.2500   -999.2500
  1676.9000      7.8029      2.4852      0.0145      9.9852   -999.2500   -999.2500
  1677.0000      7.8015      2.4861      0.0520      9.9319   -999.2500   -999.2500
  1677.1000      7.8015      2.4898      0.0629      9.7069   -999.2500   -999.2500
  1677.2000      7.8015      2.4876      0.0342      9.8404   -999.2500   -999.2500
  1677.3000      7.7968      2.4802      0.0399     10.2930   -999.2500   -999.2500
  1677.4000      7.7968      2.4723      0.0257     10.7717   -999.2500   -999.2500
  1677.5000      7.7837      2.4604      0.0473     11.4890   -999.2500   -999.2500
  1677.6000      7.7837      2.4423      0.0223     12.5882   -999.2500   -999.2500
  1677.7000      7.7837      2.4320      0.0172     13.2148   -999.2500   -999.2500
  1677.8000      7.7622      2.4421      0.0276     12.6005   -999.2500   -999.2500
  1677.9000      7.7622      2.4628      0.0592     11.3476   -999.2500   -999.2500
  1678.0000      7.7472      2.4721      0.0556     10.7809   -999.2500   -999.2500
  1678.1000      7.7472      2.4671      0.0308     11.0838   -999.2500   -999.2500
  1678.2000      7.7472      2.4671      0.0329     11.0841   -999.2500   -999.2500
  1678.3000      7.7376      2.4812      0.0776     10.2294   -999.2500   -999.2500
