~Version Information
VERS.                      2.0: CWLS Log ASCII Standard - VERSION 2.0
WRAP.                       NO: One line per depth step
~Well Information Block
STRT.FT                 0.0000: 
STOP.FT              2792.7500: 
STEP.FT                 0.2500: 
NULL.                -999.2500: 
COMP.          Pioneer Natural Resources: COMPANY
WELL.          Black Cat 13-32: WELL
FLD.           Purgatorie River: FIELD
LOC.           1865' FSL & 1120' FWL: LOCATION
PROV.                 Colorado: PROVINCE
CNTY.               Las Animas: COUNTRY
SRVC.                Patterson: SERVICE COMPANY
DATE.          Fri Aug 19 09:19:21 2005: LOG DATE
UWI.                          : UNIQUE WELL ID
~Curve Information Block
DEPT.FT            0 000 00 00: Depth
CCL.                          : Casing Collar Locator
TT3.usec                      : CBL 3' Travel Time
AMP3.mV                       : CBL 3' Amplitude
GR.GAPI                       : Gamma Ray
~Parameter Information Block
~A  Depth       CCL         TT3         AMP3         GR     
# ...
  1842.5000      0.0000    642.0345      4.4245     91.5152
  1842.7500      0.0000    648.0790      4.5131     98.3329
  1843.0000      0.0000    650.7880      4.5445    107.4977
  1843.2500      0.0000    647.8683      4.4940    117.3456
  1843.5000      0.0000    640.9691      4.4275    126.1085
  1843.7500      0.0000    632.9268      4.3982    132.6701
  1844.0000      0.0000    624.7778      4.4088    136.7833
  1844.2500      0.0000    617.1377      4.4414    138.7318
  1844.5000      0.0000    611.5648      4.4636    139.2044
  1844.7500      0.0000    608.6152      4.4430    139.0545
  1845.0000      0.0000    607.2548      4.3829    138.5145
  1845.2500      0.0000    606.6210      4.3183    136.8593
  1845.5000      0.0000    606.9758      4.2658    133.3764
  1845.7500      0.0000    610.0143      4.2112    128.6158
  1846.0000      0.0000    619.0341      4.1560    124.4773
  1846.2500      0.0000    636.0709      4.1259    123.0936
  1846.5000      0.0000    656.9969      4.1323    125.4053
  1846.7500      0.0000    673.6222      4.1671    130.4135
  1847.0000      0.0000    682.1172      4.2111    135.8380
  1847.2500      0.0000    684.8589      4.2318    139.7113
  1847.5000      0.0000    685.5637      4.2067    141.5029
  1847.7500      0.0000    686.8212      4.1568    142.0893
  1848.0000      0.0000    690.4267      4.1344    142.9888
  1848.2500      0.0000    696.5498      4.1829    145.3933
  1848.5000      0.0000    702.8422      4.3011    149.3839
  1848.7500      0.0000    706.9617      4.4297    153.7438
  1849.0000      0.0000    709.3248      4.5093    156.6867
  1849.2500      0.0000    711.7294      4.5434    157.0981
  1849.5000      0.0000    714.1132      4.5700    155.3150
  1849.7500      0.0000    714.2468      4.6101    152.7568
  1850.0000      0.0000    711.3414      4.6691    150.6850
  1850.2500      0.0000    706.4826      4.7327    149.2622
  1850.5000      0.0000    700.4660      4.7575    147.9723
  1850.7500      0.0000    694.6115      4.7130    146.7972
  1851.0000      0.0000    690.4631      4.6216    146.4341
  1851.2500      0.0000    687.9876      4.5407    147.2781
  1851.5000      0.0000    685.2529      4.5223    148.8728
  1851.7500      0.0000    678.8228      4.5758    150.6039
  1852.0000      0.0000    666.9594      4.6625    152.3230
  1852.2500      0.0000    655.5378      4.6995    154.0489
  1852.5000      0.0000    656.0933      4.5803    155.7160
  1852.7500      0.0000    673.1541      4.2940    157.3124
  1853.0000      0.0000    697.9626      3.9854    158.4851
  1853.2500      0.0000    717.0330      3.7942    157.8607
  1853.5000      0.0000    724.4545      3.7322    153.5308
  1853.7500     -2.0000    723.9786      3.7329    144.6925
  1854.0000      0.0000    719.3793      3.7266    132.6986
  1854.2500      2.0000    710.6334      3.6783    120.3182
  1854.5000      0.0000    699.3873      3.6111    109.9866
  1854.7500      0.0000    689.0046      3.6260    102.6666
  1855.0000      0.0000    679.4733      3.8252     98.0026
  1855.2500      0.0000    664.6235      4.1285     95.0678
  1855.5000      0.0000    636.6414      4.3283     92.9436
  1855.7500      0.0000    601.4456      4.4009     91.0350
  1856.0000      0.0000    582.4128      4.4874     89.2774
  1856.2500      0.0000    591.1866      4.6160     88.1377
  1856.5000      0.0000    607.6822      4.7070     88.3995
  1856.7500      0.0000    606.5116      4.7104     90.8763
  1857.0000      0.0000    579.0917      4.6258     96.1102
  1857.2500      0.0000    527.9890      4.4786    103.9341
  1857.5000      0.0000    468.1042      4.3056    113.0012
  1857.7500      0.0000    423.9468      4.1510    120.9122
  1858.0000      0.0000    411.0644      4.0481    125.4764
  1858.2500      0.0000    432.1051      3.9949    126.5124
  1858.5000      0.0000    482.4493      3.9716    126.4292
  1858.7500      0.0000    543.7360      3.9651    128.5145
  1859.0000      0.0000    590.0948      3.9649    134.2398
  1859.2500      0.0000    613.4390      3.9723    142.3229
  1859.5000      0.0000    626.3015      4.0031    150.3856
  1859.7500      0.0000    639.6268      4.0550    157.0608
  1860.0000      0.0000    652.8797      4.1042    162.2761
  1860.2500      0.0000    662.9867      4.1332    166.0202
  1860.5000      0.0000    669.5247      4.1359    167.7156
  1860.7500      0.0000    671.7958      4.1155    167.2123
  1861.0000      0.0000    670.2688      4.0868    165.8382
  1861.2500      0.0000    667.7448      4.0612    165.4591
  1861.5000      0.0000    665.5750      4.0376    166.4767
  1861.7500      0.0000    663.8458      4.0159    167.5628
  1862.0000      0.0000    663.8650      4.0028    167.4437
  1862.2500      0.0000    667.2829      4.0005    166.2702
  1862.5000      0.0000    673.8813      4.0058    165.0896
  1862.7500      0.0000    680.6756      4.0102    164.3626
  1863.0000      0.0000    684.8248      4.0008    163.2706
  1863.2500      0.0000    686.1932      3.9749    160.7270
  1863.5000      0.0000    686.3311      3.9467    157.1793
  1863.7500      0.0000    688.1890      3.9310    155.0328
  1864.0000      0.0000    695.4587      3.9218    156.6733
  1864.2500      0.0000    707.7462      3.8916    162.0318
  1864.5000      0.0000    719.2836      3.8208    168.4553
  1864.7500      0.0000    725.7752      3.7242    172.9835
  1865.0000      0.0000    727.9659      3.6404    174.4849
  1865.2500      0.0000    727.8506      3.6024    173.8394
  1865.5000      0.0000    725.2493      3.6162    172.7978
  1865.7500      0.0000    718.4282      3.6709    172.8749
  1866.0000      0.0000    708.8934      3.7725    174.7238
  1866.2500      0.0000    704.1959      3.9317    177.7269
  1866.5000      0.0000    709.3799      4.1143    179.8220
  1866.7500      0.0000    719.1586      4.2589    178.2745
  1867.0000      0.0000    726.0146      4.3414    171.6292
  1867.2500      0.0000    728.7216      4.3656    161.3049
  1867.5000      0.0000    729.4821      4.3262    150.8866
  1867.7500      0.0000    729.6643      4.2273    143.6032
  1868.0000      0.0000    729.4218      4.0953    140.5769
  1868.2500      0.0000    728.0582      3.9521    141.1302
  1868.5000      0.0000    723.9064      3.8152    143.9823
  1868.7500      0.0000    715.6791      3.7273    148.0967
  1869.0000      0.0000    705.1368      3.7342    152.7865
  1869.2500      0.0000    696.3671      3.8221    157.2516
  1869.5000      0.0000    691.5246      3.9232    160.2732
  1869.7500      0.0000    689.5617      3.9843    160.7996
  1870.0000      0.0000    688.7080      3.9973    158.9253
  1870.2500      0.0000    688.0751      3.9726    155.9494
  1870.5000      0.0000    687.4482      3.9206    153.3772
  1870.7500      0.0000    686.8601      3.8649    152.1991
  1871.0000      0.0000    686.4247      3.8387    152.9623
  1871.2500      0.0000    686.2264      3.8526    155.6867
  1871.5000      0.0000    686.2575      3.8863    159.3427
  1871.7500      0.0000    686.4292      3.9127    162.1304
  1872.0000      0.0000    686.6160      3.9210    162.9566
  1872.2500      0.0000    686.7112      3.9121    162.4275
  1872.5000      0.0000    686.5758      3.8810    162.0020
  1872.7500      0.0000    685.6915      3.8191    162.4489
  1873.0000      0.0000    683.0054      3.7325    163.5652
  1873.2500      0.0000    678.4590      3.6398    165.1398
  1873.5000      0.0000    675.5312      3.5544    167.1728
  1873.7500      0.0000    679.7879      3.4937    168.7916
  1874.0000      0.0000    692.3802      3.4952    167.6999
  1874.2500      0.0000    706.9750      3.5770    161.4795
  1874.5000      0.0000    715.6230      3.6921    149.6943
  1874.7500      0.0000    716.8084      3.7728    134.9131
  1875.0000      0.0000    715.6473      3.7974    121.6928
  1875.2500      0.0000    715.2941      3.7793    114.0528
  1875.5000      0.0000    711.7537      3.7302    113.2864
  1875.7500      0.0000    702.1530      3.6459    117.8167
