~Version Information
VERS.                      2.0: CWLS Log ASCII Standard - VERSION 2.0
WRAP.                       NO: One line per depth step
~Well Information Block
STRT.FT                -7.5000: 
STOP.FT              1310.7500: 
STEP.FT                 0.2500: 
NULL.                -999.2500: 
COMP.          Pioneer Natural Resources: COMPANY
WELL.          Challenger 31-29: WELL
FLD.           Purgatorie River: FIELD
LOC.           51' FNL & 1923' FEL------: LOCATION
STAT.                       CO: State
CNTY.               Las Animas: COUNTY
CTRY. USA : Country
SECT. 29 : Section
TOWN. 33S : Township
RANG. 65W : Range
SRVC.          Patterson Wireline: SERVICE COMPANY
DATE.          Wed Sep 21 12:11:38 2005: LOG DATE
API.           05 071 08514 00: UNIQUE WELL ID
~Curve Information Block
DEPT.FT            0 000 00 00: Depth
CCL.                          : Casing Collar Locator
TT3.usec                      : CBL 3' Travel Time
AMP3.mV                       : CBL 3' Amplitude
GR.GAPI                       : Gamma Ray
~Parameter Information Block
~A  Depth       CCL         TT3         AMP3         GR     
# ...
  1098.0000      0.0000    744.5950     13.4646     73.3869
  1098.2500      0.0000    732.0755     13.6465     76.1113
  1098.5000      0.0000    722.8963     13.8540     77.5521
  1098.7500      0.0000    717.6064     14.0666     79.5969
  1099.0000      0.0000    715.0392     14.2692     83.5793
  1099.2500      0.0000    713.8802     14.4486     88.9228
  1099.5000      0.0000    713.3731     14.5947     93.7804
  1099.7500      0.0000    713.0259     14.7122     96.8861
  1100.0000      0.0000    711.9236     14.8273     98.4082
  1100.2500      0.0000    708.0762     14.9753     98.8798
  1100.5000      0.0000    698.7386     15.1764     98.0399
  1100.7500      0.0000    682.5298     15.4236     95.5811
  1101.0000      0.0000    661.3450     15.6867     92.6111
  1101.2500      0.0000    638.3566     15.9270     91.3480
  1101.5000      0.0000    614.6030     16.1115     93.3657
  1101.7500      0.0000    591.8289     16.2144     98.5073
  1102.0000      0.0000    578.5510     16.2094    105.1262
  1102.2500      0.0000    585.9669     16.0744    110.9613
  1102.5000      0.0000    615.0089     15.8160    114.0866
  1102.7500      0.0000    652.8483     15.4818    113.5629
  1103.0000      0.0000    684.3088     15.1410    109.6127
  1103.2500      0.0000    703.0543     14.8479    103.5824
  1103.5000      0.0000    711.6623     14.6262     97.8175
  1103.7500      0.0000    715.5823     14.4802     94.8417
  1104.0000      0.0000    719.0923     14.4069     95.7974
  1104.2500      0.0000    724.2800     14.3950     99.4760
  1104.5000      0.0000    730.8449     14.4215    103.2102
  1104.7500      0.0000    736.3164     14.4542    105.0983
  1105.0000      0.0000    737.8900     14.4572    105.4033
  1105.2500      0.0000    735.1594     14.4024    105.6966
  1105.5000      0.0000    730.8478     14.2849    106.7787
  1105.7500      0.0000    728.3871     14.1255    107.7340
  1106.0000      0.0000    728.9883     13.9540    107.1588
  1106.2500      0.0000    731.1258     13.7915    104.9717
  1106.5000      0.0000    732.3620     13.6486    102.6081
  1106.7500      0.0000    731.3035     13.5341    101.4378
  1107.0000      0.0000    728.1566     13.4576    101.3777
  1107.2500      0.0000    724.2048     13.4221    101.2104
  1107.5000      0.0000    721.1731     13.4146     99.8026
  1107.7500      0.0000    720.6952     13.4026     96.5433
  1108.0000      0.0000    723.7415     13.3284     90.9880
  1108.2500      0.0000    729.9539     13.1082     82.8767
  1108.5000      0.0000    737.2438     12.6587     72.8226
  1108.7500      0.0000    742.4486     11.9696     62.6716
  1109.0000      0.0000    743.4996     11.1684     54.7358
  1109.2500      0.0000    741.6471     10.4701     50.4331
  1109.5000      0.0000    741.1462     10.0128     49.4726
  1109.7500      0.0000    745.0830      9.7670     50.0971
  1110.0000      0.0000    750.9110      9.6469     50.2034
  1110.2500      0.0000    752.4915      9.6502     48.7076
  1110.5000      0.0000    748.7122      9.8192     46.2265
  1110.7500     -2.0000    746.9215     10.1243     44.4250
  1111.0000      0.0000    753.1723     10.4705     44.6230
  1111.2500      0.0000    761.0427     10.8079     46.8509
  1111.5000      0.0000    754.3754     11.2158     49.8800
  1111.7500      0.0000    720.4230     11.8860     52.0821
  1112.0000      0.0000    659.8578     12.9786     52.6137
  1112.2500      0.0000    587.9186     14.4201     51.9747
  1112.5000      0.0000    526.5215     15.8703     51.2848
  1112.7500      0.0000    489.3908     16.9855     51.0398
  1113.0000      0.0000    471.1892     17.6999     50.8538
  1113.2500      0.0000    454.0872     18.1923     50.3278
  1113.5000      0.0000    426.8828     18.6314     49.7748
  1113.7500      0.0000    394.8076     19.0311     49.9249
  1114.0000      0.0000    370.6633     19.3119     51.0851
  1114.2500      0.0000    361.0581     19.4195     52.7971
  1114.5000      0.0000    362.8228     19.3732     54.4567
  1114.7500      0.0000    368.7655     19.2379     56.1545
  1115.0000      0.0000    373.6024     19.0787     58.6150
  1115.2500      0.0000    375.3940     18.9369     62.2053
  1115.5000      0.0000    373.9530     18.8319     66.1670
  1115.7500      0.0000    369.4319     18.7673     68.9809
  1116.0000      0.0000    362.3449     18.7321     69.5149
  1116.2500      0.0000    354.1645     18.7021     67.8578
  1116.5000      0.0000    347.1138     18.6481     65.0734
  1116.7500      0.0000    343.5474     18.5461     62.1521
  1117.0000      0.0000    346.1818     18.3780     59.1883
  1117.2500      0.0000    359.0777     18.1343     55.4910
  1117.5000      0.0000    387.0797     17.8288     50.5431
  1117.7500      0.0000    431.5380     17.5083     44.9552
  1118.0000      0.0000    485.4756     17.2365     40.3575
  1118.2500      0.0000    536.2534     17.0596     38.2488
  1118.5000      0.0000    576.4501     16.9826     39.0901
  1118.7500      0.0000    608.8072     16.9758     42.3816
  1119.0000      0.0000    635.8381     16.9986     47.1424
  1119.2500      0.0000    649.3254     17.0194     52.2643
  1119.5000      0.0000    638.6566     17.0166     56.8468
  1119.7500      0.0000    608.7913     16.9726     60.5302
  1120.0000      0.0000    582.1945     16.8774     63.3687
  1120.2500      0.0000    579.0944     16.7434     65.1347
  1120.5000      0.0000    597.5901     16.6088     64.8513
  1120.7500      0.0000    614.9619     16.5197     61.4939
  1121.0000      0.0000    607.3574     16.5026     55.4819
  1121.2500      0.0000    568.0767     16.5481     49.2862
  1121.5000      0.0000    510.1098     16.6183     46.1782
  1121.7500      0.0000    454.1993     16.6701     48.0380
  1122.0000      0.0000    414.5158     16.6744     53.9730
  1122.2500      0.0000    393.4963     16.6206     60.8564
  1122.5000      0.0000    387.1262     16.5152     65.4087
  1122.7500      0.0000    392.7838     16.3784     66.0794
  1123.0000      0.0000    411.9461     16.2410     63.4017
  1123.2500      0.0000    445.3458     16.1398     59.1918
  1123.5000      0.0000    484.8605     16.1160     55.4927
  1123.7500      0.0000    512.4177     16.2079     53.6484
  1124.0000      0.0000    512.0219     16.4302     53.8285
  1124.2500      0.0000    484.2087     16.7593     55.1599
  1124.5000      0.0000    445.7375     17.1405     56.0925
  1124.7500      0.0000    415.4720     17.5146     54.9797
  1125.0000      0.0000    403.6752     17.8461     51.2105
  1125.2500      0.0000    412.8900     18.1316     46.0569
  1125.5000      0.0000    441.7545     18.3867     41.8442
  1125.7500      0.0000    484.0653     18.6246     40.1211
  1126.0000      0.0000    527.8156     18.8451     40.9722
  1126.2500      0.0000    560.2864     19.0389     43.7443
  1126.5000      0.0000    574.1804     19.1916     47.6223
  1126.7500      0.0000    567.8265     19.2834     51.5760
  1127.0000      0.0000    544.1360     19.2925     54.6017
  1127.2500      0.0000    512.5920     19.2063     56.3913
  1127.5000      0.0000    486.1969     19.0260     57.5035
  1127.7500      0.0000    470.5739     18.7632     58.5930
  1128.0000      0.0000    459.5839     18.4312     59.4226
  1128.2500      0.0000    445.7499     18.0394     58.8450
  1128.5000      0.0000    431.9095     17.5956     56.0649
  1128.7500      0.0000    429.4198     17.1180     51.7982
  1129.0000      0.0000    446.7132     16.6448     47.8050
  1129.2500      0.0000    481.0443     16.2246     45.3521
  1129.5000      0.0000    520.2657     15.8886     44.4275
  1129.7500      0.0000    551.7377     15.6337     44.2771
  1130.0000      0.0000    568.2892     15.4335     44.3065
  1130.2500      0.0000    566.2986     15.2624     44.4206
  1130.5000      0.0000    544.5657     15.1069     44.6816
  1130.7500      0.0000    510.0751     14.9605     44.8013
  1131.0000      0.0000    479.4115     14.8171     44.1710
  1131.2500      0.0000    466.7677     14.6736     42.4474
