~Version Information
VERS.                      2.0: CWLS Log ASCII Standard - VERSION 2.0
WRAP.                       NO: One line per depth step
~Well Information Block
STRT.FT               310.0000: 
STOP.FT               815.0000: 
STEP.FT                 0.2500: 
NULL.                -999.2500: 
COMP.          Pioneer Natural Resources: COMPANY
WELL.           Weissach 32-32: WELL
FLD.           Purgatorie River: FIELD
LOC.           2193' FNL & 2256' FEL: LOCATION
STAT.                 Colorado: State
CNTY.               Las Animas: COUNTY
CTRY. USA : Country
SECT. 32 : Section
TOWN. 33S : Township
RANG. 65W : Range
SRVC.                Patterson: SERVICE COMPANY
DATE.          Mon Sep 26 09:20:51 2005: LOG DATE
API. 05-071-08523                         : UNIQUE WELL ID
~Curve Information Block
DEPT.FT            0 000 00 00: Depth
SN.Ohm-m                      : IEL Short Normal
SP.mV                         : IEL Spontaneous Potential
DIR.Ohm-m                     : IEL Induction Resistivity
GR.GAPI                       : Gamma Ray
~Parameter Information Block
~A  Depth        SN          SP         DIR          GR     
# ...
   410.5000     12.1433     66.6342     13.3195    109.1543
   410.7500     13.4864     66.9827     10.5452    115.4969
   411.0000     14.5129     66.7772     11.3265    120.4025
   411.2500     13.0588     66.9367     12.2672    109.1006
   411.5000     12.6858     67.5557      9.9282    117.5748
   411.7500     10.8097     67.5717      9.7690    116.4222
   412.0000      9.7460     67.0094      9.7950    134.7323
   412.2500     10.4686     65.7796      9.9199    121.9280
   412.5000     12.3315     65.0324     10.0154    105.0790
   412.7500     12.6457     64.7550     10.3641     98.8675
   413.0000     13.2636     63.8172     10.4025    106.2831
   413.2500     13.9263     62.3376     10.6020    125.6206
   413.5000     13.8639     61.5181     10.8084    138.1390
   413.7500     12.7675     61.1634     10.6045    121.3316
   414.0000     13.1706     61.2409     10.3286    152.8552
   414.2500     13.2138     61.3678     10.2729    142.6732
   414.5000     13.2247     62.2719     10.0697    148.8871
   414.7500     11.4378     63.7259      9.8971    122.7275
   415.0000     10.3322     65.4868      9.8230    114.8992
   415.2500      9.6623     65.6814      9.8800    110.4323
   415.5000     10.0447     66.4188     11.0208    124.4574
   415.7500     10.4630     67.2766     17.1689    125.5588
   416.0000     11.5255     68.2859     10.2596    109.6984
   416.2500     11.6313     69.4877      9.8285    122.1914
   416.5000     11.9279     70.1153     10.4505    136.6222
   416.7500     12.3057     71.0539     11.2503    120.0489
   417.0000     11.1736     71.0589      9.2270    132.9754
   417.2500     11.7567     70.4016      9.1268    137.5867
   417.5000     12.2833     70.2207      8.9958    130.6793
   417.7500     10.8315     70.0331      8.8439    141.0108
   418.0000     10.4308     69.5827      8.9173    106.3890
   418.2500     11.3437     69.1242      8.8542    101.2333
   418.5000     11.9785     68.7817      8.9726     99.0640
   418.7500     12.1870     68.8183      9.2145    114.8822
   419.0000     11.6841     68.6060      9.0927    117.2337
   419.2500     10.8203     68.3624      9.3120    126.5262
   419.5000      9.9245     68.0321      9.9391    107.6296
   419.7500     10.2092     67.5698     10.0429     98.2062
   420.0000     10.1920     67.4039      9.3933    111.2560
   420.2500      9.7525     67.4461      9.6778    110.8041
   420.5000      9.4783     67.6175     10.9822    114.5594
   420.7500      9.9019     67.8381     10.9035    117.4216
   421.0000     11.4968     68.2104     11.3875    111.2544
   421.2500     11.3032     68.8682     10.7065    100.7161
   421.5000     12.9365     69.5358     11.4852    119.5441
   421.7500     14.6597     68.9960     11.9784    105.7706
   422.0000     14.7540     69.0045     12.5687     78.2103
   422.2500     13.6649     69.6219     15.7838     86.6534
   422.5000     14.6325     69.6567     12.7788    104.3145
   422.7500     17.9894     69.7678     12.5838    101.2955
   423.0000     19.4417     70.2035     13.2181    125.7899
   423.2500     19.9016     70.1100     14.9053    121.3444
   423.5000     21.4210     70.2537     17.6754     83.6176
   423.7500     23.2018     70.5210     15.1830     90.0670
   424.0000     22.5024     70.6390     15.4416     76.5750
   424.2500     23.6145     70.8035     16.1815     84.0434
   424.5000     21.7705     71.0211     17.7581     93.6575
   424.7500     20.0791     71.4758     18.3718     84.2578
   425.0000     22.0032     72.3989     19.2598     70.2569
   425.2500     22.4731     73.7129     20.7229     85.1023
   425.5000     20.4709     74.2933     17.5484     90.7461
   425.7500     18.6800     74.5902     16.7807     96.7312
   426.0000     18.7103     75.4861     18.3817     92.5374
   426.2500     18.4487     76.8320     27.1214     79.0955
   426.5000     18.5883     77.7182     17.2838     79.9286
   426.7500     19.7653     77.9539     15.6834     97.3596
   427.0000     19.3126     78.0730     15.6047    103.6467
   427.2500     16.3947     79.1079     15.6413    105.1717
   427.5000     14.5366     79.4467     15.4266    123.5754
   427.7500     14.3277     79.8361     15.5304    108.1918
   428.0000     17.0106     80.5620     16.3846    108.2775
   428.2500     17.9770     80.9996     18.8490     95.9971
   428.5000     17.0927     81.7913     18.0311     80.2019
   428.7500     15.0487     82.6987     15.9118    103.4113
   429.0000     15.5221     83.8384     16.0443    112.4619
   429.2500     16.4105     84.9033     17.4563    105.9294
   429.5000     15.6987     85.7551     14.7427    114.6026
   429.7500     17.0305     86.3115     13.7934    103.2700
   430.0000     18.6250     87.4695     13.1188     89.2042
   430.2500     16.9276     89.0387     12.7075     85.6522
   430.5000     15.2503     90.2324     11.9145     69.1202
   430.7500     14.1072     92.0022     12.0470     90.1287
   431.0000     14.7601     92.7267     11.9417     83.2519
   431.2500     13.8909     92.9064     11.6414     90.0017
   431.5000     13.0635     93.3202     11.1929    108.0891
   431.7500     12.3350     93.9975     11.0163     89.6057
   432.0000     11.1676     94.4384     11.7962    104.4206
   432.2500     11.4717     94.0866     15.2836     93.2163
   432.5000     12.5099     94.3010     10.7167     97.2779
   432.7500     11.3558     94.6337     10.6921     87.3181
   433.0000     10.3547     95.0930      9.1682     91.9097
   433.2500     10.3285     95.6068      8.9489    112.3420
   433.5000      9.0562     96.3889      8.8277     99.1688
   433.7500      7.7849     97.2341      9.1438     79.6036
   434.0000      6.5947     98.6367     10.8588     87.3649
   434.2500      7.2726     98.8228      9.9351     74.8952
   434.5000      9.2775     99.5261      9.2424     90.4622
   434.7500     11.2100    100.5909      9.6826     86.2088
   435.0000     10.8699    102.1530     10.5710     81.3008
   435.2500     11.6592    103.0828     10.3216     85.5233
   435.5000     12.4928    104.4017     10.2338    116.4635
   435.7500     12.0517    105.7380     10.4732    105.1864
   436.0000     12.2717    107.0463     11.0650     99.6611
   436.2500     13.4721    108.7575     12.5634    110.5006
   436.5000     14.4522    110.1026     12.0378     90.7362
   436.7500     15.0796    111.2502     12.4838    100.9926
   437.0000     15.8362    112.2782     14.1496     90.5154
   437.2500     17.2681    113.4746     13.9329    109.4203
   437.5000     17.0277    114.9226     14.7831    139.4080
   437.7500     16.7568    116.8364     16.2478    113.5059
   438.0000     19.5982    118.2949     18.4655     92.5065
   438.2500     21.9760    118.4401     17.9745    112.3701
   438.5000     24.4640    119.0706     18.8737    102.2309
   438.7500     25.3247    119.0614     20.3452    111.1478
   439.0000     27.5172    119.2409     20.3493     81.1985
   439.2500     27.8823    119.3935     22.1790     78.6893
   439.5000     28.8240    120.2842     25.4119     73.7230
   439.7500     33.8242    121.7097     23.2015     73.7828
   440.0000     36.1406    122.7247     23.8278     78.9150
   440.2500     40.2611    123.8577     23.8873     56.2073
   440.5000     41.3262    125.2428     24.9637     52.2631
   440.7500     40.0759    125.9951     27.3744     60.9179
   441.0000     41.1056    125.7636     29.0937     63.5767
   441.2500     44.3416    125.6480     31.3479     71.2844
   441.5000     45.1295    125.6686     40.4237     95.0632
   441.7500     47.1036    125.8419     36.6039     96.4406
   442.0000     49.0721    126.3919     32.8441     78.0875
   442.2500     49.3304    125.8351     32.7781     66.3745
   442.5000     52.9085    125.8010     33.3656     76.1104
   442.7500     61.1554    126.5619     33.6682     81.8715
   443.0000     64.5555    126.4069     35.0915     68.2561
   443.2500     68.6414    126.4909     37.9535     75.0446
   443.5000     68.6867    126.6697     42.6043     53.7700
   443.7500     65.1162    127.0700     37.5813     49.6403
