~Version Information
VERS.                      2.0: CWLS Log ASCII Standard - VERSION 2.0
WRAP.                       NO: One line per depth step
~Well Information Block
STRT.FT               335.0000: 
STOP.FT              1154.7000: 
STEP.FT                 0.1000: 
NULL.                -999.2500: 
COMP.          Pioneer Natural Resources: COMPANY
WELL.             Croc 42-9 Tr: WELL
FLD.           Purgatoire River: FIELD
LOC.           2429' FNL & 315' FEL--: LOCATION
STAT.                 Colorado: State
CNTY.               Las Animas: COUNTY
CTRY. USA : Country
SECT. 9 : Section
TOWN. 32S : Township
RANG. 66W : Range
SRVC.                Patterson: SERVICE COMPANY
DATE.          Fri Oct 14 07:56:23 2005: LOG DATE
API.           05 071 08550 00: UNIQUE WELL ID
~Curve Information Block
DEPT.FT            0 000 00 00: Depth
DCAL.in                       : CDL Caliper
RHOB.g/cc                     : CDL Bulk Density
RHOC.g/cc                     : CDL Density Correction
DPOR.pu                       : CDL Density Porosity
NPOR.pu                       : Neutron Porosity
GR.GAPI                       : Gamma Ray
~Parameter Information Block
~A  Depth       DCAL        RHOB        RHOC        DPOR        NPOR         GR     
# ...
   699.8000      7.9635      2.6158      0.0657      2.0744     25.1094    149.0321
   699.9000      7.9635      2.6516      0.0358     -0.0949     25.7504    157.1338
   700.0000      7.9634      2.6827      0.0543     -1.9825     25.9064    152.9538
   700.1000      7.9634      2.7065      0.0843     -3.4225     25.4613    144.1139
   700.2000      7.9634      2.7180      0.0634     -4.1233     24.7124    136.7037
   700.3000      7.9633      2.7137      0.0913     -3.8600     24.0355    131.2283
   700.4000      7.9633      2.6920      0.0752     -2.5482     23.5068    125.6388
   700.5000      7.9621      2.6699     -0.0183     -1.2032     23.1052    117.8341
   700.6000      7.9621      2.6630      0.0154     -0.7874     22.9759    111.1095
   700.7000      7.9621      2.6601      0.0495     -0.6144     23.2174    109.9194
   700.8000      7.9614      2.6495     -0.0012      0.0330     23.4928    111.7649
   700.9000      7.9614      2.6336      0.0276      0.9935     23.3348    113.0465
   701.0000      7.9623      2.6181     -0.0251      1.9306     22.8098    115.6160
   701.1000      7.9623      2.6005      0.0119      2.9987     22.2252    118.9012
   701.2000      7.9623      2.5735      0.0407      4.6336     21.9551    119.7470
   701.3000      7.9639      2.5563     -0.0137      5.6788     22.1071    120.1008
   701.4000      7.9639      2.5757      0.0562      4.5008     22.0466    122.9862
   701.5000      7.9642      2.6214      0.0521      1.7331     21.7642    128.2473
   701.6000      7.9642      2.6578      0.1055     -0.4707     22.0742    134.2715
   701.7000      7.9642      2.6603      0.0787     -0.6235     22.7395    138.0110
   701.8000      7.9630      2.6393      0.0378      0.6475     22.4301    134.7737
   701.9000      7.9630      2.6221      0.0524      1.6910     21.1627    125.9157
   702.0000      7.9605      2.6206      0.0441      1.7812     20.0675    119.5996
   702.1000      7.9605      2.6307      0.0448      1.1708     19.8448    118.9855
   702.2000      7.9605      2.6372      0.0460      0.7754     20.1466    122.1965
   702.3000      7.9574      2.6252      0.0503      1.5019     19.9845    127.5870
   702.4000      7.9574      2.6011      0.0178      2.9634     19.1565    129.5470
   702.5000      7.9532      2.5879      0.0085      3.7653     18.8528    122.8883
   702.6000      7.9532      2.5955      0.0290      3.3041     19.6667    110.7776
   702.7000      7.9532      2.6093      0.0548      2.4668     20.4006    100.9180
   702.8000      7.9456      2.6119      0.0292      2.3116     20.4983    100.2334
   702.9000      7.9456      2.6042      0.0242      2.7784     20.4121    105.6175
   703.0000      7.9383      2.5947      0.0390      3.3541     20.7623    109.8504
   703.1000      7.9383      2.5831      0.0401      4.0562     21.1980    113.7184
   703.2000      7.9383      2.5671      0.0118      5.0239     20.9927    117.0283
   703.3000      7.9346      2.5554      0.0012      5.7319     20.4972    117.3014
   703.4000      7.9346      2.5570      0.0109      5.6383     20.2874    114.4156
   703.5000      7.9336      2.5702      0.0346      4.8361     20.2246    108.8498
   703.6000      7.9336      2.5915      0.0230      3.5439     20.0155    104.3078
   703.7000      7.9336      2.6177      0.0574      1.9603     19.8143    104.4208
   703.8000      7.9351      2.6396      0.0474      0.6318     20.0630    107.1991
   703.9000      7.9351      2.6479      0.0840      0.1274     20.5154    110.1203
   704.0000      7.9355      2.6459      0.0239      0.2492     20.7435    110.6772
   704.1000      7.9355      2.6423      0.0744      0.4688     20.8277    109.0335
   704.2000      7.9355      2.6341      0.0804      0.9634     20.9698    111.0107
   704.3000      7.9330      2.6190      0.0459      1.8761     21.1746    119.5909
   704.4000      7.9330      2.6015      0.0512      2.9422     21.3402    128.3726
   704.5000      7.9302      2.5853      0.0276      3.9222     21.3781    129.3925
   704.6000      7.9302      2.5748      0.0348      4.5579     21.4627    123.8245
   704.7000      7.9302      2.5747      0.0381      4.5619     21.8256    117.4082
   704.8000      7.9294      2.5855      0.0348      3.9072     22.1489    115.6436
   704.9000      7.9294      2.5956      0.0645      3.2974     22.1926    119.6066
   705.0000      7.9320      2.5935      0.0676      3.4216     22.1624    123.0137
   705.1000      7.9320      2.5836      0.0677      4.0256     22.0876    122.9270
   705.2000      7.9320      2.5788      0.0331      4.3136     22.0138    122.3231
   705.3000      7.9355      2.5840      0.0520      4.0004     21.9086    120.9190
   705.4000      7.9355      2.5889      0.0828      3.7028     21.7640    117.7004
   705.5000      7.9430      2.5893      0.0309      3.6804     21.6977    116.8035
   705.6000      7.9430      2.5944      0.0769      3.3710     21.5036    120.1469
   705.7000      7.9430      2.6003      0.0740      3.0132     21.1753    125.8014
   705.8000      7.9555      2.5903      0.0858      3.6192     21.2216    131.5084
   705.9000      7.9555      2.5683      0.0071      4.9533     21.7742    135.3319
   706.0000      7.9651      2.5572      0.0318      5.6271     22.2537    137.6788
   706.1000      7.9651      2.5627      0.0221      5.2892     22.3255    138.7013
   706.2000      7.9651      2.5691      0.0606      4.9053     22.1549    136.2526
   706.3000      7.9693      2.5692      0.0102      4.8947     22.0193    132.9628
   706.4000      7.9693      2.5731      0.0611      4.6633     22.0166    132.5774
   706.5000      7.9705      2.5790      0.0385      4.3055     21.9945    132.6734
   706.6000      7.9705      2.5799      0.0391      4.2497     21.9879    131.4525
   706.7000      7.9705      2.5783      0.0343      4.3438     22.1962    130.6494
   706.8000      7.9691      2.5802      0.0388      4.2306     22.5539    131.7072
   706.9000      7.9691      2.5885      0.0609      3.7291     22.6779    133.6313
   707.0000      7.9656      2.5984      0.0772      3.1248     22.4587    132.0684
   707.1000      7.9656      2.6045      0.0729      2.7592     22.0920    127.3986
   707.2000      7.9656      2.6053      0.0874      2.7121     21.7346    124.5598
   707.3000      7.9622      2.5994      0.0996      3.0644     21.6470    122.0377
   707.4000      7.9622      2.5970      0.0377      3.2099     21.6712    116.2115
   707.5000      7.9602      2.6104      0.0821      2.3974     21.4210    111.0878
   707.6000      7.9602      2.6246      0.0932      1.5375     21.1244    111.4558
   707.7000      7.9602      2.6207      0.0758      1.7761     21.0772    113.3424
   707.8000      7.9605      2.6052      0.0729      2.7172     21.0766    110.8795
   707.9000      7.9605      2.5933      0.0113      3.4355     20.9459    106.0152
   708.0000      7.9618      2.5879      0.0769      3.7636     20.7708    104.0723
   708.1000      7.9618      2.5867      0.0360      3.8346     20.6876    106.3634
   708.2000      7.9618      2.5888      0.1013      3.7087     20.9172    110.0564
   708.3000      7.9625      2.5871      0.0618      3.8108     21.4419    112.5794
   708.4000      7.9625      2.5898      0.0183      3.6470     21.8818    112.0528
   708.5000      7.9622      2.6062      0.0790      2.6559     22.0293    108.6608
   708.6000      7.9622      2.6205      0.1160      1.7904     22.1815    108.4856
   708.7000      7.9622      2.6193      0.1020      1.8609     22.5951    114.7600
   708.8000      7.9608      2.6096      0.0902      2.4458     23.1459    119.9757
   708.9000      7.9608      2.6066      0.0872      2.6326     23.6665    120.8529
   709.0000      7.9560      2.6165      0.1121      2.0288     24.0349    123.7429
   709.1000      7.9560      2.6256      0.1811      1.4782     24.1336    128.7990
   709.2000      7.9560      2.6124      0.1354      2.2772     24.0274    130.1273
   709.3000      7.9476      2.5803      0.0665      4.2268     23.7955    127.3993
