~Version Information
 VERS.                                  2.0 : CWLS LAS VERSION
 WRAP.                                   NO : WRAPING MODE
 SWARE .                 MController 2.5.0N : SOFTWARE VERSION
~Well Information
 WELL.                          Julie 11-30 : WELL
 COMP.       Pioneer Natural Resources, USA : COMPANY
 FLD.                       Purgatory River : FIELD
 LOC.                 NW/NW Sec30 T33S R65W : LOCATION
 DATE.                              4/13/06 : DATE(S) LOGGED
 SRVC.      Blanco Geological Services, LLC : SERVICE COMPANY
 STAT.                             Colorado : STATE
 CNTY.                           Las Animas : COUNTY
 CTRY.                                  USA : COUNTRY
 API.                       05-071-08724-00 : API NUMBER
 STRT.FT                             178.00 : START DEPTH
 STOP.FT                            1270.00 : STOP DEPTH
 STEP.FT                               1.00 : DEPTH INCREMENT
 NULL.                                -9999 : NULL VALUE
~Curve information
 DEPTH.FT                                   :
 ROP.MIN/FT                                 :
 GAS.UNITS                                  :
~ASCII Log data
# ...
       778.0         0.60         89.7 
       779.0         0.47         72.4 
       780.0         0.43         64.9 
       781.0         0.42         62.2 
       782.0         0.57         59.8 
       783.0         0.60         58.0 
       784.0         0.47         57.8 
       785.0         0.40         57.4 
       786.0         0.37         53.9 
       787.0         0.43         56.9 
       788.0         0.47         58.5 
       789.0         0.48         58.4 
       790.0         0.50         57.6 
       791.0         0.47         56.4 
       792.0         0.43         56.2 
       793.0         0.47         56.1 
       794.0         0.47         55.6 
       795.0         0.43         55.8 
       796.0         0.45         55.5 
       797.0         0.40         54.7 
       798.0         0.47         55.1 
       799.0         0.23         55.4 
       800.0         0.23         55.4 
       801.0         0.23         53.6 
       802.0         3.65        217.8 
       803.0         0.37        199.2 
       804.0         0.33        132.6 
       805.0         0.30        101.2 
       806.0         0.32         96.6 
       807.0         0.27         90.6 
       808.0         0.23         85.5 
       809.0         0.30         77.6 
       810.0         0.33         73.0 
       811.0         0.37         68.0 
       812.0         0.30         67.8 
       813.0         0.33         65.9 
       814.0         0.37         63.5 
       815.0         0.33         61.1 
       816.0         0.33         59.0 
       817.0         0.35         57.3 
       818.0         0.33         56.3 
       819.0         0.33         56.5 
       820.0         0.33         60.1 
       821.0         0.33         60.6 
       822.0         0.37         59.9 
       823.0         0.37         58.6 
       824.0         0.37         57.2 
       825.0         0.40         56.4 
       826.0         0.42         56.3 
       827.0         0.40         56.1 
       828.0         0.40         55.3 
       829.0         0.40         54.8 
       830.0         0.37         54.5 
       831.0         0.30         54.8 
       832.0         4.08        248.0 
       833.0         0.33        239.0 
       834.0         0.32        172.2 
       835.0         0.47        116.4 
       836.0         0.53        115.3 
       837.0         0.27        116.6 
       838.0         0.23        117.1 
       839.0         0.23        113.1 
       840.0         0.23        103.3 
       841.0         0.30         90.0 
       842.0         0.23         78.9 
       843.0         0.27         74.8 
       844.0         0.23         75.5 
       845.0         0.22         73.6 
       846.0         0.27         71.6 
       847.0         0.23         66.9 
       848.0         0.30         64.7 
       849.0         0.30         68.4 
       850.0         0.33         70.9 
       851.0         0.30         73.3 
       852.0         0.27         75.8 
       853.0         0.23         75.6 
       854.0         0.27         73.1 
       855.0         0.23         67.6 
       856.0         0.27         62.9 
       857.0         0.30         61.2 
       858.0         0.32         61.7 
       859.0         0.27         63.1 
       860.0         0.27         64.0 
       861.0         0.30         64.6 
       862.0         3.62        294.5 
       863.0         0.47        326.1 
       864.0         0.27        235.5 
       865.0         0.23        163.8 
       866.0         0.27        126.0 
       867.0         0.27        122.6 
       868.0         0.23        121.5 
       869.0         0.25        118.3 
       870.0         0.23        116.0 
       871.0         0.27        108.3 
       872.0         0.30         99.7 
       873.0         0.30         88.9 
       874.0         0.27         84.7 
       875.0         0.33         80.0 
       876.0         0.30         76.3 
       877.0         0.30         73.2 
       878.0         0.30         71.7 
       879.0         0.37         70.1 
       880.0         0.30         68.9 
       881.0         0.35         72.9 
       882.0         0.30         74.1 
       883.0         0.30         72.9 
       884.0         0.30         72.0 
       885.0         0.30         75.6 
       886.0         0.30         76.7 
       887.0         0.30         76.7 
       888.0         0.30         76.7 
       889.0         0.33         75.6 
       890.0         0.30         74.0 
       891.0         0.35         71.7 
       892.0         5.48       1237.6 
       893.0         0.43        440.0 
       894.0         0.30        169.3 
       895.0         0.20        171.1 
       896.0         0.32        175.8 
       897.0         0.30        172.1 
       898.0         0.30        172.6 
       899.0         0.30        174.1 
       900.0         0.30        171.6 
       901.0         0.33        162.9 
       902.0         0.37        150.4 
       903.0         0.30        142.0 
       904.0         0.33        134.3 
       905.0         0.33        126.9 
       906.0         0.33        119.2 
       907.0         0.35        114.5 
       908.0         0.33        113.2 
       909.0         0.33        111.2 
       910.0         0.33        109.3 
       911.0         0.33        108.2 
       912.0         0.33        107.1 
       913.0         0.33        104.0 
       914.0         0.37         98.8 
       915.0         0.33         96.9 
       916.0         0.35         96.8 
       917.0         0.33         97.0 
       918.0         0.37         96.4 
       919.0         0.33         95.0 
       920.0         0.40         95.0 
       921.0         0.40         93.3 
       922.0         3.85        184.5 
       923.0         0.50        178.0 
       924.0         0.30        133.6 
       925.0         0.35        143.5 
       926.0         0.27        143.2 
       927.0         0.33        135.4 
       928.0         0.30        138.5 
       929.0         0.37        143.3 
       930.0         0.33        142.7 
       931.0         0.30        146.9 
       932.0         0.30        148.9 
       933.0         0.27        145.3 
       934.0         0.27        135.0 
       935.0         0.20        124.1 
       936.0         0.23        106.1 
       937.0         0.38         93.5 
       938.0         0.37        113.3 
       939.0         0.30        152.2 
       940.0         0.37        158.7 
       941.0         0.30        158.0 
       942.0         0.30        151.4 
       943.0         0.23        139.2 
       944.0         0.20        128.5 
       945.0         0.27        124.1 
       946.0         0.23        114.5 
       947.0         0.20        105.7 
       948.0         0.17         99.6 
       949.0         0.28         94.8 
       950.0         0.33         90.6 
       951.0         0.33         97.8 
       952.0         3.52        184.8 
       953.0         0.60        198.5 
       954.0         0.40        149.9 
       955.0         0.40        158.9 
       956.0         0.30        156.4 
       957.0         0.23        144.7 
       958.0         0.23        146.9 
       959.0         0.22        149.0 
       960.0         0.30        147.3 
       961.0         0.37        130.6 
       962.0         0.30        115.8 
       963.0         0.27        116.5 
       964.0         0.23        115.0 
       965.0         0.20        106.6 
       966.0         0.20         96.0 
       967.0         0.23         88.9 
       968.0         0.20         80.9 
       969.0         0.27         78.9 
       970.0         0.30         88.0 
       971.0         0.30        113.8 
       972.0         0.25        141.9 
       973.0         0.27        171.7 
       974.0         0.43        180.6 
       975.0         0.27        158.1 
       976.0         0.33        142.5 
       977.0         0.27        149.3 
