~Version Information
VERS.                      2.0: CWLS Log ASCII Standard - VERSION 2.0
WRAP.                       NO: One line per depth step
~Well Information Block
STRT.FT               795.0000: 
STOP.FT              2276.0000: 
STEP.FT                 0.1000: 
NULL.                -999.2500: 
COMP.          Pioneer Natural Resources: COMPANY
WELL.            Wildcard 31-5: WELL
FLD.           Purgatoire River: FIELD
LOC.           624' FNL & 1852' FEL--: LOCATION
CNTY.               Las Animas: COUNTY
SRVC.                Patterson: SERVICE COMPANY
DATE.          Tue Mar 07 07:04:10 2006: LOG DATE
UWI.           05 071 08707 00: UNIQUE WELL ID
STAT.                 Colorado: STATE
~Curve Information Block
DEPT.FT            0 000 00 00: Depth
DCAL.in                       : CDL Caliper
DPOR.pu                       : CDL Density Porosity
NPOR.pu                       : Neutron Porosity
RHOB.g/cc                     : CDL Bulk Density
RHOC.g/cc                     : CDL Density Correction
GR.GAPI                       : Gamma Ray
~Parameter Information Block
~A  Depth       DCAL        DPOR        NPOR        RHOB        RHOC         GR     
# ...
  1284.6000      8.0234      4.4150     26.5362      2.5772      0.0420     91.8777
  1284.7000      8.0234      4.0038     26.0842      2.5839      0.0244     94.7572
  1284.8000      8.0192      3.9667     25.6012      2.5845      0.0361     91.3907
  1284.9000      8.0192      3.7379     25.3704      2.5883      0.0422     84.5931
  1285.0000      8.0181      2.8127     25.4027      2.6036      0.0582     78.7705
  1285.1000      8.0181      1.8256     25.5773      2.6199      0.1099     74.1644
  1285.2000      8.0181      1.6496     25.7389      2.6228      0.0331     71.3740
  1285.3000      8.0189      1.9969     25.8136      2.6171      0.0438     71.5718
  1285.4000      8.0189      2.2916     25.9169      2.6122      0.0220     72.7462
  1285.5000      8.0208      2.0420     26.0317      2.6163      0.0108     70.6910
  1285.6000      8.0208      1.2010     26.0317      2.6302      0.0454     64.5335
  1285.7000      8.0208      0.3598     25.8385      2.6441      0.0420     59.0422
  1285.8000      8.0232     -0.5750     25.3477      2.6595      0.0074     58.6807
  1285.9000      8.0232     -1.7436     24.9529      2.6788      0.0822     60.4459
  1286.0000      8.0272     -2.3456     25.1948      2.6887      0.0416     58.7985
  1286.1000      8.0272     -2.3776     25.6595      2.6892      0.0278     54.3585
  1286.2000      8.0272     -2.3954     25.6480      2.6895      0.0523     51.1909
  1286.3000      8.0311     -2.5006     25.2468      2.6913      0.0010     51.6266
  1286.4000      8.0311     -3.0385     25.1242      2.7001      0.0293     54.0238
  1286.5000      8.0326     -4.4925     25.5334      2.7241      0.0158     54.7076
  1286.6000      8.0326     -6.4162     25.9873      2.7559      0.0888     52.4614
  1286.7000      8.0326     -7.5761     26.0316      2.7750      0.0584     49.5517
  1286.8000      8.0320     -7.2378     25.7027      2.7694      0.0877     48.1509
  1286.9000      8.0320     -5.3418     25.5470      2.7381      0.0580     47.9767
  1287.0000      8.0282     -2.8421     25.8472      2.6969     -0.0150     49.5758
  1287.1000      8.0282     -1.4051     26.0938      2.6732     -0.0217     52.1492
  1287.2000      8.0282     -1.7716     25.7806      2.6792     -0.0065     53.1378
  1287.3000      8.0242     -2.8221     24.9905      2.6966      0.0535     53.6658
  1287.4000      8.0242     -3.3178     24.2279      2.7047      0.0211     53.4178
  1287.5000      8.0226     -3.6008     23.8827      2.7094     -0.0058     50.8693
  1287.6000      8.0226     -4.0480     24.1285      2.7168     -0.0210     48.7198
  1287.7000      8.0226     -4.1724     24.8249      2.7188      0.0333     48.0715
  1287.8000      8.0245     -3.4902     25.3809      2.7076      0.0425     48.1735
  1287.9000      8.0245     -2.1903     25.3544      2.6861     -0.0408     49.9732
  1288.0000      8.0286     -1.0781     25.0473      2.6678      0.0082     53.1357
  1288.1000      8.0286     -0.8750     25.0840      2.6644     -0.0630     54.5887
  1288.2000      8.0286     -2.0386     25.5155      2.6836     -0.0286     53.6959
  1288.3000      8.0362     -3.9132     25.7415      2.7146      0.0039     53.3578
  1288.4000      8.0362     -5.3692     25.4681      2.7386      0.0308     54.6136
  1288.5000      8.0457     -5.9945     25.1064      2.7489      0.0320     55.1144
  1288.6000      8.0457     -5.9550     24.9963      2.7483      0.0183     54.5217
  1288.7000      8.0457     -6.0680     25.2007      2.7501      0.0036     53.7857
  1288.8000      8.0507     -6.6721     25.5629      2.7601      0.0594     51.3580
  1288.9000      8.0507     -6.9773     25.7718      2.7651      0.0578     48.9177
  1289.0000      8.0505     -6.7674     25.7580      2.7617      0.0398     48.2069
  1289.1000      8.0505     -6.5206     25.7715      2.7576      0.0373     46.6518
  1289.2000      8.0505     -6.2388     25.9501      2.7529      0.0624     45.2138
  1289.3000      8.0477     -5.2383     26.0460      2.7364      0.0697     45.7529
  1289.4000      8.0477     -3.4707     26.0228      2.7073     -0.0163     46.1042
  1289.5000      8.0444     -1.9706     26.0870      2.6825      0.0106     44.9164
  1289.6000      8.0444     -1.1647     26.0801      2.6692     -0.0184     44.4050
  1289.7000      8.0444     -0.8450     25.9454      2.6639     -0.0312     46.2733
  1289.8000      8.0383     -1.0695     25.8913      2.6676     -0.0102     48.8619
  1289.9000      8.0383     -1.9273     25.7822      2.6818      0.0101     50.7396
  1290.0000      8.0342     -3.0224     25.5079      2.6999      0.0304     52.6082
  1290.1000      8.0342     -4.0370     25.3403      2.7166      0.0346     52.5396
  1290.2000      8.0342     -5.0571     25.4048      2.7334      0.0297     48.3478
  1290.3000      8.0350     -5.5939     25.5289      2.7423      0.0517     44.3999
  1290.4000      8.0350     -4.4292     25.6341      2.7231      0.0670     45.0100
  1290.5000      8.0364     -2.1526     25.7757      2.6855     -0.0334     47.4469
  1290.6000      8.0364     -1.1798     26.0750      2.6695     -0.0472     47.5878
  1290.7000      8.0364     -1.7449     26.4711      2.6788     -0.0035     45.9254
  1290.8000      8.0362     -2.0840     26.6319      2.6844     -0.0049     45.3810
  1290.9000      8.0362     -1.6964     26.6367      2.6780     -0.0203     46.3930
  1291.0000      8.0360     -1.1329     26.8353      2.6687     -0.0229     47.5734
  1291.1000      8.0360     -0.4562     26.9775      2.6575      0.0232     49.2152
  1291.2000      8.0360      0.2155     26.7416      2.6464     -0.0228     51.5418
  1291.3000      8.0362     -0.1429     26.3816      2.6524     -0.0610     54.5301
  1291.4000      8.0362     -1.8681     26.1499      2.6808      0.0081     57.5586
  1291.5000      8.0361     -3.7279     26.0526      2.7115      0.0238     57.6965
  1291.6000      8.0361     -5.1491     26.1443      2.7350      0.0343     52.9749
  1291.7000      8.0361     -6.4435     26.4589      2.7563      0.0475     46.5113
  1291.8000      8.0364     -6.9745     26.9222      2.7651      0.0657     43.6615
  1291.9000      8.0364     -5.9314     27.2279      2.7479      0.0523     44.7552
  1292.0000      8.0371     -4.5982     27.2338      2.7259     -0.0283     46.8198
  1292.1000      8.0371     -4.7518     27.1294      2.7284      0.0258     49.3740
  1292.2000      8.0371     -5.8794     26.9987      2.7470      0.0436     51.5095
  1292.3000      8.0373     -6.7319     26.8693      2.7611      0.0581     52.0938
  1292.4000      8.0373     -7.2542     26.7605      2.7697      0.0379     52.6492
  1292.5000      8.0360     -7.6119     26.7048      2.7756      0.0416     53.7676
  1292.6000      8.0360     -7.1651     26.7745      2.7682      0.0390     53.7268
  1292.7000      8.0360     -5.6993     26.9316      2.7440      0.0149     51.3259
  1292.8000      8.0348     -4.1857     27.0343      2.7191      0.0190     46.9679
  1292.9000      8.0348     -3.8141     26.8918      2.7129     -0.0294     43.1110
  1293.0000      8.0338     -4.5533     26.4295      2.7251      0.0416     42.0129
  1293.1000      8.0338     -5.1311     25.8912      2.7347      0.0133     43.3616
  1293.2000      8.0338     -5.1693     25.4148      2.7353      0.0651     45.6011
  1293.3000      8.0307     -5.1930     25.1107      2.7357      0.0398     46.7612
  1293.4000      8.0307     -5.1951     25.2944      2.7357      0.0414     47.7521
  1293.5000      8.0287     -4.8567     25.8396      2.7301      0.0359     50.6220
  1293.6000      8.0287     -4.4166     26.3386      2.7229     -0.0060     52.5800
  1293.7000      8.0287     -4.0189     26.5217      2.7163      0.0346     51.2791
  1293.8000      8.0316     -3.2051     26.5171      2.7029      0.0222     49.1267
  1293.9000      8.0316     -2.5632     26.7017      2.6923     -0.0407     47.4704
  1294.0000      8.0380     -3.1778     26.9488      2.7024      0.0067     45.9914
  1294.1000      8.0380     -4.4269     26.8464      2.7230      0.0347     44.9598
