~Version Information
VERS.                      2.0: CWLS Log ASCII Standard - VERSION 2.0
WRAP.                       NO: One line per depth step
~Well Information Block
STRT.FT                 0.0000: 
STOP.FT              1147.5000: 
STEP.FT                 0.2500: 
NULL.                -999.2500: 
COMP.          Pioneer Natural Resources: COMPANY
WELL.          Tin Barn 14-20 TR: WELL
FLD.           Purgatorie River: FIELD
LOC.           925 FSL & 1151 FWL: LOCATION
PROV.                 Colorado: PROVINCE
CNTY.               Las Animas: COUNTRY
SRVC.                Patterson: SERVICE COMPANY
DATE.          Wed Jan 18 12:02:25 2006: LOG DATE
UWI.                          : UNIQUE WELL ID
~Curve Information Block
DEPT.FT            0 000 00 00: Depth
CCL.                          : Casing Collar Locator
TT3.usec                      : CBL 3' Travel Time
AMP3.mV                       : CBL 3' Amplitude
GR.GAPI                       : Gamma Ray
~Parameter Information Block
~A  Depth       CCL         TT3         AMP3         GR     
# ...
    67.0000      0.0000    725.9156     15.6000     74.8433
    67.2500      0.0000    726.2059     15.6680     80.4316
    67.5000      0.0000    726.5442     15.7425     84.6957
    67.7500      0.0000    726.8098     15.8363     87.0976
    68.0000      0.0000    726.9489     15.9895     87.2836
    68.2500      0.0000    726.9545     16.1966     85.2735
    68.5000      0.0000    726.8663     16.4227     81.8345
    68.7500      0.0000    726.7144     16.6232     78.3452
    69.0000      0.0000    726.2585     16.7788     76.0552
    69.2500      0.0000    723.6074     16.9530     75.4033
    69.5000      0.0000    711.1682     17.2324     76.0243
    69.7500      0.0000    673.1732     17.6153     77.3499
    70.0000      0.0000    599.1974     18.0138     79.0553
    70.2500      0.0000    508.8466     18.3266     80.9297
    70.5000      0.0000    446.6131     18.5035     82.5871
    70.7500      0.0000    444.0175     18.5774     83.7020
    71.0000      0.0000    493.3735     18.6144     84.5430
    71.2500      0.0000    545.5155     18.6365     85.8532
    71.5000      0.0000    545.2416     18.6507     87.8936
    71.7500      0.0000    490.6097     18.7020     89.8021
    72.0000      0.0000    428.9233     18.8105     90.2085
    72.2500      0.0000    393.8561     18.8967     88.4417
    72.5000      0.0000    384.4526     18.8423     85.2363
    72.7500      0.0000    394.4412     18.6168     82.4984
    73.0000      0.0000    431.9992     18.2939     82.1543
    73.2500      0.0000    505.8145     17.9592     84.6334
    73.5000      0.0000    597.8915     17.6558     88.3731
    73.7500      0.0000    669.6898     17.4160     91.1639
    74.0000      0.0000    697.9237     17.2896     92.0810
    74.2500      0.0000    685.0645     17.3130     91.8549
    74.5000      0.0000    651.8046     17.4222     91.4573
    74.7500      0.0000    633.7558     17.4374     90.9419
    75.0000      0.0000    652.0421     17.2431     89.7751
    75.2500      0.0000    687.5478     16.9436     87.6572
    75.5000      0.0000    710.4044     16.7553     84.7337
    75.7500      0.0000    708.2618     16.7925     81.4989
    76.0000      0.0000    675.4487     17.0018     78.8214
    76.2500      0.0000    614.3249     17.2348     77.7619
    76.5000      0.0000    557.9396     17.3566     78.9389
    76.7500      0.0000    548.1555     17.3415     81.8747
    77.0000      0.0000    577.0521     17.2759     85.0294
    77.2500      0.0000    602.5292     17.2560     86.7323
    77.5000      0.0000    619.4592     17.2938     86.2751
    77.7500      0.0000    649.8900     17.3244     84.1959
    78.0000      0.0000    688.2548     17.3085     81.6728
    78.2500      0.0000    713.8285     17.3169     79.6758
    78.5000      0.0000    723.4789     17.4496     78.4208
    78.7500      0.0000    725.4910     17.6643     77.4932
    79.0000      0.0000    725.3106     17.8034     76.7182
    79.2500      0.0000    723.7132     17.7939     76.7715
    79.5000      0.0000    718.3251     17.7028     78.3944
    79.7500      0.0000    704.0259     17.6112     81.0358
    80.0000      0.0000    675.4997     17.5298     82.8839
    80.2500      0.0000    636.9282     17.4366     82.4680
    80.5000      0.0000    605.7402     17.3194     79.9997
    80.7500      0.0000    589.0170     17.1455     77.0245
    81.0000      0.0000    572.3642     16.8497     74.9069
    81.2500      0.0000    547.7776     16.4073     73.8084
    81.5000      0.0000    522.2836     15.9309     73.0727
    81.7500      0.0000    519.7379     15.5129     72.2064
    82.0000      0.0000    585.9586     14.8996     71.1586
    82.2500      0.0000    729.2588     13.8920     69.8492
    82.5000      0.0000    871.8215     12.8903     67.9236
    82.7500      0.0000    925.4236     12.3041     65.2299
    83.0000     -2.0000    892.2977     12.0653     62.3577
    83.2500      0.0000    838.9720     11.9920     60.3626
    83.5000      2.0000    799.3516     12.0107     59.9202
    83.7500      0.0000    756.7927     12.1038     60.9232
    84.0000      0.0000    687.3392     12.3981     62.8068
    84.2500      0.0000    584.9399     13.2958     64.9682
    84.5000      0.0000    472.7324     15.0335     66.9307
    84.7500      0.0000    389.3495     16.9047     68.4842
    85.0000      0.0000    351.9670     17.9564     69.8190
    85.2500      0.0000    354.7346     18.3158     71.4149
    85.5000      0.0000    397.9504     18.5278     73.6275
    85.7500      0.0000    484.2678     18.6126     76.2456
    86.0000      0.0000    588.8973     18.5091     78.5628
    86.2500      0.0000    670.0295     18.3640     80.0550
    86.5000      0.0000    710.5204     18.2567     80.9760
    86.7500      0.0000    723.1532     18.1272     82.1902
    87.0000      0.0000    723.1182     17.9357     84.3396
    87.2500      0.0000    711.1791     17.7574     87.0621
    87.5000      0.0000    675.7522     17.6896     89.0224
    87.7500      0.0000    614.2061     17.7045     89.0027
    88.0000      0.0000    559.7288     17.6743     87.2205
    88.2500      0.0000    559.6390     17.5125     85.4296
    88.5000      0.0000    613.9747     17.2342     85.5603
    88.7500      0.0000    675.4497     16.9403     88.1549
    89.0000      0.0000    710.8864     16.7615     91.8419
    89.2500      0.0000    723.2078     16.7375     94.3577
    89.5000      0.0000    726.0025     16.7771     94.4990
    89.7500      0.0000    726.2048     16.7823     93.0807
    90.0000      0.0000    723.7527     16.7401     91.6540
    90.2500      0.0000    711.6233     16.6960     90.5288
    90.5000      0.0000    676.1443     16.7071     88.5667
    90.7500      0.0000    614.1203     16.7817     84.7081
    91.0000      0.0000    556.9914     16.8560     79.1965
    91.2500      0.0000    544.7346     16.8967     73.4791
    91.5000      0.0000    561.9147     16.9654     69.4060
    91.7500      0.0000    552.3154     17.0903     68.4122
    92.0000      0.0000    507.7474     17.1820     70.8254
    92.2500      0.0000    483.6789     17.1665     75.5882
    92.5000      0.0000    521.8076     17.0858     80.7316
    92.7500      0.0000    599.4664     16.9931     84.2699
    93.0000      0.0000    658.7623     16.8655     84.9645
    93.2500      0.0000    661.0459     16.7165     82.7807
    93.5000      0.0000    611.9598     16.6581     78.9219
    93.7500      0.0000    559.9594     16.7419     75.2831
    94.0000      0.0000    558.4370     16.8796     73.5271
    94.2500      0.0000    603.5477     16.9789     74.3231
    94.5000      0.0000    639.8243     17.0311     77.1307
    94.7500      0.0000    639.0521     17.0405     80.5606
    95.0000      0.0000    632.5739     16.9646     83.1021
    95.2500      0.0000    653.5788     16.7682     83.7914
    95.5000      0.0000    690.0204     16.4656     82.4941
    95.7500      0.0000    715.5065     16.0870     79.7577
    96.0000      0.0000    725.2078     15.7051     76.3869
    96.2500      0.0000    727.2284     15.4470     73.1016
    96.5000      0.0000    727.1959     15.3645     70.4391
    96.7500      0.0000    726.7627     15.3648     68.6081
    97.0000      0.0000    726.2649     15.3343     67.2441
    97.2500      0.0000    725.8890     15.2524     65.5448
    97.5000      0.0000    725.7297     15.1632     62.9440
    97.7500      0.0000    725.7254     15.1153     59.6471
    98.0000      0.0000    725.7604     15.1411     56.4214
    98.2500      0.0000    725.8386     15.2324     54.0400
    98.5000      0.0000    726.0893     15.3658     53.1312
    98.7500      0.0000    726.5717     15.5564     54.2549
    99.0000      0.0000    727.1443     15.8076     57.4854
    99.2500      0.0000    727.6038     16.0827     61.7944
    99.5000      0.0000    727.8250     16.3388     65.3519
    99.7500      0.0000    727.4980     16.5256     66.7951
   100.0000      0.0000    724.7205     16.6370     66.2451
   100.2500      0.0000    712.0627     16.7287     65.2036
