~Version Information
 VERS.                                  2.0 : CWLS LAS VERSION
 WRAP.                                   NO : WRAPING MODE
 SWARE .                 MController 2.5.0N : SOFTWARE VERSION
~Well Information
 WELL.                            AMX 13-13 : WELL
 COMP.  Pioneer Natural Resources USA, Inc. : COMPANY
 FLD.                      Purgatoire River : FIELD
 LOC.                      NW/SW 13-32S-68W : LOCATION
 DATE.                          12/18-19/05 : DATE(S) LOGGED
 SRVC.       BLANCO Geological Services LLC : SERVICE COMPANY
 STAT.                                   CO : STATE
 CNTY.                           Las Animas : COUNTY
 CTRY.                                  USA : COUNTRY
 API.                          05-071-08630 : API NUMBER
 STRT.FT                             496.00 : START DEPTH
 STOP.FT                            2875.00 : STOP DEPTH
 STEP.FT                               1.00 : DEPTH INCREMENT
 NULL.                                -9999 : NULL VALUE
~Curve information
 DEPTH.FT                                   :
 ROP.MIN/FT                                 :
 GAS.UNITS                                  :
~ASCII Log data
# ...
      1496.0         2.37       2378.3 
      1497.0         0.43       1438.6 
      1498.0         0.38       1011.4 
      1499.0         0.37        783.9 
      1500.0         0.33        665.5 
      1501.0         0.30        608.6 
      1502.0         0.23        576.7 
      1503.0         0.27        557.7 
      1504.0         0.30        540.2 
      1505.0         0.27        522.7 
      1506.0         0.27        511.1 
      1507.0         0.23        498.9 
      1508.0         0.27        493.9 
      1509.0         0.22        492.6 
      1510.0         0.23        499.2 
      1511.0         0.23        515.8 
      1512.0         0.23        543.3 
      1513.0         0.23        578.3 
      1514.0         0.20        610.2 
      1515.0         0.20        628.3 
      1516.0         0.17        634.2 
      1517.0         0.20        645.2 
      1518.0         0.23        646.1 
      1519.0         0.27        623.0 
      1520.0         0.23        557.3 
      1521.0         0.23        510.1 
      1522.0         0.20        455.1 
      1523.0         0.27        440.0 
      1524.0         0.25        156.2 
      1525.0         0.43        436.5 
      1526.0         1.67       3147.0 
      1527.0         0.40       2663.0 
      1528.0         0.37       1754.5 
      1529.0         0.27       1128.3 
      1530.0         0.32        873.9 
      1531.0         0.30        694.5 
      1532.0         0.27        595.8 
      1533.0         0.20        583.6 
      1534.0         0.23        622.0 
      1535.0         0.23        645.5 
      1536.0         0.27        651.4 
      1537.0         0.17        638.6 
      1538.0         0.20        607.7 
      1539.0         0.20        564.8 
      1540.0         0.20        535.5 
      1541.0         0.17        529.2 
      1542.0         0.23        538.6 
      1543.0         0.23        544.2 
      1544.0         0.25        548.6 
      1545.0         0.23        565.8 
      1546.0         0.23        590.2 
      1547.0         0.27        599.2 
      1548.0         0.27        599.5 
      1549.0         0.30        585.2 
      1550.0         0.23        537.7 
      1551.0         0.20        498.3 
      1552.0         0.23        453.9 
      1553.0         0.13        440.0 
      1554.0         0.20        156.6 
      1555.0         0.23        184.4 
      1556.0         1.68       2532.0 
      1557.0         0.47       2533.3 
      1558.0         0.53       2183.6 
      1559.0         0.27       1324.2 
      1560.0         0.30        984.8 
      1561.0         0.33        781.4 
      1562.0         0.30        681.7 
      1563.0         0.38        646.7 
      1564.0         0.33        618.0 
      1565.0         0.30        574.8 
      1566.0         0.30        530.5 
      1567.0         0.27        495.8 
      1568.0         0.27        473.3 
      1569.0         0.23        456.1 
      1570.0         0.27        449.5 
      1571.0         0.27        442.0 
      1572.0         0.23        440.0 
      1573.0         0.23        190.1 
      1574.0         0.23        186.8 
      1575.0         0.17        184.6 
      1576.0         0.18        183.5 
      1577.0         0.17        182.4 
      1578.0         0.27        183.7 
      1579.0         0.27        186.8 
      1580.0         0.27        187.3 
      1581.0         0.30        186.6 
      1582.0         0.27        183.8 
      1583.0         0.23        180.4 
      1584.0         0.27        170.4 
      1585.0         0.20        151.6 
      1586.0         2.28       2205.5 
      1587.0         0.37       2202.7 
      1588.0         0.30       1995.8 
      1589.0         0.37       1584.8 
      1590.0         0.27       1123.0 
      1591.0         0.27        861.1 
      1592.0         0.27        710.8 
      1593.0         0.28        622.3 
      1594.0         0.30        583.3 
      1595.0         0.40        576.1 
      1596.0         0.33        544.8 
      1597.0         0.33        512.7 
      1598.0         0.30        486.7 
      1599.0         0.30        470.8 
      1600.0         0.30        456.4 
      1601.0         0.27        447.0 
      1602.0         0.30        440.8 
      1603.0         0.27        440.0 
      1604.0         0.22        179.8 
      1605.0         0.17        185.3 
      1606.0         0.17        190.2 
      1607.0         0.23        193.9 
      1608.0         0.27        194.3 
      1609.0         0.27        193.2 
      1610.0         0.27        189.1 
      1611.0         0.30        182.7 
      1612.0         0.17        175.9 
      1613.0         0.20        170.8 
      1614.0         0.23        160.4 
      1615.0         0.30        144.2 
      1616.0         2.98       2053.9 
      1617.0         0.37       1602.6 
      1618.0         0.33       1163.6 
      1619.0         0.27        868.3 
      1620.0         0.82       1094.5 
      1621.0         0.27        925.2 
      1622.0         0.30        728.6 
      1623.0         0.13        590.5 
      1624.0         0.23        555.8 
      1625.0         0.63        523.9 
      1626.0         0.40        479.2 
      1627.0         0.40        471.1 
      1628.0         0.35        464.2 
      1629.0         0.27        461.7 
      1630.0         0.30        458.3 
      1631.0         0.37        452.6 
      1632.0         0.40        448.3 
      1633.0         0.33        440.0 
      1634.0         0.33        177.4 
      1635.0         0.33        174.2 
      1636.0         0.30        175.0 
      1637.0         0.30        173.5 
      1638.0         0.23        161.3 
      1639.0         0.22        150.9 
      1640.0         0.23        143.5 
      1641.0         0.20        139.1 
      1642.0         0.23        141.9 
      1643.0         0.23        154.1 
      1644.0         0.23        170.0 
      1645.0         0.23        173.2 
      1646.0         2.38       2805.8 
      1647.0         0.30       2826.1 
      1648.0         0.47       2731.7 
      1649.0         0.37       2062.3 
      1650.0         0.40       1446.1 
      1651.0         0.43        945.5 
      1652.0         0.37        706.7 
      1653.0         0.37        687.3 
      1654.0         0.35        680.2 
      1655.0         0.37        612.7 
      1656.0         0.43        545.2 
      1657.0         0.30        492.0 
      1658.0         0.40        464.5 
      1659.0         0.30        442.6 
      1660.0         0.33        440.0 
      1661.0         0.27        182.1 
      1662.0         0.27        181.9 
      1663.0         0.23        177.6 
      1664.0         0.22        170.9 
      1665.0         0.17        165.4 
      1666.0         0.20        163.2 
      1667.0         0.23        160.8 
      1668.0         0.20        157.8 
      1669.0         0.20        155.3 
      1670.0         0.20        157.5 
      1671.0         0.17        161.5 
      1672.0         0.27        169.4 
      1673.0         0.57        195.5 
      1674.0         0.47        195.8 
      1675.0         0.23        161.3 
      1676.0         2.72       2620.2 
      1677.0         0.63       2280.5 
      1678.0         0.58       1644.5 
      1679.0         0.27        950.8 
      1680.0         0.23        771.4 
      1681.0         0.17        668.6 
      1682.0         0.30        615.8 
      1683.0         0.23        567.0 
      1684.0         0.23        553.6 
      1685.0         0.30        771.7 
      1686.0         0.30       1106.7 
      1687.0         0.67       1421.1 
      1688.0         0.27       1360.8 
      1689.0         0.22       1108.3 
      1690.0         0.23        873.0 
      1691.0         0.20        705.8 
      1692.0         0.23        608.0 
      1693.0         0.40        544.8 
      1694.0         0.57        487.6 
      1695.0         0.40        448.3 
