~Version Information
VERS.                      2.0: CWLS Log ASCII Standard - VERSION 2.0
WRAP.                       NO: One line per depth step
~Well Information Block
STRT.FT               420.0000: 
STOP.FT              2888.7500: 
STEP.FT                 0.2500: 
NULL.                -999.2500: 
COMP.          Pioneer Natural Resources: COMPANY
WELL.          Touchstone 11-32: WELL
FLD.           Purgatoire River: FIELD
LOC.           853' FNL & 407' FWL--: LOCATION
CNTY.               Las Animas: COUNTY
SRVC.                Patterson: SERVICE COMPANY
DATE.          Thu Feb 23 14:02:36 2006: LOG DATE
UWI.           05 071 08564 00: UNIQUE WELL ID
STAT.                 Colorado: STATE
~Curve Information Block
DEPT.FT            0 000 00 00: Depth
SN.Ohm-m                      : IEL Short Normal
SP.mV                         : IEL Spontaneous Potential
DIR.Ohm-m                     : IEL Induction Resistivity
GR.GAPI                       : Gamma Ray
~Parameter Information Block
~A  Depth        SN          SP         DIR          GR     
# ...
  1894.0000     26.0052    -53.1268     28.1837     82.8457
  1894.2500     26.0548    -52.8135     28.0625     85.6364
  1894.5000     26.0749    -52.5883     27.9203     88.0828
  1894.7500     26.0262    -52.4494     27.7460     88.7566
  1895.0000     25.8908    -52.3777     27.5246     88.6278
  1895.2500     25.6841    -52.3432     27.2520     87.8347
  1895.5000     25.4492    -52.3125     26.9487     85.8314
  1895.7500     25.2398    -52.2557     26.6590     84.2774
  1896.0000     25.1007    -52.1531     26.4360     81.9562
  1896.2500     25.0565    -51.9975     26.3229     80.2441
  1896.5000     25.1087    -51.7939     26.3398     77.0496
  1896.7500     25.2402    -51.5574     26.4798     74.7398
  1897.0000     25.4262    -51.3082     26.7136     72.0252
  1897.2500     25.6476    -51.0673     27.0010     71.0687
  1897.5000     25.8959    -50.8522     27.3057     70.6693
  1897.7500     26.1702    -50.6740     27.6050     70.8295
  1898.0000     26.4683    -50.5378     27.8873     71.5639
  1898.2500     26.7796    -50.4430     28.1434     72.2923
  1898.5000     27.0856    -50.3874     28.3606     73.2684
  1898.7500     27.3672    -50.3694     28.5289     73.5147
  1899.0000     27.6145    -50.3908     28.6510     72.9998
  1899.2500     27.8330    -50.4601     28.7448     72.1656
  1899.5000     28.0395    -50.5932     28.8351     70.6878
  1899.7500     28.2529    -50.8099     28.9445     69.7775
  1900.0000     28.4834    -51.1303     29.0909     68.3250
  1900.2500     28.7267    -51.5688     29.2901     66.9939
  1900.5000     28.9663    -52.1252     29.5541     64.3277
  1900.7500     29.1852    -52.7762     29.8835     62.3944
  1901.0000     29.3772    -53.4663     30.2598     59.9986
  1901.2500     29.5490    -54.1033     30.6458     59.0483
  1901.5000     29.7129    -54.5635     31.0000     58.6693
  1901.7500     29.8763    -54.7088     31.2986     58.8781
  1902.0000     30.0369    -54.4166     31.5499     59.2804
  1902.2500     30.1830    -53.6174     31.7843     59.4154
  1902.5000     30.3010    -52.3272     32.0230     59.6336
  1902.7500     30.3834    -50.6610     32.2522     60.1077
  1903.0000     30.4338    -48.8181     32.4286     61.6761
  1903.2500     30.4669    -47.0397     32.5156     63.1758
  1903.5000     30.5036    -45.5518     32.5164     65.2111
  1903.7500     30.5635    -44.5117     32.4728     65.6921
  1904.0000     30.6579    -43.9784     32.4341     64.3017
  1904.2500     30.7885    -43.9125     32.4281     62.1274
  1904.5000     30.9477    -44.2038     32.4558     58.2429
  1904.7500     31.1212    -44.7123     32.5027     56.1708
  1905.0000     31.2902    -45.3076     32.5510     55.0143
  1905.2500     31.4354    -45.8942     32.5829     55.6419
  1905.5000     31.5440    -46.4198     32.5820     57.6923
  1905.7500     31.6166    -46.8694     32.5411     58.9056
  1906.0000     31.6691    -47.2497     32.4741     59.5136
  1906.2500     31.7279    -47.5745     32.4167     59.1847
  1906.5000     31.8196    -47.8533     32.4108     58.4473
  1906.7500     31.9577    -48.0872     32.4792     58.2405
  1907.0000     32.1342    -48.2715     32.6138     58.4885
  1907.2500     32.3257    -48.4014     32.7882     58.7316
  1907.5000     32.5100    -48.4765     32.9809     58.3564
  1907.7500     32.6773    -48.5052     33.1860     57.1991
  1908.0000     32.8280    -48.5044     33.4009     54.1908
  1908.2500     32.9646    -48.4957     33.6090     51.8721
  1908.5000     33.0892    -48.5002     33.7811     48.9337
  1908.7500     33.2040    -48.5346     33.9000     47.6844
  1909.0000     33.3099    -48.6088     33.9851     47.2762
  1909.2500     33.4033    -48.7249     34.0925     48.1709
  1909.5000     33.4768    -48.8772     34.2813     51.0436
  1909.7500     33.5229    -49.0518     34.5709     53.3772
  1910.0000     33.5385    -49.2284     34.9203     56.2372
  1910.2500     33.5241    -49.3818     35.2447     57.3142
  1910.5000     33.4804    -49.4866     35.4619     57.8636
  1910.7500     33.4074    -49.5224     35.5317     57.9362
  1911.0000     33.3047    -49.4787     35.4601     58.2630
  1911.2500     33.1705    -49.3586     35.2742     58.7640
  1911.5000     33.0008    -49.1785     34.9991     59.8552
  1911.7500     32.7930    -48.9634     34.6540     60.8394
  1912.0000     32.5507    -48.7412     34.2580     63.1678
  1912.2500     32.2829    -48.5348     33.8325     65.5835
  1912.5000     31.9990    -48.3572     33.3970     70.3114
  1912.7500     31.7105    -48.2096     32.9670     73.5357
  1913.0000     31.4385    -48.0828     32.5565     76.8466
  1913.2500     31.2144    -47.9616     32.1820     77.2465
  1913.5000     31.0657    -47.8307     31.8614     74.8873
  1913.7500     30.9981    -47.6781     31.6092     72.0140
  1914.0000     30.9913    -47.4984     31.4322     67.6501
  1914.2500     31.0126    -47.2934     31.3285     65.5826
  1914.5000     31.0372    -47.0707     31.2899     64.1194
  1914.7500     31.0608    -46.8422     31.3073     63.8832
  1915.0000     31.0989    -46.6224     31.3775     63.6494
  1915.2500     31.1744    -46.4271     31.5040     63.0642
  1915.5000     31.3055    -46.2730     31.6886     61.1522
  1915.7500     31.5019    -46.1770     31.9166     59.3731
  1916.0000     31.7675    -46.1555     32.1512     56.9222
  1916.2500     32.0993    -46.2235     32.3486     56.0168
  1916.5000     32.4807    -46.3927     32.4849     55.9168
  1916.7500     32.8814    -46.6686     32.5712     56.3379
  1917.0000     33.2691    -47.0484     32.6406     57.3529
  1917.2500     33.6282    -47.5202     32.7193     58.5348
  1917.5000     33.9710    -48.0638     32.8131     61.5204
  1917.7500     34.3308    -48.6544     32.9183     64.0168
  1918.0000     34.7383    -49.2685     33.0400     67.1233
  1918.2500     35.1991    -49.8879     33.1921     68.0934
  1918.5000     35.6888    -50.5033     33.3741     67.8536
  1918.7500     36.1683    -51.1129     33.5486     67.0193
  1919.0000     36.6025    -51.7181     33.6469     65.5337
  1919.2500     36.9667    -52.3163     33.6070     64.5821
  1919.5000     37.2371    -52.8936     33.4099     63.1503
  1919.7500     37.3771    -53.4200     33.0779     62.1583
  1920.0000     37.3306    -53.8489     32.6348     60.9992
  1920.2500     37.0266    -54.1215     32.0649     60.8485
  1920.5000     36.3955    -54.1759     31.3061     61.8340
  1920.7500     35.3932    -53.9608     30.2828     63.0639
  1921.0000     34.0298    -53.4471     28.9544     65.3912
  1921.2500     32.3899    -52.6392     27.3517     67.5412
  1921.5000     30.6277    -51.5798     25.5807     72.9855
  1921.7500     28.9278    -50.3476     23.7933     78.8704
  1922.0000     27.4430    -49.0466     22.1436     91.3234
  1922.2500     26.2411    -47.7904     20.7466    101.1767
  1922.5000     25.2914    -46.6832     19.6578    115.2237
  1922.7500     24.4995    -45.8013     18.8738    122.0815
  1923.0000     23.7599    -45.1807     18.3468    126.5018
  1923.2500     22.9979    -44.8113     18.0049    125.5946
  1923.5000     22.1854    -44.6410     17.7717    120.3618
  1923.7500     21.3417    -44.5869     17.5845    115.8809
  1924.0000     20.5250    -44.5548     17.4032    110.0424
  1924.2500     19.8174    -44.4587     17.2090    107.4195
  1924.5000     19.2992    -44.2409     16.9969    105.3215
  1924.7500     19.0213    -43.8850     16.7714    104.9595
  1925.0000     18.9848    -43.4195     16.5477    106.5304
  1925.2500     19.1369    -42.9113     16.3490    109.7598
  1925.5000     19.3873    -42.4491     16.1987    118.3674
  1925.7500     19.6372    -42.1217     16.1091    125.5799
  1926.0000     19.8047    -41.9951     16.0767    134.9549
  1926.2500     19.8385    -42.0957     16.0850    138.1914
  1926.5000     19.7212    -42.4014     16.1110    136.9889
  1926.7500     19.4709    -42.8439     16.1341    132.5541
  1927.0000     19.1401    -43.3209     16.1417    122.7554
  1927.2500     18.8029    -43.7155     16.1326    116.0191
