~Version Information
VERS.                      2.0: CWLS Log ASCII Standard - VERSION 2.0
WRAP.                       NO: One line per depth step
~Well Information Block
STRT.FT                 7.7500: 
STOP.FT              2101.0000: 
STEP.FT                 0.2500: 
NULL.                -999.2500: 
COMP.          Pioneer Natural Resources: COMPANY
WELL.          Gunslinger 13-24: WELL
FLD.           Purgatoire River: FIELD
LOC.           1968' FSL & 633' FWL: LOCATION
PROV.                 Colorado: PROVINCE
CNTY.               Las Animas: COUNTRY
SRVC.                Patterson: SERVICE COMPANY
DATE.          Mon Aug 15 11:00:02 2005: LOG DATE
UWI.           05 071 08442 00: UNIQUE WELL ID
~Curve Information Block
DEPT.FT            0 000 00 00: Depth
GR.GAPI                       : Gamma Ray
CCL.                          : Casing Collar Locator
TT3.usec                      : CBL 3' Travel Time
AMP3.mV                       : CBL 3' Amplitude
~Parameter Information Block
~A  Depth        GR         CCL         TT3         AMP3    
# ...
  1381.2500    146.7120      0.0000    252.4707     75.9540
  1381.5000    146.3505      0.0000    252.4473     75.9634
  1381.7500    140.4101      0.0000    252.4329     75.9164
  1382.0000    131.0007      0.0000    252.4260     75.8609
  1382.2500    121.5018      0.0000    252.4248     75.8324
  1382.5000    114.7791      0.0000    252.4285     75.8395
  1382.7500    112.2459      0.0000    252.4364     75.8612
  1383.0000    113.8788      0.0000    252.4457     75.8610
  1383.2500    118.6218      0.0000    252.4526     75.8138
  1383.5000    124.9879      0.0000    252.4550     75.7303
  1383.7500    131.8017      0.0000    252.4546     75.6557
  1384.0000    138.4647      0.0000    252.4527     75.6374
  1384.2500    144.4473      0.0000    252.4456     75.6898
  1384.5000    148.7478      0.0000    252.4286     75.7912
  1384.7500    150.1485      0.0000    252.4048     75.9124
  1385.0000    148.1924      0.0000    252.3873     76.0363
  1385.2500    143.9186      0.0000    252.3892     76.1509
  1385.5000    139.3273      0.0000    252.4152     76.2383
  1385.7500    135.8527      0.0000    252.4598     76.2815
  1386.0000    133.3750      0.0000    252.5126     76.2793
  1386.2500    130.7261      0.0000    252.5621     76.2508
  1386.5000    127.1915      0.0000    252.5996     76.2251
  1386.7500    123.6886      0.0000    252.6198     76.2263
  1387.0000    122.5423      0.0000    252.6202     76.2602
  1387.2500    125.8804      0.0000    252.6042     76.3101
  1387.5000    133.9376      0.0000    252.5830     76.3451
  1387.7500    144.7049      0.0000    252.5710     76.3379
  1388.0000    155.3099      0.0000    252.5768     76.2807
  1388.2500    163.7570      0.0000    252.5987     76.1856
  1388.5000    169.0723      0.0000    252.6261     76.0750
  1388.7500    170.1913      0.0000    252.6459     75.9719
  1389.0000    165.9200      0.0000    252.6499     75.8932
  1389.2500    156.3642      0.0000    252.6391     75.8416
  1389.5000    143.6613      0.0000    252.6211     75.8050
  1389.7500    131.0391      0.0000    252.6027     75.7679
  1390.0000    121.5713      0.0000    252.5853     75.7245
  1390.2500    117.7134      0.0000    252.5677     75.6782
  1390.5000    121.0387      0.0000    252.5499     75.6299
  1390.7500    131.3226      0.0000    252.5318     75.5735
  1391.0000    145.5119      0.0000    252.5130     75.5060
  1391.2500    158.3587      0.0000    252.4958     75.4367
  1391.5000    165.3006      0.0000    252.4867     75.3839
  1391.7500    165.3573      0.0000    252.4891     75.3637
  1392.0000    161.2344      0.0000    252.4986     75.3801
  1392.2500    156.7043      0.0000    252.5077     75.4261
  1392.5000    153.9316      0.0000    252.5129     75.4891
  1392.7500    152.7598      0.0000    252.5131     75.5572
  1393.0000    151.9240      0.0000    252.5066     75.6226
  1393.2500    150.7417      0.0000    252.4945     75.6807
  1393.5000    149.5997      0.0000    252.4842     75.7251
  1393.7500    149.0213      0.0000    252.4844     75.7454
  1394.0000    148.7853      0.0000    252.4962     75.7327
  1394.2500    148.4013      0.0000    252.5116     75.6899
  1394.5000    148.3280      0.0000    252.5195     75.6345
  1394.7500    150.1281      0.0000    252.5149     75.5893
  1395.0000    154.9081      0.0000    252.5015     75.5673
  1395.2500    161.7452      0.0000    252.4871     75.5675
  1395.5000    168.0520      0.0000    252.4773     75.5813
  1395.7500    171.4645      0.0000    252.4740     75.6020
  1396.0000    171.2733      0.0000    252.4789     75.6271
  1396.2500    168.5891      0.0000    252.4966     75.6544
  1396.5000    165.6657      0.0000    252.5281     75.6781
  1396.7500    164.6589      0.0000    252.5630     75.6915
  1397.0000    166.3398      0.0000    252.5831     75.6955
  1397.2500    169.9418      0.0000    252.5784     75.7010
  1397.5000    174.1820      0.0000    252.5575     75.7203
  1397.7500    177.9271      0.0000    252.5387     75.7543
  1398.0000    180.0977      0.0000    252.5328     75.7920
  1398.2500    180.1176      0.0000    252.5384     75.8219
  1398.5000    178.8350      0.0000    252.5468     75.8407
  1398.7500    178.0230      0.0000    252.5493     75.8507
  1399.0000    178.3251      0.0000    252.5415     75.8537
  1399.2500    178.1951      0.0000    252.5256     75.8516
  1399.5000    175.5107      0.0000    252.5086     75.8508
  1399.7500    170.1150      0.0000    252.4985     75.8623
  1400.0000    164.1250      0.0000    252.4999     75.8928
  1400.2500    159.6932      0.0000    252.5139     75.9371
  1400.5000    157.2082      0.0000    252.5388     75.9802
  1400.7500    155.9037      0.0000    252.5716     76.0064
  1401.0000    155.2262      0.0000    252.6078     76.0040
  1401.2500    154.8884      0.0000    252.6436     75.9509
  1401.5000    154.1552      0.0000    252.6787     75.7700
  1401.7500    151.8840      0.0000    252.7230     75.2768
  1402.0000    147.4428      0.0000    252.8118     74.1813
  1402.2500    141.7334      0.0000    253.0283     72.2376
  1402.5000    137.4679      0.0000    253.5127     69.4843
  1402.7500    137.9351      0.0000    254.4109     66.3025
  1403.0000    144.7198      0.0000    255.7441     63.1616
  1403.2500    156.1919      0.0000    257.2964     60.3838
  1403.5000    168.0198      0.0000    258.6838     58.2010
  1403.7500    175.2178      0.0000    259.6075     56.8138
  1404.0000    174.7096      0.0000    260.0460     56.2177
  1404.2500    167.2224      0.0000    260.2224     56.1073
  1404.5000    156.9131      0.0000    260.4594     56.0861
  1404.7500    148.5805      3.0000    261.1091     55.9100
  1405.0000    144.7404      0.0000    262.4505     55.5802
  1405.2500    144.6635      0.0000    264.3456     55.3660
  1405.5000    145.3161      0.0000    265.9064     55.7286
  1405.7500    143.3379      0.0000    265.8691     57.0269
  1406.0000    137.3474      0.0000    263.6940     59.2487
  1406.2500    129.1578      0.0000    260.1865     62.1261
  1406.5000    122.4768      0.0000    256.7969     65.3696
  1406.7500    120.0082      0.0000    254.4611     68.6078
  1407.0000    121.9035      0.0000    253.2383     71.3143
  1407.2500    126.7775      0.0000    252.7397     73.0825
  1407.5000    133.3412      0.0000    252.5919     73.9076
  1407.7500    140.6927      0.0000    252.5850     74.0907
  1408.0000    147.8632      0.0000    252.6289     73.9507
  1408.2500    153.9974      0.0000    252.6910     73.6711
  1408.5000    158.9028      0.0000    252.7579     73.3251
  1408.7500    162.8606      0.0000    252.8250     72.9389
  1409.0000    165.9353      0.0000    252.8904     72.5323
  1409.2500    167.7659      0.0000    252.9518     72.1221
  1409.5000    167.9631      0.0000    253.0052     71.7149
  1409.7500    166.5792      0.0000    253.0464     71.3075
  1410.0000    164.4223      0.0000    253.0755     70.8928
  1410.2500    162.9396      0.0000    253.0973     70.4638
  1410.5000    163.2527      0.0000    253.1199     70.0131
  1410.7500    164.6732      0.0000    253.1505     69.5338
  1411.0000    164.1476      0.0000    253.1930     69.0275
  1411.2500    157.7633      0.0000    253.2446     68.5097
  1411.5000    143.6421      0.0000    253.2963     68.0070
  1411.7500    123.8913      0.0000    253.3385     67.5452
  1412.0000    103.5815      0.0000    253.3661     67.1392
  1412.2500     87.4423      0.0000    253.3813     66.7912
  1412.5000     77.3476      0.0000    253.3900     66.4983
  1412.7500     72.4810      0.0000    253.3978     66.2581
  1413.0000     71.0500      0.0000    253.4070     66.0663
  1413.2500     71.5011      0.0000    253.4176     65.9090
  1413.5000     72.7773      0.0000    253.4285     65.7636
  1413.7500     74.2792      0.0000    253.4399     65.6099
  1414.0000     75.7685      0.0000    253.4525     65.4406
  1414.2500     77.0207      0.0000    253.4667     65.2591
  1414.5000     77.5175      0.0000    253.4831     65.0719
