~Version Information
VERS.                      2.0: CWLS Log ASCII Standard - VERSION 2.0
WRAP.                       NO: One line per depth step
~Well Information Block
STRT.FT               655.0000: 
STOP.FT              2623.7000: 
STEP.FT                 0.1000: 
NULL.                -999.2500: 
COMP.          Pioneer Natural Resources: COMPANY
WELL.             Aviator 12-4: WELL
FLD.           Purgatoire River: FIELD
LOC.           1969' FNL & 732' FWL--: LOCATION
CNTY.               Las Animas: COUNTY
SRVC.                Patterson: SERVICE COMPANY
DATE.          Mon Apr 10 07:35:20 2006: LOG DATE
UWI.           05 071 08714 00: UNIQUE WELL ID
STAT.                 Colorado: STATE
~Curve Information Block
DEPT.FT            0 000 00 00: Depth
DCAL.in                       : CDL Caliper
RHOB.g/cc                     : CDL Bulk Density
RHOC.g/cc                     : CDL Density Correction
DPOR.pu                       : CDL Density Porosity
NPOR.pu                       : Neutron Porosity
GR.GAPI                       : Gamma Ray
~Parameter Information Block
~A  Depth       DCAL        RHOB        RHOC        DPOR        NPOR         GR     
# ...
  1691.8000      7.9919      2.6538      0.0860     -0.2303     18.4884     69.2602
  1691.9000      7.9919      2.6240      0.0243      1.5747     18.9121     72.8076
  1692.0000      7.9928      2.6005      0.0190      2.9973     18.8427     73.5360
  1692.1000      7.9928      2.5994      0.0637      3.0660     18.6245     70.1252
  1692.2000      7.9928      2.6073      0.0578      2.5905     18.5943     68.3602
  1692.3000      7.9994      2.6150      0.0451      2.1196     19.0298     70.6094
  1692.4000      7.9994      2.6277      0.0650      1.3501     19.7635     74.6214
  1692.5000      8.0077      2.6348      0.0553      0.9213     19.9345     76.9378
  1692.6000      8.0077      2.6188      0.0783      1.8919     19.3137     78.6371
  1692.7000      8.0077      2.5877      0.0280      3.7786     18.4487     79.7574
  1692.8000      8.0118      2.5614      0.0330      5.3721     17.8995     77.7343
  1692.9000      8.0118      2.5452      0.0336      6.3535     17.9441     76.0969
  1693.0000      8.0097      2.5437      0.0031      6.4446     18.1618     78.7096
  1693.1000      8.0097      2.5578      0.0730      5.5868     18.1726     85.2168
  1693.2000      8.0097      2.5709      0.0590      4.7925     18.5270     94.7719
  1693.3000      8.0030      2.5721      0.0536      4.7208     19.3617    102.1335
  1693.4000      8.0030      2.5669      0.0380      5.0338     20.0624    103.7386
  1693.5000      7.9941      2.5656      0.0211      5.1156     20.5482    106.7284
  1693.6000      7.9941      2.5713      0.0491      4.7710     20.8631    112.7620
  1693.7000      7.9941      2.5799      0.0877      4.2514     20.9543    113.0229
  1693.8000      7.9886      2.5823      0.0382      4.1042     21.2704    110.2453
  1693.9000      7.9886      2.5704      0.0823      4.8227     21.9021    118.6244
  1694.0000      7.9864      2.5529      0.0105      5.8857     22.4056    135.6463
  1694.1000      7.9864      2.5454      0.0511      6.3382     22.8839    141.8789
  1694.2000      7.9864      2.5465      0.0345      6.2715     23.7624    132.6718
  1694.3000      7.9860      2.5502      0.0708      6.0490     24.8092    123.2616
  1694.4000      7.9860      2.5570      0.0577      5.6384     25.4354    126.1120
  1694.5000      7.9872      2.5670      0.0472      5.0313     25.3695    137.4472
  1694.6000      7.9872      2.5675      0.0563      4.9997     24.7740    148.0612
  1694.7000      7.9872      2.5461      0.0687      6.2978     24.3165    154.4007
  1694.8000      7.9890      2.5134      0.0477      8.2794     24.5069    155.5147
  1694.9000      7.9890      2.4946      0.0132      9.4197     24.9706    152.9656
  1695.0000      7.9931      2.4988      0.0619      9.1618     25.0639    150.8568
  1695.1000      7.9931      2.5148      0.0349      8.1957     24.7301    150.2798
  1695.2000      7.9931      2.5383      0.0507      6.7708     24.2548    148.6745
  1695.3000      8.0014      2.5678      0.0837      4.9788     23.7844    143.4059
  1695.4000      8.0014      2.5884      0.1243      3.7312     23.3306    137.0732
  1695.5000      8.0077      2.5867      0.1228      3.8366     23.2498    136.6420
  1695.6000      8.0077      2.5718      0.0565      4.7416     23.5674    140.1305
  1695.7000      8.0077      2.5653      0.0494      5.1359     23.7343    137.6403
  1695.8000      8.0030      2.5679      0.0812      4.9772     23.7960    130.6338
  1695.9000      8.0030      2.5687      0.0137      4.9284     23.8684    128.0098
  1696.0000      7.9921      2.5683      0.0435      4.9500     23.5308    132.6870
  1696.1000      7.9921      2.5621      0.0921      5.3274     22.9640    138.5412
  1696.2000      7.9921      2.5484      0.0290      6.1601     22.7695    138.2454
  1696.3000      7.9870      2.5436      0.0446      6.4476     23.1128    134.1827
  1696.4000      7.9870      2.5543      0.0773      5.7971     23.7010    132.3762
  1696.5000      7.9870      2.5665      0.1141      5.0605     23.9700    136.3743
  1696.6000      7.9870      2.5689      0.0989      4.9175     23.7595    143.4625
  1696.7000      7.9870      2.5677      0.0387      4.9866     23.4001    145.7184
  1696.8000      7.9885      2.5671      0.0934      5.0272     23.2539    139.8178
  1696.9000      7.9885      2.5642      0.0319      5.2008     23.6367    128.8076
  1697.0000      7.9923      2.5655      0.0846      5.1232     24.2225    117.6324
  1697.1000      7.9923      2.5731      0.0712      4.6594     24.2851    109.9233
  1697.2000      7.9923      2.5881      0.0828      3.7520     23.7758    105.2149
  1697.3000      7.9996      2.6123      0.0945      2.2848     23.1608    101.9023
  1697.4000      7.9996      2.6371      0.0551      0.7840     22.7677    100.6129
  1697.5000      8.0044      2.6472      0.0807      0.1719     22.4912    101.4347
  1697.6000      8.0044      2.6343      0.1028      0.9491     22.2486    103.5620
  1697.7000      8.0044      2.6107      0.0574      2.3847     22.2568    105.4213
  1697.8000      8.0000      2.5986      0.0233      3.1171     22.4797    106.7997
  1697.9000      8.0000      2.5979      0.0754      3.1556     22.9545    108.3198
  1698.0000      7.9931      2.5890      0.0753      3.6965     23.7389    111.1386
  1698.1000      7.9931      2.5763     -0.0001      4.4678     24.4876    116.7458
  1698.2000      7.9931      2.5771      0.0709      4.4171     24.8894    124.1850
  1698.3000      7.9910      2.5819      0.0896      4.1272     24.5149    133.5307
  1698.4000      7.9910      2.5753      0.0535      4.5301     23.2037    141.7613
  1698.5000      7.9916      2.5630      0.0652      5.2752     21.8136    140.9879
  1698.6000      7.9916      2.5603      0.0553      5.4365     21.3119    130.3488
  1698.7000      7.9916      2.5724      0.0905      4.7058     21.7038    118.5843
  1698.8000      7.9916      2.5901      0.0992      3.6294     22.2444    115.9871
  1698.9000      7.9916      2.6020      0.0813      2.9087     22.5734    121.6373
  1699.0000      7.9917      2.6051      0.0888      2.7188     22.8979    125.3971
  1699.1000      7.9917      2.6071      0.0781      2.6012     23.2645    122.5937
  1699.2000      7.9917      2.6146      0.0649      2.1458     23.3639    116.4279
  1699.3000      7.9918      2.6238      0.0785      1.5906     22.7803    111.4487
  1699.4000      7.9918      2.6247      0.0839      1.5314     22.0302    110.0159
  1699.5000      7.9949      2.6139      0.0407      2.1905     22.1599    110.4842
  1699.6000      7.9949      2.5996      0.0181      3.0537     22.8091    110.2010
  1699.7000      7.9949      2.5910      0.0207      3.5776     22.8446    110.1825
  1699.8000      8.0022      2.5928      0.0349      3.4654     22.3416    110.7460
  1699.9000      8.0022      2.6054      0.0391      2.7009     21.6946    106.6835
  1700.0000      8.0076      2.6175      0.0721      1.9707     20.8384     98.9666
  1700.1000      8.0076      2.6159      0.0579      2.0638     20.1078     98.5986
  1700.2000      8.0076      2.5989      0.0932      3.0940     20.2015    107.0763
  1700.3000      8.0090      2.5736      0.0295      4.6320     20.9612    110.2322
  1700.4000      8.0090      2.5589      0.0189      5.5216     21.5395    102.9687
  1700.5000      8.0060      2.5734     -0.0186      4.6402     21.7112     98.0090
  1700.6000      8.0060      2.6132      0.0745      2.2310     21.7116    100.1871
  1700.7000      8.0060      2.6503      0.1149     -0.0154     21.5089    101.1714
  1700.8000      7.9979      2.6628      0.0934     -0.7754     21.2062     98.1933
  1700.9000      7.9979      2.6595      0.0318     -0.5767     21.3048     94.6047
  1701.0000      7.9959      2.6601      0.0866     -0.6103     21.9915     91.8572
  1701.1000      7.9959      2.6586      0.0828     -0.5185     22.7107     93.8317
  1701.2000      7.9959      2.6314      0.0767      1.1296     22.9529    100.8928
  1701.3000      8.0012      2.5776      0.0367      4.3886     23.0842    107.1427
