~Version Information
VERS.                      2.0: CWLS Log ASCII Standard - VERSION 2.0
WRAP.                       NO: One line per depth step
~Well Information Block
STRT.FT               240.0000: 
STOP.FT              1338.7000: 
STEP.FT                 0.1000: 
NULL.                -999.2500: 
COMP.          Pioneer Natural Resources: COMPANY
WELL.            Hamburg 43-35: WELL
FLD.           Purgatoire River: FIELD
LOC.           2444' FSL & 950' FEL--: LOCATION
PROV.                 Colorado: PROVINCE
CNTY.               Las Animas: COUNTRY
SRVC.                Patterson: SERVICE COMPANY
DATE.          Sun Dec 04 11:50:58 2005: LOG DATE
UWI.           05 071 08607 00: UNIQUE WELL ID
~Curve Information Block
DEPT.FT            0 000 00 00: Depth
DCAL.in                       : CDL Caliper
RHOB.g/cc                     : CDL Bulk Density
RHOC.g/cc                     : CDL Density Correction
DPOR.pu                       : CDL Density Porosity
NPOR.pu                       : Neutron Porosity
GR.GAPI                       : Gamma Ray
~Parameter Information Block
~A  Depth       DCAL        RHOB        RHOC        DPOR        NPOR         GR     
# ...
  1094.4000      7.8758      2.6206      0.0653      1.7796     24.4627     99.8482
  1094.5000      7.8762      2.6142      0.0650      2.1670     24.3476    104.4542
  1094.6000      7.8762      2.6227      0.0999      1.6522     23.9414    105.4001
  1094.7000      7.8762      2.6374      0.0838      0.7666     23.4649    102.0895
  1094.8000      7.8771      2.6438      0.0689      0.3736     23.2695     97.7764
  1094.9000      7.8771      2.6373      0.0746      0.7721     23.3251     94.8395
  1095.0000      7.8786      2.6201      0.0706      1.8102     23.5790     93.6035
  1095.1000      7.8786      2.6007      0.0435      2.9901     23.7476     94.1289
  1095.2000      7.8786      2.5835      0.0344      4.0311     23.5599     97.1602
  1095.3000      7.8827      2.5670      0.0271      5.0273     23.4370    102.0735
  1095.4000      7.8827      2.5532      0.0028      5.8684     23.4470    106.6681
  1095.5000      7.8900      2.5477      0.0378      6.1972     23.2039    107.4357
  1095.6000      7.8900      2.5504      0.0189      6.0346     23.0364    102.9049
  1095.7000      7.8900      2.5533      0.0503      5.8622     23.3651     97.4913
  1095.8000      7.8968      2.5503      0.0349      6.0406     23.9568     96.1656
  1095.9000      7.8968      2.5494     -0.0027      6.0978     24.2255     97.9659
  1096.0000      7.9017      2.5575      0.0055      5.6049     24.0649    104.5659
  1096.1000      7.9017      2.5681      0.0158      4.9648     23.9892    115.1143
  1096.2000      7.9017      2.5767      0.0253      4.4450     23.9305    120.3370
  1096.3000      7.9049      2.5865      0.0385      3.8486     23.3004    117.5836
  1096.4000      7.9049      2.5929      0.0802      3.4611     22.4003    111.5485
  1096.5000      7.9034      2.5897      0.0536      3.6568     21.9330    106.9003
  1096.6000      7.9034      2.5883      0.0356      3.7394     22.0431    108.1801
  1096.7000      7.9034      2.5963      0.0383      3.2521     22.3448    113.1629
  1096.8000      7.8938      2.6031      0.0512      2.8422     22.4495    116.3658
  1096.9000      7.8938      2.5956      0.0793      3.2988     22.6157    117.2558
  1097.0000      7.8829      2.5720      0.0124      4.7300     23.1102    115.1167
  1097.1000      7.8829      2.5506      0.0069      6.0237     23.6322    109.1305
  1097.2000      7.8829      2.5518      0.0015      5.9512     23.9123    101.6688
  1097.3000      7.8806      2.5756      0.0347      4.5108     24.0224     97.5688
  1097.4000      7.8806      2.6031      0.0435      2.8434     24.0787     99.7028
  1097.5000      7.8883      2.6134      0.0636      2.2195     24.0391    105.5360
  1097.6000      7.8883      2.6024      0.0414      2.8854     23.8403    108.9025
  1097.7000      7.8883      2.5823      0.0621      4.1033     23.5288    107.2258
  1097.8000      7.8987      2.5662      0.0281      5.0809     23.4672    103.2344
  1097.9000      7.8987      2.5636      0.0499      5.2374     23.9584    101.0952
  1098.0000      7.9034      2.5735      0.0648      4.6348     24.4538    101.6906
  1098.1000      7.9034      2.5859      0.0556      3.8831     24.1392    100.0191
  1098.2000      7.9034      2.5868      0.0784      3.8315     23.4462     94.9217
  1098.3000      7.9070      2.5623      0.0763      5.3129     23.1566     90.1144
  1098.4000      7.9070      2.5178      0.0261      8.0108     22.9831     85.6026
  1098.5000      7.9131      2.4793     -0.0017     10.3475     22.6298     82.4792
  1098.6000      7.9131      2.4564      0.0292     11.7313     22.4127     83.5024
  1098.7000      7.9131      2.4362     -0.0157     12.9571     22.4301     85.7826
  1098.8000      7.9061      2.4217     -0.0237     13.8356     22.5168     84.8812
  1098.9000      7.9061      2.4299      0.0011     13.3409     22.5531     81.5293
  1099.0000      7.8849      2.4662      0.0285     11.1371     22.3076     79.2484
  1099.1000      7.8849      2.5167      0.1222      8.0783     21.7456     80.6567
  1099.2000      7.8849      2.5553      0.1257      5.7365     21.2432     84.1187
  1099.3000      7.8626      2.5721      0.0860      4.7234     21.3033     86.3820
  1099.4000      7.8626      2.5759      0.1052      4.4881     21.9347     89.6252
  1099.5000      7.8484      2.5725      0.1204      4.6961     22.5155     95.5184
  1099.6000      7.8484      2.5623      0.1228      5.3166     22.5515     99.5050
  1099.7000      7.8484      2.5505      0.0785      6.0324     22.1300     99.2425
  1099.8000      7.8455      2.5409      0.0913      6.6131     21.7464     99.3426
  1099.9000      7.8455      2.5302      0.0521      7.2612     21.5443    101.0427
  1100.0000      7.8597      2.5185      0.0368      7.9720     21.2694     98.9981
  1100.1000      7.8597      2.5072      0.0545      8.6539     20.9996     91.8836
  1100.2000      7.8597      2.5006     -0.0114      9.0539     21.0284     82.7505
  1100.3000      7.8917      2.5043      0.0210      8.8289     21.3043     75.4705
  1100.4000      7.8917      2.5049      0.0475      8.7921     21.4243     74.7808
  1100.5000      7.9131      2.4937      0.0097      9.4705     21.2843     79.8233
  1100.6000      7.9131      2.4922     -0.0014      9.5637     21.2064     83.0790
  1100.7000      7.9131      2.5120      0.0630      8.3619     21.2809     83.0992
  1100.8000      7.9003      2.5334      0.1036      7.0693     21.2195     84.4641
  1100.9000      7.9003      2.5421      0.0752      6.5403     21.1338     85.9030
  1101.0000      7.8613      2.5416      0.1332      6.5709     21.3709     84.3316
  1101.1000      7.8613      2.5456      0.0483      6.3295     21.7896     79.3568
  1101.2000      7.8613      2.5674      0.1128      5.0053     22.2116     73.6018
  1101.3000      7.8297      2.5958      0.1244      3.2848     22.5982     70.6150
  1101.4000      7.8297      2.6170      0.0988      2.0001     22.9495     70.1627
  1101.5000      7.8223      2.6247      0.1487      1.5306     23.4799     72.1374
  1101.6000      7.8223      2.6113      0.0757      2.3434     24.1275     76.6254
  1101.7000      7.8223      2.5839      0.0484      4.0048     24.5276     82.4009
  1101.8000      7.8324      2.5543      0.0629      5.7988     24.4478     88.0075
  1101.9000      7.8324      2.5262      0.0178      7.5050     23.9135     91.8391
  1102.0000      7.8518      2.5030      0.0362      8.9081     23.3873     93.3476
  1102.1000      7.8518      2.4876     -0.0023      9.8404     23.2857     92.5642
  1102.2000      7.8518      2.4822     -0.0024     10.1696     23.4973     90.9411
  1102.3000      7.8763      2.4859      0.0190      9.9472     23.8677     91.4123
  1102.4000      7.8763      2.4930      0.0399      9.5156     24.2547     95.5938
  1102.5000      7.9013      2.4990      0.0616      9.1512     24.3787    103.1412
  1102.6000      7.9013      2.5009      0.0747      9.0363     24.1771    113.9691
  1102.7000      7.9013      2.4938      0.0994      9.4693     23.8590    126.9616
  1102.8000      7.9123      2.4808      0.0409     10.2528     23.5899    137.5654
  1102.9000      7.9123      2.4680      0.0463     11.0316     23.2789    142.0393
  1103.0000      7.9057      2.4513      0.0454     12.0417     22.8479    141.6479
  1103.1000      7.9057      2.4306      0.0428     13.2945     22.3543    140.7284
  1103.2000      7.9057      2.4152      0.0492     14.2291     21.8316    142.2051
  1103.3000      7.8935      2.4128      0.0162     14.3750     21.2665    144.1323
  1103.4000      7.8935      2.4213      0.0307     13.8632     20.7671    140.0639
  1103.5000      7.8816      2.4295      0.0500     13.3621     20.5602    128.9169
  1103.6000      7.8816      2.4304      0.0559     13.3108     20.7226    121.1352
  1103.7000      7.8816      2.4273      0.0664     13.4960     21.0705    124.1500
  1103.8000      7.8702      2.4259      0.0479     13.5808     21.2751    131.2109
  1103.9000      7.8702      2.4323      0.0403     13.1938     21.2118    135.7484
