~Version Information
VERS.                      2.0: CWLS Log ASCII Standard - VERSION 2.0
WRAP.                       NO: One line per depth step
~Well Information Block
STRT.FT                -6.7500: 
STOP.FT              1121.2500: 
STEP.FT                 0.2500: 
NULL.                -999.2500: 
COMP.          Pioneer Natural Resources: COMPANY
WELL.              Draco 31-21: WELL
FLD.           Purgatorie River: FIELD
LOC.           491' FNL & 2446' FEL--: LOCATION
CNTY.               Las Animas: COUNTY
SRVC.          Patterson Wireline: SERVICE COMPANY
DATE.          Mon Feb 06 09:50:04 2006: LOG DATE
UWI.           05 071 08672 00: UNIQUE WELL ID
STAT.                       CO: STATE
~Curve Information Block
DEPT.FT            0 000 00 00: Depth
CCL.                          : Casing Collar Locator
TT3.usec                      : CBL 3' Travel Time
AMP3.mV                       : CBL 3' Amplitude
GR.GAPI                       : Gamma Ray
~Parameter Information Block
~A  Depth       CCL         TT3         AMP3         GR     
# ...
   428.7500      0.0000    305.6242     21.2992     74.3861
   429.0000      0.0000    305.6226     21.3874     70.7814
   429.2500      0.0000    305.6263     21.4417     67.8265
   429.5000      0.0000    305.6442     21.4364     65.5604
   429.7500      0.0000    305.6831     21.3708     64.5299
   430.0000      0.0000    305.7419     21.2693     64.8550
   430.2500      0.0000    305.8131     21.1587     65.6330
   430.5000      0.0000    305.8904     21.0452     65.6472
   430.7500      0.0000    305.9751     20.9132     64.3093
   431.0000      0.0000    306.0724     20.7501     61.7015
   431.2500      0.0000    306.1800     20.5669     58.2744
   431.5000      0.0000    306.2826     20.3962     54.9287
   431.7500      0.0000    306.3580     20.2747     52.9707
   432.0000      0.0000    306.3907     20.2224     53.5399
   432.2500      0.0000    306.3790     20.2323     57.1315
   432.5000      0.0000    306.3329     20.2794     63.6160
   432.7500      0.0000    306.2654     20.3424     72.3235
   433.0000      0.0000    306.1886     20.4137     81.9360
   433.2500      0.0000    306.1140     20.4912     90.5046
   433.5000      0.0000    306.0497     20.5708     95.9756
   433.7500      0.0000    305.9936     20.6544     97.1926
   434.0000      0.0000    305.9299     20.7535     94.6201
   434.2500      0.0000    305.8413     20.8775     89.8617
   434.5000      0.0000    305.7285     21.0204     84.3490
   434.7500      0.0000    305.6180     21.1659     78.7046
   435.0000      0.0000    305.5410     21.3070     73.3265
   435.2500      0.0000    305.5031     21.4574     68.9808
   435.5000      0.0000    305.4761     21.6401     66.3574
   435.7500      0.0000    305.4234     21.8615     65.3023
   436.0000      0.0000    305.3325     22.0942     64.9265
   436.2500      0.0000    305.2249     22.2855     64.4531
   436.5000      0.0000    305.1383     22.3819     63.8132
   436.7500      0.0000    305.1040     22.3514     63.4835
   437.0000      0.0000    305.1351     22.1918     63.9620
   437.2500      0.0000    305.2263     21.9326     65.5222
   437.5000      0.0000    305.3558     21.6338     68.3272
   437.7500      0.0000    305.4875     21.3733     72.4265
   438.0000      0.0000    305.5872     21.2125     77.5349
   438.2500      0.0000    305.6493     21.1612     83.0663
   438.5000      0.0000    305.7119     21.1731     88.5046
   438.7500      0.0000    305.8368     21.1740     93.6398
   439.0000      0.0000    306.0558     21.1007     98.3361
   439.2500      0.0000    306.3275     20.9267    102.0561
   439.5000      0.0000    306.5598     20.6681    103.7671
   439.7500      0.0000    306.6914     20.3718    102.6300
   440.0000      0.0000    306.7407     20.0953     98.9344
   440.2500      0.0000    306.7614     19.8946     94.2394
   440.5000      0.0000    306.7763     19.8163     90.4161
   440.7500      0.0000    306.7746     19.8838     88.4234
   441.0000      0.0000    306.7492     20.0832     87.9507
   441.2500      0.0000    306.7113     20.3688     88.0280
   441.5000      0.0000    306.6713     20.6854     87.6912
   441.7500      0.0000    306.6222     20.9918     86.1243
   442.0000      0.0000    306.5516     21.2712     82.7564
   442.2500      0.0000    306.4646     21.5267     77.6759
   442.5000      0.0000    306.3918     21.7644     71.7601
   442.7500      0.0000    306.3691     21.9823     66.0701
   443.0000      0.0000    306.4058     22.1734     61.1747
   443.2500      0.0000    306.4718     22.3398     57.2533
   443.5000      0.0000    306.5178     22.4948     54.7409
   443.7500      0.0000    306.5104     22.6492     54.5256
   444.0000      0.0000    306.4521     22.7961     57.2045
   444.2500      0.0000    306.3715     22.9137     62.2212
   444.5000      0.0000    306.2964     22.9888     68.1375
   444.7500      0.0000    306.2320     23.0423     73.8303
   445.0000      0.0000    306.1592     23.1302     79.0853
   445.2500      0.0000    306.0517     23.3125     83.8341
   445.5000      0.0000    305.8950     23.6079     87.3235
   445.7500      0.0000    305.6975     23.9697     88.7119
   446.0000      0.0000    305.4875     24.3083     88.2856
   446.2500      0.0000    305.2972     24.5511     87.3219
   446.5000      0.0000    305.1448     24.6903     86.7322
   446.7500      0.0000    305.0303     24.7728     86.4053
   447.0000      0.0000    304.9469     24.8473     85.8477
   447.2500      0.0000    304.8908     24.9253     84.8872
   447.5000      0.0000    304.8624     24.9890     83.6303
   447.7500      0.0000    304.8609     25.0241     82.1344
   448.0000      0.0000    304.8836     25.0337     80.3868
   448.2500      0.0000    304.9255     25.0220     78.5829
   448.5000      0.0000    304.9807     24.9761     77.3848
   448.7500      0.0000    305.0405     24.8714     77.7909
   449.0000      0.0000    305.0928     24.6984     80.5107
   449.2500      0.0000    305.1265     24.4805     85.3510
   449.5000      0.0000    305.1388     24.2637     91.3755
   449.7500      0.0000    305.1375     24.0910     97.6759
   450.0000      0.0000    305.1323     23.9863    103.5983
   450.2500      0.0000    305.1242     23.9515    108.0729
   450.5000      0.0000    305.1054     23.9649    109.4257
   450.7500      0.0000    305.0691     23.9861    106.6204
   451.0000      0.0000    305.0207     23.9755    100.7453
   451.2500      0.0000    304.9766     23.9237     94.9230
   451.5000      0.0000    304.9487     23.8624     92.4300
   451.7500      0.0000    304.9317     23.8410     94.6023
   452.0000      0.0000    304.9080     23.8873    100.1595
   452.2500      0.0000    304.8660     23.9874    106.2378
   452.5000      0.0000    304.8111     24.0983    110.0561
   452.7500      0.0000    304.7617     24.1767    110.1028
   453.0000      0.0000    304.7365     24.1998    106.6285
   453.2500      0.0000    304.7466     24.1674    101.4945
   453.5000      0.0000    304.7916     24.0945     97.0145
   453.7500      0.0000    304.8607     24.0074     94.3235
   454.0000      0.0000    304.9387     23.9463     92.8868
   454.2500      0.0000    305.0172     23.9597     91.5902
   454.5000      0.0000    305.1002     24.0795     89.8930
   454.7500      0.0000    305.1866     24.2939     87.9024
   455.0000      0.0000    305.2386     24.5498     86.0254
   455.2500      0.0000    305.1879     24.7927     84.8690
   455.5000      0.0000    304.9978     25.0039     85.0746
   455.7500      0.0000    304.7111     25.1976     86.9619
   456.0000      0.0000    304.4184     25.3876     90.4326
   456.2500      0.0000    304.1896     25.5650     95.1057
   456.5000      0.0000    304.0445     25.7091    100.1385
   456.7500      0.0000    303.9678     25.8090    103.9341
   457.0000      0.0000    303.9329     25.8707    104.6675
   457.2500      0.0000    303.9168     25.9060    101.6111
   457.5000      0.0000    303.9085     25.9175     95.6678
   457.7500      0.0000    303.9101     25.8939     88.4087
   458.0000      0.0000    303.9294     25.8180     80.9625
   458.2500      0.0000    303.9720     25.6812     74.0786
   458.5000      0.0000    304.0386     25.4908     68.6711
   458.7500      0.0000    304.1279     25.2646     65.4707
   459.0000      0.0000    304.2391     25.0253     64.1206
   459.2500      0.0000    304.3678     24.8005     63.3666
   459.5000      0.0000    304.5021     24.6217     62.5772
   459.7500      0.0000    304.6241     24.5160     62.6578
   460.0000      0.0000    304.7167     24.4950     64.9737
   460.2500      0.0000    304.7720     24.5492     69.5454
   460.5000      0.0000    304.7957     24.6488     74.7849
   460.7500      0.0000    304.8104     24.7506     78.9808
   461.0000      0.0000    304.8646     24.8059     81.5987
   461.2500      0.0000    305.0948     24.7575     83.1319
   461.5000      0.0000    305.9424     24.5098     84.1829
   461.7500      0.0000    308.4973     23.9030     84.8703
   462.0000      0.0000    314.5506     22.7847     84.9398
