~Version Information
VERS.                      2.0: CWLS Log ASCII Standard - VERSION 2.0
WRAP.                       NO: One line per depth step
~Well Information Block
STRT.FT                -7.2500: 
STOP.FT              1334.7500: 
STEP.FT                 0.2500: 
NULL.                -999.2500: 
COMP.          Pioneer Natural Resources: COMPANY
WELL.          Buffet 41-36 Tr: WELL
FLD.           Purgatorie River: FIELD
LOC.           119' FNL & 271' FEL--: LOCATION
PROV.                       CO: PROVINCE
CNTY.               Las Animas: COUNTRY
SRVC.          Patterson Wireline: SERVICE COMPANY
DATE.          Tue Jan 03 09:43:31 2006: LOG DATE
UWI.           05 071 08627 00: UNIQUE WELL ID
~Curve Information Block
DEPT.FT            0 000 00 00: Depth
CCL.                          : Casing Collar Locator
TT3.usec                      : CBL 3' Travel Time
AMP3.mV                       : CBL 3' Amplitude
GR.GAPI                       : Gamma Ray
~Parameter Information Block
~A  Depth       CCL         TT3         AMP3         GR     
    -7.2500   -999.2500   -999.2500   -999.2500     81.5834
    -7.0000   -999.2500   -999.2500   -999.2500     85.5018
    -6.7500   -999.2500   -999.2500   -999.2500     86.7014
    -6.5000   -999.2500   -999.2500   -999.2500     86.1534
    -6.2500   -999.2500   -999.2500   -999.2500     84.9438
    -6.0000   -999.2500   -999.2500   -999.2500     84.1870
    -5.7500   -999.2500   -999.2500   -999.2500     84.9211
    -5.5000   -999.2500   -999.2500   -999.2500     87.1127
    -5.2500   -999.2500   -999.2500   -999.2500     89.1818
    -5.0000   -999.2500   -999.2500   -999.2500     89.4354
    -4.7500   -999.2500   -999.2500   -999.2500     87.7956
    -4.5000   -999.2500   -999.2500   -999.2500     85.5714
    -4.2500   -999.2500   -999.2500   -999.2500     83.8947
    -4.0000   -999.2500   -999.2500   -999.2500     82.9735
    -3.7500   -999.2500   -999.2500   -999.2500     82.5137
    -3.5000   -999.2500   -999.2500   -999.2500     82.2184
    -3.2500   -999.2500   -999.2500   -999.2500     81.8564
    -3.0000   -999.2500   -999.2500   -999.2500     81.3105
    -2.7500   -999.2500   -999.2500   -999.2500     80.9208
    -2.5000   -999.2500   -999.2500   -999.2500     81.6979
    -2.2500   -999.2500   1167.0000      1.0745     84.5991
    -2.0000   -999.2500   1167.0000      1.0693     89.2306
    -1.7500   -999.2500   1167.0000      1.0649     93.5699
    -1.5000   -999.2500   1167.0000      1.0617     95.3555
    -1.2500   -999.2500   1167.0000      1.0576     93.7016
    -1.0000   -999.2500   1167.0000      1.0519     89.2588
    -0.7500   -999.2500   1167.0000      1.0475     83.1701
    -0.5000   -999.2500   1167.0000      1.0486     76.2868
    -0.2500   -999.2500   1167.0000      1.0554     69.2485
     0.0000   -999.2500   1167.0000      1.0625     62.8063
     0.2500   -999.2500   1167.0000      1.0646     57.6646
     0.5000   -999.2500   1167.0000      1.0608     53.8679
     0.7500   -999.2500   1167.0000      1.0527     46.1961
     1.0000   -999.2500   1167.0000      1.0562     40.7112
     1.2500   -999.2500   1167.0000      1.0645     35.0628
     1.5000   -999.2500   1167.0000      1.0741     30.7911
     1.7500   -999.2500   1167.0000      1.0818     28.8792
     2.0000   -999.2500   1167.0000      1.0862     29.6632
     2.2500   -999.2500   1167.0000      1.0876     33.2193
     2.5000   -999.2500   1167.0000      1.0861     39.2893
     2.7500   -999.2500   1167.0000      1.0813     46.9641
     3.0000      0.0000   1167.0000      1.0721     54.9564
     3.2500      0.0000   1167.0000      1.0580     62.2294
     3.5000      0.0000   1167.0000      1.0401     68.0058
     3.7500      0.0000   1167.0000      1.0216     71.3868
     4.0000      0.0000   1167.0000      1.0090     71.7040
     4.2500      0.0000   1167.0000      1.0109     69.3703
     4.5000      0.0000   1167.0000      1.0320     65.9059
     4.7500      0.0000   1167.0000      1.0686     63.0347
     5.0000      0.0000   1166.9789      1.1093     61.9715
     5.2500      0.0000   1166.8020      1.1466     63.2631
     5.5000      0.0000   1165.8468      1.1986     66.6954
     5.7500      0.0000   1161.7800      1.3743     71.1838
     6.0000      0.0000   1148.1118      2.0329     75.1907
     6.2500      0.0000   1111.8074      4.0425     77.6955
     6.5000      0.0000   1035.5508      8.8817     78.8497
     6.7500      0.0000    908.8544     18.0610     79.6670
     7.0000      0.0000    742.3967     31.7734     81.1806
     7.2500      0.0000    569.5805     47.9138     83.7713
     7.5000      0.0000    427.9593     62.9098     86.8903
     7.7500      0.0000    336.4762     73.9477     89.4181
     8.0000      0.0000    289.9629     80.4341     90.5632
     8.2500      0.0000    271.3737     83.5375     90.3115
     8.5000      0.0000    265.5349     84.8160     88.9249
     8.7500      0.0000    264.0851     85.3343     86.4312
     9.0000      0.0000    263.7909     85.5663     82.9439
     9.2500      0.0000    263.7394     85.6489     79.2707
     9.5000      0.0000    263.7384     85.6232     76.9197
     9.7500      0.0000    263.7496     85.5527     77.1731
    10.0000      0.0000    263.7692     85.5210     79.9590
    10.2500      0.0000    263.7910     85.5763     83.8483
    10.5000      0.0000    263.8097     85.7023     87.4128
    10.7500      0.0000    263.8232     85.8444     90.3529
    11.0000      0.0000    263.8324     85.9520     93.1138
    11.2500      0.0000    263.8396     85.9967     95.8564
    11.5000      0.0000    263.8466     85.9720     98.3446
    11.7500      0.0000    263.8537     85.8911    100.5726
    12.0000      0.0000    263.8587     85.7807    102.7039
    12.2500      0.0000    263.8597     85.6687    104.4385
    12.5000      0.0000    263.8559     85.5742    105.1950
    12.7500      0.0000    263.8491     85.5017    104.9219
    13.0000      0.0000    263.8424     85.4412    104.0059
    13.2500      0.0000    263.8386     85.3609    102.4964
    13.5000      0.0000    263.8391     85.1773    100.1678
    13.7500      0.0000    263.8463     84.6948     97.0850
    14.0000      0.0000    263.8714     83.5708     93.5019
    14.2500      0.0000    263.9422     81.3887     89.4714
    14.5000      0.0000    264.1092     77.8481     84.9029
    14.7500      0.0000    264.4662     72.9462     79.7160
    15.0000      0.0000    265.2127     67.0064     73.9264
    15.2500      0.0000    266.7616     60.5353     67.9808
    15.5000      0.0000    269.7646     54.0145     63.0124
    15.7500      0.0000    274.8475     47.7518     60.4322
    16.0000      0.0000    282.0944     41.8590     61.0961
    16.2500      0.0000    290.8425     36.3537     64.8187
    16.5000      0.0000    300.2061     31.2903     70.4294
    16.7500      0.0000    309.7589     26.7974     76.2783
    17.0000      0.0000    319.4498     23.0066     81.0571
    17.2500      0.0000    329.3693     19.9746     84.3943
    17.5000      0.0000    340.9044     17.6749     86.6640
    17.7500      0.0000    359.3772     16.0223     88.4890
    18.0000      0.0000    395.0874     14.8883     90.6036
    18.2500      0.0000    458.4663     14.1227     93.6817
    18.5000      0.0000    549.9625     13.5948     97.6595
    18.7500      0.0000    654.0408     13.2182    101.3471
    19.0000      0.0000    746.4559     12.9379    103.0972
    19.2500      0.0000    809.1199     12.7080    101.8910
    19.5000      0.0000    837.2022     12.4944     98.0170
    19.7500      0.0000    833.4009     12.2988     93.0959
    20.0000      0.0000    799.7263     12.1660     89.1387
    20.2500      0.0000    738.1099     12.1501     87.0076
    20.5000      0.0000    659.9982     12.2594     85.8877
    20.7500      0.0000    592.4277     12.4313     84.5000
    21.0000      0.0000    567.1842     12.5739     82.4231
    21.2500      0.0000    597.7850     12.6349     80.0321
    21.5000      0.0000    667.0431     12.6264     77.7313
    21.7500      0.0000    739.4534     12.5860     75.7069
    22.0000      0.0000    784.8365     12.5262     74.1048
    22.2500      0.0000    791.4276     12.4249     73.1603
    22.5000      0.0000    764.4867     12.2588     73.1289
    22.7500      0.0000    720.4099     12.0420     73.9245
    23.0000      0.0000    680.5814     11.8283     74.8031
    23.2500      0.0000    662.9529     11.6737     74.8443
    23.5000      0.0000    673.7784     11.5969     73.9461
    23.7500      0.0000    705.1193     11.5780     72.9152
    24.0000      0.0000    740.7300     11.5858     72.3977
    24.2500      0.0000    766.8675     11.5935     72.2075
    24.5000      0.0000    779.5851     11.5729     71.8363
    24.7500      0.0000    782.9910     11.4967     71.0045
    25.0000      0.0000    782.7762     11.3599     69.6433
    25.2500      0.0000    782.4118     11.1965     68.0330
    25.5000      0.0000    783.5434     11.0662     67.0196
    25.7500      0.0000    787.7656     11.0188     67.3843
    26.0000      0.0000    796.9646     11.0644     68.7851
