~Version Information
VERS.                      2.0: CWLS Log ASCII Standard - VERSION 2.0
WRAP.                       NO: One line per depth step
~Well Information Block
STRT.FT                -6.0000: 
STOP.FT              1295.2500: 
STEP.FT                 0.2500: 
NULL.                -999.2500: 
COMP.          Pioneer Natural Resources: COMPANY
WELL.            Erin 21-15 Tr: WELL
FLD.           Purgatoire River: FIELD
LOC.           1217' FNL & 2284' FWL--: LOCATION
CNTY.               Las Animas: COUNTY
SRVC.                         : SERVICE COMPANY
DATE.          Fri Mar 10 09:14:17 2006: LOG DATE
UWI.           05 071 08712 00: UNIQUE WELL ID
STAT.                       CO: STATE
~Curve Information Block
DEPT.FT            0 000 00 00: Depth
GR.GAPI                       : Gamma Ray
CCL.                          : Casing Collar Locator
TT3.usec                      : CBL 3' Travel Time
AMP3.mV                       : CBL 3' Amplitude
~Parameter Information Block
~A  Depth        GR         CCL         TT3         AMP3    
# ...
   597.0000    104.4500      0.0000    740.2228     13.4492
   597.2500    100.7743      0.0000    754.1524     14.3496
   597.5000     97.6324      0.0000    761.5144     14.9011
   597.7500     96.1940      0.0000    763.0960     15.0168
   598.0000     97.5471      0.0000    761.0008     14.8519
   598.2500    102.0287      0.0000    757.0253     14.5784
   598.5000    108.4993      0.0000    752.7187     14.2204
   598.7500    114.9493      0.0000    749.7418     13.7278
   599.0000    119.9413      0.0000    749.7422     13.1120
   599.2500    123.0153      0.0000    753.8698     12.4699
   599.5000    123.9500      0.0000    762.0384     11.9128
   599.7500    122.4373      0.0000    772.6355     11.5001
   600.0000    118.6065      0.0000    782.8665     11.2312
   600.2500    113.5073      0.0000    789.7066     11.0812
   600.5000    108.8889      0.0000    791.6655     11.0265
   600.7500    106.2024      0.0000    790.4390     11.0380
   601.0000    105.4420      0.0000    789.8500     11.0814
   601.2500    105.0248      0.0000    791.8377     11.1364
   601.5000    103.0646      0.0000    793.9014     11.2079
   601.7500     98.8183      0.0000    791.6941     11.3065
   602.0000     92.9398      0.0000    784.2355     11.4252
   602.2500     86.6926      0.0000    775.9939     11.5415
   602.5000     81.2465      0.0000    773.4175     11.6331
   602.7500     77.6699      0.0000    779.2768     11.6788
   603.0000     77.1895      0.0000    790.5357     11.6547
   603.2500     80.9506      0.0000    801.4742     11.5480
   603.5000     89.1211      0.0000    807.9818     11.3747
   603.7500    100.2495      0.0000    808.9033     11.1715
   604.0000    111.7861      0.0000    804.8210     10.9764
   604.2500    121.3182      0.0000    796.8905     10.8249
   604.5000    127.3895      0.0000    786.4351     10.7461
   604.7500    129.6623      0.0000    774.5500     10.7371
   605.0000    128.9094      0.0000    762.0511     10.7477
   605.2500    126.8044      0.0000    750.4407     10.7193
   605.5000    125.1207      0.0000    742.4649     10.6461
   605.7500    124.6486      0.0000    740.2096     10.5774
   606.0000    124.8330      0.0000    742.4196     10.5622
   606.2500    124.5994      0.0000    745.0611     10.6142
   606.5000    123.6005      0.0000    745.1969     10.7305
   606.7500    122.6530      0.0000    743.6021     10.9009
   607.0000    122.8684      0.0000    743.3737     11.0813
   607.2500    124.2979      0.0000    746.7065     11.1911
   607.5000    125.7607      0.0000    753.1565     11.1702
   607.7500    126.3730      0.0000    760.3667     11.0361
   608.0000    126.7750      0.0000    766.0490     10.8694
   608.2500    128.1652      0.0000    769.3643     10.7460
   608.5000    130.4551      0.0000    770.7873     10.6918
   608.7500    132.1981      0.0000    771.1082     10.7022
   609.0000    132.2663      0.0000    770.6750     10.7852
   609.2500    130.8590      0.0000    769.1992     10.9730
   609.5000    128.8265      0.0000    766.0644     11.2929
   609.7500    126.7173      0.0000    761.0901     11.7388
   610.0000    124.8369      0.0000    755.2249     12.2732
   610.2500    123.6243      0.0000    750.1624     12.8464
   610.5000    123.1950      0.0000    747.0758     13.3991
   610.7500    122.5336      0.0000    746.0342     13.8579
   611.0000    119.9187      0.0000    746.3425     14.1627
   611.2500    114.6883      0.0000    746.5359     14.3149
   611.5000    108.2894      0.0000    744.4504     14.3682
   611.7500    103.1889      0.0000    738.8015     14.3479
   612.0000    101.0806      0.0000    730.9816     14.2084
   612.2500    102.3885      0.0000    724.5621     13.9090
   612.5000    106.7704      0.0000    723.0532     13.5080
   612.7500    113.2086      0.0000    728.3464     13.1329
   613.0000    119.7163      0.0000    740.3889     12.8479
   613.2500    123.9206      0.0000    756.9487     12.5875
   613.5000    124.6856      0.0000    773.7528     12.2385
   613.7500    123.0337      0.0000    786.4221     11.7671
   614.0000    120.8350      0.0000    793.3027     11.2484
   614.2500    118.4995      0.0000    795.8561     10.7926
   614.5000    114.5877      0.0000    795.8434     10.4605
   614.7500    107.8112      0.0000    793.0699     10.2440
   615.0000     98.7668      0.0000    786.4059     10.1038
   615.2500     89.6355      0.0000    775.9324     10.0146
   615.5000     82.9199      0.0000    763.4269      9.9767
   615.7500     80.5617      0.0000    751.8419      9.9947
   616.0000     83.4831      0.0000    744.7552     10.0513
   616.2500     91.2498      0.0000    744.6831     10.1103
   616.5000    102.0506      0.0000    750.7422     10.1466
   616.7500    113.3724      0.0000    758.6791     10.1645
   617.0000    123.2400      0.0000    763.7929     10.1815
   617.2500    130.9713      0.0000    763.6379     10.2037
   617.5000    136.6515      0.0000    758.8561     10.2207
   617.7500    140.2330      0.0000    752.9979     10.2238
   618.0000    141.5531      0.0000    751.0862     10.2212
   618.2500    140.7536      0.0000    756.0427     10.2296
   618.5000    138.0659      0.0000    765.6639     10.2490
   618.7500    133.4993      0.0000    774.3231     10.2641
   619.0000    127.2664      0.0000    778.0909     10.2769
   619.2500    120.3053      0.0000    777.3842     10.3144
   619.5000    113.9807      0.0000    774.9998     10.3929
   619.7500    109.1598      0.0000    773.0679     10.4885
   620.0000    105.6517      0.0000    772.1149     10.5554
   620.2500    102.5768      0.0000    771.8205     10.5683
   620.5000     99.2930      0.0000    771.8089     10.5419
   620.7500     96.1040      0.0000    771.8777     10.5181
   621.0000     94.2072      0.0000    771.9459     10.5365
   621.2500     94.8094      0.0000    772.0020     10.6137
   621.5000     98.1427      0.0000    772.0778     10.7431
   621.7500    103.3818      0.0000    772.1898     10.9046
   622.0000    109.3704      0.0000    772.2983     11.0699
   622.2500    115.2066      0.0000    772.3502     11.2019
   622.5000    120.3470      0.0000    772.3471     11.2659
   622.7500    124.4622      0.0000    772.3467     11.2512
   623.0000    127.2414      0.0000    772.3997     11.1794
   623.2500    128.3004      0.0000    772.4937     11.1005
   623.5000    127.2909      0.0000    772.5530     11.0828
   623.7500    124.2177      0.0000    772.4870     11.1768
   624.0000    119.9622      0.0000    772.2615     11.3577
   624.2500    116.3881      0.0000    771.9366     11.5217
   624.5000    115.2669      0.0000    771.6290     11.5693
   624.7500    116.8168      0.0000    771.4295     11.4876
   625.0000    119.5997      0.0000    771.3609     11.3415
   625.2500    121.8437      0.0000    771.4017     11.2068
   625.5000    122.4709      0.0000    771.5281     11.1246
   625.7500    121.2303      0.0000    771.7614     11.0974
   626.0000    118.8451      0.0000    772.2296     11.1003
   626.2500    117.0958      0.0000    773.2206     11.0958
   626.5000    117.6790      0.0000    775.0566     11.0526
   626.7500    120.3862      0.0000    777.6465     10.9623
   627.0000    122.9640      0.0000    780.0024     10.8427
   627.2500    123.2788      0.0000    780.4779     10.7236
   627.5000    121.3384      0.0000    777.7703     10.6315
   627.7500    119.0376      0.0000    771.7151     10.5801
   628.0000    118.4512      0.0000    763.2813     10.5680
   628.2500    120.7257      0.0000    754.3588     10.5824
   628.5000    126.1112      0.0000    747.5259     10.6098
   628.7500    134.0443      0.0000    745.1967     10.6444
   629.0000    142.7651      0.0000    748.3414     10.6867
   629.2500    149.5598      0.0000    755.9898     10.7380
   629.5000    152.1421      0.0000    766.1285     10.7950
   629.7500    149.7697      0.0000    777.0697     10.8455
   630.0000    143.1916      0.0000    787.7326     10.8689
   630.2500    134.3550      0.0000    796.7716     10.8452
