~Version Information
VERS.                      2.0: CWLS Log ASCII Standard - VERSION 2.0
WRAP.                       NO: One line per depth step
~Well Information Block
STRT.FT               840.0000: 
STOP.FT              1913.5000: 
STEP.FT                 0.2500: 
NULL.                -999.2500: 
COMP.          Petrogulf Corporation: COMPANY
WELL.             Kraft 17-23R: WELL
FLD.           Purgatorie River: FIELD
LOC.           1509' FSL & 1673' FWL: LOCATION
PROV.                 Colorado: PROVINCE
CNTY.               Las Animas: COUNTRY
SRVC.                Patterson: SERVICE COMPANY
DATE.          Tue Oct 11 13:03:25 2005: LOG DATE
UWI.                          : UNIQUE WELL ID
~Curve Information Block
DEPT.FT            0 000 00 00: Depth
SP.mV                         : DIL Spontaneous Potential
RILD.Ohm-m                    : DIL Deep Resistivity
RILM.Ohm-m                    : DIL Medium Resistivity
RLL3.Ohm-m                    : DIL Shallow Resistivity
GR.GAPI                       : Gamma Ray
~Parameter Information Block
~A  Depth        SP         RILD        RILM        RLL3         GR     
# ...
  1736.0000    227.6543     11.2529     12.0864     12.0364    107.8665
  1736.2500    226.5723     11.2038     12.1731     13.0259    110.1312
  1736.5000    225.3281     11.0508     12.2238     14.7537    113.6298
  1736.7500    223.9415     10.8086     12.2059     16.9653    114.6493
  1737.0000    222.4472     10.5079     12.0899     19.0169    112.3536
  1737.2500    220.9028     10.1859     11.8596     20.0820    108.5464
  1737.5000    219.3819      9.8769     11.5194     19.6267    101.9663
  1737.7500    217.9544      9.6061     11.0951     17.7799     98.7660
  1738.0000    216.6684      9.3891     10.6260     15.2409     97.7019
  1738.2500    215.5458      9.2320     10.1548     12.8152     99.6021
  1738.5000    214.5886      9.1344      9.7183     10.9995    105.1949
  1738.7500    213.7846      9.0911      9.3439      9.8895    109.8751
  1739.0000    213.1042      9.0951      9.0493      9.3322    117.2302
  1739.2500    212.4957      9.1406      8.8454      9.1144    121.8020
  1739.5000    211.8911      9.2258      8.7395      9.0802    127.0058
  1739.7500    211.2246      9.3529      8.7379      9.2040    128.9685
  1740.0000    210.4571      9.5274      8.8486      9.6874    130.3577
  1740.2500    209.5942      9.7566      9.0822     11.1073    131.1295
  1740.5000    208.6882     10.0483      9.4530     14.5252    132.3495
  1740.7500    207.8255     10.4120      9.9792     21.3123    132.0833
  1741.0000    207.1055     10.8609     10.6835     32.4710    127.2143
  1741.2500    206.6188     11.4126     11.5930     47.7252    120.0732
  1741.5000    206.4315     12.0891     12.7392     65.2797    104.4236
  1741.7500    206.5790     12.9143     14.1593     82.8360     92.2884
  1742.0000    207.0673     13.9118     15.8966     98.9884     74.4954
  1742.2500    207.8815     15.1016     18.0014    113.4296     64.1939
  1742.5000    208.9949     16.4929     20.5278    125.8766     52.1940
  1742.7500    210.3748     18.0711     23.5221    135.3907     46.4738
  1743.0000    211.9865     19.7766     26.9941    141.1037     40.4413
  1743.2500    213.7972     21.4831     30.8601    143.2167     37.6019
  1743.5000    215.7787     22.9943     34.8605    142.7208     34.9158
  1743.7500    217.9089     24.0837     38.4913    140.0671     34.3777
  1744.0000    220.1688     24.5739     41.0515    134.3322     35.8844
  1744.2500    222.5400     24.4093     41.8965    123.7924     38.6666
  1744.5000    225.0005     23.6663     40.7952    107.4894     45.8143
  1744.7500    227.5194     22.5008     38.0738     86.6256     52.4703
  1745.0000    230.0505     21.0809     34.3968     64.6430     64.3752
  1745.2500    232.5337     19.5477     30.4189     45.6856     72.8480
  1745.5000    234.9106     18.0065     26.5870     32.5036     85.5869
  1745.7500    237.1472     16.5318     23.1284     25.3527     94.1023
  1746.0000    239.2480     15.1721     20.1223     22.4338    106.7712
  1746.2500    241.2502     13.9526     17.5694     21.2031    114.3515
  1746.5000    243.1972     12.8795     15.4369     19.6676    122.2373
  1746.7500    245.1043     11.9457     13.6795     17.1140    124.4333
  1747.0000    246.9368     11.1372     12.2486     14.0125    123.9481
  1747.2500    248.6184     10.4373     11.0956     11.2676    122.4101
  1747.5000    250.0690      9.8297     10.1742      9.4548    120.5598
  1747.7500    251.2465      9.2990      9.4412      8.5816    120.5166
  1748.0000    252.1593      8.8316      8.8579      8.3205    122.7031
  1748.2500    252.8477      8.4173      8.3908      8.3278    125.3510
  1748.5000    253.3525      8.0503      8.0121      8.3923    129.9484
  1748.7500    253.6988      7.7292      7.7005      8.4263    132.6734
  1749.0000    253.8978      7.4565      7.4409      8.4030    135.1700
  1749.2500    253.9582      7.2357      7.2244      8.3128    135.4235
  1749.5000    253.8918      7.0693      7.0465      8.1503    133.9985
  1749.7500    253.7117      6.9572      6.9065      7.9229    132.5815
  1750.0000    253.4259      6.8964      6.8055      7.6641    131.1087
  1750.2500    253.0305      6.8812      6.7453      7.4343    130.8893
  1750.5000    252.5082      6.9036      6.7273      7.3057    131.4473
  1750.7500    251.8343      6.9540      6.7519      7.3455    132.0424
  1751.0000    250.9905      7.0213      6.8178      7.6095    132.5371
  1751.2500    249.9795      7.0937      6.9209      8.1352    132.1972
  1751.5000    248.8264      7.1598      7.0543      8.9211    130.1899
  1751.7500    247.5622      7.2111      7.2077      9.9028    127.7993
  1752.0000    246.1993      7.2436      7.3673     10.9499    123.3113
  1752.2500    244.7192      7.2595      7.5173     11.8933    120.6157
  1752.5000    243.0807      7.2658      7.6419     12.5685    118.5182
  1752.7500    241.2471      7.2730      7.7280     12.8599    118.5534
  1753.0000    239.2161      7.2915      7.7684     12.7336    119.5615
  1753.2500    237.0335      7.3302      7.7638     12.2419    119.9835
  1753.5000    234.7792      7.3950      7.7232     11.4965    119.5229
  1753.7500    232.5364      7.4886      7.6618     10.6270    118.6341
  1754.0000    230.3667      7.6100      7.5992      9.7475    117.1850
  1754.2500    228.3051      7.7551      7.5555      8.9452    116.6518
  1754.5000    226.3713      7.9160      7.5498      8.2918    117.3368
  1754.7500    224.5880      8.0818      7.5980      7.8737    119.1261
  1755.0000    222.9968      8.2389      7.7114      7.8479    123.4805
  1755.2500    221.6732      8.3722      7.8954      8.5355    126.5511
  1755.5000    220.7337      8.4689      8.1477     10.4935    129.3561
  1755.7500    220.3261      8.5223      8.4550     14.3726    129.3725
  1756.0000    220.5974      8.5355      8.7914     20.3618    126.7913
  1756.2500    221.6445      8.5209      9.1185     27.4241    123.6592
  1756.5000    223.4635      8.4972      9.3912     33.1598    117.1055
  1756.7500    225.9209      8.4841      9.5695     35.0016    111.8658
  1757.0000    228.7631      8.4977      9.6321     32.0698    104.7001
  1757.2500    231.6658      8.5469      9.5835     25.8931    102.1416
  1757.5000    234.3096      8.6320      9.4512     19.2055    103.9217
  1757.7500    236.4543      8.7444      9.2730     14.0911    108.9874
  1758.0000    237.9864      8.8675      9.0854     11.1525    120.6213
  1758.2500    238.9236      8.9799      8.9149      9.9259    129.3515
  1758.5000    239.3822      9.0600      8.7766      9.6538    140.8968
  1758.7500    239.5222      9.0917      8.6763      9.7450    146.3610
  1759.0000    239.5001      9.0697      8.6132      9.8957    150.8093
  1759.2500    239.4433      9.0010      8.5835     10.0529    151.8411
  1759.5000    239.4478      8.9019      8.5821     10.3147    151.9754
  1759.7500    239.5861      8.7930      8.6040     10.7893    151.8966
  1760.0000    239.9120      8.6945      8.6451     11.4625    151.9144
  1760.2500    240.4536      8.6227      8.7015     12.1628    151.4103
  1760.5000    241.1998      8.5903      8.7705     12.6594    148.1154
  1760.7500    242.0932      8.6058      8.8506     12.8109    143.6301
  1761.0000    243.0384      8.6744      8.9424     12.6351    134.2767
  1761.2500    243.9245      8.7961      9.0480     12.2806    127.7933
  1761.5000    244.6472      8.9647      9.1715     11.9642    120.9624
  1761.7500    245.1213      9.1666      9.3168     11.9032    119.7154
  1762.0000    245.2817      9.3829      9.4863     12.2320    122.7702
  1762.2500    245.0845      9.5933      9.6793     12.9378    126.6827
  1762.5000    244.5112      9.7810      9.8907     13.8689    132.3072
  1762.7500    243.5709      9.9374     10.1109     14.8047    134.8214
  1763.0000    242.3015     10.0635     10.3277     15.5312    136.5489
  1763.2500    240.7682     10.1683     10.5289     15.8981    136.6632
  1763.5000    239.0571     10.2660     10.7057     15.8654    135.9355
  1763.7500    237.2568     10.3730     10.8551     15.5261    135.3288
