~Version Information
VERS.                      2.0: CWLS Log ASCII Standard - VERSION 2.0
WRAP.                       NO: One line per depth step
~Well Information Block
STRT.FT                31.2500: 
STOP.FT               700.7500: 
STEP.FT                 0.2500: 
NULL.                -999.2500: 
COMP.          XTO Energy Inc.: COMPANY
WELL.          Golden Eagle 20-14: WELL
FLD.           Purgatrorie River: FIELD
LOC.           587' FSL & 2478' FWL--: LOCATION
STAT.                       CO: State
CNTY.               Las Animas: COUNTY
CTRY. USA : Country
SECT. 20 : Section
TOWN. 33S : Township
RANG. 67W : Range
SRVC.          Patterson Wireline: SERVICE COMPANY
DATE.          Sat Dec 10 15:54:00 2005: LOG DATE
API.           05 071 08614 00: UNIQUE WELL ID
~Curve Information Block
DEPT.FT            0 000 00 00: Depth
CCL.                          : Casing Collar Locator
TT3.usec                      : CBL 3' Travel Time
AMP3.mV                       : CBL 3' Amplitude
GR.GAPI                       : Gamma Ray
~Parameter Information Block
~A  Depth       CCL         TT3         AMP3         GR     
    31.2500   -999.2500   -999.2500   -999.2500     49.0347
    31.5000   -999.2500   -999.2500   -999.2500     49.9602
    31.7500   -999.2500   -999.2500   -999.2500     51.1611
    32.0000   -999.2500   -999.2500   -999.2500     52.7442
    32.2500   -999.2500   -999.2500   -999.2500     54.6131
    32.5000   -999.2500   -999.2500   -999.2500     56.3070
    32.7500   -999.2500   -999.2500   -999.2500     57.2688
    33.0000   -999.2500   -999.2500   -999.2500     57.4031
    33.2500   -999.2500   -999.2500   -999.2500     57.6269
    33.5000   -999.2500   -999.2500   -999.2500     59.7399
    33.7500   -999.2500   -999.2500   -999.2500     65.2884
    34.0000   -999.2500   -999.2500   -999.2500     74.3042
    34.2500   -999.2500   -999.2500   -999.2500     85.1748
    34.5000   -999.2500   -999.2500   -999.2500     95.8428
    34.7500   -999.2500   -999.2500   -999.2500    105.1387
    35.0000   -999.2500   -999.2500   -999.2500    112.9923
    35.2500   -999.2500   -999.2500   -999.2500    119.6391
    35.5000   -999.2500   -999.2500   -999.2500    125.0127
    35.7500   -999.2500   -999.2500   -999.2500    129.0462
    36.0000   -999.2500   -999.2500   -999.2500    132.1130
    36.2500   -999.2500   -999.2500   -999.2500    134.5412
    36.5000   -999.2500    894.0000      2.3679    135.7173
    36.7500   -999.2500    894.0000      2.3688    134.2428
    37.0000   -999.2500    894.0000      2.3699    129.3131
    37.2500   -999.2500    894.0000      2.3717    122.0022
    37.5000   -999.2500    894.0000      2.3765    115.0518
    37.7500   -999.2500    894.0000      2.3862    111.2461
    38.0000   -999.2500    894.0000      2.3999    111.9048
    38.2500   -999.2500    894.0000      2.4142    116.4666
    38.5000   -999.2500    894.0000      2.4256    122.7128
    38.7500   -999.2500    894.0000      2.4320    127.4295
    39.0000   -999.2500    894.0000      2.4330    128.0126
    39.2500   -999.2500    894.0000      2.4296    124.1443
    39.5000   -999.2500    894.0000      2.4236    117.8447
    39.7500   -999.2500    894.0000      2.4164    112.0132
    40.0000   -999.2500    894.0000      2.4079    108.8885
    40.2500   -999.2500    894.0000      2.3968    109.0987
    40.5000   -999.2500    894.0000      2.3841    111.5024
    40.7500   -999.2500    894.0000      2.3733    114.0916
    41.0000   -999.2500    894.0000      2.3678    115.3525
    41.2500   -999.2500    894.0000      2.3671    114.8607
    41.5000   -999.2500    894.0000      2.3682    112.7599
    41.7500   -999.2500    894.0000      2.3694    109.2742
    42.0000   -999.2500    894.0000      2.3717    104.9593
    42.2500      0.0000    894.0000      2.3762    100.7548
    42.5000      0.0000    894.0000      2.3814     97.1502
    42.7500      0.0000    894.0000      2.3836     93.5327
    43.0000      0.0000    894.0000      2.3801     88.8099
    43.2500      0.0000    894.0000      2.3721     82.6015
    43.5000      0.0000    894.0000      2.3622     75.5469
    43.7500      0.0000    894.0000      2.3524     68.6852
    44.0000      0.0000    894.0000      2.3450     63.0206
    44.2500      0.0000    894.0000      2.3436     59.4903
    44.5000      0.0000    894.0000      2.3503     58.5942
    44.7500      0.0000    894.0000      2.3634     59.7365
    45.0000      0.0000    894.0000      2.3781     61.2611
    45.2500      0.0000    894.0000      2.3899     61.5364
    45.5000      0.0000    894.0000      2.3968     60.1258
    45.7500      0.0000    894.0000      2.3996     57.9789
    46.0000      0.0000    894.0000      2.4002     56.6387
    46.2500      0.0000    894.0000      2.4001     57.1386
    46.5000      0.0000    894.0000      2.4009     59.1806
    46.7500      0.0000    894.0000      2.4044     61.1964
    47.0000      0.0000    894.0000      2.4112     61.5479
    47.2500      0.0000    894.0000      2.4197     59.7934
    47.5000      0.0000    894.0000      2.4272     56.6581
    47.7500      0.0000    894.0000      2.4306     52.9857
    48.0000     -1.5506    894.0000      2.4281     49.1515
    48.2500      0.8249    894.0000      2.4203     45.4010
    48.5000      2.0000    894.0000      2.4106     42.2505
    48.7500     -1.2430    894.0000      2.4036     40.3465
    49.0000      0.0000    894.0000      2.4012     40.0460
    49.2500      0.0000    894.0000      2.4017     41.2492
    49.5000      0.0000    894.0000      2.4017     43.6950
    49.7500      0.0000    894.0000      2.3986     47.4105
    50.0000      0.0000    894.0000      2.3913     52.8229
    50.2500      0.0000    894.0000      2.3799     60.3109
    50.5000      0.0000    894.0000      2.3663     69.3311
    50.7500      0.6705    894.0000      2.3546     77.7818
    51.0000      0.0000    894.0000      2.3491     82.7039
    51.2500      0.9448    894.0000      2.3521     82.3955
    51.5000      0.0000    894.0000      2.3637     78.0251
    51.7500      0.0000    894.0000      2.3805     72.8612
    52.0000      0.0000    894.0000      2.3955     69.7846
    52.2500      0.0000    894.0000      2.4021     69.4432
    52.5000      0.0000    894.0000      2.3982     70.4380
    52.7500      0.0000    894.0000      2.3882     70.8760
    53.0000      0.0000    894.0000      2.3797     69.7333
    53.2500      0.0000    894.0000      2.3783     67.1524
    53.5000      0.0000    894.0000      2.3825     63.8998
    53.7500      0.0000    894.0000      2.3869     60.7829
    54.0000      0.0000    894.0000      2.3879     58.5237
    54.2500      0.0000    894.0000      2.3863     57.7555
    54.5000      0.0000    894.0000      2.3854     58.7970
    54.7500      0.0000    894.0000      2.3876     61.4716
    55.0000      0.0000    894.0000      2.3920     65.1654
    55.2500      0.0000    894.0000      2.3966     68.8111
    55.5000      0.0000    894.0000      2.4002     70.9069
    55.7500      0.0000    894.0000      2.4037     70.1620
    56.0000      0.0000    894.0000      2.4090     66.6427
    56.2500      0.0000    894.0000      2.4176     62.1728
    56.5000      0.0000    894.0000      2.4283     59.0839
    56.7500      0.0000    894.0000      2.4368     58.3895
    57.0000      0.0000    894.0000      2.4383     59.3420
    57.2500      0.0000    894.0000      2.4311     60.6324
    57.5000      0.0000    894.0000      2.4186     61.7483
    57.7500      0.0000    894.0000      2.4065     63.3713
    58.0000      0.0000    894.0000      2.3994     66.8457
    58.2500      0.0000    894.0000      2.3993     73.1549
    58.5000      0.0000    894.0000      2.4060     82.1975
    58.7500      0.0000    894.0000      2.4170     93.0031
    59.0000      0.0000    894.0000      2.4274    104.3769
    59.2500      0.0000    894.0000      2.4318    115.0457
    59.5000      0.0000    894.0000      2.4276    123.5568
    59.7500      0.0000    894.0000      2.4177    128.8116
    60.0000      0.0000    894.0000      2.4079    130.9006
    60.2500      0.0000    894.0000      2.4037    131.0650
    60.5000      0.0000    894.0000      2.4068    130.7453
    60.7500      0.0000    894.0000      2.4152    130.9642
    61.0000      0.0000    894.0000      2.4244    132.4876
    61.2500      0.0000    894.0000      2.4297    135.9811
    61.5000      0.0000    894.0000      2.4279    141.6908
    61.7500      0.0000    894.0000      2.4180    149.0182
    62.0000      0.0000    894.0000      2.4024    156.5352
    62.2500      0.0000    894.0000      2.3869    162.6033
    62.5000      0.0000    894.0000      2.3787    166.1883
    62.7500      0.0000    894.0000      2.3797    167.1847
    63.0000      0.0000    894.0000      2.3848    166.2008
    63.2500      0.0000    894.0000      2.3868    164.4107
    63.5000      0.0000    894.0000      2.3828    163.5081
    63.7500      0.0000    894.0000      2.3770    164.9536
    64.0000      0.0000    894.0000      2.3751    168.5733
    64.2500      0.0000    894.0000      2.3793    172.2184
    64.5000      0.0000    894.0000      2.3865    173.1455
