~Version Information
VERS.                      2.0: CWLS Log ASCII Standard - VERSION 2.0
WRAP.                       NO: One line per depth step
~Well Information Block
STRT.FT                -2.0000: 
STOP.FT              2017.5000: 
STEP.FT                 0.2500: 
NULL.                -999.2500: 
COMP.          Pioneer Natural Resources: COMPANY
WELL.            Zink 44-10 Tr: WELL
FLD.           Purgatoire River: FIELD
LOC.           486' FSL & 554' FEL--: LOCATION
PROV.                 Colorado: PROVINCE
CNTY.               Las Animas: COUNTRY
SRVC.                Patterson: SERVICE COMPANY
DATE.          Mon Aug 01 14:01:23 2005: LOG DATE
UWI.           05 071 08446 00: UNIQUE WELL ID
~Curve Information Block
DEPT.FT            0 000 00 00: Depth
CCL.                          : Casing Collar Locator
TT3.usec                      : CBL 3' Travel Time
AMP3.mV                       : CBL 3' Amplitude
GR.GAPI                       : Gamma Ray
~Parameter Information Block
~A  Depth       CCL         TT3         AMP3         GR     
# ...
   266.0000      0.0000    910.5480     15.8929     56.2063
   266.2500      0.0000    911.9841     15.7699     59.7980
   266.5000      0.0000    915.0558     15.6725     65.5213
   266.7500      0.0000    920.5220     15.6003     72.4712
   267.0000      0.0000    928.2900     15.5431     78.5565
   267.2500      0.0000    936.8351     15.4804     81.6687
   267.5000      0.0000    943.4321     15.3910     81.1433
   267.7500      0.0000    945.0028     15.2676     78.3632
   268.0000      0.0000    939.6735     15.1257     75.6507
   268.2500      0.0000    930.8400     15.0031     74.2542
   268.5000      0.0000    932.3613     14.9499     73.4784
   268.7500      0.0000    965.7067     15.0083     71.7626
   269.0000      0.0000   1042.7882     15.1862     68.3926
   269.2500      0.0000   1148.4252     15.4504     64.2395
   269.5000      0.0000   1244.5750     15.7441     61.0183
   269.7500      0.0000   1294.5706     16.0105     59.7727
   270.0000      0.0000   1283.5576     16.2026     60.0739
   270.2500      0.0000   1221.9650     16.2915     60.7945
   270.5000      0.0000   1136.8198     16.2785     61.4843
   270.7500      0.0000   1057.1967     16.1986     62.6983
   271.0000      0.0000    999.9551     16.1047     65.0807
   271.2500      0.0000    965.0521     16.0376     68.4063
   271.5000      0.0000    943.7173     15.9862     71.5932
   271.7500      0.0000    931.8752     15.8403     73.5757
   272.0000      0.0000    937.1116     15.3917     74.1706
   272.2500      0.0000    970.5662     14.4532     74.2288
   272.5000      0.0000   1028.0299     13.0522     74.9526
   272.7500      0.0000   1082.2930     11.4943     76.7256
   273.0000      0.0000   1102.5293     10.1742     78.3535
   273.2500      0.0000   1082.3912      9.3087     77.9490
   273.5000      2.0000   1044.3729      8.8615     75.0383
   273.7500     -2.0000   1018.3860      8.6776     71.3345
   274.0000      0.0000   1019.5361      8.6399     69.0489
   274.2500      0.0000   1040.8317      8.7395     68.9809
   274.5000      0.0000   1059.9052      9.0609     70.4513
   274.7500      0.0000   1055.9885      9.6981     72.2498
   275.0000      0.0000   1027.0491     10.6458     73.1798
   275.2500      0.0000    990.0085     11.7646     72.2837
   275.5000      0.0000    963.2299     12.8491     69.1676
   275.7500      0.0000    952.0747     13.7209     64.1879
   276.0000      0.0000    950.9159     14.2858     58.3631
   276.2500      0.0000    952.7903     14.5579     53.0742
   276.5000      0.0000    954.3668     14.6401     49.5185
   276.7500      0.0000    955.1205     14.6568     48.0992
   277.0000      0.0000    955.3580     14.6896     48.1848
   277.2500      0.0000    955.3478     14.7670     48.6018
   277.5000      0.0000    955.2084     14.8905     48.6866
   277.7500      0.0000    954.9902     15.0547     48.8649
   278.0000      0.0000    954.7043     15.2493     49.9496
   278.2500      0.0000    954.3777     15.4572     52.0631
   278.5000      0.0000    954.0965     15.6598     54.7533
   278.7500      0.0000    954.0001     15.8439     57.9424
   279.0000      0.0000    954.2836     16.0071     61.9894
   279.2500      0.0000    955.5640     16.1569     66.7357
   279.5000      0.0000    959.9374     16.3005     71.0907
   279.7500      0.0000    972.6489     16.4337     73.7247
   280.0000      0.0000   1002.5543     16.5427     73.8786
   280.2500      0.0000   1058.0659     16.6148     71.7029
   280.5000      0.0000   1138.6620     16.6435     68.4049
   280.7500      0.0000   1229.9249     16.6228     65.9485
   281.0000      0.0000   1310.4460     16.5491     65.9526
   281.2500      0.0000   1365.7656     16.4297     68.6796
   281.5000      0.0000   1395.2876     16.2779     73.0738
   281.7500      0.0000   1407.1685     16.0936     77.5169
   282.0000      0.0000   1409.4631     15.8604     80.6381
   282.2500      0.0000   1405.6754     15.5727     81.8643
   282.5000      0.0000   1395.7942     15.2670     81.4904
   282.7500      0.0000   1380.1310     15.0164     80.3587
   283.0000      0.0000   1361.9250     14.8921     79.4650
   283.2500      0.0000   1344.4797     14.9276     79.5024
   283.5000      0.0000   1325.0488     15.1061     80.4201
   283.7500      0.0000   1296.5087     15.3696     81.5314
   284.0000      0.0000   1260.2083     15.6388     82.2116
   284.2500      0.0000   1233.2126     15.8397     82.3867
   284.5000      0.0000   1233.8765     15.9255     82.4194
   284.7500      0.0000   1258.7288     15.8882     82.7790
   285.0000      0.0000   1279.3376     15.7580     83.6513
   285.2500      0.0000   1264.6178     15.5893     84.5070
   285.5000      0.0000   1205.6212     15.4285     84.1865
   285.7500      0.0000   1120.8654     15.2809     81.8034
   286.0000      0.0000   1040.7931     15.1050     77.6856
   286.2500      0.0000    986.6401     14.8477     73.4540
   286.5000      0.0000    961.0243     14.4892     71.1327
   286.7500      0.0000    954.0494     14.0608     71.8675
   287.0000      0.0000    954.5688     13.6282     75.1696
   287.2500      0.0000    956.1176     13.2591     79.2734
   287.5000      0.0000    956.4504     12.9949     82.1727
   287.7500      0.0000    955.2045     12.8411     82.4517
   288.0000      0.0000    952.7556     12.7767     79.7535
   288.2500      0.0000    950.1846     12.7760     75.0495
   288.5000      0.0000    948.9656     12.8216     70.1737
   288.7500      0.0000    949.8575     12.9026     66.3527
   289.0000      0.0000    952.1791     13.0075     63.1579
   289.2500      0.0000    954.3430     13.1278     59.3448
   289.5000      0.0000    954.8464     13.2672     54.5887
   289.7500      2.0000    952.6531     13.4374     49.9864
   290.0000      0.0000    947.2595     13.6388     46.9907
   290.2500      0.0000    939.1028     13.8499     46.1895
   290.5000      0.0000    929.8600     14.0354     47.0142
   290.7500      0.0000    921.7576     14.1657     48.3269
   291.0000      0.0000    916.2407     14.2344     49.2617
   291.2500      0.0000    913.3385     14.2621     49.7285
   291.5000      0.0000    912.1843     14.2805     50.0945
   291.7500      0.0000    911.9135     14.3087     50.2157
   292.0000      0.0000    912.1400     14.3450     49.0675
   292.2500      0.0000    912.9649     14.3801     45.7861
   292.5000      0.0000    914.7245     14.4086     40.9039
   292.7500      0.0000    917.5577     14.4231     36.2050
   293.0000      0.0000    921.1016     14.4036     33.4908
   293.2500      0.0000    924.8282     14.3244     33.5112
   293.5000      0.0000    928.6819     14.1742     35.5888
   293.7500      0.0000    932.7789     13.9685     37.9945
   294.0000      0.0000    936.2116     13.7381     39.0189
   294.2500      0.0000    936.9512     13.5109     38.0878
   294.5000      0.0000    933.6219     13.3023     35.9884
   294.7500      0.0000    926.9751     13.1185     34.0966
   295.0000      0.0000    919.0437     12.9616     33.4015
   295.2500      0.0000    911.0728     12.8299     34.0735
   295.5000      0.0000    902.7947     12.7172     35.6837
   295.7500      0.0000    893.6854     12.6168     37.6816
   296.0000      0.0000    884.3654     12.5270     39.7658
   296.2500      0.0000    876.4099     12.4541     42.1099
   296.5000      0.0000    870.9951     12.4095     45.3551
   296.7500      0.0000    868.0903     12.4019     50.2204
   297.0000      0.0000    866.8580     12.4351     56.8654
   297.2500      0.0000    866.4488     12.5124     64.5226
   297.5000      0.0000    866.3215     12.6386     71.7791
   297.7500      0.0000    866.0416     12.8070     77.2816
   298.0000      0.0000    864.9640     12.9851     80.2871
   298.2500      0.0000    862.3348     13.1195     80.7402
   298.5000      0.0000    858.1198     13.1643     79.0000
   298.7500      0.0000    853.8788     13.1106     75.6201
   299.0000      0.0000    852.1475     12.9916     71.4162
   299.2500      0.0000    854.2372     12.8598     67.5411
