~Version Information
VERS.                      2.0: CWLS Log ASCII Standard - VERSION 2.0
WRAP.                       NO: One line per depth step
~Well Information Block
STRT.FT                -6.2500: 
STOP.FT              1327.5000: 
STEP.FT                 0.2500: 
NULL.                -999.2500: 
COMP.          Pioneer Natural Resources: COMPANY
WELL.            Avant 14-3 Tr: WELL
FLD.           Purgatorie River: FIELD
LOC.           170' FSL & 1174' FWL--: LOCATION
STAT.                       CO: State
CNTY.               Las Animas: COUNTY
CTRY. USA : Country
SECT. 3 : Section
TOWN. 33S : Township
RANG. 67W : Range
SRVC.          Patterson Wireline: SERVICE COMPANY
DATE.          Tue Aug 23 16:44:25 2005: LOG DATE
API.           05 071 08463 00: UNIQUE WELL ID
~Curve Information Block
DEPT.FT            0 000 00 00: Depth
CCL.                          : Casing Collar Locator
TT3.usec                      : CBL 3' Travel Time
AMP3.mV                       : CBL 3' Amplitude
GR.GAPI                       : Gamma Ray
~Parameter Information Block
~A  Depth       CCL         TT3         AMP3         GR     
# ...
   697.2500      0.0000    810.2173     10.8241    111.6422
   697.5000      0.0000    793.3181     10.8066    110.3122
   697.7500      0.0000    779.8693     10.7442    111.3668
   698.0000      0.0000    776.1277     10.6636    114.3806
   698.2500      0.0000    781.8187     10.6087    118.4241
   698.5000      0.0000    789.8532     10.6099    122.7240
   698.7500      0.0000    790.5025     10.6604    126.3008
   699.0000      0.0000    777.0623     10.7254    127.8570
   699.2500      0.0000    749.2339     10.7756    127.0255
   699.5000      0.0000    711.7797     10.8080    125.1790
   699.7500      0.0000    669.3174     10.8384    124.1314
   700.0000      0.0000    622.4083     10.8810    124.2597
   700.2500      0.0000    569.7719     10.9331    124.3560
   700.5000      0.0000    514.0241     10.9769    123.1320
   700.7500      0.0000    463.0877     10.9971    120.4945
   701.0000      0.0000    425.0688     10.9970    117.2413
   701.2500      0.0000    403.1432     10.9929    113.7693
   701.5000      0.0000    396.2484     10.9972    109.6163
   701.7500      0.0000    403.3659     11.0123    104.4749
   702.0000      0.0000    425.0677     11.0399     99.2333
   702.2500      0.0000    459.6445     11.0842     95.5606
   702.5000      0.0000    498.0710     11.1431     94.4347
   702.7500      0.0000    525.5452     11.2008     95.2734
   703.0000      0.0000    531.2402     11.2357     96.6348
   703.2500      0.0000    517.1084     11.2342     97.6696
   703.5000      0.0000    495.6372     11.2009     98.5637
   703.7500      0.0000    478.6411     11.1568     99.5254
   704.0000      0.0000    468.5930     11.1267    100.0389
   704.2500      0.0000    459.5910     11.1207     99.6198
   704.5000      0.0000    445.0919     11.1263     98.7676
   704.7500      0.0000    424.6089     11.1227     98.4943
   705.0000      0.0000    403.7451     11.1041     99.2448
   705.2500      0.0000    388.7235     11.0836    100.7877
   705.5000      0.0000    381.6225     11.0737    102.8079
   705.7500      0.0000    380.3276     11.0683    105.1518
   706.0000      0.0000    381.5936     11.0476    107.6770
   706.2500      0.0000    383.5591     10.9944    110.1437
   706.5000      0.0000    386.5351     10.9022    112.1182
   706.7500      0.0000    393.1604     10.7732    112.8752
   707.0000      0.0000    408.7726     10.6196    111.7419
   707.2500      0.0000    440.8091     10.4661    108.7728
   707.5000      0.0000    495.0033     10.3449    104.8669
   707.7500      0.0000    569.0153     10.2813    101.2089
   708.0000      0.0000    649.6261     10.2783     98.8314
   708.2500      0.0000    719.0711     10.3107     98.5053
   708.5000      0.0000    766.1225     10.3377    100.5398
   708.7500      0.0000    791.0864     10.3287    104.4742
   709.0000      0.0000    801.4070     10.2828    109.1557
   709.2500      0.0000    804.6843     10.2232    113.3305
   709.5000      0.0000    805.4112     10.1740    116.3581
   709.7500      0.0000    805.4123     10.1425    118.4184
   710.0000      0.0000    805.2878     10.1216    120.0382
   710.2500      0.0000    805.3455     10.1021    121.4571
   710.5000      0.0000    805.9604     10.0797    122.3803
   710.7500      0.0000    807.4927     10.0512    122.2931
   711.0000      0.0000    809.8780     10.0125    121.0351
   711.2500      0.0000    812.2205      9.9618    118.8254
   711.5000      0.0000    813.1597      9.9015    115.6699
   711.7500      0.0000    812.0314      9.8334    111.1899
   712.0000      0.0000    809.5364      9.7572    105.2524
   712.2500      0.0000    807.0291      9.6751     98.5421
   712.5000      0.0000    805.3461      9.5968     92.3875
   712.7500      0.0000    804.4837      9.5372     87.9693
   713.0000      0.0000    804.0916      9.5069     85.5720
   713.2500      0.0000    803.9803      9.5069     84.6070
   713.5000      0.0000    804.2914      9.5343     84.3689
   713.7500      0.0000    805.5494      9.5970     84.5826
   714.0000      0.0000    808.7361      9.7134     85.1964
   714.2500      0.0000    815.2295      9.8922     85.7297
   714.5000      0.0000    826.5185     10.1098     84.7714
   714.7500      0.0000    844.1445     10.3033     80.4404
   715.0000      0.0000    869.7643     10.3896     72.1364
   715.2500      0.0000    904.0107     10.3202     61.9100
   715.5000      0.0000    944.1295     10.1390     53.1641
   715.7500      0.0000    983.6571      9.9619     47.5751
   716.0000      0.0000   1016.2011      9.8813     43.8990
   716.2500      0.0000   1039.4331      9.9089     40.0512
   716.5000      2.0000   1054.3931      9.9969     35.6775
   716.7500     -2.0000   1061.2068     10.0671     32.3196
   717.0000      0.0000   1056.5963     10.0347     31.6242
   717.2500      0.0000   1036.2722      9.8700     33.8169
   717.5000      0.0000   1000.1150      9.6552     37.5763
   717.7500      0.0000    954.8927      9.5347     41.0769
   718.0000      0.0000    911.3869      9.5798     43.3825
   718.2500      0.0000    878.4178      9.7257     45.1457
   718.5000      0.0000    858.8687      9.8525     48.0712
   718.7500      0.0000    850.1792      9.9002     53.7302
   719.0000      0.0000    847.6635      9.8923     62.7311
   719.2500      0.0000    847.5511      9.8777     74.5738
   719.5000      0.0000    847.9855      9.8747     87.9339
   719.7500      0.0000    848.4376      9.8644    101.1877
   720.0000      0.0000    848.8392      9.8206    113.0290
   720.2500      0.0000    849.0228      9.7419    123.0082
   720.5000      0.0000    848.3602      9.6534    131.7126
   720.7500      0.0000    845.3636      9.5818    140.1597
   721.0000      0.0000    837.6158      9.5362    148.6467
   721.2500      0.0000    822.9764      9.5152    156.1991
   721.5000      0.0000    802.1968      9.5201    161.0737
   721.7500      0.0000    780.7224      9.5516    161.5086
   722.0000      0.0000    766.8698      9.5962    156.3163
   722.2500      0.0000    766.8473      9.6254    145.7831
   722.5000      0.0000    780.5758      9.6096    132.4182
   722.7500      0.0000    801.6776      9.5323    120.2853
   723.0000      0.0000    821.4980      9.3931    113.0019
   723.2500      0.0000    833.7890      9.2060    111.8796
   723.5000      0.0000    836.6993      8.9971    115.4205
   723.7500      0.0000    832.0713      8.7979    120.4864
   724.0000      0.0000    823.9038      8.6363    124.3494
   724.2500      0.0000    816.4727      8.5293    125.9923
   724.5000      0.0000    812.3994      8.4789    125.8020
   724.7500      0.0000    812.3641      8.4710    124.5552
   725.0000      0.0000    816.3377      8.4801    122.9165
   725.2500      0.0000    823.6353      8.4862    121.4434
   725.5000      0.0000    831.8357      8.4897    120.5100
   725.7500      0.0000    837.3162      8.5116    120.1965
   726.0000      0.0000    837.4842      8.5730    120.5844
   726.2500      0.0000    832.5179      8.6702    122.2808
   726.5000      0.0000    825.4385      8.7601    126.3228
   726.7500      0.0000    820.4055      8.7767    133.1254
   727.0000      0.0000    820.2296      8.6756    141.3797
   727.2500      0.0000    825.6149      8.4729    148.1231
   727.5000      0.0000    836.3311      8.2385    150.2473
   727.7500      0.0000    851.2013      8.0477    146.5617
   728.0000      0.0000    866.6161      7.9349    138.6445
   728.2500      0.0000    877.7755      7.8850    129.4116
   728.5000      0.0000    882.8995      7.8630    120.9052
   728.7500      0.0000    884.3853      7.8466    113.8406
   729.0000      0.0000    884.5428      7.8399    108.8235
   729.2500      0.0000    882.3009      7.8688    106.8488
   729.5000      0.0000    875.7275      7.9698    108.1720
   729.7500      0.0000    865.6900      8.1699    111.3429
   730.0000      0.0000    854.8968      8.4660    114.2398
   730.2500      0.0000    844.7361      8.8167    116.3018
   730.5000      0.0000    835.2155      9.1566    119.2854
