~Version Information
VERS.                      2.0: CWLS Log ASCII Standard - VERSION 2.0
WRAP.                       NO: One line per depth step
~Well Information Block
STRT.FT               460.0000: 
STOP.FT              1349.5000: 
STEP.FT                 0.2500: 
NULL.                -999.2500: 
COMP.          Pioneer Natural Resources: COMPANY
WELL.              Dicks 32-5R: WELL
FLD.           Purgatorie River: FIELD
LOC.           1485' FNL & 1684' FEL: LOCATION
PROV.                 Colorado: PROVINCE
CNTY.               Las Animas: COUNTRY
SRVC.                Patterson: SERVICE COMPANY
DATE.          Thu Dec 08 23:11:15 2005: LOG DATE
UWI.                          : UNIQUE WELL ID
~Curve Information Block
DEPT.FT            0 000 00 00: Depth
SN.Ohm-m                      : IEL Short Normal
SP.mV                         : IEL Spontaneous Potential
DIR.Ohm-m                     : IEL Induction Resistivity
GR.GAPI                       : Gamma Ray
~Parameter Information Block
~A  Depth        SN          SP         DIR          GR     
   460.0000   -999.2500   -999.2500   -999.2500     83.0462
   460.2500   -999.2500   -999.2500   -999.2500     84.0892
   460.5000   2000.0000   2000.0000   -999.2500     85.7004
   460.7500   2000.0000   2000.0000   -999.2500     86.4316
   461.0000   2000.0000   2000.0000   -999.2500     86.4916
   461.2500   2000.0000   2000.0000   -999.2500     85.8390
   461.5000   2000.0000   2000.0000   -999.2500     84.2414
   461.7500   2000.0000   2000.0000   -999.2500     82.9965
   462.0000   2000.0000   2000.0000     11.1977     81.0504
   462.2500   2000.0000   2000.0000     11.2306     79.8086
   462.5000   2000.0000   2000.0000     11.2683     78.2892
   462.7500   2000.0000   2000.0000     11.3099     77.5448
   463.0000   2000.0000   2000.0000     11.3533     76.4828
   463.2500   2000.0000   2000.0000     11.3973     75.4805
   463.5000   2000.0000   2000.0000     11.4419     73.2061
   463.7500   2000.0000   2000.0000     11.4876     71.2725
   464.0000   2000.0000   2000.0000     11.5337     68.3694
   464.2500   2000.0000   2000.0000     11.5790     66.9328
   464.5000   2000.0000   2000.0000     11.6244     66.2570
   464.7500   2000.0000   2000.0000     11.6737     66.9227
   465.0000   2000.0000   2000.0000     11.7302     69.1524
   465.2500   2000.0000   2000.0000     11.7894     71.0081
   465.5000   2000.0000   2000.0000     11.8331     73.8450
   465.7500   2000.0000   2000.0000     11.8320     75.7169
   466.0000   2000.0000   2000.0000     11.7562     78.3722
   466.2500   2000.0000   2000.0000     11.5896     79.7893
   466.5000   2000.0000   2000.0000     11.3421     80.9582
   466.7500   2000.0000   2000.0000     11.0540     81.0813
   467.0000   2000.0000   2000.0000     10.7917     80.6280
   467.2500   2000.0000   2000.0000     10.6325     80.1978
   467.5000   2000.0000   2000.0000     10.6467     79.9113
   467.7500   2000.0000   2000.0000     10.8855     80.2401
   468.0000   2000.0000   2000.0000     11.3782     81.7306
   468.2500   2000.0000   2000.0000     12.1260     83.3423
   468.5000   2000.0000   2000.0000     13.0787     86.4272
   468.7500   2000.0000   2000.0000     14.0900     88.6787
   469.0000   2000.0000   2000.0000     14.9047     91.6414
   469.2500   2000.0000   2000.0000     15.2782     92.8184
   469.5000   2000.0000   2000.0000     15.1953     92.7439
   469.7500   2000.0000   2000.0000     14.9164     91.5181
   470.0000   2000.0000   2000.0000     14.7606     88.8516
   470.2500   2000.0000   2000.0000     14.8803     87.3083
   470.5000   2000.0000   2000.0000     15.1693     86.2848
   470.7500   2000.0000   2000.0000     15.2990     86.4670
   471.0000   2000.0000   2000.0000     14.9466     87.1628
   471.2500   2000.0000   2000.0000     14.1092     87.1631
   471.5000   2000.0000   2000.0000     13.1052     85.4506
   471.7500   2000.0000   2000.0000     12.2795     83.0140
   472.0000   2000.0000   2000.0000     11.8415     77.9867
   472.2500   2000.0000   2000.0000     11.9324     74.2659
   472.5000   2000.0000   2000.0000     12.7976     68.8319
   472.7500   2000.0000   2000.0000     15.0837     65.5405
   473.0000   2000.0000   2000.0000     20.7255     61.6041
   473.2500   2000.0000   2000.0000     37.5652     60.1541
   473.5000   2000.0000   2000.0000    138.9966     60.7952
   473.7500   2000.0000   2000.0000 100000.0000     63.5848
   474.0000   2000.0000   2000.0000  37827.1836     71.4052
   474.2500   2000.0000   2000.0000     61.1730     78.4177
   474.5000   2000.0000   2000.0000     25.1294     89.3847
   474.7500   2000.0000   2000.0000     16.5331     95.4124
   475.0000   2000.0000   2000.0000     14.2461    100.5981
   475.2500   2000.0000   2000.0000     14.9920    101.2425
   475.5000   2000.0000   2000.0000     18.3699     98.9176
   475.7500   2000.0000   2000.0000     23.5917     96.0967
   476.0000   2000.0000   2000.0000     24.1314     91.5218
   476.2500   2000.0000   2000.0000     16.1781     88.9236
   476.5000   2000.0000   2000.0000      9.1373     92.5590
   476.7500   2000.0000   2000.0000      5.5496     91.9889
   477.0000   2000.0000   2000.0000      3.9064     93.4807
   477.2500   2000.0000   2000.0000      3.2255     96.2953
   477.5000   2000.0000   2000.0000      3.1130    116.9836
   477.7500   2000.0000   2000.0000      3.4831    123.7169
   478.0000   2000.0000   2000.0000      4.4802    134.3185
   478.2500   2000.0000   2000.0000      6.6231    140.5723
   478.5000   2000.0000   2000.0000     11.6393    147.3615
   478.7500   2000.0000   2000.0000     29.3439    149.9023
   479.0000   2000.0000   2000.0000 100000.0000    151.0041
   479.2500   2000.0000   2000.0000 100000.0000    150.3025
   479.5000   2000.0000   2000.0000 100000.0000    147.7356
   479.7500   2000.0000   2000.0000 100000.0000    145.1914
   480.0000   2000.0000   2000.0000 100000.0000    140.0021
   480.2500   2000.0000   2000.0000 100000.0000    135.5126
   480.5000   2000.0000   2000.0000     58.1184    127.4114
   480.7500   2000.0000   2000.0000     25.3724    121.5111
   481.0000   2000.0000   2000.0000     18.0156    113.1660
   481.2500   2000.0000   2000.0000     15.1896    108.9576
   481.5000   2000.0000   2000.0000     13.7784    106.6070
   481.7500   2000.0000   2000.0000     12.8494    108.6277
   482.0000   2000.0000   2000.0000     12.0866    117.8592
   482.2500   2000.0000   2000.0000     11.4078    127.9280
   482.5000   2000.0000   2000.0000     10.8062    147.0827
   482.7500   2000.0000   2000.0000     10.2881    160.8478
   483.0000   2000.0000   2000.0000      9.8505    180.0328
   483.2500   2000.0000   2000.0000      9.4721    190.5947
   483.5000   2000.0000   2000.0000      9.1128    201.8086
   483.7500   2000.0000   2000.0000      8.7316    205.7841
   484.0000   2000.0000   2000.0000      8.3149    206.3926
   484.2500   2000.0000   2000.0000      7.8900    203.6051
   484.5000   2000.0000   2000.0000      7.5068    196.0310
   484.7500   2000.0000   2000.0000      7.2082    189.8890
   485.0000   2000.0000   2000.0000      7.0148    181.2056
   485.2500   2000.0000   2000.0000      6.9270    176.7028
   485.5000   2000.0000   2000.0000      6.9337    172.4423
   485.7500   2000.0000   2000.0000      7.0225    171.1594
   486.0000   2000.0000   2000.0000      7.1870    171.0333
   486.2500   2000.0000   2000.0000      7.4297    171.5146
   486.5000   2000.0000   2000.0000      7.7603    171.4264
   486.7500   2000.0000   2000.0000      8.1879    170.0608
   487.0000   2000.0000   2000.0000      8.7131    166.2264
   487.2500   2000.0000   2000.0000      9.3249    163.2823
   487.5000   2000.0000   2000.0000     10.0033    159.1732
   487.7500   2000.0000   2000.0000     10.7254    156.2234
   488.0000   2000.0000   2000.0000     11.4689    149.8045
   488.2500   2000.0000   2000.0000     12.2066    143.6085
   488.5000   2000.0000   2000.0000     12.8947    132.2594
   488.7500   2000.0000   2000.0000     13.4656    124.6517
   489.0000   2000.0000   2000.0000     13.8413    115.3382
   489.2500   2000.0000   2000.0000     13.9658    110.9381
   489.5000   2000.0000   2000.0000     13.8360    106.1751
   489.7500   2000.0000   2000.0000     13.5022    103.3729
   490.0000   2000.0000   2000.0000     13.0406     98.8061
   490.2500   2000.0000   2000.0000     12.5230     95.5294
   490.5000   2000.0000   2000.0000     12.0012     91.1302
   490.7500   2000.0000   2000.0000     11.5060     89.3713
   491.0000   2000.0000   2000.0000     11.0518     90.0476
   491.2500   2000.0000   2000.0000     10.6423     93.4095
   491.5000   2000.0000   2000.0000     10.2737    103.1160
   491.7500   2000.0000   2000.0000      9.9395    112.0917
   492.0000   2000.0000   2000.0000      9.6361    126.9706
   492.2500   2000.0000   2000.0000      9.3674    136.1685
   492.5000   2000.0000   2000.0000      9.1444    146.7517
   492.7500   2000.0000   2000.0000      8.9805    151.2005
   493.0000   2000.0000   2000.0000      8.8851    154.3172
   493.2500   2000.0000   2000.0000      8.8617    154.6593
