~Version Information
VERS.                      2.0: CWLS Log ASCII Standard - VERSION 2.0
WRAP.                       NO: One line per depth step
~Well Information Block
STRT.FT               619.7000: 
STOP.FT               951.7000: 
STEP.FT                 0.1000: 
NULL.                -999.2500: 
COMP.          Pioneer Natural Resources: COMPANY
WELL.          Screamin 12-29 Tr: WELL
FLD.           Purgatoire River: FIELD
LOC.           1979' FNL & 532' FWL--: LOCATION
CNTY.               Las Animas: COUNTY
SRVC.                Patterson: SERVICE COMPANY
DATE.          Fri Mar 31 15:43:57 2006: LOG DATE
UWI.           05 071 08660 00: UNIQUE WELL ID
STAT.                 Colorado: STATE
~Curve Information Block
DEPT.FT            0 000 00 00: Depth
DCAL.in                       : CDL Caliper
RHOB.g/cc                     : CDL Bulk Density
RHOC.g/cc                     : CDL Density Correction
DPOR.pu                       : CDL Density Porosity
GR.GAPI                       : Gamma Ray
~Parameter Information Block
~A  Depth       DCAL        RHOB        RHOC        DPOR         GR     
# ...
   843.7000      7.8676      2.4944     -0.0263      9.4317    101.0491
   843.8000      7.8707      2.4839      0.0017     10.0667    100.8770
   843.9000      7.8707      2.4797      0.0038     10.3212     96.8688
   844.0000      7.8777      2.4711     -0.0073     10.8414     91.9989
   844.1000      7.8777      2.4578      0.0178     11.6511     90.7605
   844.2000      7.8777      2.4377      0.0359     12.8681     95.6865
   844.3000      7.8869      2.4153      0.0290     14.2238    106.9964
   844.4000      7.8869      2.4053      0.0461     14.8326    121.6204
   844.5000      7.8949      2.4135      0.0846     14.3321    134.2337
   844.6000      7.8949      2.4303      0.1069     13.3182    140.1953
   844.7000      7.8949      2.4450      0.1010     12.4241    138.3484
   844.8000      7.9020      2.4587      0.1090     11.5914    133.3651
   844.9000      7.9020      2.4752      0.0993     10.5967    132.4829
   845.0000      7.9037      2.4869      0.1195      9.8871    135.8504
   845.1000      7.9037      2.4781      0.1322     10.4198    137.1109
   845.2000      7.9037      2.4529      0.0725     11.9449    136.1344
   845.3000      7.8983      2.4386      0.0654     12.8120    138.9456
   845.4000      7.8983      2.4439      0.1131     12.4925    144.7787
   845.5000      7.8996      2.4553      0.0739     11.8025    145.8970
   845.6000      7.8996      2.4645      0.0857     11.2407    142.7862
   845.7000      7.8996      2.4724      0.0819     10.7617    143.6768
   845.8000      7.9098      2.4836      0.0647     10.0876    149.6758
   845.9000      7.9098      2.4921      0.1200      9.5669    153.8737
   846.0000      7.9159      2.4835      0.0901     10.0886    153.2946
   846.1000      7.9159      2.4620      0.0439     11.3925    152.2898
   846.2000      7.9159      2.4463      0.0666     12.3457    154.5018
   846.3000      7.9162      2.4473      0.0583     12.2831    154.7568
   846.4000      7.9162      2.4599      0.0961     11.5231    147.8315
   846.5000      7.9142      2.4698      0.0632     10.9218    137.3500
   846.6000      7.9142      2.4740      0.0567     10.6643    129.7738
   846.7000      7.9142      2.4759      0.0807     10.5528    127.2211
   846.8000      7.9105      2.4788      0.0682     10.3784    126.8338
   846.9000      7.9105      2.4869      0.0813      9.8851    126.4107
   847.0000      7.9015      2.4954      0.0911      9.3721    125.5579
   847.1000      7.9015      2.4954      0.0770      9.3692    125.0968
   847.2000      7.9015      2.4923      0.0467      9.5585    127.6238
   847.3000      7.8882      2.5053      0.0867      8.7676    130.3465
   847.4000      7.8882      2.5467      0.1292      6.2601    129.5694
   847.5000      7.8749      2.6155      0.0995      2.0902    128.6826
   847.6000      7.8749      2.7096      0.1692     -3.6096    129.3466
   847.7000      7.8749      2.8230      0.1859    -10.4833    126.6944
   847.8000      7.8661      2.9379      0.2709    -17.4495    119.2197
   847.9000      7.8661      3.0358      0.2529    -23.3811    111.1961
   848.0000      7.8591      3.1110      0.2240    -27.9404    104.9632
   848.1000      7.8591      3.1579      0.2146    -30.7842     99.4730
   848.2000      7.8591      3.1680      0.1818    -31.3935     94.8659
   848.3000      7.8534      3.1335      0.1676    -29.3003     90.2748
   848.4000      7.8534      3.0586     -0.0217    -24.7636     84.5112
   848.5000      7.8528      2.9666     -0.0907    -19.1856     78.2653
   848.6000      7.8528      2.8671     -0.1719    -13.1563     73.2371
   848.7000      7.8528      2.7500     -0.1997     -6.0599     70.2585
   848.8000      7.8557      2.6299     -0.2769      1.2195     69.5621
   848.9000      7.8557      2.5525     -0.2689      5.9111     72.1587
   849.0000      7.8599      2.5323     -0.1611      7.1336     77.9783
   849.1000      7.8599      2.5357     -0.0232      6.9290     87.5198
   849.2000      7.8599      2.5390      0.0269      6.7278    100.1549
   849.3000      7.8645      2.5480      0.0865      6.1848    111.6964
   849.4000      7.8645      2.5652      0.1351      5.1364    118.2583
   849.5000      7.8736      2.5824      0.1328      4.0978    121.9703
   849.6000      7.8736      2.5905      0.1571      3.6069    126.4142
   849.7000      7.8736      2.5759      0.1341      4.4916    131.2064
   849.8000      7.8984      2.5321      0.0853      7.1471    135.3175
   849.9000      7.8984      2.4815      0.0236     10.2146    137.6920
   850.0000      7.9258      2.4498      0.0411     12.1308    140.7472
   850.1000      7.9258      2.4327      0.0480     13.1681    146.4066
   850.2000      7.9258      2.4146      0.0276     14.2645    150.0738
   850.3000      7.9293      2.3932      0.0089     15.5666    147.4149
   850.4000      7.9293      2.3787      0.0062     16.4449    139.4680
   850.5000      7.9195      2.3786      0.0271     16.4457    130.8011
   850.6000      7.9195      2.3871      0.0189     15.9348    125.8416
   850.7000      7.9195      2.3974      0.0128     15.3116    125.0665
   850.8000      7.9050      2.4071      0.0475     14.7203    125.9528
   850.9000      7.9050      2.4208      0.0338     13.8928    127.5149
   851.0000      7.8852      2.4515      0.0671     12.0298    130.7866
   851.1000      7.8852      2.4876      0.1531      9.8423    134.7544
   851.2000      7.8852      2.4980      0.1159      9.2117    138.4682
   851.3000      7.8746      2.4861      0.0740      9.9345    142.0846
   851.4000      7.8746      2.4776      0.0712     10.4490    142.4882
   851.5000      7.8776      2.4777      0.0835     10.4455    138.9384
   851.6000      7.8776      2.4772      0.0776     10.4752    138.1166
   851.7000      7.8776      2.4708      0.0893     10.8582    140.9052
   851.8000      7.8889      2.4629      0.0288     11.3404    141.1934
   851.9000      7.8889      2.4628      0.0393     11.3464    139.1144
   852.0000      7.9055      2.4654      0.0947     11.1887    138.0319
   852.1000      7.9055      2.4602      0.0999     11.5058    137.6069
   852.2000      7.9055      2.4543      0.0598     11.8631    139.0142
   852.3000      7.9233      2.4578      0.0833     11.6472    141.6971
   852.4000      7.9233      2.4628      0.1112     11.3454    140.8638
   852.5000      7.9341      2.4566      0.1121     11.7191    137.9191
   852.6000      7.9341      2.4345      0.0895     13.0588    137.1187
   852.7000      7.9341      2.3814      0.0921     16.2813    136.7120
   852.8000      7.9343      2.2813      0.0387     22.3476    131.7328
   852.9000      7.9343      2.1570     -0.0059     29.8771    123.3929
   853.0000      7.9297      2.0551     -0.0705     36.0568    120.1117
   853.1000      7.9297      1.9854     -0.0224     40.2760    121.1110
   853.2000      7.9297      1.9188     -0.0532     44.3140    119.6249
   853.3000      7.9324      1.8406     -0.1033     49.0522    117.9104
   853.4000      7.9324      1.7565     -0.0985     54.1522    118.5257
   853.5000      7.9442      1.6659     -0.0831     59.6441    117.6211
   853.6000      7.9442      1.5715     -0.1013     65.3641    111.7868
   853.7000      7.9442      1.4960     -0.1390     69.9412    102.7386
   853.8000      7.9521      1.4607     -0.0621     72.0768     95.7000
   853.9000      7.9521      1.4578     -0.0225     72.2540     91.6279
   854.0000      7.9537      1.4590     -0.0203     72.1800     86.8157
   854.1000      7.9537      1.4476     -0.0714     72.8746     81.8473
   854.2000      7.9537      1.4324     -0.0443     73.7943     78.7384
   854.3000      7.9567      1.4256      0.0443     74.2084     76.8701
   854.4000      7.9567      1.4313      0.0694     73.8632     75.7659
   854.5000      7.9594      1.4656      0.0867     71.7795     74.3812
   854.6000      7.9594      1.5508      0.1279     66.6156     72.1012
   854.7000      7.9594      1.6847      0.1842     58.5023     70.3763
   854.8000      7.9592      1.8334      0.2543     49.4895     71.6700
