~Version Information
VERS.                      2.0: CWLS Log ASCII Standard - VERSION 2.0
WRAP.                       NO: One line per depth step
~Well Information Block
STRT.FT               830.0000: 
STOP.FT              2368.5000: 
STEP.FT                 0.1000: 
NULL.                -999.2500: 
COMP.          Pioneer Natural Resources: COMPANY
WELL.              Rolls 14-14: WELL
FLD.           Purgatoire River: FIELD
LOC.           572' FSL & 856' FWL: LOCATION
PROV.                 Colorado: PROVINCE
CNTY.               Las Animas: COUNTRY
SRVC.                Patterson: SERVICE COMPANY
DATE.          Mon Aug 01 05:48:31 2005: LOG DATE
UWI.           05 071 08455 00: UNIQUE WELL ID
~Curve Information Block
DEPT.FT            0 000 00 00: Depth
DCAL.in                       : CDL Caliper
RHOB.g/cc                     : CDL Bulk Density
RHOC.g/cc                     : CDL Density Correction
DPOR.pu                       : CDL Density Porosity
GR.GAPI                       : Gamma Ray
NPOR.pu                       : Neutron Porosity
~Parameter Information Block
~A  Depth       DCAL        RHOB        RHOC        DPOR         GR         NPOR    
# ...
   935.6000      8.1525      2.5340      0.0376      7.0323    132.9379     24.8574
   935.7000      8.1525      2.5164      0.0484      8.0966    130.8096     24.9836
   935.8000      8.1353      2.5013      0.0124      9.0125    129.6478     25.2333
   935.9000      8.1353      2.4895      0.0173      9.7265    129.3767     25.0023
   936.0000      8.1365      2.4813     -0.0238     10.2231    127.6456     24.2736
   936.1000      8.1365      2.4798      0.0151     10.3129    125.6336     23.4568
   936.2000      8.1365      2.4809      0.0065     10.2482    129.2932     22.9461
   936.3000      8.1444      2.4811     -0.0029     10.2372    134.6387     22.9682
   936.4000      8.1444      2.4852      0.0584      9.9861    133.0146     23.4120
   936.5000      8.1415      2.4943      0.0434      9.4357    126.8494     23.7554
   936.6000      8.1415      2.5032      0.0257      8.8944    123.5014     23.6642
   936.7000      8.1415      2.5078      0.0018      8.6203    123.6711     23.4378
   936.8000      8.1321      2.5123      0.0149      8.3468    126.7328     23.3946
   936.9000      8.1321      2.5213      0.0501      7.7971    133.0919     23.3662
   937.0000      8.1308      2.5301      0.0683      7.2649    139.8798     23.1937
   937.1000      8.1308      2.5418      0.0793      6.5554    143.6939     23.0554
   937.2000      8.1308      2.5596      0.0971      5.4778    144.0741     22.8573
   937.3000      8.1337      2.5684      0.0971      4.9474    144.9561     22.4926
   937.4000      8.1337      2.5561      0.0873      5.6931    150.5238     22.1624
   937.5000      8.1395      2.5291      0.0480      7.3277    157.7489     21.8152
   937.6000      8.1395      2.4999      0.0515      9.0941    161.3500     21.6585
   937.7000      8.1395      2.4757      0.0572     10.5641    161.4767     22.0363
   937.8000      8.1469      2.4628      0.0222     11.3454    159.4101     22.5886
   937.9000      8.1469      2.4679      0.0337     11.0368    157.7366     22.8603
   938.0000      8.1559      2.4819      0.0800     10.1864    159.5754     23.0573
   938.1000      8.1559      2.4874      0.0686      9.8529    162.9271     23.5291
   938.2000      8.1559      2.4865      0.0327      9.9088    163.8966     23.9780
   938.3000      8.1807      2.4988      0.0186      9.1658    161.4043     23.7896
   938.4000      8.1807      2.5288      0.0837      7.3484    157.6519     23.2813
   938.5000      8.1726      2.5530      0.1290      5.8779    154.6945     23.1732
   938.6000      8.1726      2.5547      0.1135      5.7771    152.9545     23.4893
   938.7000      8.1726      2.5480      0.0719      6.1833    153.2380     23.7564
   938.8000      8.1760      2.5527      0.0853      5.8970    154.6614     23.7912
   938.9000      8.1760      2.5675      0.0957      4.9978    151.1540     23.8379
   939.0000      8.1843      2.5798      0.0811      4.2568    140.6777     24.1439
   939.1000      8.1843      2.5820      0.0521      4.1228    132.0309     24.8605
   939.2000      8.1843      2.5708      0.0947      4.7983    132.1874     25.4382
   939.3000      8.1944      2.5515      0.0457      5.9701    137.5610     25.1067
   939.4000      8.1944      2.5472      0.0209      6.2303    142.3950     24.4209
   939.5000      8.2008      2.5661      0.0642      5.0862    144.2909     24.2333
   939.6000      8.2008      2.5834      0.1002      4.0342    141.0300     24.2422
   939.7000      8.2008      2.5798      0.0536      4.2526    136.6317     23.8680
   939.8000      8.2026      2.5532      0.0497      5.8684    137.1028     23.4048
   939.9000      8.2026      2.5064      0.0335      8.7031    136.8877     23.2822
   940.0000      8.2017      2.4537     -0.0250     11.8960    132.0407     23.2000
   940.1000      8.2017      2.4171     -0.0120     14.1177    127.3468     23.0508
   940.2000      8.2017      2.4143     -0.0168     14.2827    122.7799     23.2171
   940.3000      8.1813      2.4504      0.0721     12.0983    116.7879     23.4141
   940.4000      8.1813      2.5127      0.1080      8.3184    112.2523     23.0048
   940.5000      8.1626      2.5906      0.1115      3.6017    111.4468     22.2663
   940.6000      8.1626      2.6689      0.2179     -1.1468    114.4573     21.8056
   940.7000      8.1626      2.7140      0.2859     -3.8794    115.7453     21.6225
   940.8000      8.1605      2.7171      0.2264     -4.0677    108.8146     21.3865
   940.9000      8.1605      2.7103      0.2220     -3.6575     98.9519     21.0298
   941.0000      8.1533      2.7058      0.1997     -3.3803     95.3977     20.7358
   941.1000      8.1533      2.6811      0.1880     -1.8871     95.0590     20.6002
   941.2000      8.1533      2.6362      0.1097      0.8358     91.9840     20.4091
   941.3000      8.1362      2.6035      0.0677      2.8159     89.8707     19.9074
   941.4000      8.1362      2.5904      0.0726      3.6108     91.4464     19.0549
   941.5000      8.1023      2.5731      0.0511      4.6617     93.4102     18.3893
   941.6000      8.1023      2.5518      0.0262      5.9533     95.3633     18.3749
   941.7000      8.1023      2.5467      0.0308      6.2601     98.7727     18.5954
   941.8000      8.0877      2.5553      0.0664      5.7383    101.8218     18.7430
   941.9000      8.0877      2.5543      0.0699      5.8016    103.6651     18.7635
   942.0000      8.1086      2.5336      0.0169      7.0525    106.0094     18.6490
   942.1000      8.1086      2.5216     -0.0629      7.7791    108.8504     18.6621
   942.2000      8.1086      2.5402      0.0485      6.6560    110.0702     18.8977
   942.3000      8.1334      2.5572      0.1007      5.6240    107.0714     19.2249
   942.4000      8.1334      2.5502      0.0361      6.0460    100.4364     19.5089
   942.5000      8.1372      2.5400     -0.0079      6.6664     96.8478     19.6713
   942.6000      8.1372      2.5394      0.0464      6.7011     98.2814     20.0020
   942.7000      8.1372      2.5460      0.0268      6.3047     99.4052     20.6391
   942.8000      8.1392      2.5594      0.0235      5.4906    100.6340     20.8921
   942.9000      8.1392      2.5703      0.0157      4.8332    103.6426     20.4820
   943.0000      8.1320      2.5713      0.0050      4.7677    102.6487     20.2021
   943.1000      8.1320      2.5714      0.0111      4.7621     97.2867     20.4995
   943.2000      8.1320      2.5729      0.0193      4.6731     93.7063     20.9998
   943.3000      8.1288      2.5660      0.0137      5.0884     92.2364     21.3051
   943.4000      8.1288      2.5502     -0.0496      6.0507     90.4855     21.2857
   943.5000      8.1420      2.5336      0.0023      7.0516     90.0698     20.8714
   943.6000      8.1420      2.5276     -0.0689      7.4164     90.5864     20.3869
   943.7000      8.1420      2.5432     -0.0203      6.4754     90.3892     20.2765
   943.8000      8.1341      2.5723      0.0316      4.7103     91.2842     20.4242
   943.9000      8.1341      2.5986      0.0524      3.1150     94.6466     20.2830
   944.0000      8.1298      2.6111      0.0768      2.3556     97.9008     19.6826
   944.1000      8.1298      2.6007      0.0467      2.9884     96.4746     19.2365
   944.2000      8.1298      2.5708     -0.0140      4.7972     89.9249     19.4361
   944.3000      8.1336      2.5413      0.0064      6.5850     82.7243     19.8370
   944.4000      8.1336      2.5260     -0.0175      7.5170     79.1918     19.8171
   944.5000      8.1284      2.5183      0.0033      7.9836     79.7559     19.4324
   944.6000      8.1284      2.5054     -0.0059      8.7662     80.9199     18.7670
   944.7000      8.1284      2.4906     -0.0737      9.6599     79.6097     17.9956
   944.8000      8.1288      2.4921     -0.0429      9.5725     76.4459     17.6927
   944.9000      8.1288      2.5118      0.0080      8.3780     72.0606     17.8903
   945.0000      8.0951      2.5345      0.0744      7.0000     65.2759     17.9758
   945.1000      8.0951      2.5458      0.1177      6.3129     58.5306     17.8072
