~Version Information
VERS.                      2.0: CWLS Log ASCII Standard - VERSION 2.0
WRAP.                       NO: One line per depth step
~Well Information Block
STRT.FT               400.0000: 
STOP.FT              2232.0000: 
STEP.FT                 0.2500: 
NULL.                -999.2500: 
COMP.          Evergreen Operating Corporation: COMPANY
WELL.                Croc 42-9: WELL
FLD.           Purgatorie River: FIELD
LOC.           2262' FNL & 238' FEL: LOCATION
STAT.                 Colorado: State
CNTY.               Las Animas: COUNTY
CTRY. USA : Country
SECT. 9 : Section
TOWN. 32S : Township
RANG. 66W : Range
SRVC.                Patterson: SERVICE COMPANY
DATE.          Wed Jul 21 23:25:54 2004: LOG DATE
API.           05 071 08106 00: UNIQUE WELL ID
~Curve Information Block
DEPT.FT            0 000 00 00: Depth
SN.Ohm-m                      : IEL Short Normal
SP.mV                         : IEL Spontaneous Potential
DIR.Ohm-m                     : IEL Induction Resistivity
GR.GAPI                       : Gamma Ray
~Parameter Information Block
~A  Depth        SN          SP         DIR          GR     
   400.0000     -0.4706    117.3235      8.1533     76.5740
   400.2500     -0.3464    116.3576      8.0465     78.4060
   400.5000     -0.2876    115.6957      7.9652     80.2333
   400.7500     -0.3384    115.3781      7.9356     80.7496
   401.0000     -0.4119    115.2928      7.9703     80.5577
   401.2500     -0.4222    115.2589      8.0600     79.6771
   401.5000     -0.4043    115.1486      8.1748     76.9735
   401.7500     -0.4408    114.9644      8.2760     74.3712
   402.0000     -0.5361    114.8160      8.3338     70.0758
   402.2500     -0.6266    114.8253      8.3410     67.5450
   402.5000     -0.6841    115.0339      8.3175     64.9595
   402.7500     -0.7532    115.3774      8.3053     64.1808
   403.0000     -0.8762    115.7364      8.3590     64.3928
   403.2500     -1.0069    116.0186      8.5288     65.4029
   403.5000     -1.0456    116.2113      8.8347     68.1177
   403.7500     -0.9464    116.3718      9.2306     70.6092
   404.0000     -0.7663    116.5848      9.5815     75.0312
   404.2500     -0.6224    116.9292      9.7076     78.1348
   404.5000     -0.6163    117.4749      9.5155     82.2657
   404.7500     -0.7659    118.2881      9.0881     84.2084
   405.0000     -0.9794    119.4154      8.6101     85.7358
   405.2500     -1.1285    120.8486      8.2427     86.2433
   405.5000     -1.1333    122.5029      8.0888     87.0076
   405.7500     -0.9793    124.2414      8.2425     87.4428
   406.0000     -0.7350    125.9396      8.8729     87.0745
   406.2500     -0.5576    127.5489     10.3479     85.7617
   406.5000     -0.5952    129.1160     13.4846     82.5766
   406.7500     -0.8322    130.7421     19.9838     80.3482
   407.0000     -1.0789    132.5020     31.0066     78.0181
   407.2500     -1.1755    134.3700     35.1059     77.4611
   407.5000     -1.1308    136.1659     23.8198     78.1551
   407.7500     -1.0445    137.4889     14.5114     79.4927
   408.0000     -1.0021    137.6310     10.1178     82.0543
   408.2500     -1.0298    135.5735      8.3584     83.3534
   408.5000     -1.0844    130.2569      8.0617     83.4937
   408.7500     -1.0935    121.1787      8.8689     82.2035
   409.0000     -0.9508    108.9886     10.7338     78.8220
   409.2500     -0.3842     95.4884     13.1075     76.3167
   409.5000      1.1409     82.8181     13.5159     73.5663
   409.7500      4.1189     72.4082     10.4194     72.8986
   410.0000      8.3708     64.5337      6.8775     73.1518
   410.2500     12.9362     58.6585      4.6916     73.2104
   410.5000     16.8199     54.0608      3.6159     71.8620
   410.7500     19.6379     50.2225      3.2377     70.1958
   411.0000     21.5225     46.8958      3.3868     68.1612
   411.2500     22.7495     44.0165      4.1346     68.0131
   411.5000     23.5472     41.6099      5.9136     70.2276
   411.7500     24.0646     39.7291     10.2541     73.2965
   412.0000     24.3952     38.4010     25.9512     79.8460
   412.2500     24.6049     37.5476 100000.0000     84.8992
   412.5000     24.7426     36.9207 100000.0000     91.8825
   412.7500     24.8708     36.1643 100000.0000     95.3079
   413.0000     25.0925     35.0300 100000.0000     98.3547
   413.2500     25.4822     33.5564 100000.0000     99.6249
   413.5000     25.9918     32.0121 100000.0000    101.8051
   413.7500     26.5024     30.6638 100000.0000    103.6961
   414.0000     26.9771     29.6138    781.1844    106.2092
   414.2500     27.4924     28.8153     62.0189    106.8839
   414.5000     28.1290     28.1736     41.6747    106.0792
   414.7500     28.9036     27.6202     37.8471    104.7654
   415.0000     29.7942     27.1401     38.6035    102.4259
   415.2500     30.7967     26.7743     41.1565    100.8854
   415.5000     31.9661     26.6000     44.5388     99.0427
   415.7500     33.4041     26.6586     48.6860     98.2787
   416.0000     35.1955     26.8398     54.2615     97.0788
   416.2500     37.3676     26.8338     62.7506     95.2016
   416.5000     39.9251     26.2868     76.7024     89.3576
   416.7500     42.8744     25.0907     99.5491     83.5713
   417.0000     46.1323     23.5438    131.3322     73.7208
   417.2500     49.3900     22.2305    155.0440     67.4984
   417.5000     52.1723     21.7090    145.1872     60.0600
   417.7500     54.1542     22.1834    115.2893     56.8307
   418.0000     55.3842     23.3771     89.9682     54.8770
   418.2500     56.2027     24.8346     74.1974     55.3531
   418.5000     57.1071     26.5878     65.2346     58.0630
   418.7500     58.6045     29.5896     60.2209     60.6685
   419.0000     60.8437     35.2719     57.3874     64.5726
   419.2500     63.4105     44.0380     55.9147     66.2974
   419.5000     65.7088     53.5775     55.5560     66.3764
   419.7500     67.4375     59.0910     56.0709     64.7382
   420.0000     68.5885     56.6431     56.6963     60.9806
   420.2500     69.1543     46.9748     56.1193     58.4988
   420.5000     68.9924     35.1572     53.4170     55.5463
   420.7500     67.9183     26.0854     49.1256     54.0327
   421.0000     65.7738     21.0478     44.7374     52.2630
   421.2500     62.4801     18.5048     41.3645     51.6274
   421.5000     58.2106     16.6255     39.2739     52.4432
   421.7500     53.4550     14.3384     38.1695     54.7921
   422.0000     48.7911     10.9079     37.5706     61.6786
   422.2500     44.6137      6.0076     37.0777     68.5081
   422.5000     41.0703      0.8800     36.4751     81.2472
   422.7500     38.1392     -1.2250     35.6714     90.3227
   423.0000     35.7344      2.6061     34.6171    102.3896
   423.2500     33.7882     11.2881     33.3100    108.2145
   423.5000     32.2409     19.5601     31.8381    113.0354
   423.7500     30.9977     22.7499     30.3616    114.2920
   424.0000     29.9942     21.0637     29.0369    115.0535
   424.2500     29.2591     18.2440     27.9549    115.3425
   424.5000     28.8019     17.1066     27.1358    114.7413
   424.7500     28.5058     17.7263     26.5565    112.9484
   425.0000     28.2498     19.1067     26.1849    108.3141
   425.2500     28.0396     20.9956     25.9976    105.0378
   425.5000     27.9466     23.9070     25.9801    102.1060
   425.7500     28.0121     27.9947     26.1200    102.1104
   426.0000     28.2358     32.1027     26.4040    104.5520
   426.2500     28.5845     34.1110     26.8191    106.9127
   426.5000     28.9929     32.6253     27.3503    109.8241
   426.7500     29.4290     28.3844     27.9724    110.6678
   427.0000     29.9945     23.6376     28.6418    110.3791
   427.2500     30.7443     20.2110     29.2975    109.9025
   427.5000     31.3552     18.4540     29.8775    110.1733
   427.7500     31.4591     17.7549     30.3420    111.1874
   428.0000     31.2144     17.4654     30.6856    112.7392
   428.2500     31.0031     17.2762     30.9318    112.7611
   428.5000     30.9332     17.1318     31.1226    110.5860
   428.7500     30.9306     17.0746     31.3162    108.3143
   429.0000     30.9605     17.1485     31.5889    105.7400
   429.2500     31.0486     17.3356     32.0150    105.4099
   429.5000     31.2279     17.5328     32.6271    106.7367
   429.7500     31.5003     17.5988     33.3785    107.9992
   430.0000     31.8166     17.4555     34.1496    109.3729
   430.2500     32.0976     17.1441     34.8045    109.9841
   430.5000     32.3028     16.7796     35.2690    111.1406
   430.7500     32.4659     16.4610     35.5684    112.3206
   431.0000     32.6565     16.2273     35.7934    114.5782
   431.2500     32.9199     16.0721     36.0390    116.1066
   431.5000     33.2572     15.9674     36.3583    117.5163
   431.7500     33.6482     15.8787     36.7579    117.2193
   432.0000     34.0513     15.7878     37.2129    114.3926
   432.2500     34.3828     15.7180     37.6743    111.2356
   432.5000     34.5658     15.7332     38.0533    105.9015
   432.7500     34.5858     15.8853     38.1962    102.8017
   433.0000     34.4250     16.1427     37.9085     99.9536
   433.2500     34.0080     16.3724     37.0671     99.5172
