~Version Information
VERS.                      2.0: CWLS Log ASCII Standard - VERSION 2.0
WRAP.                       NO: One line per depth step
~Well Information Block
STRT.FT                -6.7500: 
STOP.FT              1661.0000: 
STEP.FT                 0.2500: 
NULL.                -999.2500: 
COMP.          Pioneer Natural Resources: COMPANY
WELL.           Pedri 42-33 Tr: WELL
FLD.           Purgatorie River: FIELD
LOC.           1933'' FNL & 662' FEL--: LOCATION
PROV.                       CO: PROVINCE
CNTY.               Las Animas: COUNTRY
SRVC.          Patterson Wireline: SERVICE COMPANY
DATE.          Tue Dec 27 08:53:52 2005: LOG DATE
UWI.           05 071 08640 00: UNIQUE WELL ID
~Curve Information Block
DEPT.FT            0 000 00 00: Depth
CCL.                          : Casing Collar Locator
TT3.usec                      : CBL 3' Travel Time
AMP3.mV                       : CBL 3' Amplitude
GR.GAPI                       : Gamma Ray
~Parameter Information Block
~A  Depth       CCL         TT3         AMP3         GR     
# ...
  1098.7500      0.0000    500.2522      5.7145    136.1225
  1099.0000      0.0000    532.5585      5.7181    138.3888
  1099.2500      0.0000    564.9531      5.8171    141.9968
  1099.5000      0.0000    586.6226      5.9931    143.3417
  1099.7500      0.0000    589.6763      6.1863    139.2097
  1100.0000      0.0000    573.4712      6.3308    130.2983
  1100.2500      0.0000    545.9680      6.3945    121.1964
  1100.5000      0.0000    519.9856      6.3861    116.9610
  1100.7500      0.0000    506.4720      6.3307    119.5392
  1101.0000      0.0000    509.7836      6.2449    126.7982
  1101.2500      0.0000    526.7741      6.1364    134.5448
  1101.5000      0.0000    548.4996      6.0217    139.5752
  1101.7500      0.0000    564.1783      5.9340    141.2140
  1102.0000      0.0000    566.1868      5.9067    140.6742
  1102.2500      0.0000    552.4537      5.9435    139.6459
  1102.5000      0.0000    525.4511      6.0103    139.3850
  1102.7500      0.0000    490.7499      6.0590    140.1609
  1103.0000      0.0000    455.7776      6.0597    140.8573
  1103.2500      0.0000    427.1097      6.0129    139.6072
  1103.5000      0.0000    407.6818      5.9391    135.6649
  1103.7500      0.0000    396.6667      5.8617    130.5181
  1104.0000      0.0000    391.6587      5.7985    126.5748
  1104.2500      0.0000    390.7831      5.7596    125.0518
  1104.5000      0.0000    393.4004      5.7476    125.7131
  1104.7500      0.0000    399.5362      5.7570    128.1657
  1105.0000      0.0000    408.7280      5.7776    132.3885
  1105.2500      0.0000    419.3298      5.8014    137.7955
  1105.5000      0.0000    429.0743      5.8247    142.4039
  1105.7500      0.0000    436.2951      5.8445    143.6986
  1106.0000      0.0000    440.4450      5.8544    140.7853
  1106.2500      0.0000    441.4667      5.8480    135.5177
  1106.5000      0.0000    439.0250      5.8252    131.0745
  1106.7500      0.0000    432.6525      5.7952    129.3875
  1107.0000      0.0000    422.6936      5.7714    130.1061
  1107.2500      0.0000    410.8901      5.7627    131.7342
  1107.5000      0.0000    399.6846      5.7673    133.2139
  1107.7500      0.0000    390.7899      5.7745    134.2925
  1108.0000      0.0000    384.4639      5.7710    135.0033
  1108.2500      0.0000    380.0074      5.7493    135.3201
  1108.5000      0.0000    376.6599      5.7171    135.0596
  1108.7500      0.0000    374.0384      5.6965    133.9579
  1109.0000      0.0000    372.0942      5.7118    132.3010
  1109.2500      0.0000    370.9893      5.7731    131.3922
  1109.5000      0.0000    371.0828      5.8705    132.5972
  1109.7500      0.0000    372.8566      5.9805    135.7166
  1110.0000      0.0000    376.5193      6.0785    138.8047
  1110.2500      0.0000    381.4737      6.1493    139.7245
  1110.5000      0.0000    386.4107      6.1915    137.6782
  1110.7500      0.0000    390.2985      6.2135    133.4275
  1111.0000      0.0000    393.1618      6.2234    128.5510
  1111.2500      0.0000    395.5701      6.2228    124.4004
  1111.5000      0.0000    397.6236      6.2129    121.3163
  1111.7500      0.0000    398.8770      6.2002    118.7948
  1112.0000      0.0000    399.0563      6.1897    116.5532
  1112.2500      0.0000    398.4501      6.1739    115.2555
  1112.5000      0.0000    397.6652      6.1347    115.9565
  1112.7500      0.0000    397.2544      6.0613    118.8268
  1113.0000      0.0000    397.5754      5.9619    122.4669
  1113.2500      0.0000    398.9661      5.8567    124.4673
  1113.5000      0.0000    402.2257      5.7660    122.7595
  1113.7500      0.0000    409.3499      5.7052    116.8294
  1114.0000      0.0000    423.8577      5.6821    107.9888
  1114.2500      0.0000    449.4703      5.6942     98.4523
  1114.5000      0.0000    486.9167      5.7267     89.9627
  1114.7500      0.0000    531.4134      5.7579     83.0596
  1115.0000      0.0000    573.8039      5.7679     77.3991
  1115.2500      0.0000    604.7164      5.7452     72.6694
  1115.5000      0.0000    618.5407      5.6887     69.2852
  1115.7500      0.0000    615.5060      5.6069     68.1102
  1116.0000      0.0000    601.3672      5.5157     69.3565
  1116.2500      0.0000    584.1653      5.4347     71.8938
  1116.5000      0.0000    569.9196      5.3793     73.8410
  1116.7500      0.0000    561.1046      5.3532     73.8856
  1117.0000      0.0000    558.7346      5.3483     72.0412
  1117.2500      0.0000    564.5048      5.3510     69.2469
  1117.5000      0.0000    579.8738      5.3518     66.4426
  1117.7500      0.0000    603.3071      5.3510     64.2626
  1118.0000      0.0000    629.4150      5.3576     63.3022
  1118.2500      0.0000    651.6134      5.3813     63.8028
  1118.5000      0.0000    665.8220      5.4234     64.9633
  1118.7500      0.0000    671.6879      5.4739     65.4806
  1119.0000      0.0000    671.2659      5.5172     65.0430
  1119.2500      0.0000    667.8548      5.5415     64.5272
  1119.5000      0.0000    665.7775      5.5441     64.5157
  1119.7500      0.0000    669.0628      5.5301     64.4040
  1120.0000      0.0000    678.6580      5.5060     63.4495
  1120.2500      0.0000    691.4971      5.4745     62.1707
  1120.5000      0.0000    703.1755      5.4346     61.9904
  1120.7500      0.0000    711.0250      5.3869     63.5866
  1121.0000      0.0000    714.4069      5.3364     66.2186
  1121.2500      0.0000    713.2313      5.2911     68.6730
  1121.5000      0.0000    706.7274      5.2573     70.2049
  1121.7500      0.0000    692.8783      5.2369     70.5785
  1122.0000      0.0000    669.3276      5.2281     70.1181
  1122.2500      0.0000    636.5469      5.2298     69.8300
  1122.5000      0.0000    600.4500      5.2443     70.5002
  1122.7500      0.0000    570.0976      5.2748     71.3540
  1123.0000      0.0000    551.6548      5.3230     70.4354
  1123.2500      0.0000    544.6783      5.3875     66.7673
  1123.5000      0.0000    544.0066      5.4630     61.6119
  1123.7500      0.0000    544.5618      5.5361     57.3148
  1124.0000      0.0000    544.5087      5.5873     55.3228
  1124.2500      0.0000    544.9276      5.6026     55.6211
  1124.5000      0.0000    547.7509      5.5856     57.8450
  1124.7500      0.0000    554.6535      5.5570     62.2226
  1125.0000      0.0000    566.9800      5.5400     68.7916
  1125.2500      0.0000    584.6713      5.5456     76.1193
  1125.5000      0.0000    603.9417      5.5673     81.8700
  1125.7500      0.0000    617.1749      5.5854     84.7867
  1126.0000      0.0000    617.7997      5.5743     85.5011
  1126.2500      0.0000    606.4050      5.5101     85.6549
  1126.5000      0.0000    591.1737      5.3838     87.0958
  1126.7500      0.0000    581.8775      5.2217     91.5163
  1127.0000      0.0000    583.3262      5.0941     99.4744
  1127.2500      0.0000    592.7333      5.0750    109.3909
  1127.5000      0.0000    601.5472      5.1752    118.2359
  1127.7500      0.0000    600.7191      5.3349    123.5775
  1128.0000      0.0000    586.6946      5.4970    124.8085
  1128.2500      0.0000    563.7938      5.6570    122.7039
  1128.5000      0.0000    540.7671      5.8285    118.4242
  1128.7500      0.0000    524.3361      6.0015    113.0509
  1129.0000      0.0000    515.7083      6.1537    107.7048
  1129.2500      2.0000    513.1308      6.2786    103.6534
  1129.5000      0.0000    516.7186      6.3959    101.8996
  1129.7500      0.0000    529.1508      6.5480    102.4562
  1130.0000      0.0000    551.0950      6.7709    104.0693
  1130.2500      0.0000    577.6328      7.0408    104.9036
  1130.5000      0.0000    601.4506      7.2776    103.7905
  1130.7500      0.0000    619.3589      7.4453    100.9977
  1131.0000      0.0000    633.1866      7.6154     98.0246
  1131.2500      0.0000    643.1798      7.8742     96.8312
  1131.5000      0.0000    643.5114      8.2072     98.8526
  1131.7500      0.0000    627.5790      8.5189    103.9862
  1132.0000      0.0000    597.4543      8.7306    110.4764
