~Version Information
VERS.                      2.0: CWLS Log ASCII Standard - VERSION 2.0
WRAP.                       NO: One line per depth step
~Well Information Block
STRT.FT               260.0000: 
STOP.FT               713.2000: 
STEP.FT                 0.1000: 
NULL.                -999.2500: 
COMP.          Pioneer Natural Resources: COMPANY
WELL.           Quintessa 23-7: WELL
FLD.           Purgatoire River: FIELD
LOC.           1964' FSL & 2589' FWL--: LOCATION
PROV.                 Colorado: PROVINCE
CNTY.               Las Animas: COUNTRY
SRVC.                Patterson: SERVICE COMPANY
DATE.          Sat Nov 19 09:15:07 2005: LOG DATE
UWI.           05 071 08558 00: UNIQUE WELL ID
~Curve Information Block
DEPT.FT            0 000 00 00: Depth
DCAL.in                       : CDL Caliper
RHOB.g/cc                     : CDL Bulk Density
RHOC.g/cc                     : CDL Density Correction
DPOR.pu                       : CDL Density Porosity
NPOR.pu                       : Neutron Porosity
GR.GAPI                       : Gamma Ray
~Parameter Information Block
~A  Depth       DCAL        RHOB        RHOC        DPOR        NPOR         GR     
# ...
   346.4000      7.9310      2.5438      0.0137      6.4341     16.7366    103.2528
   346.5000      7.9298      2.5532      0.0202      5.8638     17.4066    110.8413
   346.6000      7.9298      2.5705      0.0272      4.8177     18.6623    106.1834
   346.7000      7.9298      2.5818      0.0494      4.1331     19.6121     96.3769
   346.8000      7.9329      2.5849      0.0388      3.9467     19.4044     93.4549
   346.9000      7.9329      2.5841      0.0580      3.9938     18.4336     97.2976
   347.0000      7.9355      2.5774      0.0720      4.4016     18.0200    100.3921
   347.1000      7.9355      2.5721      0.0346      4.7189     18.1934     99.6465
   347.2000      7.9355      2.5824      0.0611      4.0958     17.9728     97.3683
   347.3000      7.9381      2.5915      0.0954      3.5441     17.8107     95.5790
   347.4000      7.9381      2.5694      0.0677      4.8826     18.5995     95.6836
   347.5000      7.9386      2.5292      0.0072      7.3231     19.4227     95.1384
   347.6000      7.9386      2.5131     -0.0141      8.2962     19.5454     93.0330
   347.7000      7.9386      2.5291      0.0334      7.3249     18.8493     94.8695
   347.8000      7.9316      2.5460      0.0735      6.3059     17.0175    101.2176
   347.9000      7.9316      2.5460      0.0380      6.3036     15.7754    106.2180
   348.0000      7.9184      2.5368      0.0365      6.8634     16.7912    106.2167
   348.1000      7.9184      2.5275      0.0158      7.4252     19.1535    103.5978
   348.2000      7.9184      2.5247      0.0267      7.5961     20.8179    104.3727
   348.3000      7.9035      2.5283      0.0689      7.3741     21.3237    108.3428
   348.4000      7.9035      2.5388      0.0178      6.7402     21.4601    111.0144
   348.5000      7.8925      2.5554      0.0834      5.7342     21.7196    111.3146
   348.6000      7.8925      2.5669      0.0732      5.0354     21.6193    109.4883
   348.7000      7.8925      2.5723      0.0539      4.7093     21.0268    107.9138
   348.8000      7.9042      2.5741      0.0549      4.5973     21.0240    111.4309
   348.9000      7.9042      2.5636      0.0762      5.2356     22.2729    119.6339
   349.0000      7.9489      2.5385      0.0394      6.7593     24.0537    126.8607
   349.1000      7.9489      2.5088      0.0163      8.5583     25.2979    131.1633
   349.2000      7.9489      2.4773      0.0271     10.4643     25.7461    134.0147
   349.3000      8.0069      2.4316      0.0132     13.2392     25.8333    137.1849
   349.4000      8.0069      2.3588      0.0002     17.6510     25.8956    141.0085
   349.5000      8.0492      2.2632     -0.0683     23.4439     25.9369    144.6611
   349.6000      8.0492      2.1679     -0.0818     29.2174     25.9037    146.5531
   349.7000      8.0492      2.0978     -0.1210     33.4657     25.4101    144.7355
   349.8000      8.0700      2.0661     -0.1249     35.3880     24.8725    137.9594
   349.9000      8.0700      2.0706     -0.0998     35.1136     25.4199    125.4797
   350.0000      8.0763      2.0983     -0.0517     33.4353     26.4845    112.9287
   350.1000      8.0763      2.1394     -0.0125     30.9439     26.9132    108.2058
   350.2000      8.0763      2.1948      0.0405     27.5896     26.3849    108.3190
   350.3000      8.0645      2.2664      0.1241     23.2469     24.7796    106.6609
   350.4000      8.0645      2.3438      0.2106     18.5594     22.8767    103.6758
   350.5000      8.0315      2.4038      0.1931     14.9227     21.7739    101.8948
   350.6000      8.0315      2.4314      0.1531     13.2510     21.2800    101.8778
   350.7000      8.0315      2.4324      0.0792     13.1864     21.2007    104.3120
   350.8000      7.9934      2.4220      0.0386     13.8203     22.1367    110.6160
   350.9000      7.9934      2.4073     -0.0092     14.7077     23.5479    116.9814
   351.0000      7.9722      2.3927     -0.0200     15.5961     23.3294    120.3498
   351.1000      7.9722      2.3827     -0.0058     16.1981     20.8864    124.3673
   351.2000      7.9722      2.3747     -0.0158     16.6835     18.8572    128.7988
   351.3000      7.9701      2.3620      0.0130     17.4574     18.9650    127.3071
   351.4000      7.9701      2.3538     -0.0158     17.9506     19.8435    117.4698
   351.5000      7.9726      2.3675      0.0081     17.1224     20.5855    102.2886
   351.6000      7.9726      2.3990      0.0512     15.2113     21.7499     90.7900
   351.7000      7.9726      2.4351      0.0669     13.0271     22.3730     91.4760
   351.8000      7.9701      2.4688      0.1152     10.9802     21.6753     99.4733
   351.9000      7.9701      2.4933      0.0887      9.4944     21.1022    104.0575
   352.0000      7.9694      2.5032      0.1261      8.8954     21.2383    102.1833
   352.1000      7.9694      2.4973      0.0832      9.2541     20.8574     98.9557
   352.2000      7.9694      2.4822      0.0767     10.1718     19.8412     99.7974
   352.3000      7.9745      2.4723      0.0599     10.7702     19.6124    105.2562
   352.4000      7.9745      2.4761      0.0656     10.5368     20.2689    110.3343
   352.5000      7.9826      2.4847      0.0798     10.0162     20.8216    109.8484
   352.6000      7.9826      2.4889      0.0616      9.7618     21.5405    106.1893
   352.7000      7.9826      2.4921      0.0363      9.5674     22.5693    106.2693
   352.8000      7.9856      2.4976      0.0103      9.2366     23.0237    109.1413
   352.9000      7.9856      2.5019      0.0305      8.9750     22.9689    108.8771
   353.0000      7.9825      2.5027      0.0188      8.9262     22.9442    105.9029
   353.1000      7.9825      2.4976      0.0727      9.2393     22.7844    103.8860
   353.2000      7.9825      2.4812      0.0535     10.2325     22.3567    105.9302
   353.3000      7.9787      2.4567      0.0229     11.7148     22.0878    114.5811
   353.4000      7.9787      2.4315      0.0189     13.2442     22.3775    124.9842
   353.5000      7.9764      2.4155     -0.0334     14.2114     22.8182    128.7484
   353.6000      7.9764      2.4235      0.0285     13.7258     22.8533    126.2914
   353.7000      7.9764      2.4488      0.0626     12.1951     23.0690    123.8935
   353.8000      7.9826      2.4648      0.0971     11.2260     23.7256    125.9533
   353.9000      7.9826      2.4628      0.0556     11.3434     23.9272    131.5102
   354.0000      7.9968      2.4577      0.0462     11.6560     23.7617    132.6656
   354.1000      7.9968      2.4601      0.0754     11.5091     24.1980    128.1057
   354.2000      7.9968      2.4685      0.0647     10.9973     24.9531    126.7456
   354.3000      7.9973      2.4765      0.0763     10.5167     24.8717    129.8983
   354.4000      7.9973      2.4801      0.0455     10.2998     24.3653    131.2725
   354.5000      7.9909      2.4804      0.0715     10.2807     24.2992    128.4829
   354.6000      7.9909      2.4730      0.0943     10.7261     24.3798    123.9548
   354.7000      7.9909      2.4530      0.0674     11.9384     24.8658    120.1724
   354.8000      8.0022      2.4307      0.0086     13.2896     26.0520    115.7621
   354.9000      8.0022      2.4248      0.0093     13.6470     26.7363    111.8873
   355.0000      8.0168      2.4395      0.0266     12.7593     26.0812    113.0701
   355.1000      8.0168      2.4633      0.0351     11.3153     25.1441    117.7319
   355.2000      8.0168      2.4847      0.0571     10.0192     25.1066    121.3372
   355.3000      8.0246      2.4994      0.0493      9.1276     25.0044    123.5892
   355.4000      8.0246      2.5052      0.0435      8.7787     23.5106    122.6585
   355.5000      8.0309      2.4967      0.0371      9.2894     21.6875    117.9243
   355.6000      8.0309      2.4803      0.0013     10.2841     20.6603    113.9821
   355.7000      8.0309      2.4706      0.0142     10.8738     19.7103    114.6438
   355.8000      8.0360      2.4682      0.0155     11.0190     17.7518    117.9481
   355.9000      8.0360      2.4642      0.0099     11.2584     15.5003    117.3125
