~Version Information
 VERS.                                  2.0 : CWLS LAS VERSION
 WRAP.                                   NO : WRAPING MODE
 SWARE .                 MController 2.5.0J : SOFTWARE VERSION
~Well Information
 WELL.                       Montoya 12-44R : WELL
 COMP.                Petrogulf Corporation : COMPANY
 FLD.                      Purgatoire River : FIELD
 LOC.               SE/SE Sec 12 T33S R68W  : LOCATION
 DATE.                             10/01/05 : DATE(S) LOGGED
 SRVC.       BLANCO Geological Services LLC : SERVICE COMPANY
 STAT.                                  CO  : STATE
 CNTY.                           Las Animas : COUNTY
 CTRY.                                  USA : COUNTRY
 API.                       05 071 08538 00 : API NUMBER
 STRT.FT                              22.00 : START DEPTH
 STOP.FT                            2100.00 : STOP DEPTH
 STEP.FT                               1.00 : DEPTH INCREMENT
 NULL.                                -9999 : NULL VALUE
~Curve information
 DEPTH.FT                                   :
 ROP.MIN/FT                                 :
 GAS.UNITS                                  :
~ASCII Log data
# ...
      1822.0         0.37         14.1 
      1823.0         0.40         14.5 
      1824.0         0.37         14.8 
      1825.0         0.37         16.0 
      1826.0         0.23         16.0 
      1827.0         0.33         15.6 
      1828.0         0.42         15.7 
      1829.0         0.30         14.3 
      1830.0         0.23         11.6 
      1831.0         0.30         10.0 
      1832.0         0.20          8.9 
      1833.0         0.20          8.7 
      1834.0         0.37          9.1 
      1835.0         0.17         10.2 
      1836.0         0.40         12.3 
      1837.0         0.63         13.2 
      1838.0         0.42         14.3 
      1839.0         0.67         15.2 
      1840.0         2.12        161.7 
      1841.0         0.43        151.2 
      1842.0         0.47         44.2 
      1843.0         0.53         11.8 
      1844.0         0.57         21.0 
      1845.0         0.57         25.6 
      1846.0         0.72         25.5 
      1847.0         0.73         20.0 
      1848.0         0.50         18.7 
      1849.0         0.63         19.4 
      1850.0         0.95         21.8 
      1851.0         1.03         25.7 
      1852.0         0.43         25.2 
      1853.0         0.37         25.6 
      1854.0         0.43         25.6 
      1855.0         0.37         23.5 
      1856.0         0.40         19.1 
      1857.0         0.35         16.9 
      1858.0         0.37         16.6 
      1859.0         0.40         16.6 
      1860.0         0.37         16.6 
      1861.0         0.37         15.8 
      1862.0         0.40         15.2 
      1863.0         0.43         14.3 
      1864.0         0.63         14.2 
      1865.0         0.68         13.9 
      1866.0         0.30         13.1 
      1867.0         0.37         13.2 
      1868.0         0.37         13.3 
      1869.0         0.33         12.3 
      1870.0         2.98        170.4 
      1871.0         0.50        156.0 
      1872.0         0.57         39.5 
      1873.0         0.62         13.3 
      1874.0         0.40         18.7 
      1875.0         0.60         47.6 
      1876.0         0.33         48.6 
      1877.0         0.37         25.7 
      1878.0         0.37          7.6 
      1879.0         0.40          9.9 
      1880.0         0.40         16.5 
      1881.0         0.45         20.0 
      1882.0         0.43         19.6 
      1883.0         0.33         14.5 
      1884.0         0.40         11.8 
      1885.0         0.33         10.5 
      1886.0         0.33         11.6 
      1887.0         0.33         13.8 
      1888.0         0.33         15.3 
      1889.0         0.33         16.1 
      1890.0         0.35         16.0 
      1891.0         0.37         15.8 
      1892.0         0.37         13.7 
      1893.0         0.30         12.3 
      1894.0         0.37         11.9 
      1895.0         0.30         10.6 
      1896.0         0.37         10.2 
      1897.0         0.37          9.0 
      1898.0         0.33          8.4 
      1899.0         0.27          8.4 
      1900.0         2.75        184.4 
      1901.0         0.65        196.2 
      1902.0         0.47         59.4 
      1903.0         0.47         11.7 
      1904.0         0.37         12.4 
      1905.0         0.33         17.4 
      1906.0         0.37         21.1 
      1907.0         0.33         21.5 
      1908.0         0.33         19.7 
      1909.0         0.37         17.1 
      1910.0         0.42         13.8 
      1911.0         0.37         12.6 
      1912.0         0.43         12.4 
      1913.0         0.43         12.0 
      1914.0         0.40         11.3 
      1915.0         0.40         10.7 
      1916.0         0.40         12.8 
      1917.0         0.43         13.9 
      1918.0         0.42         13.8 
      1919.0         0.40         14.0 
      1920.0         0.40         13.6 
      1921.0         0.43         13.1 
      1922.0         0.47         12.7 
      1923.0         0.43         12.3 
      1924.0         0.50         11.7 
      1925.0         0.52         11.3 
      1926.0         0.60         11.5 
      1927.0         0.40         10.7 
      1928.0         0.37          9.7 
      1929.0         0.47          8.6 
      1930.0         3.35        277.5 
      1931.0         0.37        176.5 
      1932.0         0.43         45.6 
      1933.0         0.52         11.0 
      1934.0         0.47         15.9 
      1935.0         0.47         21.5 
      1936.0         0.43         22.5 
      1937.0         0.50         21.2 
      1938.0         0.50         16.4 
      1939.0         0.52         10.7 
      1940.0         0.53          9.1 
      1941.0         0.60          9.0 
      1942.0         0.73         11.9 
      1943.0         0.47         13.1 
      1944.0         0.38         14.8 
      1945.0         0.40         16.7 
      1946.0         0.40         16.0 
      1947.0         0.40         14.5 
      1948.0         0.40         14.4 
      1949.0         0.40         15.9 
      1950.0         0.37         16.5 
      1951.0         0.37         17.3 
      1952.0         0.42         16.7 
      1953.0         0.33         16.8 
      1954.0         0.37         17.1 
      1955.0         0.33         17.0 
      1956.0         0.40         17.1 
      1957.0         0.37         17.0 
      1958.0         0.37         16.7 
      1959.0         0.37         15.2 
      1960.0         2.88        232.8 
      1961.0         0.33        284.9 
      1962.0         0.47        290.9 
      1963.0         0.45        146.2 
      1964.0         0.50         33.4 
      1965.0         0.43          7.4 
      1966.0         0.53         12.4 
      1967.0         0.43         16.5 
      1968.0         0.43         16.5 
      1969.0         0.47         15.5 
      1970.0         0.55         11.6 
      1971.0         0.53          8.5 
      1972.0         0.67          9.2 
      1973.0         0.77         10.1 
      1974.0         0.80         10.7 
      1975.0         0.58         10.2 
      1976.0         0.60          9.2 
      1977.0         0.87         10.5 
      1978.0         0.87         14.9 
      1979.0         0.57         15.5 
      1980.0         0.62         13.4 
      1981.0         0.43          8.4 
      1982.0         0.33         10.0 
      1983.0         0.40         13.3 
      1984.0         0.40         16.8 
      1985.0         0.50         17.3 
      1986.0         0.33         14.0 
      1987.0         0.38         11.2 
      1988.0         0.37         11.0 
      1989.0         0.37         12.5 
      1990.0         3.48        168.2 
      1991.0         0.43        248.3 
      1992.0         0.50        291.6 
      1993.0         0.47        150.4 
      1994.0         0.40         26.6 
      1995.0         0.45          5.9 
      1996.0         0.47         10.5 
      1997.0         0.40         15.3 
      1998.0         0.37         17.6 
      1999.0         0.30         17.4 
      2000.0         0.37         16.6 
      2001.0         0.33         13.6 
      2002.0         0.33         11.0 
      2003.0         0.33          7.9 
      2004.0         0.35          7.6 
      2005.0         0.30          7.0 
      2006.0         0.30          6.8 
      2007.0         0.40          6.3 
      2008.0         0.37          5.6 
      2009.0         0.33          5.3 
      2010.0         0.23          5.9 
      2011.0         0.17          5.9 
      2012.0         0.17          6.1 
      2013.0         0.40          7.0 
      2014.0         0.33         12.1 
      2015.0         0.22         13.7 
      2016.0         0.30         14.3 
      2017.0         0.27         13.5 
      2018.0         0.33         12.6 
      2019.0         0.27         12.5 
      2020.0         3.42        151.1 
      2021.0         0.40        173.2 
