~Version Information
VERS.                      2.0: CWLS Log ASCII Standard - VERSION 2.0
WRAP.                       NO: One line per depth step
~Well Information Block
STRT.FT                 0.0000: 
STOP.FT               683.5000: 
STEP.FT                 0.2500: 
NULL.                -999.2500: 
COMP.          Pioneer Natural Resources: COMPANY
WELL.           Belvedere 14-7: WELL
FLD.           Purgatorie River: FIELD
LOC.           786' FSL & 1283' FWL: LOCATION
PROV.                 Colorado: PROVINCE
CNTY.               Las Animas: COUNTRY
SRVC.                Patterson: SERVICE COMPANY
DATE.          Fri Dec 02 12:52:31 2005: LOG DATE
UWI.           05-071-08557               : UNIQUE WELL ID
~Curve Information Block
DEPT.FT            0 000 00 00: Depth
CCL.                          : Casing Collar Locator
TT3.usec                      : CBL 3' Travel Time
AMP3.mV                       : CBL 3' Amplitude
GR.GAPI                       : Gamma Ray
~Parameter Information Block
~A  Depth       CCL         TT3         AMP3         GR     
# ...
   335.0000      0.0000    582.8503      7.4555     49.0289
   335.2500      0.0000    599.2208      7.6583     47.8585
   335.5000      0.0000    643.1669      7.8049     46.4463
   335.7500      0.0000    682.6071      7.8748     45.0281
   336.0000      0.0000    691.2291      7.9044     44.0030
   336.2500      0.0000    673.6255      7.9476     43.5580
   336.5000      0.0000    657.3522      7.9852     43.4792
   336.7500      0.0000    664.6380      7.9636     43.3700
   337.0000      0.0000    689.4514      7.8917     42.9246
   337.2500      0.0000    711.6338      7.8245     41.9888
   337.5000      0.0000    722.5698      7.7963     40.5258
   337.7500      0.0000    725.8932      7.7985     38.6673
   338.0000      0.0000    726.4680      7.8074     36.7856
   338.2500      0.0000    726.5306      7.8126     35.4374
   338.5000      0.0000    726.7333      7.8164     35.1576
   338.7500      0.0000    727.0362      7.8241     36.1685
   339.0000      0.0000    727.1962      7.8395     38.1975
   339.2500      0.0000    726.9891      7.8653     40.6453
   339.5000      0.0000    724.8198      7.8946     43.0708
   339.7500      0.0000    713.8239      7.8965     45.4685
   340.0000      0.0000    679.5473      7.8510     47.9430
   340.2500      0.0000    611.4234      7.7989     50.1544
   340.5000      0.0000    525.3497      7.7874     51.3802
   340.7500      0.0000    462.5401      7.7903     51.3179
   341.0000      0.0000    457.9250      7.7299     50.5495
   341.2500      0.0000    515.1348      7.5707     49.8683
   341.5000      0.0000    602.3032      7.3973     49.4959
   341.7500      0.0000    674.6055      7.3310     49.5097
   342.0000      0.0000    711.8912      7.3655     50.8867
   342.2500      0.0000    724.0387      7.3864     55.6164
   342.5000      0.0000    726.5403      7.3260     65.4377
   342.7500      0.0000    726.9368      7.2292     80.2018
   343.0000      0.0000    726.7675      7.1805     97.3026
   343.2500      0.0000    725.1043      7.1865    112.8939
   343.5000      0.0000    720.1889      7.1649    124.0393
   343.7500      0.0000    711.8481      7.0649    130.0828
   344.0000      0.0000    704.2346      6.9183    132.3359
   344.2500      0.0000    702.4115      6.7706    132.7150
   344.5000      0.0000    704.3191      6.6318    132.6472
   344.7500      0.0000    702.3913      6.5043    132.8509
   345.0000      0.0000    694.3853      6.4359    133.4832
   345.2500      0.0000    685.4853      6.4887    134.1643
   345.5000      0.0000    680.2346      6.6356    134.1256
   345.7500      0.0000    678.5673      6.7684    132.5967
   346.0000      0.0000    678.5469      6.8147    129.2196
   346.2500      0.0000    678.9062      6.7754    124.6540
   346.5000      0.0000    679.1810      6.6864    121.0143
   346.7500      0.0000    679.2498      6.6004    120.8657
   347.0000      0.0000    679.1794      6.5512    124.9098
   347.2500      0.0000    679.2333      6.5264    130.9126
   347.5000      0.0000    679.7863      6.5215    135.4854
   347.7500      0.0000    680.9117      6.5758    136.9303
   348.0000      0.0000    682.1423      6.6815    136.1057
   348.2500      0.0000    682.5754      6.7242    134.6631
   348.5000      0.0000    680.6785      6.6246    133.0127
   348.7500      0.0000    674.4868      6.4807    130.3217
   349.0000      0.0000    664.1640      6.4544    126.0642
   349.2500      0.0000    655.1222      6.5677    120.9407
   349.5000      0.0000    654.4371      6.7088    116.2134
   349.7500      0.0000    662.0212      6.8008    112.4893
   350.0000      0.0000    670.4813      6.8650    109.3894
   350.2500      0.0000    672.9527      6.9499    106.4956
   350.5000      0.0000    662.7829      7.0823    104.5243
   350.7500      0.0000    627.4226      7.2500    105.1054
   351.0000      0.0000    558.4509      7.4112    108.9337
   351.2500      0.0000    473.5562      7.5507    114.5541
   351.5000      0.0000    407.4659      7.6987    119.6323
   351.7500      0.0000    375.4819      7.8880    123.0701
   352.0000      0.0000    369.5263      8.1036    125.1666
   352.2500      0.0000    381.9074      8.2532    126.0938
   352.5000      0.0000    407.8953      8.2350    125.1792
   352.7500      0.0000    434.4555      8.0747    121.8856
   353.0000      0.0000    446.1176      7.9084    117.0605
   353.2500      0.0000    439.7015      7.8271    112.7540
   353.5000      0.0000    424.4574      7.8365    110.5871
   353.7500      0.0000    414.0298      7.9180    110.3592
   354.0000      0.0000    424.4836      8.0334    110.4641
   354.2500      0.0000    469.4125      8.1262    109.5673
   354.5000      0.0000    543.6443      8.1736    107.6900
   354.7500      0.0000    615.0060      8.1868    105.9297
   355.0000      0.0000    646.2222      8.1781    105.6050
   355.2500      0.0000    622.4827      8.1922    107.6458
   355.5000      0.0000    554.0268      8.2901    112.0733
   355.7500      0.0000    471.8238      8.4429    117.3872
   356.0000      0.0000    419.6439      8.5443    120.8316
   356.2500      0.0000    428.5351      8.5469    120.2460
   356.5000      0.0000    496.1143      8.4956    115.7951
   356.7500      0.0000    587.3297      8.4453    109.5232
   357.0000      0.0000    660.8403      8.4085    103.7071
   357.2500      0.0000    701.4255      8.3645    100.1157
   357.5000      0.0000    718.2460      8.2948     99.9601
   357.7500      0.0000    722.4705      8.2041    103.3227
   358.0000      0.0000    717.0272      8.1076    108.6840
   358.2500      0.0000    696.9841      8.0125    113.7717
   358.5000      0.0000    654.9583      7.9131    117.1374
   358.7500      0.0000    596.7036      7.8181    118.7806
   359.0000      0.0000    554.3112      7.7837    119.6106
   359.2500      0.0000    560.2294      7.8509    120.8020
   359.5000      0.0000    604.6738      7.9661    123.3444
   359.7500      0.0000    649.4797      8.0491    127.4359
   360.0000      0.0000    674.9196      8.0829    132.0828
   360.2500      0.0000    687.6437      8.0714    135.4371
   360.5000      0.0000    698.9559      7.9975    135.6965
   360.7500      0.0000    711.9508      7.8291    132.0879
   361.0000      0.0000    723.4714      7.5300    125.5470
   361.2500      0.0000    732.6484      7.1951    118.4541
   361.5000      0.0000    750.8214      7.0197    113.1252
   361.7500      0.0000    798.4150      6.8814    110.2330
   362.0000      0.0000    869.7813      6.4920    108.8873
   362.2500      0.0000    917.6184      6.0423    108.1876
   362.5000      0.0000    913.3295      5.9027    108.2179
   362.7500      0.0000    882.7054      6.0190    109.4650
   363.0000      2.0000    850.2434      6.1523    111.8347
   363.2500      0.0000    814.9866      6.2662    114.5519
   363.5000      0.0000    783.6153      6.3993    116.6109
   363.7500      0.0000    765.3289      6.4742    116.9973
   364.0000      0.0000    755.0037      6.5187    114.8462
   364.2500      0.0000    745.7383      6.7865    109.9873
   364.5000      0.0000    736.5576      7.2926    103.4997
   364.7500      0.0000    728.1793      7.7346     97.3948
   365.0000      0.0000    719.5822      8.0531     93.3279
   365.2500      0.0000    708.6025      8.3853     91.5572
   365.5000      0.0000    696.1094      8.6789     91.3560
   365.7500      0.0000    686.2218      8.8117     92.2535
   366.0000      0.0000    681.5237      8.7757     94.4283
   366.2500      0.0000    681.7371      8.6330     97.8759
   366.5000      0.0000    686.5875      8.4720    101.6894
   366.7500      0.0000    696.1377      8.3758    104.6328
   367.0000      0.0000    707.8919      8.3558    106.3919
   367.2500      0.0000    717.0397      8.3557    107.7548
   367.5000      0.0000    720.3421      8.3410    109.3534
   367.7500      0.0000    717.1970      8.3233    110.8613
   368.0000      0.0000    709.0610      8.3140    111.8210
   368.2500      0.0000    700.4393      8.3199    112.4087
