~Version Information
VERS.                      2.0: CWLS Log ASCII Standard - VERSION 2.0
WRAP.                       NO: One line per depth step
~Well Information Block
STRT.FT               400.0000: 
STOP.FT              1577.5000: 
STEP.FT                 0.1000: 
NULL.                -999.2500: 
COMP.          Pioneer Natural Resources: COMPANY
WELL.          Lorencito 10-36-33-67: WELL
FLD.           Purgatoire River: FIELD
LOC.           2130' FSL & 2362' FEL: LOCATION
STAT.                 Colorado: State
CNTY.               Las Animas: COUNTY
CTRY. USA : Country
SECT. 36 : Section
TOWN. 33S : Township
RANG. 67W : Range
SRVC.                Patterson: SERVICE COMPANY
DATE.          Mon Aug 29 07:03:31 2005: LOG DATE
API.           05 071 08501 00: UNIQUE WELL ID
~Curve Information Block
DEPT.FT            0 000 00 00: Depth
DCAL.in                       : CDL Caliper
RHOB.g/cc                     : CDL Bulk Density
RHOC.g/cc                     : CDL Density Correction
DPOR.pu                       : CDL Density Porosity
GR.GAPI                       : Gamma Ray
NPOR.pu                       : Neutron Porosity
~Parameter Information Block
~A  Depth       DCAL        RHOB        RHOC        DPOR         GR         NPOR    
# ...
   784.0000      7.9914      2.5854      0.0993      3.9157    133.3816     23.2121
   784.1000      7.9914      2.5667      0.1008      5.0468    132.4717     23.6038
   784.2000      7.9914      2.5393      0.0795      6.7077    126.2331     23.9628
   784.3000      7.9812      2.5067      0.0806      8.6878    120.1786     24.7811
   784.4000      7.9812      2.4748      0.0426     10.6210    116.9637     25.7086
   784.5000      7.9972      2.4594      0.0518     11.5488    113.1498     25.8304
   784.6000      7.9972      2.4702      0.0456     10.8968    110.0334     25.2231
   784.7000      7.9972      2.5029      0.0629      8.9159    111.3300     24.6387
   784.8000      8.0236      2.5518      0.0983      5.9524    113.3009     24.3532
   784.9000      8.0236      2.6090      0.1241      2.4830    111.6879     24.0903
   785.0000      8.0159      2.6566      0.1869     -0.3994    106.3610     23.8243
   785.1000      8.0159      2.6745      0.1794     -1.4820     99.2525     23.8849
   785.2000      8.0159      2.6610      0.1577     -0.6646     93.5613     24.3456
   785.3000      8.0284      2.6332      0.1505      1.0195     90.2189     24.8828
   785.4000      8.0284      2.6128      0.1255      2.2520     86.0675     24.8704
   785.5000      8.0311      2.6081      0.0803      2.5404     79.6026     23.9890
   785.6000      8.0311      2.6028      0.0921      2.8623     75.4174     23.0878
   785.7000      8.0311      2.5811      0.0210      4.1775     79.4257     22.8592
   785.8000      8.0108      2.5543      0.0198      5.7978     89.2005     22.9387
   785.9000      8.0108      2.5493     -0.0453      6.1015     94.9759     22.8374
   786.0000      8.0583      2.5722      0.0338      4.7151     93.4195     22.4294
   786.1000      8.0583      2.5911      0.0823      3.5694     93.0590     21.8595
   786.2000      8.0583      2.5868      0.0540      3.8331     99.9114     21.4423
   786.3000      8.0437      2.5752      0.0714      4.5357    107.6955     21.5368
   786.4000      8.0437      2.5693      0.0734      4.8890    109.0323     21.9958
   786.5000      8.0009      2.5666      0.1091      5.0517    108.6374     22.4355
   786.6000      8.0009      2.5554      0.0916      5.7336    114.4238     22.7496
   786.7000      8.0009      2.5297      0.0716      7.2916    123.0754     22.9290
   786.8000      7.9926      2.5026      0.0265      8.9310    126.8360     23.1527
   786.9000      7.9926      2.4971     -0.0154      9.2680    125.0494     23.3697
   787.0000      8.0309      2.5207      0.0589      7.8361    122.1721     23.3388
   787.1000      8.0309      2.5555      0.0821      5.7248    120.0991     23.3539
   787.2000      8.0309      2.5826      0.0761      4.0864    118.2807     23.7123
   787.3000      8.0064      2.6022      0.0737      2.8981    117.2388     24.0216
   787.4000      8.0064      2.6212      0.0974      1.7439    115.1774     23.8346
   787.5000      8.0271      2.6287      0.1573      1.2884    109.2444     23.3338
   787.6000      8.0271      2.6146      0.1009      2.1428    102.3996     22.6930
   787.7000      8.0271      2.5985      0.0419      3.1220    100.9116     22.0098
   787.8000      8.0090      2.5932      0.0659      3.4404    104.4541     21.7353
   787.9000      8.0090      2.5849      0.0701      3.9448    106.4709     21.9051
   788.0000      8.0047      2.5679      0.0339      4.9761    104.1326     22.0329
   788.1000      8.0047      2.5496      0.0248      6.0830    100.7490     22.1113
   788.2000      8.0047      2.5286      0.0371      7.3566     99.4411     22.3726
   788.3000      8.0646      2.5015      0.0123      9.0019     98.0985     22.5474
   788.4000      8.0646      2.4787      0.0178     10.3793     94.1680     22.4999
   788.5000      8.0684      2.4788     -0.0654     10.3729     88.3829     22.2651
   788.6000      8.0684      2.5046      0.0082      8.8093     83.3897     21.7629
   788.7000      8.0684      2.5330      0.0428      7.0937     80.3865     21.3425
   788.8000      8.0727      2.5442      0.0538      6.4123     79.2838     21.1988
   788.9000      8.0727      2.5448      0.0457      6.3767     80.0791     21.0819
   789.0000      8.0456      2.5473      0.0680      6.2216     83.0162     21.0469
   789.1000      8.0456      2.5486      0.0768      6.1436     86.2303     21.1943
   789.2000      8.0456      2.5434      0.0520      6.4604     85.7978     21.2306
   789.3000      7.9957      2.5394      0.0625      6.7035     80.8150     20.9479
   789.4000      7.9957      2.5434      0.0653      6.4633     74.6880     20.5605
   789.5000      7.9996      2.5470      0.0753      6.2409     70.4161     20.1543
   789.6000      7.9996      2.5397      0.0298      6.6842     68.9991     19.7296
   789.7000      7.9996      2.5272     -0.0155      7.4448     70.6704     19.5289
   789.8000      8.0129      2.5151      0.0139      8.1782     71.8733     19.8123
   789.9000      8.0129      2.4953     -0.0012      9.3748     69.3754     20.4945
   790.0000      8.0442      2.4687     -0.0083     10.9895     67.0962     20.9847
   790.1000      8.0442      2.4522      0.0009     11.9855     69.1828     21.2207
   790.2000      8.0442      2.4565     -0.0309     11.7287     74.6385     21.5590
   790.3000      8.0513      2.4686      0.0089     10.9935     81.7382     21.8952
   790.4000      8.0513      2.4717      0.0081     10.8052     90.0888     22.1231
   790.5000      8.0589      2.4683      0.0001     11.0144     97.7413     22.2123
   790.6000      8.0589      2.4642      0.0208     11.2609    101.6360     22.1652
   790.7000      8.0589      2.4624     -0.0017     11.3675    103.6814     22.2482
   790.8000      8.0481      2.4805     -0.0067     10.2738    107.1451     22.3799
   790.9000      8.0481      2.5300      0.0513      7.2711    108.6364     22.2882
   791.0000      8.0179      2.5813      0.1294      4.1632    107.0836     22.0639
   791.1000      8.0179      2.5920      0.1042      3.5149    108.3589     22.0250
   791.2000      8.0179      2.5641      0.0818      5.2053    113.9512     22.1913
   791.3000      7.9900      2.5368      0.0481      6.8631    117.9074     22.2453
   791.4000      7.9900      2.5349      0.0775      6.9762    117.5959     22.0604
   791.5000      8.0042      2.5470      0.1243      6.2412    114.5581     21.9152
   791.6000      8.0042      2.5549      0.1161      5.7609    108.2953     21.9485
   791.7000      8.0042      2.5554      0.1116      5.7348    100.6892     22.1024
   791.8000      7.9619      2.5466      0.1075      6.2654     98.1775     22.3511
   791.9000      7.9619      2.5298      0.1151      7.2874    106.2571     22.4862
   792.0000      7.9540      2.5180      0.0846      7.9982    123.6465     22.4136
   792.1000      7.9540      2.5166      0.1080      8.0823    140.6474     22.3228
   792.2000      7.9540      2.5123      0.1323      8.3448    147.9638     22.3483
   792.3000      8.0121      2.5039      0.0756      8.8535    147.9086     22.4932
   792.4000      8.0121      2.5037      0.1076      8.8657    146.3977     22.8128
   792.5000      7.9528      2.5078      0.1257      8.6170    144.4906     23.2186
   792.6000      7.9528      2.5066      0.0697      8.6886    143.0118     23.5023
   792.7000      7.9528      2.5069      0.0605      8.6715    144.5521     23.5801
   792.8000      7.9689      2.5275      0.0971      7.4249    146.4750     23.5656
   792.9000      7.9689      2.5760      0.1478      4.4847    144.0597     23.7122
   793.0000      7.9760      2.6279      0.2245      1.3395    138.7534     23.7975
   793.1000      7.9760      2.6449      0.2791      0.3121    135.5512     23.4285
   793.2000      7.9760      2.6172      0.1955      1.9887    137.3126     22.9898
   793.3000      7.9898      2.5681      0.1064      4.9665    140.2903     23.0108
   793.4000      7.9898      2.5235      0.0588      7.6694    139.6240     23.1956
   793.5000      7.9352      2.4975      0.0127      9.2451    137.6176     23.1795
