~Version Information
VERS.                      2.0: CWLS Log ASCII Standard - VERSION 2.0
WRAP.                       NO: One line per depth step
~Well Information Block
STRT.FT                -1.5000: 
STOP.FT              2143.7500: 
STEP.FT                 0.2500: 
NULL.                -999.2500: 
COMP.          Pioneer Natural Resources: COMPANY
WELL.              Kermit 32-7: WELL
FLD.           Purgatoire River: FIELD
LOC.           2002' FNL & 2103' FEL: LOCATION
PROV.                 Colorado: PROVINCE
CNTY.               Las Animas: COUNTRY
SRVC.                Patterson: SERVICE COMPANY
DATE.          Wed Jan 18 14:17:49 2006: LOG DATE
UWI.           05 071 08647 00: UNIQUE WELL ID
~Curve Information Block
DEPT.FT            0 000 00 00: Depth
GR.GAPI                       : Gamma Ray
CCL.                          : Casing Collar Locator
TT3.usec                      : CBL 3' Travel Time
AMP3.mV                       : CBL 3' Amplitude
~Parameter Information Block
~A  Depth        GR         CCL         TT3         AMP3    
# ...
   836.0000     99.3113      0.0000    626.4739     11.1688
   836.2500    107.0726      0.0000    589.0714     11.4651
   836.5000    111.8299      0.0000    547.1257     11.6856
   836.7500    113.8207      0.0000    515.7444     11.8016
   837.0000    115.0958      0.0000    508.6052     11.7968
   837.2500    117.0452      0.0000    528.3762     11.6877
   837.5000    118.9316      0.0000    564.0775     11.5314
   837.7500    118.9491      0.0000    598.2429     11.3982
   838.0000    116.2291      0.0000    618.8523     11.3259
   838.2500    111.6998      0.0000    626.3203     11.2989
   838.5000    107.5095      0.0000    629.5483     11.2653
   838.7500    105.8159      0.0000    635.4379     11.1568
   839.0000    107.4983      0.0000    642.7774     10.8891
   839.2500    111.4309      0.0000    645.8215     10.3931
   839.5000    115.2588      0.0000    641.8946      9.7098
   839.7500    117.4213      0.0000    634.5009      9.0340
   840.0000    118.3349      0.0000    629.9585      8.5766
   840.2500    119.3130      0.0000    631.7865      8.3736
   840.5000    120.7000      0.0000    638.0397      8.3035
   840.7500    121.4279      0.0000    643.1087      8.2673
   841.0000    120.1607      0.0000    641.5734      8.2616
   841.2500    116.6179      0.0000    631.3356      8.2988
   841.5000    112.0230     -3.0000    614.8157      8.3559
   841.7500    108.5193     -3.0000    596.8309      8.4181
   842.0000    107.9717      0.0000    579.1377      8.5487
   842.2500    110.8537      0.0000    557.7584      8.9013
   842.5000    115.8522      0.0000    529.2717      9.6110
   842.7500    120.3928      0.0000    498.9735     10.6090
   843.0000    121.8097      0.0000    477.3209     11.5821
   843.2500    118.6557      0.0000    467.6770     12.2112
   843.5000    111.4254      0.0000    463.8698     12.4286
   843.7500    102.0915      0.0000    461.7437     12.3926
   844.0000     92.8372      0.0000    465.7558     12.2753
   844.2500     85.2023      0.0000    479.4174     12.1439
   844.5000     80.0793      0.0000    495.1064     11.9958
   844.7500     77.7427      0.0000    500.2956     11.8282
   845.0000     77.6405      0.0000    491.7826     11.6653
   845.2500     78.7879      0.0000    478.7717     11.5435
   845.5000     80.8664      0.0000    473.1100     11.4872
   845.7500     84.6565      0.0000    479.4566     11.4962
   846.0000     90.9747      0.0000    493.0930     11.5560
   846.2500     99.2918      0.0000    504.9013     11.6491
   846.5000    107.7957      0.0000    509.9585     11.7566
   846.7500    114.8086      0.0000    512.0196     11.8542
   847.0000    119.8112      0.0000    518.5735     11.9202
   847.2500    123.2303      0.0000    532.0413     11.9485
   847.5000    125.7351      0.0000    547.6863     11.9476
   847.7500    127.7845      0.0000    560.2211     11.9263
   848.0000    129.3761      0.0000    570.5259     11.8882
   848.2500    129.9486      0.0000    584.1856     11.8389
   848.5000    128.8493      0.0000    603.6151     11.7956
   848.7500    126.2579      0.0000    623.1577     11.7851
   849.0000    123.4444      0.0000    632.6465     11.8303
   849.2500    121.8661      0.0000    625.5549     11.9306
   849.5000    122.1423      0.0000    604.1820     12.0563
   849.7500    123.8321      0.0000    577.6108     12.1666
   850.0000    125.8220      0.0000    554.0997     12.2340
   850.2500    127.0299      0.0000    536.1133     12.2504
   850.5000    127.1337      0.0000    524.4578     12.2179
   850.7500    126.6399      0.0000    524.4091     12.1375
   851.0000    126.1322      0.0000    541.9404     12.0112
   851.2500    125.6281      0.0000    573.4855     11.8541
   851.5000    124.8175      0.0000    604.7446     11.7009
   851.7500    123.7820      0.0000    621.4911     11.5900
   852.0000    123.1072      0.0000    619.1172     11.5400
   852.2500    123.0057      0.0000    601.6643     11.5437
   852.5000    122.7441      0.0000    575.7227     11.5805
   852.7500    121.5740      0.0000    548.1580     11.6292
   853.0000    119.8315      0.0000    527.4606     11.6700
   853.2500    118.4636      0.0000    521.4153     11.6863
   853.5000    117.8270      0.0000    530.2518     11.6728
   853.7500    117.4123      0.0000    544.8834     11.6379
   854.0000    116.3539      0.0000    555.7822     11.5897
   854.2500    113.8975      0.0000    562.4237     11.5210
   854.5000    109.6401      0.0000    570.8889     11.4175
   854.7500    103.7153      0.0000    583.7280     11.2812
   855.0000     96.9315      0.0000    595.5844     11.1396
   855.2500     90.6573      0.0000    598.6561     11.0323
   855.5000     86.2899      0.0000    590.9442     10.9903
   855.7500     84.6878      0.0000    578.4706     11.0248
   856.0000     86.1414      0.0000    568.2916     11.1277
   856.2500     90.6290      0.0000    559.3193     11.2776
   856.5000     97.6038      0.0000    542.6649     11.4462
   856.7500    105.5449      0.0000    512.4727     11.6012
   857.0000    112.3256      0.0000    474.9489     11.7061
   857.2500    116.4175      0.0000    444.7710     11.7324
   857.5000    117.6880      0.0000    432.0476     11.6813
   857.7500    117.0781      0.0000    432.8622     11.5919
   858.0000    115.6668      0.0000    433.1492     11.5212
   858.2500    114.0885      0.0000    422.2592     11.5113
   858.5000    112.8172      0.0000    402.1444     11.5722
   858.7500    112.7491      0.0000    383.9604     11.6846
   859.0000    114.9869      0.0000    377.9881     11.8121
   859.2500    119.8675      0.0000    386.2676     11.9133
   859.5000    126.4600      0.0000    401.2669     11.9558
   859.7500    133.0683      0.0000    411.0868     11.9254
   860.0000    137.9774      0.0000    408.7708     11.8274
   860.2500    139.7848      0.0000    397.2702     11.6843
   860.5000    137.7017      0.0000    384.5844     11.5292
   860.7500    132.1004      0.0000    375.7968     11.3936
   861.0000    124.5631      0.0000    371.2154     11.2932
   861.2500    116.9907      0.0000    369.8445     11.2282
   861.5000    110.7279      0.0000    372.7085     11.1917
   861.7500    106.5225      0.0000    384.1599     11.1746
   862.0000    104.7365      0.0000    410.8094     11.1674
   862.2500    105.2125      0.0000    456.7709     11.1685
   862.5000    107.2413      0.0000    517.4851     11.1921
   862.7500    109.9850      0.0000    578.9277     11.2583
   863.0000    112.8689      0.0000    624.5352     11.3730
   863.2500    115.6437      0.0000    643.9046     11.5164
   863.5000    118.2674      0.0000    637.3199     11.6505
   863.7500    120.6133      0.0000    615.7006     11.7370
   864.0000    122.1359      0.0000    595.9520     11.7543
   864.2500    121.9651      0.0000    590.8439     11.7066
   864.5000    119.5018      0.0000    599.1277     11.6223
   864.7500    114.8237      0.0000    606.4850     11.5403
   865.0000    108.4740      0.0000    598.9493     11.4900
   865.2500    101.1081      0.0000    576.7003     11.4802
   865.5000     93.5519      0.0000    554.5208     11.5067
   865.7500     87.0602      0.0000    547.8469     11.5667
   866.0000     83.2016      0.0000    557.9996     11.6605
   866.2500     83.1163      0.0000    571.5132     11.7830
   866.5000     86.5718      0.0000    572.5535     11.9201
   866.7500     91.7901      0.0000    554.4841     12.0554
   867.0000     96.5776      0.0000    521.3800     12.1733
   867.2500     99.8667      0.0000    482.5270     12.2590
   867.5000    102.1410      0.0000    447.5573     12.2998
   867.7500    104.4985      0.0000    425.2264     12.2931
   868.0000    107.4705      0.0000    423.0296     12.2499
   868.2500    110.5503      0.0000    444.5730     12.1904
   868.5000    112.5691      0.0000    485.3839     12.1324
   868.7500    112.4928      0.0000    531.1375     12.0829
   869.0000    110.1104      0.0000    562.3795     12.0393
   869.2500    106.3253      0.0000    564.8416     11.9981
