~Version Information
VERS.                      2.0: CWLS Log ASCII Standard - VERSION 2.0
WRAP.                       NO: One line per depth step
~Well Information Block
STRT.FT               230.0000: 
STOP.FT               707.5000: 
STEP.FT                 0.2500: 
NULL.                -999.2500: 
COMP.          Pioneer Natural Resources: COMPANY
WELL.          Razor Clam 23-27: WELL
FLD.           Purgatoire River: FIELD
LOC.           2499' FSL & 2636' FWL: LOCATION
CNTY.               Las Animas: COUNTY
SRVC.                Patterson: SERVICE COMPANY
DATE.          Sun Feb 12 15:35:16 2006: LOG DATE
UWI.           05 071 08667 00: UNIQUE WELL ID
STAT.                 Colorado: STATE
~Curve Information Block
DEPT.FT            0 000 00 00: Depth
SN.Ohm-m                      : IEL Short Normal
SP.mV                         : IEL Spontaneous Potential
DIR.Ohm-m                     : IEL Induction Resistivity
GR.GAPI                       : Gamma Ray
~Parameter Information Block
~A  Depth        SN          SP         DIR          GR     
# ...
   632.0000     22.2599     15.3823     23.1319    107.2390
   632.2500     22.3214     15.1619     23.5100    106.0417
   632.5000     22.3299     14.9306     23.9530    104.3156
   632.7500     22.3331     14.6933     24.3594    103.1841
   633.0000     22.3444     14.4624     24.6524    101.2265
   633.2500     22.3465     14.2601     24.8005     99.6447
   633.5000     22.3717     14.1151     24.8152     97.1659
   633.7500     22.4555     14.0571     24.7374     95.8278
   634.0000     22.5874     14.1089     24.6250     94.6642
   634.2500     22.7432     14.2751     24.5368     94.3849
   634.5000     22.9243     14.5346     24.5117     94.5054
   634.7500     23.1480     14.8457     24.5512     94.8242
   635.0000     23.4003     15.1653     24.6193     95.1733
   635.2500     23.6009     15.4646     24.6610     95.0672
   635.5000     23.6635     15.7350     24.6284     94.8541
   635.7500     23.6098     15.9837     24.4965     95.4173
   636.0000     23.5157     16.2298     24.2663     98.1436
   636.2500     23.3918     16.4975     23.9666    100.8794
   636.5000     23.2701     16.8060     23.6590    104.7373
   636.7500     23.2933     17.1590     23.4265    106.2666
   637.0000     23.5274     17.5431     23.3391    106.5462
   637.2500     23.8236     17.9340     23.4164    105.7561
   637.5000     23.9969     18.3050     23.6175    104.0435
   637.7500     24.0152     18.6335     23.8686    102.8087
   638.0000     23.9691     18.9083     24.1043    100.6598
   638.2500     23.9578     19.1333     24.2878     98.9705
   638.5000     24.0092     19.3236     24.3979     96.7524
   638.7500     24.0624     19.4927     24.4129     96.3415
   639.0000     24.0634     19.6432     24.3161     98.4665
   639.2500     24.0322     19.7674     24.1128    101.3682
   639.5000     24.0091     19.8592     23.8382    105.4195
   639.7500     24.0141     19.9218     23.5519    106.3447
   640.0000     24.0699     19.9676     23.3263    104.5178
   640.2500     24.2509     20.0115     23.2325    102.1793
   640.5000     24.6799     20.0654     23.3196     99.1358
   640.7500     25.4101     20.1313     23.5929     98.0023
   641.0000     26.3320     20.1990     24.0073     97.4727
   641.2500     27.2082     20.2497     24.4821     97.5225
   641.5000     27.8242     20.2657     24.9369     97.6811
   641.7500     28.2007     20.2397     25.3260     97.7308
   642.0000     28.5843     20.1790     25.6478     97.7656
   642.2500     29.1378     20.1068     25.9243     97.8814
   642.5000     29.7337     20.0555     26.1696     98.6085
   642.7500     30.0903     20.0524     26.3755     99.6703
   643.0000     30.0386     20.1044     26.5222    101.7836
   643.2500     29.6182     20.1941     26.5982    102.8958
   643.5000     28.9785     20.2903     26.6090    103.1773
   643.7500     28.2557     20.3645     26.5688    102.4799
   644.0000     27.5106     20.4028     26.4866    101.2148
   644.2500     26.7570     20.4085     26.3691    101.0904
   644.5000     26.0284     20.4000     26.2321    102.9237
   644.7500     25.3589     20.4043     26.0980    105.3581
   645.0000     24.7651     20.4459     25.9678    109.2889
   645.2500     24.2912     20.5362     25.7943    110.8555
   645.5000     23.9838     20.6702     25.5034    110.4659
   645.7500     23.8165     20.8322     25.0641    108.9433
   646.0000     23.6946     21.0032     24.5414    107.3352
   646.2500     23.5500     21.1649     24.0648    107.9342
   646.5000     23.4098     21.2996     23.7501    110.9508
   646.7500     23.3138     21.3916     23.6455    112.8241
   647.0000     23.1969     21.4318     23.7253    113.0385
   647.2500     22.9681     21.4218     23.9121    111.5133
   647.5000     22.6859     21.3743     24.1086    108.9619
   647.7500     22.5296     21.3078     24.2352    108.2246
   648.0000     22.5793     21.2385     24.2627    108.5775
   648.2500     22.7319     21.1752     24.2152    109.1112
   648.5000     22.8532     21.1184     24.1408    109.5629
   648.7500     22.9033     21.0638     24.0729    109.6092
   649.0000     22.8930     21.0067     24.0143    109.7933
   649.2500     22.8001     20.9416     23.9498    110.5380
   649.5000     22.6135     20.8603     23.8672    113.4537
   649.7500     22.4655     20.7488     23.7709    116.3934
   650.0000     22.5439     20.5906     23.6801    120.2318
   650.2500     22.8228     20.3723     23.6188    120.9587
   650.5000     23.0650     20.0908     23.6042    118.4919
   650.7500     23.1284     19.7622     23.6371    115.2999
   651.0000     23.1106     19.4263     23.6999    110.3213
   651.2500     23.1489     19.1388     23.7677    107.4818
   651.5000     23.2294     18.9504     23.8232    103.4092
   651.7500     23.2610     18.8850     23.8644    100.2966
   652.0000     23.2324     18.9342     23.8963     95.2527
   652.2500     23.2175     19.0675     23.9181     92.4314
   652.5000     23.2802     19.2481     23.9207     90.1245
   652.7500     23.4147     19.4434     23.8963     89.6977
   653.0000     23.5391     19.6302     23.8512     89.2402
   653.2500     23.5709     19.7980     23.8056     88.2870
   653.5000     23.5307     19.9507     23.7831     85.8834
   653.7500     23.4950     20.1053     23.7940     84.2125
   654.0000     23.4536     20.2865     23.8249     82.3508
   654.2500     23.3291     20.5212     23.8380     81.5166
   654.5000     23.1281     20.8311     23.7874     80.5229
   654.7500     22.9297     21.2244     23.6411     79.8980
   655.0000     22.7469     21.6864     23.3911     78.8902
   655.2500     22.5298     22.1800     23.0354     78.1751
   655.5000     22.2783     22.6573     22.5536     77.3554
   655.7500     22.0659     23.0774     21.9091     77.2055
   656.0000     21.9189     23.4201     21.0871     77.4691
   656.2500     21.7489     23.6908     20.1299     77.5918
   656.5000     21.4684     23.9171     19.1297     77.3366
   656.7500     21.0607     24.1356     18.1856     77.2905
   657.0000     20.5125     24.3749     17.3660     78.9771
   657.2500     19.8030     24.6464     16.6997     82.1169
   657.5000     18.9411     24.9483     16.1864     90.3096
   657.7500     17.9820     25.2766     15.8105     97.6079
   658.0000     16.9958     25.6326     15.5504    109.1662
   658.2500     16.0379     26.0211     15.3804    115.6456
   658.5000     15.1775     26.4441     15.2655    121.4989
   658.7500     14.5212     26.8944     15.1569    122.5613
   659.0000     14.1520     27.3527     15.0006    120.6363
   659.2500     14.0412     27.7921     14.7637    117.8900
   659.5000     14.0870     28.1867     14.4628    113.9139
   659.7500     14.2653     28.5225     14.1647    112.8742
   660.0000     14.6307     28.8035     13.9530    115.0293
   660.2500     15.1185     29.0490     13.8898    118.5627
   660.5000     15.5237     29.2850     13.9959    125.6535
   660.7500     15.7388     29.5335     14.2498    131.4238
   661.0000     15.8627     29.8073     14.5970    143.1477
   661.2500     16.0355     30.1144     14.9679    154.1232
   661.5000     16.2879     30.4631     15.3000    174.9396
   661.7500     16.5575     30.8630     15.5564    189.1369
   662.0000     16.7571     31.3172     15.7283    203.5677
   662.2500     16.8909     31.8139     15.8250    204.9139
   662.5000     17.0873     32.3302     15.8618    193.5036
   662.7500     17.4150     32.8498     15.8578    179.7382
   663.0000     17.7512     33.3768     15.8386    156.9388
   663.2500     17.9561     33.9242     15.8382    143.6769
   663.5000     18.0880     34.4898     15.8950    129.8735
   663.7500     18.2280     35.0488     16.0452    125.3276
   664.0000     18.2557     35.5681     16.3129    124.7447
   664.2500     18.0814     36.0227     16.7007    127.1458
   664.5000     17.8742     36.4003     17.1815    131.4952
   664.7500     17.8612     36.7015     17.7011    132.7635
   665.0000     18.1051     36.9411     18.1940    129.4911
   665.2500     18.5761     37.1435     18.6080    123.3701
