~Version Information
VERS.                      2.0: CWLS Log ASCII Standard - VERSION 2.0
WRAP.                       NO: One line per depth step
~Well Information Block
STRT.FT               262.2500: 
STOP.FT              1942.0000: 
STEP.FT                 0.2500: 
NULL.                -999.2500: 
COMP.          XTO Energy Inc.: COMPANY
WELL.          Golden Eagle 19-11: WELL
FLD.           Purgatoire River: FIELD
LOC.           2351' FSL & 1926' FWL--: LOCATION
CNTY.               Las Animas: COUNTY
SRVC.                Patterson: SERVICE COMPANY
DATE.          Wed Mar 08 23:33:01 2006: LOG DATE
UWI.           05 071 08696 00: UNIQUE WELL ID
STAT.                 Colorado: STATE
~Curve Information Block
DEPT.FT            0 000 00 00: Depth
SP.mV                         : DIL Spontaneous Potential
RILD.Ohm-m                    : DIL Deep Resistivity
RILM.Ohm-m                    : DIL Medium Resistivity
RLL3.Ohm-m                    : DIL Shallow Resistivity
GR.GAPI                       : Gamma Ray
~Parameter Information Block
~A  Depth        SP         RILD        RILM        RLL3         GR     
# ...
   710.2500   -999.2500      7.0089      6.8396   2000.0000    116.0643
   710.5000   -999.2500      7.2915      7.1178   2000.0000    117.1237
   710.7500   -999.2500      7.6036      7.5073   2000.0000    115.8997
   711.0000   -999.2500      7.9299      8.0248   2000.0000    112.1006
   711.2500   -999.2500      8.2530      8.6774   2000.0000    108.9250
   711.5000   -999.2500      8.5557      9.4554   2000.0000    103.1000
   711.7500   -999.2500      8.8237     10.3246   2000.0000     98.1989
   712.0000   -999.2500      9.0487     11.2199   2000.0000     90.3178
   712.2500   -999.2500      9.2274     12.0459   2000.0000     86.2549
   712.5000   -999.2500      9.3605     12.6894   2000.0000     84.2932
   712.7500   -999.2500      9.4493     13.0474   2000.0000     86.1321
   713.0000   -999.2500      9.4932     13.0639   2000.0000     92.9002
   713.2500   -999.2500      9.4874     12.7547   2000.0000     99.2839
   713.5000   -999.2500      9.4234     12.2005   2000.0000    109.8454
   713.7500   -999.2500      9.2933     11.5098   2000.0000    116.3582
   714.0000   -999.2500      9.0955     10.7802   2000.0000    123.8860
   714.2500   -999.2500      8.8385     10.0777   2000.0000    127.2640
   714.5000   -999.2500      8.5403      9.4367   2000.0000    130.6200
   714.7500   -999.2500      8.2232      8.8684   2000.0000    132.2688
   715.0000   -999.2500      7.9080      8.3720   2000.0000    134.2823
   715.2500   -999.2500      7.6100      7.9430   2000.0000    135.2632
   715.5000   -999.2500      7.3383      7.5789   2000.0000    136.0868
   715.7500   -999.2500      7.0967      7.2796   2000.0000    136.3341
   716.0000   -999.2500      6.8868      7.0450   2000.0000    136.7634
   716.2500   -999.2500      6.7085      6.8727   2000.0000    137.3743
   716.5000   -999.2500      6.5612      6.7559   2000.0000    138.8246
   716.7500   -999.2500      6.4426      6.6837   2000.0000    139.8473
   717.0000   -999.2500      6.3497      6.6432   2000.0000    140.9196
   717.2500   -999.2500      6.2792      6.6211   2000.0000    141.3963
   717.5000   -999.2500      6.2282      6.6062   2000.0000    142.4818
   717.7500   -999.2500      6.1949      6.5909   2000.0000    143.7074
   718.0000   -999.2500      6.1775      6.5721   2000.0000    145.7560
   718.2500   -999.2500      6.1733      6.5511   2000.0000    146.5919
   718.5000   -999.2500      6.1771      6.5317   2000.0000    146.2457
   718.7500   -999.2500      6.1820      6.5195   2000.0000    145.0092
   719.0000   -999.2500      6.1803      6.5188   2000.0000    142.5748
   719.2500   -999.2500      6.1655      6.5314   2000.0000    141.1855
   719.5000   -999.2500      6.1343      6.5533   2000.0000    139.9513
   719.7500   -999.2500      6.0864      6.5753   2000.0000    139.7410
   720.0000   -999.2500      6.0247      6.5841   2000.0000    140.6012
   720.2500   -999.2500      5.9544      6.5678   2000.0000    142.1113
   720.5000   -999.2500      5.8826      6.5202   2000.0000    145.1682
   720.7500   -999.2500      5.8172      6.4439   2000.0000    146.8522
   721.0000   -999.2500      5.7647      6.3487   2000.0000    147.7589
   721.2500   -999.2500      5.7293      6.2473   2000.0000    147.4664
   721.5000   -999.2500      5.7116      6.1515   2000.0000    146.7582
   721.7500   -999.2500      5.7095      6.0695   2000.0000    146.4098
   722.0000   -999.2500      5.7188      6.0058   2000.0000    145.6598
   722.2500   -999.2500      5.7348      5.9623   2000.0000    144.6694
   722.5000   -999.2500      5.7535      5.9382   2000.0000    142.4662
   722.7500   -999.2500      5.7725      5.9315   2000.0000    140.7933
   723.0000   -999.2500      5.7919      5.9392   2000.0000    138.1833
   723.2500   -999.2500      5.8140      5.9588   2000.0000    136.2307
   723.5000   -999.2500      5.8428      5.9891   2000.0000    132.9559
   723.7500   -999.2500      5.8822      6.0308   2000.0000    130.9440
   724.0000   -999.2500      5.9343      6.0865   2000.0000    128.9800
   724.2500   -999.2500      5.9987      6.1597   2000.0000    128.3392
   724.5000   -999.2500      6.0719      6.2530   2000.0000    127.4410
   724.7500   -999.2500      6.1484      6.3663   2000.0000    126.4283
   725.0000   -999.2500      6.2220      6.4957   2000.0000    124.5140
   725.2500   -999.2500      6.2882      6.6340   2000.0000    123.4412
   725.5000   -999.2500      6.3461      6.7731   2000.0000    122.5025
   725.7500   -999.2500      6.3981      6.9058   2000.0000    122.1699
   726.0000   -999.2500      6.4488      7.0273   2000.0000    121.7168
   726.2500   -999.2500      6.5028      7.1352   2000.0000    121.2771
   726.5000   -999.2500      6.5630      7.2285   2000.0000    120.1326
   726.7500   -999.2500      6.6289      7.3064   2000.0000    118.9611
   727.0000   -999.2500      6.6954      7.3668   2000.0000    116.9634
   727.2500   -999.2500      6.7524      7.4051   2000.0000    116.0368
   727.5000   -999.2500      6.7874      7.4149   2000.0000    116.2846
   727.7500   -999.2500      6.7894      7.3898   2000.0000    117.7440
   728.0000   -999.2500      6.7530      7.3266   2000.0000    121.2784
   728.2500   -999.2500      6.6814      7.2279   2000.0000    123.9384
   728.5000   -999.2500      6.5860      7.1023   2000.0000    127.6752
   728.7500   -999.2500      6.4836      6.9621   2000.0000    129.8690
   729.0000   -999.2500      6.3905      6.8205   2000.0000    132.7035
   729.2500   -999.2500      6.3181      6.6901   2000.0000    134.2639
   729.5000   -999.2500      6.2708      6.5824   2000.0000    136.0549
   729.7500   -999.2500      6.2484      6.5081   2000.0000    136.9372
   730.0000   -999.2500      6.2489      6.4777   2000.0000    138.0778
   730.2500   -999.2500      6.2712      6.4999   2000.0000    138.8419
   730.5000   -999.2500      6.3165      6.5789   2000.0000    139.7954
   730.7500   -999.2500      6.3880      6.7116   2000.0000    140.0710
   731.0000   -999.2500      6.4907      6.8861   2000.0000    140.0647
   731.2500   -999.2500      6.6299      7.0865   2000.0000    140.2000
   731.5000   -999.2500      6.8104      7.3001   2000.0000    140.8327
   731.7500   -999.2500      7.0347      7.5251   2000.0000    140.8189
   732.0000   -999.2500      7.3033      7.7737   2000.0000    138.0452
   732.2500   -999.2500      7.6142      8.0717   2000.0000    133.6426
   732.5000   -999.2500      7.9639      8.4535   2000.0000    124.0318
   732.7500   -999.2500      8.3472      8.9549   2000.0000    116.9454
   733.0000   -999.2500      8.7560      9.6048   2000.0000    107.3662
   733.2500   -999.2500      9.1803     10.4173   2000.0000    102.2461
   733.5000   -999.2500      9.6074     11.3865   2000.0000     96.5931
   733.7500   -999.2500     10.0231     12.4802   2000.0000     94.0723
   734.0000   -999.2500     10.4107     13.6289   2000.0000     91.7630
   734.2500   -999.2500     10.7489     14.7139   2000.0000     90.8380
   734.5000   -999.2500     11.0119     15.5727   2000.0000     90.0652
   734.7500   -999.2500     11.1736     16.0427   2000.0000     90.3411
   735.0000   -999.2500     11.2167     16.0331   2000.0000     93.3419
   735.2500   -999.2500     11.1396     15.5694   2000.0000     97.6531
   735.5000   -999.2500     10.9579     14.7737   2000.0000    107.0323
   735.7500   -999.2500     10.6979     13.8035   2000.0000    114.0672
   736.0000   -999.2500     10.3881     12.7966   2000.0000    123.7222
   736.2500   -999.2500     10.0522     11.8456   2000.0000    128.9790
   736.5000   -999.2500      9.7082     10.9983   2000.0000    135.1433
   736.7500   -999.2500      9.3695     10.2713   2000.0000    138.2694
   737.0000   -999.2500      9.0490      9.6645   2000.0000    141.5094
   737.2500   -999.2500      8.7607      9.1710   2000.0000    142.6552
   737.5000   -999.2500      8.5189      8.7812   2000.0000    142.7615
   737.7500   -999.2500      8.3359      8.4855   2000.0000    141.6964
   738.0000   -999.2500      8.2200      8.2748   2000.0000    138.7283
