~Version Information
VERS.                      2.0: CWLS Log ASCII Standard - VERSION 2.0
WRAP.                       NO: One line per depth step
~Well Information Block
STRT.FT               530.0000: 
STOP.FT              1298.0000: 
STEP.FT                 0.1000: 
NULL.                -999.2500: 
COMP.          Pioneer Natural Resources: COMPANY
WELL.            Keiko 14-6 Tr: WELL
FLD.           Purgatoire River: FIELD
LOC.           462' FSL & 1202' FWL: LOCATION
PROV.                 Colorado: PROVINCE
CNTY.               Las Animas: COUNTRY
SRVC.                Patterson: SERVICE COMPANY
DATE.          Fri Dec 30 07:26:03 2005: LOG DATE
UWI.           05 071 08629 00: UNIQUE WELL ID
~Curve Information Block
DEPT.FT            0 000 00 00: Depth
DCAL.in                       : CDL Caliper
RHOB.g/cc                     : CDL Bulk Density
RHOC.g/cc                     : CDL Density Correction
DPOR.pu                       : CDL Density Porosity
GR.GAPI                       : Gamma Ray
~Parameter Information Block
~A  Depth       DCAL        RHOB        RHOC        DPOR         GR     
# ...
  1235.6000      7.8010      2.4954      0.0335      9.3680     80.2647
  1235.7000      7.8010      2.4969      0.0728      9.2785     78.1545
  1235.8000      7.7998      2.4940      0.0630      9.4547     76.5323
  1235.9000      7.7998      2.4912      0.0485      9.6240     74.1656
  1236.0000      7.8013      2.4932      0.0351      9.5058     74.9817
  1236.1000      7.8013      2.4963      0.0248      9.3144     80.9121
  1236.2000      7.8013      2.4985      0.0089      9.1832     89.5450
  1236.3000      7.8008      2.5002      0.0332      9.0808     96.9506
  1236.4000      7.8008      2.4949      0.0511      9.3988     97.5586
  1236.5000      7.8013      2.4805      0.0183     10.2751     90.5526
  1236.6000      7.8013      2.4706     -0.0074     10.8715     82.5088
  1236.7000      7.8013      2.4807      0.0131     10.2591     75.5143
  1236.8000      7.7994      2.5106      0.0404      8.4484     68.8098
  1236.9000      7.7994      2.5414      0.0928      6.5848     68.0489
  1237.0000      7.7996      2.5508      0.0677      6.0133     76.1338
  1237.1000      7.7996      2.5382      0.0348      6.7781     85.6974
  1237.2000      7.7996      2.5212      0.0002      7.8065     92.3450
  1237.3000      7.7988      2.5150      0.0462      8.1811     97.8455
  1237.4000      7.7988      2.5198      0.0599      7.8908    100.9586
  1237.5000      7.7993      2.5291      0.0316      7.3301    100.1612
  1237.6000      7.7993      2.5350      0.0682      6.9708     97.7576
  1237.7000      7.7993      2.5262      0.0823      7.5003     94.3676
  1237.8000      7.7997      2.5107     -0.0498      8.4395     91.3958
  1237.9000      7.7997      2.5075     -0.0020      8.6356     92.1187
  1238.0000      7.7999      2.5062      0.0366      8.7167     92.2861
  1238.1000      7.7999      2.4915     -0.0219      9.6041     88.8602
  1238.2000      7.7999      2.4755     -0.0010     10.5753     85.4688
  1238.3000      7.8011      2.4762     -0.0155     10.5333     83.5272
  1238.4000      7.8011      2.4939      0.0064      9.4630     83.4986
  1238.5000      7.8009      2.5132     -0.0005      8.2916     87.6387
  1238.6000      7.8009      2.5200      0.0365      7.8790     92.8778
  1238.7000      7.8009      2.5100      0.0218      8.4869     92.7881
  1238.8000      7.8002      2.4899      0.0333      9.7014     88.8201
  1238.9000      7.8002      2.4715      0.0013     10.8188     87.5312
  1239.0000      7.7976      2.4605      0.0061     11.4849     92.2851
  1239.1000      7.7976      2.4539      0.0009     11.8823    101.2678
  1239.2000      7.7976      2.4496      0.0047     12.1468    106.6972
  1239.3000      7.8021      2.4463     -0.0171     12.3454    103.9081
  1239.4000      7.8021      2.4439      0.0103     12.4903     98.2549
  1239.5000      7.8130      2.4443      0.0214     12.4669     92.6100
  1239.6000      7.8130      2.4468     -0.0279     12.3181     86.4619
  1239.7000      7.8130      2.4458      0.0235     12.3765     82.6983
  1239.8000      7.8003      2.4397     -0.0078     12.7478     82.5749
  1239.9000      7.8003      2.4414     -0.0157     12.6435     85.1245
  1240.0000      7.8055      2.4571     -0.0156     11.6892     87.7173
  1240.1000      7.8055      2.4771      0.0024     10.4783     87.1901
  1240.2000      7.8055      2.4949     -0.0051      9.3986     84.6653
  1240.3000      7.8033      2.5101      0.0291      8.4800     85.9360
  1240.4000      7.8033      2.5177      0.0417      8.0161     93.5824
  1240.5000      7.8008      2.5152      0.0128      8.1726     99.8592
  1240.6000      7.8008      2.5101     -0.0054      8.4798     98.8888
  1240.7000      7.8008      2.5088      0.0137      8.5581     97.3081
  1240.8000      7.8004      2.5116      0.0226      8.3886     99.8475
  1240.9000      7.8004      2.5201      0.0139      7.8728    104.5172
  1241.0000      7.8015      2.5325      0.0197      7.1196    109.6182
  1241.1000      7.8015      2.5403      0.0437      6.6465    112.7535
  1241.2000      7.8015      2.5407      0.0359      6.6235    112.2628
  1241.3000      7.7997      2.5388      0.0447      6.7407    108.3220
  1241.4000      7.7997      2.5327      0.0381      7.1073    103.6079
  1241.5000      7.7994      2.5168      0.0248      8.0714    101.6830
  1241.6000      7.7994      2.4986     -0.0442      9.1738    102.0927
  1241.7000      7.7994      2.4896     -0.0177      9.7208    103.7948
  1241.8000      7.7998      2.4847     -0.0289     10.0162    107.9163
  1241.9000      7.7998      2.4742     -0.0000     10.6519    111.4677
  1242.0000      7.8025      2.4560     -0.0119     11.7560    108.3765
  1242.1000      7.8025      2.4338     -0.0252     13.1029    100.7436
  1242.2000      7.8025      2.4153     -0.0196     14.2250     97.2342
  1242.3000      7.7962      2.4044     -0.0359     14.8842     96.8932
  1242.4000      7.7962      2.3995     -0.0254     15.1803     92.6238
  1242.5000      7.7801      2.3984     -0.0256     15.2475     86.2532
  1242.6000      7.7801      2.3997     -0.0063     15.1700     83.8972
  1242.7000      7.7801      2.3989      0.0159     15.2193     86.4624
  1242.8000      7.7702      2.3919      0.0151     15.6419     89.0263
  1242.9000      7.7702      2.3851      0.0073     16.0548     87.2561
  1243.0000      7.7711      2.3893      0.0021     15.7970     82.6202
  1243.1000      7.7711      2.4020      0.0123     15.0308     78.9267
  1243.2000      7.7711      2.4109      0.0259     14.4895     76.4741
  1243.3000      7.7671      2.4102      0.0393     14.5323     76.0885
  1243.4000      7.7671      2.4050     -0.0061     14.8482     80.7452
  1243.5000      7.7695      2.4007      0.0336     15.1062     87.0298
  1243.6000      7.7695      2.3954      0.0086     15.4294     88.2494
  1243.7000      7.7695      2.3912      0.0015     15.6860     83.0154
  1243.8000      7.7682      2.3914      0.0284     15.6705     75.1528
  1243.9000      7.7682      2.3923      0.0284     15.6174     70.0098
  1244.0000      7.7679      2.3926      0.0133     15.5992     68.9259
  1244.1000      7.7679      2.3977      0.0337     15.2928     70.2614
  1244.2000      7.7679      2.4098      0.0197     14.5593     73.3156
  1244.3000      7.7672      2.4230      0.0601     13.7554     76.5408
  1244.4000      7.7672      2.4298      0.0690     13.3457     77.1513
  1244.5000      7.7669      2.4305      0.0735     13.3054     75.3580
  1244.6000      7.7669      2.4266      0.0613     13.5382     73.0668
  1244.7000      7.7669      2.4165      0.0546     14.1499     70.6671
  1244.8000      7.7672      2.4070      0.0428     14.7290     70.1176
  1244.9000      7.7672      2.4125      0.0317     14.3911     73.4959
  1245.0000      7.7674      2.4339      0.0259     13.0963     78.2478
  1245.1000      7.7674      2.4519      0.0800     12.0058     80.5083
  1245.2000      7.7674      2.4506      0.0563     12.0848     79.6369
  1245.3000      7.7692      2.4361      0.0409     12.9631     78.4577
  1245.4000      7.7692      2.4250      0.0530     13.6352     79.0945
  1245.5000      7.7690      2.4256      0.0214     13.6011     80.8480
  1245.6000      7.7690      2.4284      0.0785     13.4293     80.6183
  1245.7000      7.7690      2.4230      0.0269     13.7552     78.1106
  1245.8000      7.7682      2.4225      0.0034     13.7877     74.5514
  1245.9000      7.7682      2.4381      0.0531     12.8453     69.6392
  1246.0000      7.7669      2.4546      0.0736     11.8416     67.3660
  1246.1000      7.7669      2.4619      0.0587     11.3973     69.3733
  1246.2000      7.7669      2.4743      0.0351     10.6497     69.5905
  1246.3000      7.7666      2.4982      0.0916      9.2020     67.7856
  1246.4000      7.7666      2.5157      0.0941      8.1379     69.3407
  1246.5000      7.7675      2.5133      0.0901      8.2849     74.2227
  1246.6000      7.7675      2.4983      0.0455      9.1915     79.0790
  1246.7000      7.7675      2.4864      0.0521      9.9174     79.8971
