~Version Information
VERS.                      2.0: CWLS Log ASCII Standard - VERSION 2.0
WRAP.                       NO: One line per depth step
~Well Information Block
STRT.FT               650.0000: 
STOP.FT              2053.7000: 
STEP.FT                 0.1000: 
NULL.                -999.2500: 
COMP.          Pioneer Natural Resources: COMPANY
WELL.           Alabaster 11-8: WELL
FLD.           Purgatoire River: FIELD
LOC.           1249' FNL & 215' FWL--: LOCATION
PROV.                 Colorado: PROVINCE
CNTY.               Las Animas: COUNTRY
SRVC.                Patterson: SERVICE COMPANY
DATE.          Thu Jan 19 09:16:54 2006: LOG DATE
UWI.           05 071 08642 00: UNIQUE WELL ID
~Curve Information Block
DEPT.FT            0 000 00 00: Depth
DCAL.in                       : CDL Caliper
RHOB.g/cc                     : CDL Bulk Density
RHOC.g/cc                     : CDL Density Correction
DPOR.pu                       : CDL Density Porosity
NPOR.pu                       : Neutron Porosity
GR.GAPI                       : Gamma Ray
~Parameter Information Block
~A  Depth       DCAL        RHOB        RHOC        DPOR        NPOR         GR     
# ...
  1014.8000      8.1387      2.3745      0.0446     16.6961     14.1590    142.3195
  1014.9000      8.1387      2.3617      0.0590     17.4732     13.4979    134.6842
  1015.0000      8.1338      2.3477      0.0513     18.3198     13.3937    123.2142
  1015.1000      8.1338      2.3356      0.0292     19.0564     13.6604    118.3265
  1015.2000      8.1338      2.3299      0.0205     19.3971     13.8636    122.7372
  1015.3000      8.1160      2.3269      0.0315     19.5798     14.1084    129.7002
  1015.4000      8.1160      2.3191      0.0543     20.0564     14.5790    134.2121
  1015.5000      8.0834      2.3113      0.0212     20.5256     15.1980    132.8624
  1015.6000      8.0834      2.3217      0.0573     19.8972     15.5776    127.8386
  1015.7000      8.0834      2.3599      0.0744     17.5836     15.1606    127.1185
  1015.8000      8.0550      2.4105      0.1479     14.5126     14.0167    131.4533
  1015.9000      8.0550      2.4408      0.1917     12.6792     13.1154    134.2994
  1016.0000      8.0413      2.4395      0.0995     12.7551     13.0249    130.6745
  1016.1000      8.0413      2.4293      0.0767     13.3734     13.4782    124.7345
  1016.2000      8.0413      2.4268      0.0694     13.5246     14.0263    125.4643
  1016.3000      8.0355      2.4334      0.0914     13.1279     14.3412    132.7297
  1016.4000      8.0355      2.4495      0.1158     12.1529     14.2369    137.9178
  1016.5000      8.0322      2.4713      0.1209     10.8300     13.9547    136.4768
  1016.6000      8.0322      2.4905      0.0968      9.6684     13.9769    133.6018
  1016.7000      8.0322      2.4929      0.1378      9.5199     14.4463    133.2827
  1016.8000      8.0291      2.4734      0.0886     10.7010     15.0762    132.9084
  1016.9000      8.0291      2.4569      0.0505     11.7050     15.5983    130.1177
  1017.0000      8.0258      2.4624      0.1075     11.3715     16.0405    125.7704
  1017.1000      8.0258      2.4793      0.0939     10.3477     16.6198    122.2087
  1017.2000      8.0258      2.4983      0.0928      9.1948     17.4436    122.4368
  1017.3000      8.0249      2.5134      0.1268      8.2794     18.1127    127.9766
  1017.4000      8.0249      2.5167      0.1175      8.0772     18.3618    134.5236
  1017.5000      8.0251      2.5156      0.0535      8.1441     18.7071    136.0107
  1017.6000      8.0251      2.5200      0.0848      7.8764     19.3857    131.0263
  1017.7000      8.0251      2.5222      0.0919      7.7431     20.0641    120.9846
  1017.8000      8.0251      2.5165      0.0566      8.0912     20.4031    111.0802
  1017.9000      8.0251      2.5102      0.0719      8.4753     20.1605    109.2408
  1018.0000      8.0229      2.5097      0.0501      8.5005     19.5687    119.6585
  1018.1000      8.0229      2.5173      0.0473      8.0422     19.0538    137.6850
  1018.2000      8.0229      2.5316      0.0475      7.1754     18.6574    151.3006
  1018.3000      8.0207      2.5479      0.0781      6.1893     18.2891    153.5260
  1018.4000      8.0207      2.5542      0.0635      5.8088     18.2618    146.8266
  1018.5000      8.0226      2.5386      0.0413      6.7525     18.8486    136.9923
  1018.6000      8.0226      2.5115      0.0065      8.3911     19.7375    128.3453
  1018.7000      8.0226      2.4935      0.0192      9.4822     20.3637    124.1186
  1018.8000      8.0260      2.4833      0.0050     10.1012     20.3946    127.7455
  1018.9000      8.0260      2.4715      0.0056     10.8187     20.0364    137.8291
  1019.0000      8.0276      2.4555      0.0197     11.7900     19.6715    144.1926
  1019.1000      8.0276      2.4341      0.0075     13.0823     19.5674    141.1629
  1019.2000      8.0276      2.4186     -0.0447     14.0261     19.7216    134.5952
  1019.3000      8.0277      2.4208      0.0024     13.8883     19.7933    127.5014
  1019.4000      8.0277      2.4327      0.0418     13.1718     19.7479    121.5951
  1019.5000      8.0271      2.4415      0.0349     12.6387     19.6594    122.2942
  1019.6000      8.0271      2.4435      0.0414     12.5133     19.3239    130.2928
  1019.7000      8.0271      2.4380      0.0385     12.8513     18.6902    138.9128
  1019.8000      8.0263      2.4292     -0.0245     13.3788     17.8646    141.0487
  1019.9000      8.0263      2.4259      0.0010     13.5845     17.0567    136.5090
  1020.0000      8.0261      2.4293      0.0147     13.3767     16.6649    131.0396
  1020.1000      8.0261      2.4391      0.0090     12.7807     16.7730    129.3400
  1020.2000      8.0261      2.4593      0.0392     11.5594     16.8999    128.6638
  1020.3000      8.0242      2.4945      0.0852      9.4249     16.6934    126.6290
  1020.4000      8.0242      2.5545      0.0738      5.7854     16.6301    125.8649
  1020.5000      8.0230      2.6486      0.0839      0.0828     17.2446    125.5140
  1020.6000      8.0230      2.7578      0.1857     -6.5316     18.6342    120.2842
  1020.7000      8.0230      2.8463      0.2134    -11.8946     20.4371    108.9278
  1020.8000      8.0259      2.9074      0.1694    -15.6029     22.0492     95.8892
  1020.9000      8.0259      2.9538      0.1503    -18.4128     23.2392     87.2605
  1021.0000      8.0296      2.9766      0.1347    -19.7937     24.1445     86.3305
  1021.1000      8.0296      2.9693      0.0986    -19.3516     25.1662     91.9485
  1021.2000      8.0296      2.9507      0.0725    -18.2245     26.4405     97.2874
  1021.3000      8.0300      2.9260      0.0501    -16.7281     27.5706     94.1357
  1021.4000      8.0300      2.8824     -0.0341    -14.0822     28.1036     86.4152
  1021.5000      8.0295      2.8255     -0.0943    -10.6392     28.0091     85.7829
  1021.6000      8.0295      2.7645     -0.0870     -6.9372     27.3685     92.4930
  1021.7000      8.0295      2.6790     -0.0823     -1.7552     26.1226    100.2768
  1021.8000      8.0269      2.5644     -0.1829      5.1862     24.6025    109.4476
  1021.9000      8.0269      2.4674     -0.1507     11.0663     23.1136    119.2761
  1022.0000      8.0234      2.4274     -0.1502     13.4884     21.4962    124.8238
  1022.1000      8.0234      2.4408     -0.0646     12.6775     19.8153    126.2723
  1022.2000      8.0234      2.4759      0.0054     10.5494     18.5633    124.7252
  1022.3000      8.0248      2.5035      0.0420      8.8762     17.9888    119.4554
  1022.4000      8.0248      2.5189      0.0369      7.9479     17.7599    117.3005
  1022.5000      8.0277      2.5291      0.0400      7.3284     17.6086    122.9468
  1022.6000      8.0277      2.5343      0.0466      7.0135     17.7034    130.3687
  1022.7000      8.0277      2.5326      0.0421      7.1150     18.0264    135.1055
  1022.8000      8.0269      2.5261      0.0333      7.5104     18.1493    136.4599
  1022.9000      8.0269      2.5212      0.0435      7.8088     17.9993    133.3397
  1023.0000      8.0252      2.5232     -0.0012      7.6823     17.9015    129.1771
  1023.1000      8.0252      2.5250      0.0533      7.5750     17.9934    129.4792
  1023.2000      8.0252      2.5146      0.0495      8.2078     18.1050    132.3923
  1023.3000      8.0259      2.4980      0.0215      9.2140     18.0866    132.8494
  1023.4000      8.0259      2.4900     -0.0046      9.6945     18.0854    128.5152
  1023.5000      8.0254      2.4934      0.0604      9.4916     18.1785    121.0003
  1023.6000      8.0254      2.5034      0.0326      8.8856     18.2620    115.0651
  1023.7000      8.0254      2.5203      0.0558      7.8627     18.2904    113.9132
  1023.8000      8.0240      2.5423      0.0621      6.5302     18.2427    117.8480
  1023.9000      8.0240      2.5601      0.1083      5.4472     18.2794    123.5652
  1024.0000      8.0243      2.5626      0.0876      5.2991     18.5895    125.7009
  1024.1000      8.0243      2.5470      0.0690      6.2449     18.9532    124.6817
  1024.2000      8.0243      2.5234      0.0506      7.6698     19.1966    124.1099
  1024.3000      8.0248      2.5091      0.0379      8.5373     19.4854    122.8046
