~Version Information
VERS.                      2.0: CWLS Log ASCII Standard - VERSION 2.0
WRAP.                       NO: One line per depth step
~Well Information Block
STRT.FT               588.7000: 
STOP.FT              1820.2000: 
STEP.FT                 0.1000: 
NULL.                -999.2500: 
COMP.          Pioneer Natural Resources: COMPANY
WELL.           Loews 41-32 Tr: WELL
FLD.           Purgatoire River: FIELD
LOC.           706' FNL & 224' FEL--: LOCATION
CNTY.               Las Animas: COUNTY
SRVC.                Patterson: SERVICE COMPANY
DATE.          Tue Feb 21 10:23:46 2006: LOG DATE
UWI.           05 071 08690 00: UNIQUE WELL ID
STAT.                 Colorado: STATE
~Curve Information Block
DEPT.FT            0 000 00 00: Depth
DCAL.in                       : CDL Caliper
RHOB.g/cc                     : CDL Bulk Density
RHOC.g/cc                     : CDL Density Correction
DPOR.pu                       : CDL Density Porosity
GR.GAPI                       : Gamma Ray
~Parameter Information Block
~A  Depth       DCAL        RHOB        RHOC        DPOR         GR     
# ...
   835.1000      8.1425      2.4565      0.1302     11.7291     50.5655
   835.2000      8.1425      2.4499      0.0495     12.1279     53.6473
   835.3000      8.1397      2.4447      0.0397     12.4438     58.5179
   835.4000      8.1397      2.4312      0.0738     13.2636     65.5598
   835.5000      8.1372      2.3940      0.0020     15.5164     72.7038
   835.6000      8.1372      2.3442      0.0237     18.5317     78.5007
   835.7000      8.1372      2.2976      0.0054     21.3588     85.8799
   835.8000      8.1390      2.2711     -0.0038     22.9652     93.8669
   835.9000      8.1390      2.2793      0.0136     22.4668     98.3053
   836.0000      8.1518      2.3130      0.0400     20.4223    100.3660
   836.1000      8.1518      2.3456      0.1110     18.4502    104.7301
   836.2000      8.1518      2.3632      0.0955     17.3841    111.8672
   836.3000      8.1885      2.3753      0.1163     16.6462    117.6017
   836.4000      8.1885      2.3840      0.1729     16.1206    120.1912
   836.5000      8.2361      2.3793      0.1625     16.4031    121.3714
   836.6000      8.2361      2.3694      0.1265     17.0038    122.1321
   836.7000      8.2361      2.3738      0.1317     16.7375    124.3185
   836.8000      8.2378      2.3940      0.1701     15.5170    129.5072
   836.9000      8.2378      2.4045      0.1692     14.8775    134.2587
   837.0000      8.1903      2.3922      0.1030     15.6254    133.9579
   837.1000      8.1903      2.3812      0.0823     16.2933    129.2189
   837.2000      8.1903      2.3958      0.1067     15.4032    126.1754
   837.3000      8.1509      2.4300      0.1700     13.3312    127.0659
   837.4000      8.1509      2.4630      0.2094     11.3315    126.4347
   837.5000      8.1322      2.4812      0.2232     10.2278    122.5311
   837.6000      8.1322      2.4797      0.2263     10.3208    119.8426
   837.7000      8.1322      2.4645      0.1824     11.2438    122.2346
   837.8000      8.1221      2.4528      0.1364     11.9498    128.0195
   837.9000      8.1221      2.4484      0.1586     12.2208    130.6267
   838.0000      8.1157      2.4391      0.1077     12.7801    130.4878
   838.1000      8.1157      2.4339      0.0869     13.0977    133.3192
   838.2000      8.1157      2.4508      0.1314     12.0718    136.7410
   838.3000      8.1116      2.4877      0.1167      9.8361    135.4079
   838.4000      8.1116      2.5264      0.2200      7.4920    129.4835
   838.5000      8.1032      2.5460      0.2042      6.3002    124.7631
   838.6000      8.1032      2.5490      0.2031      6.1200    124.2067
   838.7000      8.1032      2.5575      0.2141      5.6081    122.6620
   838.8000      8.0877      2.5797      0.2193      4.2633    121.0319
   838.9000      8.0877      2.6025      0.2037      2.8768    123.2008
   839.0000      8.0788      2.6101      0.2170      2.4208    127.4039
   839.1000      8.0788      2.5979      0.1547      3.1550    133.8972
   839.2000      8.0788      2.5699      0.1489      4.8528    141.4445
   839.3000      8.0790      2.5267      0.0913      7.4706    144.6341
   839.4000      8.0790      2.4748      0.0586     10.6152    141.1685
   839.5000      8.0859      2.4299      0.0621     13.3371    133.4443
   839.6000      8.0859      2.4093      0.0068     14.5893    126.3418
   839.7000      8.0859      2.4232      0.0291     13.7459    123.3847
   839.8000      8.1020      2.4564      0.0592     11.7332    126.6170
   839.9000      8.1020      2.4800      0.0550     10.3028    133.2118
   840.0000      8.1209      2.4817      0.0773     10.1975    133.8710
   840.1000      8.1209      2.4655      0.0745     11.1791    126.8722
   840.2000      8.1209      2.4490      0.0102     12.1848    122.0123
   840.3000      8.1276      2.4538      0.0259     11.8887    123.2748
   840.4000      8.1276      2.4749      0.0948     10.6145    125.0004
   840.5000      8.1212      2.4920      0.0980      9.5758    124.6356
   840.6000      8.1212      2.5018      0.1084      8.9844    124.6873
   840.7000      8.1212      2.5082      0.0875      8.5947    125.3250
   840.8000      8.1159      2.5148      0.0532      8.1923    122.8207
   840.9000      8.1159      2.5229      0.0561      7.7039    117.5402
   841.0000      8.1185      2.5292      0.0640      7.3213    115.1408
   841.1000      8.1185      2.5324      0.0443      7.1296    115.3830
   841.2000      8.1185      2.5397      0.0296      6.6839    112.5176
   841.3000      8.1264      2.5603      0.0394      5.4362    108.6645
   841.4000      8.1264      2.5815      0.0769      4.1493    109.2050
   841.5000      8.1325      2.5793      0.0513      4.2857    113.2386
   841.6000      8.1325      2.5608      0.0349      5.4045    116.7438
   841.7000      8.1325      2.5524      0.0445      5.9166    118.7277
   841.8000      8.1338      2.5498      0.0638      6.0714    119.7286
   841.9000      8.1338      2.5344      0.0263      7.0076    120.3687
   842.0000      8.1320      2.5144      0.0178      8.2171    122.6327
   842.1000      8.1320      2.5089      0.0275      8.5496    123.2540
   842.2000      8.1320      2.5214      0.0408      7.7951    116.7379
   842.3000      8.1312      2.5446      0.0462      6.3885    107.3191
   842.4000      8.1312      2.5692      0.0867      4.8977    101.7171
   842.5000      8.1335      2.5879      0.1021      3.7639    101.0819
   842.6000      8.1335      2.6016      0.0712      2.9348    102.7451
   842.7000      8.1335      2.6091      0.0959      2.4790    104.1050
   842.8000      8.1360      2.6035      0.0945      2.8210    106.0840
   842.9000      8.1360      2.5959      0.0488      3.2794    111.2224
   843.0000      8.1365      2.6021      0.0729      2.9040    119.5796
   843.1000      8.1365      2.6125      0.0682      2.2754    125.4373
   843.2000      8.1365      2.6105      0.0634      2.3941    125.2273
   843.3000      8.1345      2.5987      0.0249      3.1104    123.6449
   843.4000      8.1345      2.5905      0.0631      3.6060    125.1378
   843.5000      8.1321      2.5807      0.0820      4.1995    128.4940
   843.6000      8.1321      2.5505      0.0675      6.0329    128.9613
   843.7000      8.1321      2.4969      0.0433      9.2796    127.1669
   843.8000      8.1313      2.4410      0.0030     12.6671    127.6023
   843.9000      8.1313      2.4161     -0.0276     14.1754    130.0269
   844.0000      8.1308      2.4258      0.0214     13.5877    132.8468
   844.1000      8.1308      2.4330      0.0915     13.1545    136.9718
   844.2000      8.1308      2.4212      0.0416     13.8673    138.6844
   844.3000      8.1288      2.4166      0.0170     14.1471    134.5192
   844.4000      8.1288      2.4304      0.0961     13.3088    132.9606
   844.5000      8.1257      2.4409      0.1421     12.6735    141.0732
   844.6000      8.1257      2.4391      0.0705     12.7799    149.3747
   844.7000      8.1257      2.4416      0.1107     12.6296    147.9260
   844.8000      8.1191      2.4612      0.1412     11.4445    141.2100
   844.9000      8.1191      2.4901      0.2198      9.6923    135.1835
   845.0000      8.1036      2.4986      0.2278      9.1742    130.7706
   845.1000      8.1036      2.4772      0.0974     10.4705    129.5412
   845.2000      8.1036      2.4643      0.0289     11.2552    131.6205
   845.3000      8.0831      2.4884      0.1041      9.7962    132.6115
   845.4000      8.0831      2.5323      0.1420      7.1320    130.4298
   845.5000      8.0701      2.5772      0.1162      4.4120    126.9883
   845.6000      8.0701      2.6206      0.1322      1.7809    124.2519
   845.7000      8.0701      2.6532      0.1280     -0.1910    122.4194
   845.8000      8.0641      2.6591      0.1363     -0.5506    120.4202
   845.9000      8.0641      2.6429      0.0703      0.4279    116.9008
   846.0000      8.0592      2.6318      0.0893      1.1027    111.8278
   846.1000      8.0592      2.6363      0.0732      0.8297    107.6254
   846.2000      8.0592      2.6375      0.1241      0.7594    104.3860
