~Version Information
VERS.                      2.0: CWLS Log ASCII Standard - VERSION 2.0
WRAP.                       NO: One line per depth step
~Well Information Block
STRT.FT                -6.7500: 
STOP.FT              1661.0000: 
STEP.FT                 0.2500: 
NULL.                -999.2500: 
COMP.          Pioneer Natural Resources: COMPANY
WELL.           Pedri 42-33 Tr: WELL
FLD.           Purgatorie River: FIELD
LOC.           1933'' FNL & 662' FEL--: LOCATION
PROV.                       CO: PROVINCE
CNTY.               Las Animas: COUNTRY
SRVC.          Patterson Wireline: SERVICE COMPANY
DATE.          Tue Dec 27 08:53:52 2005: LOG DATE
UWI.           05 071 08640 00: UNIQUE WELL ID
~Curve Information Block
DEPT.FT            0 000 00 00: Depth
CCL.                          : Casing Collar Locator
TT3.usec                      : CBL 3' Travel Time
AMP3.mV                       : CBL 3' Amplitude
GR.GAPI                       : Gamma Ray
~Parameter Information Block
~A  Depth       CCL         TT3         AMP3         GR     
# ...
   763.7500      0.0000    805.2329      6.9883    101.8379
   764.0000      0.0000    801.2687      6.9370    105.3020
   764.2500      0.0000    800.5250      6.9063    112.9568
   764.5000      0.0000    802.7582      6.8970    122.9774
   764.7500      0.0000    805.4782      6.8821    132.8028
   765.0000      0.0000    805.0968      6.8264    140.1393
   765.2500      0.0000    797.5054      6.7138    143.6600
   765.5000      0.0000    780.0353      6.5689    143.3899
   765.7500      0.0000    755.5809      6.4613    140.6232
   766.0000      0.0000    734.8412      6.4640    137.4796
   766.2500      0.0000    732.2554      6.5730    136.1336
   766.5000      0.0000    756.4417      6.6852    137.5854
   766.7500      0.0000    802.4584      6.6960    140.7067
   767.0000      0.0000    854.3004      6.6066    142.9142
   767.2500      0.0000    896.2731      6.4997    142.4104
   767.5000     -2.0000    921.8541      6.4370    139.9099
   767.7500      2.0000    932.8049      6.4203    138.0448
   768.0000      2.0000    933.8826      6.4286    139.0642
   768.2500      0.0000    929.3561      6.4647    143.1514
   768.5000      0.0000    920.5200      6.5676    148.6454
   768.7500      0.0000    904.6898      6.7781    153.2556
   769.0000      0.0000    878.8732      7.0702    155.2491
   769.2500      0.0000    844.9648      7.3307    154.2245
   769.5000      0.0000    809.5603      7.4481    151.0701
   769.7500      0.0000    778.7328      7.4105    147.2572
   770.0000      0.0000    754.4739      7.2916    144.2840
   770.2500      0.0000    736.3072      7.1694    143.3944
   770.5000      0.0000    724.6489      7.0819    144.9634
   770.7500      0.0000    720.9755      7.0329    147.8419
   771.0000      0.0000    724.8844      7.0091    149.6848
   771.2500      0.0000    732.2883      6.9941    148.2795
   771.5000      0.0000    737.2477      6.9795    142.9111
   771.7500      0.0000    735.5028      6.9696    135.0040
   772.0000      0.0000    726.7153      6.9747    127.5111
   772.2500      0.0000    714.2206      7.0014    123.1078
   772.5000      0.0000    702.7941      7.0434    122.5565
   772.7500      0.0000    696.1870      7.0874    124.6819
   773.0000      0.0000    696.1562      7.1257    127.6657
   773.2500      0.0000    702.7816      7.1624    130.2234
   773.5000      0.0000    714.5809      7.2043    131.9824
   773.7500      0.0000    728.4322      7.2491    133.1935
   774.0000      0.0000    740.5670      7.2848    133.9380
   774.2500      0.0000    748.3377      7.3012    133.5639
   774.5000      0.0000    750.8442      7.3017    131.2168
   774.7500      0.0000    747.9973      7.3021    127.0897
   775.0000      0.0000    739.8236      7.3174    122.9257
   775.2500      0.0000    727.1946      7.3498    120.9748
   775.5000      0.0000    712.7081      7.3901    122.0592
   775.7500      0.0000    699.8753      7.4255    124.4742
   776.0000      0.0000    691.1293      7.4460    125.2039
   776.2500      0.0000    686.9235      7.4430    122.6615
   776.5000      0.0000    686.7225      7.4105    118.1927
   776.7500      0.0000    690.3022      7.3519    114.7997
   777.0000      0.0000    697.5403      7.2816    114.5098
   777.2500      0.0000    706.8357      7.2112    116.6767
   777.5000      0.0000    714.3829      7.1314    118.4322
   777.7500      0.0000    716.1747      7.0129    117.1052
   778.0000      0.0000    711.2408      6.8320    112.6717
   778.2500      0.0000    702.5701      6.5925    107.8011
   778.5000      0.0000    694.8073      6.3262    105.4345
   778.7500      0.0000    691.6448      6.0736    106.3101
   779.0000      0.0000    695.1895      5.8665    108.3210
   779.2500      0.0000    706.1520      5.7193    107.9964
   779.5000      0.0000    723.1417      5.6274    103.3933
   779.7500      0.0000    742.0009      5.5719     96.2702
   780.0000      0.0000    757.2904      5.5329     90.9305
   780.2500      0.0000    765.5442      5.5001     90.4930
   780.5000      0.0000    767.3078      5.4701     94.6574
   780.7500      0.0000    765.8644      5.4439    100.8429
   781.0000      0.0000    764.0318      5.4331    106.5903
   781.2500      0.0000    762.3229      5.4635    110.9142
   781.5000      0.0000    759.3600      5.5593    114.1678
   781.7500      0.0000    752.8644      5.7197    117.0590
   782.0000      0.0000    741.1082      5.9142    119.8446
   782.2500      0.0000    725.1072      6.1014    122.4188
   782.5000      0.0000    708.9142      6.2510    124.8316
   782.7500      0.0000    696.6583      6.3550    127.3973
   783.0000      0.0000    689.6442      6.4272    130.3732
   783.2500      0.0000    686.5190      6.4908    133.6975
   783.5000      0.0000    685.2722      6.5596    136.9944
   783.7500      0.0000    684.5692      6.6309    139.8207
   784.0000      0.0000    683.8717      6.6973    141.9769
   784.2500      0.0000    683.0831      6.7571    143.5380
   784.5000      0.0000    682.2741      6.8102    144.4512
   784.7500      0.0000    681.5801      6.8516    144.3818
   785.0000      0.0000    681.1339      6.8747    143.3151
   785.2500      0.0000    680.9785      6.8782    142.1825
   785.5000      0.0000    681.0445      6.8681    142.2704
   785.7500      0.0000    681.2231      6.8524    143.7251
   786.0000      0.0000    681.4550      6.8342    144.8745
   786.2500      0.0000    681.7399      6.8125    143.5729
   786.5000      0.0000    682.0708      6.7897    139.4783
   786.7500      0.0000    682.3864      6.7726    134.6440
   787.0000      0.0000    682.6016      6.7619    131.4726
   787.2500      0.0000    682.6766      6.7454    130.4941
   787.5000      0.0000    682.6422      6.7086    130.5912
   787.7500      0.0000    682.5712      6.6515    130.7290
   788.0000      0.0000    682.5382      6.5930    130.6055
   788.2500      0.0000    682.5773      6.5606    130.1431
   788.5000      0.0000    682.6468      6.5727    129.3544
   788.7500      0.0000    682.6434      6.6245    128.5417
   789.0000      0.0000    682.4770      6.6933    127.9118
   789.2500      0.0000    682.1375      6.7590    127.1254
   789.5000      0.0000    681.6902      6.8227    125.7274
   789.7500      0.0000    681.2176      6.9014    123.9720
   790.0000      0.0000    680.7725      7.0086    122.6899
   790.2500      0.0000    680.3788      7.1400    122.2860
   790.5000      0.0000    680.0563      7.2792    122.3109
   790.7500      0.0000    679.8289      7.4125    122.0905
   791.0000      0.0000    679.7109      7.5345    121.3491
   791.2500      0.0000    679.6919      7.6398    120.2129
   791.5000      0.0000    679.7319      7.7147    119.1560
   791.7500      0.0000    679.7739      7.7447    118.9715
   792.0000      0.0000    679.7814      7.7322    120.1860
   792.2500      0.0000    679.8434      7.7025    122.3341
   792.5000      0.0000    680.2997      7.6895    124.2779
   792.7500      0.0000    681.8331      7.7140    125.3204
   793.0000      0.0000    685.2968      7.7708    125.4036
   793.2500      0.0000    691.0756      7.8342    124.1948
   793.5000      0.0000    698.2324      7.8720    121.0910
   793.7500      0.0000    704.3800      7.8595    116.8248
   794.0000      0.0000    706.8284      7.7906    114.3716
   794.2500      0.0000    704.2234      7.6781    117.1150
   794.5000      0.0000    697.2950      7.5427    125.6662
   794.7500      0.0000    688.2440      7.4027    136.7458
   795.0000      0.0000    679.5377      7.2739    145.4060
   795.2500      0.0000    673.1582      7.1736    148.3789
   795.5000      0.0000    670.2887      7.1160    145.6633
   795.7500      0.0000    670.8727      7.1043    139.6102
   796.0000      0.0000    673.5141      7.1291    132.9079
   796.2500      0.0000    676.4055      7.1735    127.2723
   796.5000      0.0000    678.4939      7.2188    123.4808
   796.7500      0.0000    679.7867      7.2461    121.8270
   797.0000      0.0000    680.9033      7.2415    121.9540
