~Version Information
 VERS.                                  2.0 : CWLS LAS VERSION
 WRAP.                                   NO : WRAPING MODE
 SWARE .                 MController 2.5.0N : SOFTWARE VERSION
~Well Information
 WELL.                       Screamin 12-29 : WELL
 COMP.       Pioneer Natural Resources, USA : COMPANY
 FLD.                       Purgatory River : FIELD
 LOC.                 SW/NW Sec29 T32S R65W : LOCATION
 DATE.                    3/28/06 - 3/29/06 : DATE(S) LOGGED
 SRVC.      Blanco Geological Services, LLC : SERVICE COMPANY
 STAT.                             Colorado : STATE
 CNTY.                           Las Animas : COUNTY
 CTRY.                                  USA : COUNTRY
 API.                          05-071-08660 : API NUMBER
 STRT.FT                             599.00 : START DEPTH
 STOP.FT                            1583.00 : STOP DEPTH
 STEP.FT                               1.00 : DEPTH INCREMENT
 NULL.                                -9999 : NULL VALUE
~Curve information
 DEPTH.FT                                   :
 ROP.MIN/FT                                 :
 GAS.UNITS                                  :
~ASCII Log data
       599.0     -9999.00          2.6 
       600.0         0.10          2.4 
       601.0         0.10          2.5 
       602.0         0.07          2.4 
       603.0         0.10          2.7 
       604.0         0.10          2.6 
       605.0         0.10          2.4 
       606.0         0.10          2.8 
       607.0         0.07          2.8 
       608.0         0.13          2.8 
       609.0         0.10          2.7 
       610.0         0.08          1.9 
       611.0         0.10          2.4 
       612.0         0.13          2.8 
       613.0         0.13          2.5 
       614.0         0.13          2.4 
       615.0         0.13          2.5 
       616.0         0.10          2.6 
       617.0         0.10          2.2 
       618.0         0.10          2.2 
       619.0         0.13          2.5 
       620.0         3.08          2.7 
       621.0         0.13          2.5 
       622.0         0.20          2.6 
       623.0         0.20          2.6 
       624.0         0.17          2.4 
       625.0         0.13          2.7 
       626.0         0.10          2.4 
       627.0         0.10          2.8 
       628.0         0.10          2.4 
       629.0         0.10          2.8 
       630.0         0.10          2.4 
       631.0         0.13          2.6 
       632.0         0.17          2.5 
       633.0         0.13          2.5 
       634.0         0.13          2.9 
       635.0         0.13          2.4 
       636.0         0.17          2.8 
       637.0         0.13          2.7 
       638.0         0.10          2.7 
       639.0         0.12          2.5 
       640.0         0.10          2.6 
       641.0         0.10          2.7 
       642.0         0.10          2.5 
       643.0         0.10          2.3 
       644.0         0.10          2.7 
       645.0         0.10          2.7 
       646.0         0.17          2.7 
       647.0         0.13          2.5 
       648.0         0.17          2.4 
       649.0         0.17          2.5 
       650.0         3.75          2.7 
       651.0         0.13          2.3 
       652.0         0.17          2.8 
       653.0         0.17          2.6 
       654.0         0.17          2.7 
       655.0         0.20          2.7 
       656.0         0.17          2.5 
       657.0         0.17          2.4 
       658.0         0.13          2.6 
       659.0         0.13          2.3 
       660.0         0.15          2.4 
       661.0         0.20          2.6 
       662.0         0.17          2.9 
       663.0         0.13          2.5 
       664.0         0.17          2.3 
       665.0         0.13          2.6 
       666.0         0.17          2.4 
       667.0         0.13          2.3 
       668.0         0.17          2.3 
       669.0         0.13          2.5 
       670.0         0.13          2.3 
       671.0         0.17          2.6 
       672.0         0.13          2.8 
       673.0         0.17          2.4 
       674.0         0.13          2.5 
       675.0         0.13          2.6 
       676.0         0.17          2.2 
       677.0         0.13          2.3 
       678.0         0.13          2.4 
       679.0         0.17          2.2 
       680.0         0.20          2.4 
       681.0         0.10          2.2 
       682.0         2.88          2.6 
       683.0         0.20          2.2 
       684.0         0.20          2.3 
       685.0         0.20          2.3 
       686.0         0.22          2.3 
       687.0         0.13          2.2 
       688.0         0.13          2.2 
       689.0         0.17          2.0 
       690.0         0.13          2.1 
       691.0         0.20          2.5 
       692.0         0.23          2.3 
       693.0         0.23          2.0 
       694.0         0.23          1.9 
       695.0         0.20          2.2 
       696.0         0.17          2.2 
       697.0         0.13          2.2 
       698.0         0.13          2.6 
       699.0         0.17          2.0 
       700.0         0.17          2.1 
       701.0         0.20          2.3 
       702.0         0.27          2.7 
       703.0         0.28          2.2 
       704.0         0.30          2.7 
       705.0         0.20          2.7 
       706.0         0.27          2.8 
       707.0         0.27          2.8 
       708.0         0.40          3.3 
       709.0         0.37          3.1 
       710.0         0.27          2.4 
       711.0         0.20          2.4 
       712.0         3.35          3.2 
       713.0         0.30          2.2 
       714.0         0.40          2.3 
       715.0         0.33          2.5 
       716.0         0.38          2.7 
       717.0         0.30          2.9 
       718.0         0.30          2.8 
       719.0         0.30          2.5 
       720.0         0.20          2.7 
       721.0         0.23          3.1 
       722.0         0.17          3.1 
       723.0         0.20          3.2 
       724.0         0.20          3.0 
       725.0         0.20          3.1 
       726.0         0.20          2.7 
       727.0         0.17          2.5 
       728.0         0.20          2.2 
       729.0         0.20          2.4 
       730.0         0.22          2.5 
       731.0         0.20          2.6 
       732.0         0.20          2.6 
       733.0         0.20          2.3 
       734.0         0.27          2.6 
       735.0         0.27          2.5 
       736.0         0.17          2.4 
       737.0         0.17          3.1 
       738.0         0.20         17.9 
       739.0         0.20         39.8 
       740.0         0.23         57.2 
       741.0         0.30         65.7 
       742.0         3.62        343.4 
       743.0         0.30        176.0 
       744.0         0.38        115.9 
       745.0         0.37        122.7 
       746.0         0.33        122.3 
       747.0         0.20        100.1 
       748.0         0.17         90.6 
       749.0         0.20         86.6 
       750.0         0.20         78.7 
       751.0         0.30         72.4 
       752.0         0.30         72.0 
       753.0         0.33         76.5 
       754.0         0.37         78.6 
       755.0         0.30         78.3 
       756.0         0.28         75.4 
       757.0         0.23         75.3 
       758.0         0.30         74.4 
       759.0         0.33         68.5 
       760.0         0.33         73.8 
       761.0         0.27         73.9 
       762.0         0.27         68.2 
       763.0         0.30         66.0 
       764.0         0.23         63.1 
       765.0         0.27         64.2 
       766.0         0.30         67.7 
       767.0         0.30         72.1 
       768.0         0.28         70.7 
       769.0         0.27         65.3 
       770.0         0.30         63.3 
       771.0         0.40         65.7 
       772.0         2.82        244.5 
       773.0         0.50        244.5 
       774.0         0.50        128.6 
       775.0         0.37        106.6 
       776.0         0.30         94.3 
       777.0         0.33         96.3 
       778.0         0.30         97.3 
       779.0         0.27         94.2 
       780.0         0.28         88.4 
       781.0         0.27         80.9 
       782.0         0.27         70.3 
       783.0         0.27         64.6 
       784.0         0.27         62.1 
       785.0         0.27         62.1 
       786.0         0.23         62.4 
       787.0         0.27         61.8 
       788.0         0.20         61.8 
       789.0         0.23         61.6 
       790.0         0.20         62.7 
       791.0         0.20         70.5 
       792.0         0.20         78.9 
       793.0         0.20         84.7 
       794.0         0.22         86.0 
       795.0         0.23         83.8 
       796.0         0.23         87.8 
       797.0         0.27         89.4 
       798.0         0.23         87.1 
