~Version Information
VERS.                      2.0: CWLS Log ASCII Standard - VERSION 2.0
WRAP.                       NO: One line per depth step
~Well Information Block
STRT.FT               240.0000: 
STOP.FT              1043.5000: 
STEP.FT                 0.2500: 
NULL.                -999.2500: 
COMP.          Pioneer Natural Resources: COMPANY
WELL.          Stags Leap 13-30: WELL
FLD.           Purgatorie River: FIELD
LOC.           1813' FSL & 117' FWL: LOCATION
PROV.                 Colorado: PROVINCE
CNTY.               Las Animas: COUNTRY
SRVC.                Patterson: SERVICE COMPANY
DATE.          Thu Dec 08 19:20:57 2005: LOG DATE
UWI.                          : UNIQUE WELL ID
~Curve Information Block
DEPT.FT            0 000 00 00: Depth
DIR.Ohm-m                     : IEL Induction Resistivity
GR.GAPI                       : Gamma Ray
~Parameter Information Block
~A  Depth       DIR          GR     
# ...
   407.2500     10.4776    151.5103
   407.5000     10.9078    152.6373
   407.7500     11.4246    153.7389
   408.0000     12.0285    154.9869
   408.2500     12.7184    155.2366
   408.5000     13.4915    154.4366
   408.7500     14.3458    153.0723
   409.0000     15.2834    150.0181
   409.2500     16.3097    147.5835
   409.5000     17.4255    143.7082
   409.7500     18.6140    141.0119
   410.0000     19.8318    136.6846
   410.2500     21.0164    133.6944
   410.5000     22.1128    129.7328
   410.7500     23.1064    127.9505
   411.0000     24.0342    126.8590
   411.2500     24.9562    126.8715
   411.5000     25.9094    127.1470
   411.7500     26.8791    127.1184
   412.0000     27.8100    126.2750
   412.2500     28.6448    124.9196
   412.5000     29.3545    121.5554
   412.7500     29.9406    118.6565
   413.0000     30.4181    113.9190
   413.2500     30.8023    110.6860
   413.5000     31.1096    105.9310
   413.7500     31.3650    103.2152
   414.0000     31.5988    100.8593
   414.2500     31.8301    100.7149
   414.5000     32.0497    102.0163
   414.7500     32.2225    103.2929
   415.0000     32.3181    105.4962
   415.2500     32.3484    107.4119
   415.5000     32.3770    111.2349
   415.7500     32.4856    114.1573
   416.0000     32.7249    118.2950
   416.2500     33.0878    120.5884
   416.5000     33.5246    123.3263
   416.7500     33.9839    124.7883
   417.0000     34.4416    126.3324
   417.2500     34.8978    126.6572
   417.5000     35.3508    125.5791
   417.7500     35.7850    123.6727
   418.0000     36.1795    119.0786
   418.2500     36.5195    114.9933
   418.5000     36.7876    107.7484
   418.7500     36.9434    102.5680
   419.0000     36.9092     95.0984
   419.2500     36.5781     90.7109
   419.5000     35.8399     85.3107
   419.7500     34.6157     82.4694
   420.0000     32.8920     79.1275
   420.2500     30.7434     77.4066
   420.5000     28.3271     75.6576
   420.7500     25.8459     75.2220
   421.0000     23.4924     75.8990
   421.2500     21.4020     77.2043
   421.5000     19.6366     80.2162
   421.7500     18.1948     82.9339
   422.0000     17.0354     88.7142
   422.2500     16.0993     94.3466
   422.5000     15.3255    106.2587
   422.7500     14.6618    116.4379
   423.0000     14.0729    133.9370
   423.2500     13.5450    145.9618
   423.5000     13.0835    162.1285
   423.7500     12.7037    170.3951
   424.0000     12.4186    178.1022
   424.2500     12.2316    180.4691
   424.5000     12.1362    181.3193
   424.7500     12.1204    180.8714
   425.0000     12.1729    179.3065
   425.2500     12.2870    177.5968
   425.5000     12.4608    173.5419
   425.7500     12.6967    169.5835
   426.0000     12.9986    161.6255
   426.2500     13.3713    155.2104
   426.5000     13.8193    145.2314
   426.7500     14.3473    139.5900
   427.0000     14.9577    134.7259
   427.2500     15.6463    134.4774
   427.5000     16.3974    138.1994
   427.7500     17.1842    142.5526
   428.0000     17.9762    149.9130
   428.2500     18.7506    154.2394
   428.5000     19.4974    158.5196
   428.7500     20.2177    159.5658
   429.0000     20.9166    158.2361
   429.2500     21.5964    155.3661
   429.5000     22.2464    148.3427
   429.7500     22.8293    142.4218
   430.0000     23.2749    133.2524
   430.2500     23.4932    127.8083
   430.5000     23.4065    121.4554
   430.7500     22.9800    118.6258
   431.0000     22.2347    116.8434
   431.2500     21.2374    117.4565
   431.5000     20.0807    120.7488
   431.7500     18.8585    123.9684
   432.0000     17.6483    129.4069
   432.2500     16.5047    133.2453
   432.5000     15.4613    139.5302
   432.7500     14.5363    144.2030
   433.0000     13.7353    151.7155
   433.2500     13.0540    156.6314
   433.5000     12.4820    162.9717
   433.7500     12.0072    166.2336
   434.0000     11.6193    170.0154
   434.2500     11.3125    172.2274
   434.5000     11.0845    175.3273
   434.7500     10.9332    176.9614
   435.0000     10.8545    178.1851
   435.2500     10.8430    178.1563
   435.5000     10.8965    177.3098
   435.7500     11.0216    176.4733
   436.0000     11.2343    174.7457
   436.2500     11.5552    173.0111
   436.5000     12.0000    169.4936
   436.7500     12.5737    167.0337
   437.0000     13.2682    164.2644
   437.2500     14.0641    163.2238
   437.5000     14.9340    162.2037
   437.7500     15.8447    161.2651
   438.0000     16.7615    158.6214
   438.2500     17.6503    155.7418
   438.5000     18.4776    149.5717
   438.7500     19.2093    144.3353
   439.0000     19.8134    135.3770
   439.2500     20.2669    129.1657
   439.5000     20.5604    120.3866
   439.7500     20.6948    115.3687
   440.0000     20.6722    109.9198
   440.2500     20.4875    108.2211
   440.5000     20.1280    109.4418
   440.7500     19.5853    112.9608
   441.0000     18.8745    121.6675
   441.2500     18.0459    128.8492
   441.5000     17.1752    139.8075
   441.7500     16.3377    146.3546
   442.0000     15.5850    154.2231
   442.2500     14.9374    158.0083
   442.5000     14.3902    161.5609
   442.7500     13.9272    162.7283
   443.0000     13.5310    163.2276
   443.2500     13.1885    163.0332
   443.5000     12.8889    162.4293
   443.7500     12.6215    162.1514
   444.0000     12.3740    162.5475
   444.2500     12.1366    163.5509
   444.5000     11.9068    165.8116
   444.7500     11.6909    167.2316
   445.0000     11.4993    168.2014
   445.2500     11.3388    167.8431
   445.5000     11.2098    166.1847
   445.7500     11.1095    164.8200
   446.0000     11.0391    163.2091
   446.2500     11.0047    162.6887
   446.5000     11.0121    162.5648
   446.7500     11.0612    162.5493
   447.0000     11.1460    162.0054
   447.2500     11.2597    161.0924
   447.5000     11.4001    158.7418
   447.7500     11.5698    156.5293
   448.0000     11.7732    152.6016
   448.2500     12.0133    149.8647
   448.5000     12.2917    145.5830
   448.7500     12.6115    142.2740
   449.0000     12.9786    136.2565
   449.2500     13.4023    131.8112
   449.5000     13.8938    125.4723
   449.7500     14.4638    121.9170
   450.0000     15.1209    117.8576
   450.2500     15.8724    116.0077
   450.5000     16.7242    114.5817
   450.7500     17.6798    114.5622
   451.0000     18.7371    115.7216
   451.2500     19.8842    116.9609
   451.5000     21.0972    118.7763
   451.7500     22.3378    119.5446
   452.0000     23.5540    119.4844
   452.2500     24.6835    118.4329
   452.5000     25.6697    115.1681
   452.7500     26.4842    111.8749
   453.0000     27.1388    105.6098
   453.2500     27.6730    101.0503
   453.5000     28.1245     94.8368
   453.7500     28.5066     91.7153
   454.0000     28.8084     89.0735
   454.2500     29.0088     88.7917
   454.5000     29.0904     90.8808
   454.7500     29.0415     94.1188
   455.0000     28.8501    101.6171
   455.2500     28.5008    107.9747
   455.5000     27.9811    118.3081
   455.7500     27.2953    124.6169
   456.0000     26.4721    130.9718
   456.2500     25.5575    132.3148
   456.5000     24.5985    130.5564
   456.7500     23.6325    128.1175
   457.0000     22.6881    124.6727
   457.2500     21.7917    123.1615
   457.5000     20.9675    122.4155
   457.7500     20.2292    123.0927
   458.0000     19.5711    126.3625
   458.2500     18.9682    130.2824
   458.5000     18.3916    138.5636
   458.7500     17.8291    145.0570
   459.0000     17.2962    154.5495
   459.2500     16.8281    159.6607
   459.5000     16.4612    164.2504
   459.7500     16.2175    165.1383
   460.0000     16.0986    164.2123
   460.2500     16.0866    163.1339
   460.5000     16.1510    162.4453
   460.7500     16.2613    162.9418
   461.0000     16.4036    164.2928
   461.2500     16.5884    164.6071
   461.5000     16.8443    162.8239
   461.7500     17.1989    160.0528
   462.0000     17.6632    154.6260
   462.2500     18.2305    150.9942
   462.5000     18.8919    146.1494
   462.7500     19.6542    143.1296
