~Version Information
VERS.                      2.0: CWLS Log ASCII Standard - VERSION 2.0
WRAP.                       NO: One line per depth step
~Well Information Block
STRT.FT               430.0000: 
STOP.FT              2074.0000: 
STEP.FT                 0.1000: 
NULL.                -999.2500: 
COMP.          Pioneer Natural Resources: COMPANY
WELL.             Fleming 11-2: WELL
FLD.           Purgatoire River: FIELD
LOC.           534' FNL & 160' FWL: LOCATION
CNTY.               Las Animas: COUNTY
SRVC.                Patterson: SERVICE COMPANY
DATE.          Tue Jun 27 10:07:47 2006: LOG DATE
UWI.           05 071 08491 00: UNIQUE WELL ID
STAT.                 Colorado: STATE
~Curve Information Block
DEPT.FT            0 000 00 00: Depth
DCAL.in                       : CDL Caliper
RHOB.g/cc                     : CDL Bulk Density
RHOC.g/cc                     : CDL Density Correction
DPOR.pu                       : CDL Density Porosity
GR.GAPI                       : Gamma Ray
NPOR.pu                       : Neutron Porosity
~Parameter Information Block
~A  Depth       DCAL        RHOB        RHOC        DPOR         GR         NPOR    
# ...
  1303.6000      7.9539      2.4797      0.0136     10.3208     88.7325     20.0264
  1303.7000      7.9539      2.5040      0.0281      8.8506     90.0298     20.2043
  1303.8000      7.9538      2.5181      0.0658      7.9922     88.5330     20.2767
  1303.9000      7.9538      2.5189      0.0593      7.9458     84.3082     20.3347
  1304.0000      7.9539      2.5132      0.0411      8.2916     77.1470     20.5475
  1304.1000      7.9539      2.5068      0.0313      8.6766     69.8861     20.8021
  1304.2000      7.9539      2.5006      0.0148      9.0519     68.6449     20.7207
  1304.3000      7.9547      2.4973      0.0250      9.2538     74.6527     20.5475
  1304.4000      7.9547      2.5035      0.0140      8.8792     83.1851     20.5413
  1304.5000      7.9556      2.5177      0.0588      8.0185     92.6846     20.6415
  1304.6000      7.9556      2.5313     -0.0043      7.1926    100.5099     20.8496
  1304.7000      7.9556      2.5395      0.0282      6.6951    103.4545     20.9483
  1304.8000      7.9560      2.5333      0.0656      7.0728    106.3508     20.7355
  1304.9000      7.9560      2.5095      0.0257      8.5164    112.6632     20.4366
  1305.0000      7.9570      2.4816     -0.0098     10.2031    119.9297     20.0004
  1305.1000      7.9570      2.4559      0.0279     11.7666    127.6497     19.2232
  1305.2000      7.9570      2.4260      0.0104     13.5758    135.4493     18.6245
  1305.3000      7.9602      2.3875      0.0131     15.9081    139.6350     18.7175
  1305.4000      7.9602      2.3362     -0.0154     19.0208    138.9457     19.1238
  1305.5000      7.9662      2.2802     -0.0324     22.4100    135.2130     19.3748
  1305.6000      7.9662      2.2399     -0.0720     24.8576    132.6014     19.6299
  1305.7000      7.9662      2.2139     -0.0529     26.4285    134.9832     20.1814
  1305.8000      7.9724      2.1692      0.0068     29.1416    138.5778     20.7510
  1305.9000      7.9724      2.0977     -0.0437     33.4705    137.6929     21.1278
  1306.0000      7.9767      2.0485     -0.0318     36.4552    134.8218     21.8514
  1306.1000      7.9767      2.0607      0.0199     35.7165    135.5316     23.2077
  1306.2000      7.9767      2.1240      0.0438     31.8774    136.6077     24.5531
  1306.3000      7.9780      2.2061      0.1000     26.9024    130.8147     25.3197
  1306.4000      7.9780      2.2770      0.1386     22.6086    122.4018     25.7255
  1306.5000      7.9770      2.3256      0.0967     19.6621    121.6354     25.9495
  1306.6000      7.9770      2.3646      0.1618     17.2987    128.8169     26.0410
  1306.7000      7.9770      2.4119      0.1694     14.4332    134.5566     26.2827
  1306.8000      7.9758      2.4685      0.2138     11.0015    134.3599     26.6242
  1306.9000      7.9758      2.5075      0.2085      8.6337    131.5265     26.7311
  1307.0000      7.9739      2.5080      0.1017      8.6083    129.1131     26.8264
  1307.1000      7.9739      2.4814      0.0755     10.2162    127.1844     27.3341
  1307.2000      7.9739      2.4503      0.0385     12.1017    125.7578     28.0192
  1307.3000      7.9711      2.4399     -0.0570     12.7356    125.4865     28.2818
  1307.4000      7.9711      2.4585      0.0364     11.6086    127.5955     27.9082
  1307.5000      7.9674      2.4831      0.0164     10.1173    130.5795     27.2299
  1307.6000      7.9674      2.5006      0.0365      9.0539    130.5162     26.6864
  1307.7000      7.9674      2.5167      0.0187      8.0802    129.3854     26.1540
  1307.8000      7.9635      2.5329      0.0270      7.0966    130.8017     25.4891
  1307.9000      7.9635      2.5438      0.0488      6.4336    131.1544     25.3896
  1308.0000      7.9596      2.5443      0.0311      6.4075    127.7973     26.0512
  1308.1000      7.9596      2.5384      0.0109      6.7615    125.1808     26.9613
  1308.2000      7.9596      2.5355      0.0028      6.9365    127.9007     27.7733
  1308.3000      7.9563      2.5384      0.0141      6.7624    133.4862     28.1115
  1308.4000      7.9563      2.5429      0.0193      6.4921    137.5468     27.7703
  1308.5000      7.9541      2.5517     -0.0149      5.9561    138.9229     27.3239
  1308.6000      7.9541      2.5700      0.0119      4.8480    136.6846     27.2766
  1308.7000      7.9541      2.5787      0.0827      4.3199    132.0351     27.5257
  1308.8000      7.9537      2.5576      0.0411      5.5975    129.1626     27.5083
  1308.9000      7.9537      2.5235     -0.0154      7.6670    128.3754     26.8603
  1309.0000      7.9548      2.5073     -0.0330      8.6459    129.1282     26.4867
  1309.1000      7.9548      2.5146     -0.0086      8.2048    131.1356     27.1551
  1309.2000      7.9548      2.5253      0.0468      7.5595    130.5291     27.8996
  1309.3000      7.9546      2.5321      0.0139      7.1484    124.4057     27.6447
  1309.4000      7.9546      2.5517     -0.0242      5.9554    116.2843     26.7827
  1309.5000      7.9530      2.5816      0.0606      4.1447    113.8169     26.1981
  1309.6000      7.9530      2.5991      0.0572      3.0872    117.9245     26.0575
  1309.7000      7.9530      2.6100      0.0369      2.4216    120.4643     25.8604
  1309.8000      7.9523      2.6313      0.0780      1.1335    115.7791     25.2576
  1309.9000      7.9523      2.6561      0.0971     -0.3718    107.0326     24.9450
  1310.0000      7.9528      2.6730      0.0730     -1.3968     98.6865     25.5232
  1310.1000      7.9528      2.6781      0.0416     -1.7038     91.2839     26.0921
  1310.2000      7.9528      2.6688      0.0520     -1.1390     85.7056     25.5521
  1310.3000      7.9528      2.6519      0.0012     -0.1152     84.4063     24.3938
  1310.4000      7.9528      2.6404      0.0471      0.5803     85.8244     23.8786
  1310.5000      7.9513      2.6331      0.0364      1.0257     86.3190     24.1090
  1310.6000      7.9513      2.6200      0.0882      1.8177     84.6025     24.2663
  1310.7000      7.9513      2.5997     -0.0030      3.0486     79.6325     24.3337
  1310.8000      7.9502      2.5758      0.0346      4.4974     75.2476     24.4149
  1310.9000      7.9502      2.5477     -0.0214      6.1990     77.3625     24.1456
  1311.0000      7.9511      2.5278     -0.0276      7.4043     81.7936     23.6452
  1311.1000      7.9511      2.5296      0.0281      7.2987     82.5359     23.0301
  1311.2000      7.9511      2.5488      0.0245      6.1313     82.6631     22.1526
  1311.3000      7.9520      2.5772      0.0284      4.4098     85.5944     21.3033
  1311.4000      7.9520      2.6033      0.0583      2.8325     87.9899     20.7916
  1311.5000      7.9522      2.6141      0.0721      2.1776     86.0027     20.4739
  1311.6000      7.9522      2.6090      0.0298      2.4850     82.7031     20.2671
  1311.7000      7.9522      2.5937      0.0463      3.4099     82.1113     20.4392
  1311.8000      7.9534      2.5751     -0.0024      4.5402     80.1673     20.8853
  1311.9000      7.9534      2.5604      0.0897      5.4328     75.2994     20.9134
  1312.0000      7.9564      2.5511      0.0539      5.9921     71.3143     20.4224
  1312.1000      7.9564      2.5501      0.0508      6.0551     70.1805     20.2633
  1312.2000      7.9564      2.5536      0.0480      5.8419     72.3097     20.5782
  1312.3000      7.9585      2.5506      0.0071      6.0247     77.4717     20.7041
  1312.4000      7.9585      2.5398      0.0330      6.6806     81.5100     20.6962
  1312.5000      7.9566      2.5298     -0.0088      7.2840     81.0123     20.8166
  1312.6000      7.9566      2.5317     -0.0211      7.1675     79.5484     20.8848
  1312.7000      7.9566      2.5491      0.0257      6.1153     81.2274     20.9393
  1312.8000      7.9540      2.5725      0.0531      4.6955     83.8878     21.3471
  1312.9000      7.9540      2.5874      0.0372      3.7945     82.4509     21.8795
  1313.0000      7.9520      2.5873      0.0280      3.7992     75.8964     21.8035
  1313.1000      7.9520      2.5761      0.0053      4.4774     70.2711     20.9929
