~Version Information
VERS.                      2.0: CWLS Log ASCII Standard - VERSION 2.0
WRAP.                       NO: One line per depth step
~Well Information Block
STRT.FT               230.0000: 
STOP.FT              1028.0000: 
STEP.FT                 0.2500: 
NULL.                -999.2500: 
COMP.          Pioneer Natural Resources: COMPANY
WELL.              Gough 14-29: WELL
FLD.           Purgatoire River: FIELD
LOC.           1199' FSL & 676' FWL: LOCATION
PROV.                 Colorado: PROVINCE
CNTY.               Las Animas: COUNTRY
SRVC.                Patterson: SERVICE COMPANY
DATE.          Thu Dec 22 16:27:18 2005: LOG DATE
UWI.           05 071 08612 00: UNIQUE WELL ID
~Curve Information Block
DEPT.FT            0 000 00 00: Depth
SN.Ohm-m                      : IEL Short Normal
SP.mV                         : IEL Spontaneous Potential
DIR.Ohm-m                     : IEL Induction Resistivity
GR.GAPI                       : Gamma Ray
~Parameter Information Block
SNDERRM.mmho-m         10.0000: Medium Sonde Error Correction
~A  Depth        SN          SP         DIR          GR     
# ...
   598.5000     17.2018    -25.3856     12.0704    102.7688
   598.7500     16.0938    -25.4537     11.4599    105.2179
   599.0000     15.5140    -25.4829     10.9856    107.8538
   599.2500     15.2242    -25.4759     10.6411    108.6153
   599.5000     14.8822    -25.4433     10.4146    108.6343
   599.7500     14.3975    -25.3972     10.2897    108.4495
   600.0000     14.0007    -25.3444     10.2478    108.5882
   600.2500     13.8858    -25.2832     10.2712    108.9187
   600.5000     13.9566    -25.2030     10.3469    109.0689
   600.7500     14.0819    -25.0826     10.4666    108.6036
   601.0000     14.3441    -24.8901     10.6247    107.3792
   601.2500     14.8385    -24.5915     10.8149    106.7909
   601.5000     15.5175    -24.1686     11.0289    106.7430
   601.7500     16.3871    -23.6320     11.2592    106.8077
   602.0000     17.6127    -23.0136     11.5061    105.4654
   602.2500     19.2017    -22.3489     11.7809    103.0425
   602.5000     20.7165    -21.6682     12.0996     98.0596
   602.7500     21.5713    -21.0021     12.4662     95.4322
   603.0000     21.5540    -20.3849     12.8560     95.2114
   603.2500     20.8455    -19.8424     13.2117     97.8848
   603.5000     19.6842    -19.3770     13.4577    104.1037
   603.7500     18.2860    -18.9697     13.5291    107.9845
   604.0000     16.8978    -18.5956     13.4000    111.8239
   604.2500     15.7027    -18.2390     13.0953    113.3420
   604.5000     14.7987    -17.8995     12.6779    115.2852
   604.7500     14.2566    -17.5887     12.2213    116.6738
   605.0000     14.0942    -17.3201     11.7854    118.5687
   605.2500     14.2655    -17.0978     11.4059    119.4509
   605.5000     14.6410    -16.9144     11.0964    120.1806
   605.7500     14.9684    -16.7589     10.8564    120.4210
   606.0000     15.0292    -16.6261     10.6778    120.5920
   606.2500     14.8314    -16.5200     10.5476    120.5514
   606.5000     14.5029    -16.4505     10.4494    120.0873
   606.7500     14.1431    -16.4265     10.3653    119.4253
   607.0000     13.8836    -16.4478     10.2803    117.8310
   607.2500     13.8614    -16.4990     10.1868    116.3447
   607.5000     14.0122    -16.5512     10.0858    113.5570
   607.7500     14.0859    -16.5724      9.9844    111.5697
   608.0000     13.9696    -16.5418      9.8923    109.2383
   608.2500     13.8035    -16.4608      9.8191    108.6035
   608.5000     13.7550    -16.3503      9.7732    109.1153
   608.7500     13.8704    -16.2361      9.7597    110.0124
   609.0000     14.0758    -16.1375      9.7801    111.3849
   609.2500     14.1807    -16.0647      9.8305    112.0855
   609.5000     13.9981    -16.0200      9.9027    112.5937
   609.7500     13.5851    -15.9929      9.9856    112.4187
   610.0000     13.2545    -15.9605     10.0689    111.4160
   610.2500     13.2126    -15.8960     10.1465    110.6015
   610.5000     13.3277    -15.7810     10.2163    109.9350
   610.7500     13.3754    -15.6135     10.2784    110.0649
   611.0000     13.3344    -15.4093     10.3317    110.8688
   611.2500     13.3552    -15.1980     10.3754    111.5864
   611.5000     13.5704    -15.0150     10.4132    113.1137
   611.7500     14.0044    -14.8881     10.4559    114.8816
   612.0000     14.5934    -14.8254     10.5202    119.0076
   612.2500     15.1913    -14.8125     10.6218    122.0999
   612.5000     15.5876    -14.8231     10.7680    124.9801
   612.7500     15.6641    -14.8339     10.9530    124.6393
   613.0000     15.5217    -14.8334     11.1599    120.7732
   613.2500     15.3578    -14.8208     11.3658    116.9914
   613.5000     15.2961    -14.7967     11.5478    111.5882
   613.7500     15.3594    -14.7563     11.6847    108.9511
   614.0000     15.4925    -14.6889     11.7585    106.9578
   614.2500     15.5696    -14.5862     11.7590    106.9246
   614.5000     15.4385    -14.4482     11.6879    108.2962
   614.7500     15.0444    -14.2843     11.5597    109.5581
   615.0000     14.5062    -14.1092     11.3948    110.8931
   615.2500     14.0390    -13.9403     11.2129    111.1128
   615.5000     13.8037    -13.7961     11.0305    110.6232
   615.7500     13.7756    -13.6910     10.8613    109.9577
   616.0000     13.7742    -13.6289     10.7145    108.5335
   616.2500     13.6747    -13.6005     10.5908    107.3371
   616.5000     13.5134    -13.5870     10.4806    105.7997
   616.7500     13.3558    -13.5688     10.3669    105.6178
   617.0000     13.2100    -13.5356     10.2349    107.3553
   617.2500     13.1117    -13.4938     10.0788    109.5744
   617.5000     13.0959    -13.4642      9.9023    112.9915
   617.7500     13.1147    -13.4692      9.7137    114.4957
   618.0000     13.1351    -13.5175      9.5193    115.2329
   618.2500     13.1458    -13.5958      9.3230    115.0669
   618.5000     13.0236    -13.6756      9.1287    114.5342
   618.7500     12.6625    -13.7297      8.9431    114.1310
   619.0000     12.2139    -13.7452      8.7771    113.3768
   619.2500     11.9450    -13.7219      8.6449    112.7236
   619.5000     11.9502    -13.6641      8.5618    111.5570
   619.7500     12.1314    -13.5759      8.5405    110.7864
   620.0000     12.3378    -13.4636      8.5865    109.9859
   620.2500     12.4977    -13.3409      8.6954    109.7576
   620.5000     12.6142    -13.2309      8.8527    109.6424
   620.7500     12.6582    -13.1593      9.0380    109.6468
   621.0000     12.5926    -13.1420      9.2307    110.0229
   621.2500     12.4610    -13.1741      9.4158    110.6240
   621.5000     12.3855    -13.2313      9.5885    111.8075
   621.7500     12.5406    -13.2829      9.7553    112.5597
   622.0000     13.0541    -13.3071      9.9323    113.3688
   622.2500     13.7806    -13.2995     10.1380    113.5791
   622.5000     14.3019    -13.2700     10.3836    113.4280
   622.7500     14.3473    -13.2339     10.6676    113.2190
   623.0000     14.1073    -13.2045     10.9769    112.7297
   623.2500     13.9644    -13.1879     11.2942    111.6691
   623.5000     14.0685    -13.1813     11.6081    107.5746
   623.7500     14.3405    -13.1757     11.9176    103.0280
   624.0000     14.6360    -13.1652     12.2275     94.8424
   624.2500     14.7923    -13.1553     12.5412     89.5570
   624.5000     14.8147    -13.1600     12.8557     82.8895
   624.7500     14.9742    -13.1916     13.1641     79.3077
   625.0000     15.4931    -13.2511     13.4622     75.0309
   625.2500     16.2700    -13.3256     13.7520     72.9234
   625.5000     17.0701    -13.3915     14.0406     70.9922
   625.7500     17.7446    -13.4235     14.3351     70.4700
   626.0000     18.1585    -13.4050     14.6395     70.4304
   626.2500     18.3145    -13.3376     14.9543     70.6012
   626.5000     18.5070    -13.2427     15.2801     70.9293
   626.7500     18.9943    -13.1545     15.6193     71.3047
   627.0000     19.7022    -13.1072     15.9761     72.3629
   627.2500     20.3429    -13.1188     16.3547     73.4216
   627.5000     20.6833    -13.1828     16.7590     75.4219
   627.7500     20.7343    -13.2723     17.1911     77.0049
   628.0000     20.6880    -13.3537     17.6474     79.7949
   628.2500     20.7370    -13.3999     18.1152     81.8615
   628.5000     21.0112    -13.3974     18.5758     84.6367
   628.7500     21.5177    -13.3499     19.0140     85.5803
   629.0000     22.0933    -13.2776     19.4284     84.5086
   629.2500     22.6034    -13.2138     19.8310     82.0287
   629.5000     23.1278    -13.1930     20.2388     76.8834
   629.7500     23.8348    -13.2374     20.6662     73.6829
   630.0000     24.8010    -13.3475     21.1277     70.7134
   630.2500     25.9708    -13.5050     21.6465     70.0966
   630.5000     27.2074    -13.6842     22.2604     70.5667
   630.7500     28.3833    -13.8646     23.0128     71.2436
   631.0000     29.4541    -14.0366     23.9271     71.6180
   631.2500     30.4186    -14.1995     24.9740     70.7138
   631.5000     31.3064    -14.3573     26.0503     67.1190
   631.7500     32.2295    -14.5163     27.0010     63.6878
