~Version Information
VERS.                      2.0: CWLS Log ASCII Standard - VERSION 2.0
WRAP.                       NO: One line per depth step
~Well Information Block
STRT.FT               660.0000: 
STOP.FT              2488.5000: 
STEP.FT                 0.1000: 
NULL.                -999.2500: 
COMP.          Petrogulf Corporation: COMPANY
WELL.          Montoya 18-11V-B: WELL
FLD.           Purgatorie River: FIELD
LOC.           848' FNL & 619' FWL: LOCATION
PROV.                 Colorado: PROVINCE
CNTY.               Las Animas: COUNTRY
SRVC.                Patterson: SERVICE COMPANY
DATE.          Wed Oct 05 07:28:13 2005: LOG DATE
UWI.                          : UNIQUE WELL ID
~Curve Information Block
DEPT.FT            0 000 00 00: Depth
DCAL.in                       : CDL Caliper
RHOB.g/cc                     : CDL Bulk Density
RHOC.g/cc                     : CDL Density Correction
DPOR.pu                       : CDL Density Porosity
GR.GAPI                       : Gamma Ray
NPOR.pu                       : Neutron Porosity
~Parameter Information Block
~A  Depth       DCAL        RHOB        RHOC        DPOR         GR         NPOR    
# ...
  2234.4000      7.7940      2.5760      0.0185      4.4869     72.5056     26.1224
  2234.5000      7.7856      2.6022      0.0597      2.8966     69.5957     26.3037
  2234.6000      7.7856      2.6363      0.1111      0.8314     65.9577     26.6930
  2234.7000      7.7856      2.6591      0.0840     -0.5531     62.6384     27.2217
  2234.8000      7.7872      2.6603      0.0689     -0.6229     63.1331     27.5906
  2234.9000      7.7872      2.6453      0.0782      0.2876     67.6796     27.4238
  2235.0000      7.7953      2.6265      0.0685      1.4256     71.7832     26.9913
  2235.1000      7.7953      2.6111      0.0763      2.3564     73.0255     26.7655
  2235.2000      7.7953      2.6039      0.0371      2.7920     72.4653     26.8020
  2235.3000      7.8125      2.6078      0.0422      2.5594     72.8555     26.9420
  2235.4000      7.8125      2.6115      0.0771      2.3360     76.8579     27.1803
  2235.5000      7.8488      2.6000      0.1075      3.0333     82.7476     27.5015
  2235.6000      7.8488      2.5783      0.0902      4.3434     86.0466     27.6683
  2235.7000      7.8488      2.5587      0.1240      5.5328     87.0952     27.6524
  2235.8000      7.8942      2.5396      0.1008      6.6904     89.9824     27.8141
  2235.9000      7.8942      2.5214      0.0851      7.7920     95.4269     28.1712
  2236.0000      7.9016      2.5177      0.0529      8.0191    100.0215     28.2730
  2236.1000      7.9016      2.5345      0.0608      6.9977     99.2053     28.0409
  2236.2000      7.9016      2.5543      0.0996      5.7991     94.8846     27.7593
  2236.3000      7.9074      2.5568      0.0580      5.6472     94.8357     27.6655
  2236.4000      7.9074      2.5420      0.0830      6.5450    100.0298     27.9305
  2236.5000      7.9100      2.5231      0.0690      7.6893    105.2144     28.3446
  2236.6000      7.9100      2.5118      0.1014      8.3780    108.8608     28.5846
  2236.7000      7.9100      2.5069      0.0800      8.6756    111.1780     28.6344
  2236.8000      7.8949      2.5030      0.0649      8.9105    109.8888     28.6118
  2236.9000      7.8949      2.4997      0.0402      9.1077    106.1151     28.6476
  2237.0000      7.8987      2.4928      0.0638      9.5300    103.3143     28.8659
  2237.1000      7.8987      2.4828      0.0259     10.1322    102.3571     29.1912
  2237.2000      7.8987      2.4829      0.0474     10.1263    102.0470     29.3487
  2237.3000      7.8964      2.4893      0.0753      9.7381    100.5563     29.3237
  2237.4000      7.8964      2.4823      0.0802     10.1662    100.0326     29.2991
  2237.5000      7.8858      2.4592      0.0244     11.5644    102.7669     29.3705
  2237.6000      7.8858      2.4446     -0.0181     12.4490    105.5833     29.5557
  2237.7000      7.8858      2.4533      0.0412     11.9193    105.5167     29.8537
  2237.8000      7.9238      2.4589      0.0900     11.5824    103.2177     30.2207
  2237.9000      7.9238      2.4182      0.0882     14.0460    100.8357     30.5663
  2238.0000      7.9569      2.3155      0.0506     20.2743     98.8099     30.7822
  2238.1000      7.9569      2.1793     -0.0610     28.5274     94.4955     30.9531
  2238.2000      7.9569      2.0566     -0.0358     35.9654     87.2953     31.2799
  2238.3000      8.0164      1.9674     -0.0871     41.3677     81.6639     31.6337
  2238.4000      8.0164      1.8962     -0.0755     45.6828     80.1846     31.7833
  2238.5000      8.0335      1.8119     -0.0524     50.7910     77.7478     31.7674
  2238.6000      8.0335      1.7068     -0.0711     57.1655     69.9512     31.8675
  2238.7000      8.0335      1.6094     -0.0543     63.0637     60.6208     32.2600
  2238.8000      8.0082      1.5423     -0.0169     67.1317     54.3330     32.7098
  2238.9000      8.0082      1.4965      0.0003     69.9091     50.2131     33.0669
  2239.0000      8.0078      1.4568     -0.0411     72.3168     46.5078     33.3079
  2239.1000      8.0078      1.4193      0.0114     74.5864     43.2081     33.3509
  2239.2000      8.0078      1.3851      0.0157     76.6614     40.5249     33.5660
  2239.3000      7.9872      1.3574      0.0113     78.3413     39.1284     34.2770
  2239.4000      7.9872      1.3404     -0.0051     79.3727     40.1700     35.0253
  2239.5000      7.9978      1.3431     -0.0252     79.2051     43.1947     35.1813
  2239.6000      7.9978      1.3819     -0.0001     76.8545     46.1331     34.7066
  2239.7000      7.9978      1.4662      0.0216     71.7483     47.8530     34.3069
  2239.8000      8.1462      1.5804      0.0516     64.8248     49.5164     34.5255
  2239.9000      8.1462      1.6889      0.1137     58.2458     52.5938     34.9242
  2240.0000      8.1789      1.7790      0.1302     52.7869     56.3555     34.9277
  2240.1000      8.1789      1.8814      0.1259     46.5789     59.2731     34.5582
  2240.2000      8.1789      2.0237      0.1595     37.9595     62.6649     34.1626
  2240.3000      8.0283      2.1859      0.2114     28.1269     68.8470     33.8585
  2240.4000      8.0283      2.3237      0.2091     19.7774     75.5738     33.5006
  2240.5000      7.9554      2.4165      0.1741     14.1487     78.6384     32.9928
  2240.6000      7.9554      2.4732      0.2040     10.7168     79.0743     32.3968
  2240.7000      7.9554      2.4998      0.1709      9.1035     80.6628     31.7907
  2240.8000      7.9464      2.4990      0.0844      9.1541     84.1255     31.3874
  2240.9000      7.9464      2.4830      0.0522     10.1191     87.4852     31.3503
  2241.0000      7.9403      2.4650      0.0551     11.2144     88.4490     31.2807
  2241.1000      7.9403      2.4524      0.0191     11.9728     88.7958     30.9839
  2241.2000      7.9403      2.4553      0.0268     11.8018     89.8980     30.9383
  2241.3000      7.9416      2.4788      0.0169     10.3740     91.2463     31.0779
  2241.4000      7.9416      2.5086      0.1040      8.5704     95.5499     30.9290
  2241.5000      7.9438      2.5188      0.0984      7.9485    101.4881     30.5807
  2241.6000      7.9438      2.5054      0.0499      8.7663    102.9279     30.2265
  2241.7000      7.9438      2.4917      0.0218      9.5959    100.7160     29.9272
  2241.8000      7.9487      2.4952      0.0449      9.3819    101.1790     29.7844
  2241.9000      7.9487      2.4997      0.0819      9.1103    106.0134     29.6938
  2242.0000      7.9401      2.4870      0.0390      9.8791    109.4825     29.7593
  2242.1000      7.9401      2.4731      0.0253     10.7229    107.3316     30.2092
  2242.2000      7.9401      2.4764      0.0409     10.5214    103.9861     30.8361
  2242.3000      7.9447      2.4876      0.0451      9.8416    103.7733     31.2760
  2242.4000      7.9447      2.4894      0.0190      9.7356    104.4840     31.1513
  2242.5000      7.9448      2.4821      0.0134     10.1768    103.2812     30.4003
  2242.6000      7.9448      2.4789      0.0032     10.3708    100.5496     29.6919
  2242.7000      7.9448      2.4787      0.0428     10.3815     98.0240     29.3752
  2242.8000      7.9489      2.4691      0.0159     10.9648     96.9528     29.1101
  2242.9000      7.9489      2.4512     -0.0227     12.0456     96.9200     28.8029
  2243.0000      7.9642      2.4368      0.0176     12.9186     96.9665     28.7306
  2243.1000      7.9642      2.4355      0.0025     12.9976     96.2228     28.9551
  2243.2000      7.9642      2.4481      0.0326     12.2374     93.6503     29.2017
  2243.3000      7.9618      2.4629      0.0497     11.3393     91.5191     29.3302
  2243.4000      7.9618      2.4681      0.0309     11.0227     93.2803     29.4580
  2243.5000      7.9499      2.4748     -0.0386     10.6181     97.6172     29.6153
  2243.6000      7.9499      2.5031      0.0378      8.9044    100.9534     29.5929
  2243.7000      7.9499      2.5369      0.0842      6.8551    101.2684     29.3671
  2243.8000      7.9389      2.5466      0.0472      6.2695     98.4641     29.1431
  2243.9000      7.9389      2.5376      0.0052      6.8143     93.8508     29.0147
