~Version Information
VERS.                      2.0: CWLS Log ASCII Standard - VERSION 2.0
WRAP.                       NO: One line per depth step
~Well Information Block
STRT.FT               480.0000: 
STOP.FT              1946.0000: 
STEP.FT                 0.2500: 
NULL.                -999.2500: 
COMP.          XTO Energy Inc.: COMPANY
WELL.          Golden Eagle 19-15: WELL
FLD.           Purgatoire River: FIELD
LOC.           1121' FSL & 2332' FEL--: LOCATION
CNTY.               Las Animas: COUNTY
SRVC.                Patterson: SERVICE COMPANY
DATE.          Sun Mar 12 15:00:51 2006: LOG DATE
UWI.           05 071 08717 00: UNIQUE WELL ID
STAT.                 Colorado: STATE
~Curve Information Block
DEPT.FT            0 000 00 00: Depth
SP.mV                         : DIL Spontaneous Potential
RILD.Ohm-m                    : DIL Deep Resistivity
RILM.Ohm-m                    : DIL Medium Resistivity
RLL3.Ohm-m                    : DIL Shallow Resistivity
GR.GAPI                       : Gamma Ray
~Parameter Information Block
~A  Depth        SP         RILD        RILM        RLL3         GR     
# ...
   564.0000   2005.0000      7.8344      8.1892   2000.0000    102.4151
   564.2500   2005.0000      7.8879      8.2277   2000.0000    101.0089
   564.5000   2005.0000      7.9414      8.2668   2000.0000     99.7323
   564.7500   2005.0000      7.9968      8.3075   2000.0000    100.2021
   565.0000   2005.0000      8.0568      8.3532   2000.0000    103.0773
   565.2500   2005.0000      8.1260      8.4079   2000.0000    105.7711
   565.5000   2005.0000      8.2110      8.4750   2000.0000    109.2890
   565.7500   2005.0000      8.3209      8.5572   2000.0000    110.6492
   566.0000   2005.0000      8.4652      8.6581   2000.0000    111.3035
   566.2500   2005.0000      8.6516      8.7834   2000.0000    111.2398
   566.5000   2005.0000      8.8844      8.9426   2000.0000    110.6808
   566.7500   2005.0000      9.1647      9.1494   2000.0000    109.7213
   567.0000   2005.0000      9.4921      9.4213   2000.0000    106.8028
   567.2500   2005.0000      9.8665      9.7777   2000.0000    103.8259
   567.5000   2005.0000     10.2904     10.2365   2000.0000     98.3060
   567.7500   2005.0000     10.7682     10.8125   2000.0000     94.3384
   568.0000   2005.0000     11.3040     11.5154   2000.0000     88.5938
   568.2500   2005.0000     11.8996     12.3489   2000.0000     85.2074
   568.5000   2005.0000     12.5534     13.3079   2000.0000     81.2403
   568.7500   2005.0000     13.2602     14.3756   2000.0000     79.5498
   569.0000   2005.0000     14.0130     15.5234   2000.0000     78.5475
   569.2500   2005.0000     14.8048     16.7186   2000.0000     78.7035
   569.5000   2005.0000     15.6320     17.9374   2000.0000     79.5276
   569.7500   2005.0000     16.4981     19.1716   2000.0000     80.2151
   570.0000   2005.0000     17.4127     20.4231   2000.0000     81.6229
   570.2500   2005.0000     18.3826     21.6879   2000.0000     83.1251
   570.5000   2005.0000     19.3986     22.9435   2000.0000     86.4627
   570.7500   2005.0000     20.4261     24.1492   2000.0000     89.1126
   571.0000   2005.0000     21.4050     25.2584   2000.0000     92.4082
   571.2500   2005.0000     22.2622     26.2360   2000.0000     93.1879
   571.5000   2005.0000     22.9348     27.0684   2000.0000     91.2238
   571.7500   2005.0000     23.3955     27.7618   2000.0000     88.0236
   572.0000   2005.0000     23.6661     28.3308   2000.0000     81.8794
   572.2500   2005.0000     23.8060     28.7822   2000.0000     77.9559
   572.5000   2005.0000     23.8823     29.1017   2000.0000     73.7444
   572.7500   2005.0000     23.9459     29.2552   2000.0000     72.4671
   573.0000   2005.0000     24.0245     29.2109   2000.0000     72.7935
   573.2500   2005.0000     24.1291     28.9755   2000.0000     74.0834
   573.5000   2005.0000     24.2618     28.6158   2000.0000     76.6516
   573.7500   2005.0000     24.4196     28.2433   2000.0000     78.3868
   574.0000   2005.0000     24.5949     27.9727   2000.0000     80.7311
   574.2500   2005.0000     24.7799     27.8808   2000.0000     81.8710
   574.5000   2005.0000     24.9742     27.9827   2000.0000     82.1956
   574.7500   2005.0000     25.1892     28.2277   2000.0000     81.3434
   575.0000   2005.0000     25.4405     28.5160   2000.0000     79.4711
   575.2500   2005.0000     25.7336     28.7407   2000.0000     78.7081
   575.5000   2005.0000     26.0521     28.8428   2000.0000     78.7083
   575.7500   2005.0000     26.3622     28.8373   2000.0000     78.8807
   576.0000   2005.0000     26.6327     28.7900   2000.0000     78.1492
   576.2500   2005.0000     26.8586     28.7687   2000.0000     76.7704
   576.5000   2005.0000     27.0704     28.8113   2000.0000     73.9657
   576.7500   2005.0000     27.3198     28.9267   2000.0000     72.2285
   577.0000   2005.0000     27.6502     29.1110   2000.0000     70.6943
   577.2500   2005.0000     28.0698     29.3614   2000.0000     70.5392
   577.5000   2005.0000     28.5443     29.6784   2000.0000     71.2386
   577.7500   2005.0000     29.0141     30.0631   2000.0000     71.8918
   578.0000   2005.0000     29.4264     30.5166   2000.0000     72.2587
   578.2500   2005.0000     29.7633     31.0428   2000.0000     71.6060
   578.5000   2005.0000     30.0472     31.6465   2000.0000     69.0112
   578.7500   2005.0000     30.3217     32.3211   2000.0000     66.6773
   579.0000   2005.0000     30.6218     33.0274   2000.0000     64.0543
   579.2500   2005.0000     30.9532     33.6853   2000.0000     63.8997
   579.5000   2005.0000     31.2891     34.1965   2000.0000     66.3770
   579.7500   2005.0000     31.5859     34.4946   2000.0000     69.0136
   580.0000   2005.0000     31.8048     34.5898   2000.0000     72.4223
   580.2500   2005.0000     31.9305     34.5688   2000.0000     73.6256
   580.5000   2005.0000     31.9745     34.5472   2000.0000     73.9312
   580.7500   2005.0000     31.9642     34.6037   2000.0000     73.5370
   581.0000   2005.0000     31.9286     34.7335   2000.0000     72.4047
   581.2500   2005.0000     31.8897     34.8458   2000.0000     71.2756
   581.5000   2005.0000     31.8618     34.8129   2000.0000     69.2243
   581.7500   2005.0000     31.8493     34.5494   2000.0000     68.0264
   582.0000   2005.0000     31.8417     34.0714   2000.0000     67.1937
   582.2500   2005.0000     31.8149     33.4880   2000.0000     67.2878
   582.5000   2005.0000     31.7449     32.9358   2000.0000     67.5448
   582.7500   2005.0000     31.6283     32.5097   2000.0000     67.1826
   583.0000   2005.0000     31.4888     32.2302   2000.0000     65.6075
   583.2500   2005.0000     31.3619     32.0540   2000.0000     64.3268
   583.5000   2005.0000     31.2720     31.9140   2000.0000     63.0175
   583.7500   2005.0000     31.2222     31.7645   2000.0000     62.7245
   584.0000   2005.0000     31.2036     31.6043   2000.0000     62.8209
   584.2500   2005.0000     31.2140     31.4634   2000.0000     63.0427
   584.5000   2005.0000     31.2666     31.3710   2000.0000     63.6565
   584.7500   2005.0000     31.3817     31.3345   2000.0000     64.4028
   585.0000   2005.0000     31.5696     31.3433   2000.0000     66.0121
   585.2500   2005.0000     31.8180     31.3859   2000.0000     67.0982
   585.5000   2005.0000     32.0897     31.4555   2000.0000     68.0200
   585.7500   2005.0000     32.3336     31.5405   2000.0000     67.9964
   586.0000   2005.0000     32.5068     31.6193   2000.0000     67.4058
   586.2500   2005.0000     32.5988     31.6740   2000.0000     67.0107
   586.5000   2005.0000     32.6398     31.7152   2000.0000     66.6082
   586.7500   2005.0000     32.6841     31.7883   2000.0000     66.2802
   587.0000   2005.0000     32.7777     31.9477   2000.0000     65.3576
   587.2500   2005.0000     32.9337     32.2200   2000.0000     64.4136
   587.5000   2005.0000     33.1321     32.5843   2000.0000     62.5459
   587.7500   2005.0000     33.3402     32.9827   2000.0000     61.0516
   588.0000   2005.0000     33.5362     33.3538   2000.0000     58.7985
   588.2500   2005.0000     33.7139     33.6612   2000.0000     57.6287
   588.5000   2005.0000     33.8660     33.8967   2000.0000     56.6921
   588.7500   2005.0000     33.9626     34.0585   2000.0000     56.5175
   589.0000   2005.0000     33.9541     34.1304   2000.0000     56.6700
   589.2500   2005.0000     33.8043     34.0877   2000.0000     57.0614
   589.5000   2005.0000     33.5300     33.9237   2000.0000     58.1645
   589.7500   2005.0000     33.2082     33.6744   2000.0000     59.0309
   590.0000   2005.0000     32.9362     33.4129   2000.0000     59.8316
   590.2500   2005.0000     32.7733     33.2169   2000.0000     59.8696
   590.5000   2005.0000     32.7068     33.1297   2000.0000     59.6859
   590.7500   2005.0000     32.6648     33.1425   2000.0000     59.7709
   591.0000   2005.0000     32.5657     33.2070   2000.0000     60.1330
   591.2500   2005.0000     32.3713     33.2719   2000.0000     60.1882
   591.5000   2005.0000     32.1052     33.3189   2000.0000     59.7454
   591.7500   2005.0000     31.8264     33.3740   2000.0000     59.2826
