~Version Information
VERS.                      2.0: CWLS Log ASCII Standard - VERSION 2.0
WRAP.                       NO: One line per depth step
~Well Information Block
STRT.FT                -7.0000: 
STOP.FT              1239.2500: 
STEP.FT                 0.2500: 
NULL.                -999.2500: 
COMP.          Pioneer Natural Resources: COMPANY
WELL.              Julie 11-30: WELL
FLD.           Purgatorie River: FIELD
LOC.           672' FNL & 1052' FWL--: LOCATION
CNTY.               Las Animas: COUNTY
SRVC.          Patterson Wireline: SERVICE COMPANY
DATE.          Tue Apr 18 11:12:35 2006: LOG DATE
UWI.           05 071 08724 00: UNIQUE WELL ID
STAT.                       CO: STATE
~Curve Information Block
DEPT.FT            0 000 00 00: Depth
CCL.                          : Casing Collar Locator
TT3.usec                      : CBL 3' Travel Time
AMP3.mV                       : CBL 3' Amplitude
GR.GAPI                       : Gamma Ray
~Parameter Information Block
~A  Depth       CCL         TT3         AMP3         GR     
# ...
  1031.5000      0.0000    296.8791     19.9672     51.0680
  1031.7500      0.0000    296.5180     20.4450     51.8479
  1032.0000      0.0000    296.3010     20.8187     52.1133
  1032.2500      0.0000    296.2026     21.0219     52.6069
  1032.5000      0.0000    296.1823     21.0102     53.7255
  1032.7500      0.0000    296.2276     20.7809     55.2534
  1033.0000      0.0000    296.4005     20.3794     57.0189
  1033.2500      0.0000    296.9128     19.8698     59.2123
  1033.5000      0.0000    298.2468     19.2939     61.8896
  1033.7500      0.0000    301.1674     18.6593     64.5588
  1034.0000      0.0000    306.3529     17.9625     66.5538
  1034.2500      0.0000    313.6797     17.2161     67.7083
  1034.5000      0.0000    321.8532     16.4580     68.4632
  1034.7500      0.0000    329.0416     15.7426     69.4317
  1035.0000      0.0000    334.0803     15.1206     71.0116
  1035.2500      0.0000    337.0777     14.6195     73.2240
  1035.5000      0.0000    339.2593     14.2354     75.6057
  1035.7500      0.0000    342.9572     13.9397     77.2693
  1036.0000      0.0000    352.2594     13.6869     77.4301
  1036.2500      0.0000    372.7999     13.4138     76.0823
  1036.5000      0.0000    408.1432     13.0506     73.9908
  1036.7500      0.0000    454.1585     12.5540     71.9244
  1037.0000      0.0000    499.2143     11.9253     70.1054
  1037.2500      0.0000    534.8429     11.1829     68.4479
  1037.5000      0.0000    565.9280     10.3397     66.9831
  1037.7500      0.0000    604.8683      9.4443     65.8564
  1038.0000      0.0000    654.6525      8.6114     65.1753
  1038.2500      0.0000    702.5424      7.9599     64.9726
  1038.5000      0.0000    732.4172      7.5281     65.0545
  1038.7500      2.0000    740.3746      7.2698     64.8569
  1039.0000     -2.0000    737.1672      7.1098     63.7225
  1039.2500      0.0000    736.6705      6.9900     61.4966
  1039.5000      0.0000    742.9944      6.8911     58.9194
  1039.7500      0.0000    750.0868      6.8264     57.3271
  1040.0000      0.0000    753.4003      6.8039     57.5722
  1040.2500      0.0000    757.0580      6.8028     58.9225
  1040.5000      0.0000    767.5339      6.8047     59.3477
  1040.7500      0.0000    785.1142      6.8204     57.4533
  1041.0000      0.0000    804.4365      6.8579     54.0550
  1041.2500      0.0000    820.2460      6.8934     51.3975
  1041.5000      0.0000    830.5219      6.8965     50.9401
  1041.7500      0.0000    836.1629      6.8572     52.3520
  1042.0000      0.0000    839.1650      6.7756     54.4993
  1042.2500      0.0000    840.2290      6.6455     56.7507
  1042.5000      0.0000    837.5443      6.4578     59.1152
  1042.7500      0.0000    828.6063      6.2089     61.5260
  1043.0000      0.0000    813.4786      5.9057     63.3584
  1043.2500      0.0000    795.3579      5.5701     63.7301
  1043.5000      0.0000    778.3088      5.2379     62.2699
  1043.7500      0.0000    765.4552      4.9454     59.5679
  1044.0000      0.0000    758.6360      4.7112     56.7531
  1044.2500      0.0000    758.3141      4.5323     54.3934
  1044.5000      0.0000    763.7881      4.3987     51.7822
  1044.7500      0.0000    773.5691      4.3102     47.6687
  1045.0000      0.0000    785.4172      4.2778     41.8803
  1045.2500      0.0000    796.8506      4.3085     35.9526
  1045.5000      0.0000    806.3687      4.3902     32.0490
  1045.7500      0.0000    813.8669      4.4938     31.4676
  1046.0000      0.0000    819.5755      4.5920     34.1777
  1046.2500      0.0000    822.9654      4.6775     39.4580
  1046.5000      0.0000    822.9380      4.7680     46.7321
  1046.7500      0.0000    819.3262      4.8977     55.8747
  1047.0000      0.0000    814.2049      5.1013     66.7238
  1047.2500      0.0000    811.1006      5.3992     78.1876
  1047.5000      0.0000    812.5104      5.7938     88.0140
  1047.7500      0.0000    819.0860      6.2738     93.9055
  1048.0000      0.0000    831.4170      6.8148     95.0662
  1048.2500      0.0000    850.4504      7.3726     92.6641
  1048.5000      0.0000    874.5546      7.8853     88.8415
  1048.7500      0.0000    897.4172      8.2962     85.2273
  1049.0000      0.0000    910.7416      8.5788     82.1709
  1049.2500      0.0000    908.9636      8.7462     79.1440
  1049.5000      0.0000    891.5569      8.8396     75.7574
  1049.7500      0.0000    862.5121      8.9077     72.5255
  1050.0000      0.0000    828.4750      8.9917     70.6896
  1050.2500      0.0000    796.7516      9.1231     70.9832
  1050.5000      0.0000    773.4487      9.3231     72.5639
  1050.7500      0.0000    760.9294      9.5949     73.6869
  1051.0000      0.0000    755.9180      9.9247     73.4527
  1051.2500      0.0000    751.7861     10.2949     72.3614
  1051.5000      0.0000    744.1105     10.6970     71.2791
  1051.7500      0.0000    733.2668     11.1282     70.5715
  1052.0000      0.0000    721.0128     11.5825     70.2305
  1052.2500      0.0000    705.1711     12.0463     70.1660
  1052.5000      0.0000    678.2130     12.4976     70.1517
  1052.7500      0.0000    631.9004     12.9059     69.9034
  1053.0000      0.0000    565.5571     13.2332     69.5196
  1053.2500      0.0000    490.4730     13.4379     69.5975
  1053.5000      0.0000    424.1096     13.4879     70.5950
  1053.7500      0.0000    378.5156     13.3739     72.2955
  1054.0000      0.0000    354.8163     13.1078     74.3034
  1054.2500      0.0000    348.0766     12.7076     76.9143
  1054.5000      0.0000    355.6783     12.1846     80.9851
  1054.7500      0.0000    381.2118     11.5489     86.9255
  1055.0000      0.0000    430.6703     10.8211     94.0094
  1055.2500      0.0000    503.3365     10.0382    100.5027
  1055.5000      0.0000    585.8102      9.2499    104.4436
  1055.7500      0.0000    657.7611      8.5089    104.8971
  1056.0000      0.0000    706.0085      7.8575    102.7680
  1056.2500      0.0000    732.7153      7.3231    100.0019
  1056.5000      0.0000    750.0420      6.9224     97.8279
  1056.7500      0.0000    768.3354      6.6655     96.0868
  1057.0000      0.0000    789.2807      6.5560     93.9698
  1057.2500      0.0000    806.8297      6.5902     90.5367
  1057.5000      0.0000    812.1692      6.7534     84.5651
  1057.7500      0.0000    801.0086      7.0100     75.0537
  1058.0000      0.0000    780.8861      7.3014     62.6788
  1058.2500      0.0000    769.2735      7.5605     50.3510
  1058.5000      0.0000    779.1831      7.7400     41.5185
  1058.7500      0.0000    807.1910      7.8346     37.7661
  1059.0000      0.0000    837.7682      7.8812     38.2546
  1059.2500      0.0000    855.9408      7.9378     41.2159
  1059.5000      0.0000    852.6135      8.0535     45.4636
  1059.7500      0.0000    821.7974      8.2524     50.5539
  1060.0000      0.0000    759.6622      8.5371     56.1353
  1060.2500      0.0000    669.6430      8.8982     61.6247
  1060.5000      0.0000    566.7877      9.3162     66.5627
  1060.7500      0.0000    472.8680      9.7599     71.0468
  1061.0000      0.0000    404.3389     10.1925     75.4514
  1061.2500      0.0000    364.4362     10.5814     79.6752
  1061.5000      0.0000    345.9027     10.8994     83.0232
  1061.7500      0.0000    339.0064     11.1234     84.8989
  1062.0000      0.0000    336.8991     11.2426     85.3850
  1062.2500      0.0000    336.3150     11.2663     85.1579
  1062.5000      0.0000    336.1430     11.2155     84.9661
  1062.7500      0.0000    336.1291     11.1049     85.2664
  1063.0000      0.0000    336.2307     10.9405     86.2771
  1063.2500      0.0000    336.4215     10.7342     87.9547
  1063.5000      0.0000    336.6660     10.5109     89.5689
  1063.7500      0.0000    336.9380     10.2925     89.7757
  1064.0000      0.0000    337.2225     10.0805     87.8719
  1064.2500      0.0000    337.5022      9.8607     85.0227
  1064.5000      0.0000    337.7646      9.6223     83.6512
  1064.7500      0.0000    338.0860      9.3695     85.3012
