~Version Information
VERS.                      2.0: CWLS Log ASCII Standard - VERSION 2.0
WRAP.                       NO: One line per depth step
~Well Information Block
STRT.FT               795.0000: 
STOP.FT              2279.7500: 
STEP.FT                 0.2500: 
NULL.                -999.2500: 
COMP.          Pioneer Natural Resources: COMPANY
WELL.            Wildcard 31-5: WELL
FLD.           Purgatoire River: FIELD
LOC.           624' FNL & 1852' FEL--: LOCATION
CNTY.               Las Animas: COUNTY
SRVC.                Patterson: SERVICE COMPANY
DATE.          Tue Mar 07 07:02:36 2006: LOG DATE
UWI.           05 071 08707 00: UNIQUE WELL ID
STAT.                 Colorado: STATE
~Curve Information Block
DEPT.FT            0 000 00 00: Depth
DIR.Ohm-m                     : IEL Induction Resistivity
SN.Ohm-m                      : IEL Short Normal
SP.mV                         : IEL Spontaneous Potential
GR.GAPI                       : Gamma Ray
~Parameter Information Block
~A  Depth       DIR          SN          SP          GR     
# ...
  1565.5000     17.3077     17.5115   -132.3523     86.7793
  1565.7500     17.4818     17.5769   -132.5221     84.1451
  1566.0000     17.6256     17.6361   -132.7063     79.6457
  1566.2500     17.7355     17.6926   -132.9036     76.4339
  1566.5000     17.8171     17.7508   -133.1117     71.2794
  1566.7500     17.8878     17.8187   -133.3276     67.9088
  1567.0000     17.9714     17.9045   -133.5480     64.0895
  1567.2500     18.0847     18.0100   -133.7699     62.8943
  1567.5000     18.2272     18.1290   -133.9909     63.1253
  1567.7500     18.3822     18.2522   -134.2090     64.2393
  1568.0000     18.5299     18.3737   -134.4226     66.4389
  1568.2500     18.6613     18.4935   -134.6297     67.7168
  1568.5000     18.7817     18.6160   -134.8274     68.7874
  1568.7500     18.9020     18.7464   -135.0119     68.9271
  1569.0000     19.0271     18.8868   -135.1792     68.3750
  1569.2500     19.1515     19.0348   -135.3257     67.4433
  1569.5000     19.2662     19.1863   -135.4506     65.4036
  1569.7500     19.3678     19.3401   -135.5573     64.1790
  1570.0000     19.4631     19.4977   -135.6536     63.5885
  1570.2500     19.5644     19.6628   -135.7514     64.0329
  1570.5000     19.6830     19.8421   -135.8649     64.8683
  1570.7500     19.8252     20.0475   -136.0074     64.9272
  1571.0000     19.9942     20.2906   -136.1894     64.4572
  1571.2500     20.1929     20.5743   -136.4165     64.5352
  1571.5000     20.4260     20.8919   -136.6891     66.1807
  1571.7500     20.7002     21.2335   -137.0034     67.8000
  1572.0000     21.0229     21.5911   -137.3530     68.6009
  1572.2500     21.3987     21.9587   -137.7312     66.9613
  1572.5000     21.8223     22.3313   -138.1320     62.0055
  1572.7500     22.2714     22.7041   -138.5505     58.7314
  1573.0000     22.7051     23.0689   -138.9828     56.0489
  1573.2500     23.0736     23.4121   -139.4248     55.4925
  1573.5000     23.3373     23.7204   -139.8718     54.4642
  1573.7500     23.4803     23.9905   -140.3180     52.9502
  1574.0000     23.5096     24.2309   -140.7571     50.2213
  1574.2500     23.4400     24.4533   -141.1829     49.1403
  1574.5000     23.2802     24.6630   -141.5887     49.7009
  1574.7500     23.0288     24.8563   -141.9672     51.2261
  1575.0000     22.6811     25.0218   -142.3084     53.6676
  1575.2500     22.2385     25.1406   -142.5982     54.7349
  1575.5000     21.7131     25.1885   -142.8169     55.5515
  1575.7500     21.1250     25.1409   -142.9394     55.8297
  1576.0000     20.4933     24.9730   -142.9369     55.8997
  1576.2500     19.8257     24.6501   -142.7800     55.7988
  1576.5000     19.1098     24.1150   -142.4421     56.1625
  1576.7500     18.3130     23.2958   -141.9034     57.0499
  1577.0000     17.3971     22.1418   -141.1534     58.4006
  1577.2500     16.3452     20.6706   -140.1927     58.1509
  1577.5000     15.1840     18.9879   -139.0335     55.3166
  1577.7500     13.9779     17.2561   -137.6997     52.9981
  1578.0000     12.8005     15.6270   -136.2263     52.6199
  1578.2500     11.7062     14.1884   -134.6582     56.0171
  1578.5000     10.7218     12.9553   -133.0483     66.6549
  1578.7500      9.8531     11.8987   -131.4545     76.4695
  1579.0000      9.0948     10.9821   -129.9354     93.8424
  1579.2500      8.4382     10.1824   -128.5457    106.7843
  1579.5000      7.8742      9.4932   -127.3300    127.0586
  1579.7500      7.3954      8.9168   -126.3194    139.5681
  1580.0000      6.9966      8.4574   -125.5285    153.2096
  1580.2500      6.6753      8.1161   -124.9558    157.3439
  1580.5000      6.4301      7.8891   -124.5860    156.2837
  1580.7500      6.2593      7.7653   -124.3941    152.6331
  1581.0000      6.1595      7.7252   -124.3498    147.2831
  1581.2500      6.1250      7.7430   -124.4214    145.7444
  1581.5000      6.1479      7.7927   -124.5792    147.1900
  1581.7500      6.2181      7.8550   -124.7965    149.8985
  1582.0000      6.3236      7.9195   -125.0508    154.3221
  1582.2500      6.4527      7.9809   -125.3237    155.9115
  1582.5000      6.5962      8.0374   -125.6011    154.2754
  1582.7500      6.7504      8.0962   -125.8730    150.8704
  1583.0000      6.9174      8.1788   -126.1339    145.3409
  1583.2500      7.1042      8.3137   -126.3830    143.0135
  1583.5000      7.3197      8.5203   -126.6235    142.0685
  1583.7500      7.5709      8.7984   -126.8616    142.5884
  1584.0000      7.8610      9.1342   -127.1045    144.4425
  1584.2500      8.1891      9.5118   -127.3579    146.2219
  1584.5000      8.5524      9.9220   -127.6236    149.0942
  1584.7500      8.9502     10.3687   -127.8980    150.7257
  1585.0000      9.3867     10.8730   -128.1718    152.1902
  1585.2500      9.8719     11.4696   -128.4318    151.8504
  1585.5000     10.4196     12.1944   -128.6642    147.3495
  1585.7500     11.0419     13.0668   -128.8571    140.8056
  1586.0000     11.7433     14.0740   -129.0040    126.3366
  1586.2500     12.5153     15.1673   -129.1044    115.1359
  1586.5000     13.3324     16.2723   -129.1632     99.3147
  1586.7500     14.1505     17.3078   -129.1884     91.1476
  1587.0000     14.9101     18.2020   -129.1884     84.3027
  1587.2500     15.5446     18.8986   -129.1695     83.4231
  1587.5000     15.9965     19.3524   -129.1348     86.1468
  1587.7500     16.2293     19.5206   -129.0840     89.3215
  1588.0000     16.2303     19.3622   -129.0154     93.8557
  1588.2500     16.0053     18.8570   -128.9277     95.7390
  1588.5000     15.5778     18.0365   -128.8214     96.1189
  1588.7500     14.9909     16.9973   -128.7000     94.9544
  1589.0000     14.3029     15.8737   -128.5696     92.5197
  1589.2500     13.5730     14.7826   -128.4375     91.7495
  1589.5000     12.8452     13.7848   -128.3108     93.9502
  1589.7500     12.1432     12.8863   -128.1945     97.8738
  1590.0000     11.4764     12.0675   -128.0912    105.5958
  1590.2500     10.8490     11.3120   -128.0014    110.5264
  1590.5000     10.2669     10.6202   -127.9252    116.7257
  1590.7500      9.7377     10.0108   -127.8638    120.6145
  1591.0000      9.2684      9.5113   -127.8207    127.1871
  1591.2500      8.8625      9.1376   -127.8019    131.8931
  1591.5000      8.5188      8.8769   -127.8144    137.3773
  1591.7500      8.2325      8.6900   -127.8633    138.5369
  1592.0000      7.9963      8.5317   -127.9493    136.2784
  1592.2500      7.8017      8.3730   -128.0664    133.8490
  1592.5000      7.6408      8.2088   -128.2015    132.6813
  1592.7500      7.5072      8.0511   -128.3362    134.3012
  1593.0000      7.3963      7.9155   -128.4506    138.0613
  1593.2500      7.3059      7.8120   -128.5275    139.5980
  1593.5000      7.2347      7.7418   -128.5556    139.6402
  1593.7500      7.1818      7.6996   -128.5315    139.2146
  1594.0000      7.1462      7.6777   -128.4597    139.8824
  1594.2500      7.1265      7.6702   -128.3498    141.4644
  1594.5000      7.1227      7.6734   -128.2146    144.7623
  1594.7500      7.1363      7.6858   -128.0667    147.0965
  1595.0000      7.1688      7.7070   -127.9176    150.3034
  1595.2500      7.2200      7.7375   -127.7763    151.9269
  1595.5000      7.2859      7.7759   -127.6503    152.9762
  1595.7500      7.3595      7.8159   -127.5460    152.6699
  1596.0000      7.4317      7.8466   -127.4692    151.2089
  1596.2500      7.4933      7.8573   -127.4262    149.9639
  1596.5000      7.5379      7.8441   -127.4226    147.9501
  1596.7500      7.5646      7.8129   -127.4635    146.2256
  1597.0000      7.5779      7.7762   -127.5527    142.2331
  1597.2500      7.5852      7.7475   -127.6917    138.7129
  1597.5000      7.5916      7.7354   -127.8795    134.1357
  1597.7500      7.5966      7.7399   -128.1124    133.0645
  1598.0000      7.5944      7.7493   -128.3839    134.9187
  1598.2500      7.5775      7.7435   -128.6857    137.0128
  1598.5000      7.5407      7.7055   -129.0077    138.0213
  1598.7500      7.4851      7.6322   -129.3395    136.2502
