~Version Information
 VERS.                                  2.0 : CWLS LAS VERSION
 WRAP.                                   NO : WRAPING MODE
 SWARE .                 MController 2.5.0N : SOFTWARE VERSION
~Well Information
 WELL.                      Pioneer 34-27TR : WELL
 COMP.  Pioneer Natural Resources USA, Inc. : COMPANY
 FLD.                      Purgatoire River : FIELD
 LOC.               SW/SE Sec 27 T32S  R67W : LOCATION
 DATE.                            10/5-6/05 : DATE(S) LOGGED
 SRVC.       BLANCO Geological Services LLC : SERVICE COMPANY
 STAT.                                   CO : STATE
 CNTY.                           Las Animas : COUNTY
 CTRY.                                  USA : COUNTRY
 API.                       05-071-08548-00 : API NUMBER
 STRT.FT                             486.00 : START DEPTH
 STOP.FT                            1560.00 : STOP DEPTH
 STEP.FT                               1.00 : DEPTH INCREMENT
 NULL.                                -9999 : NULL VALUE
~Curve information
 DEPTH.FT                                   :
 ROP.MIN/FT                                 :
 GAS.UNITS                                  :
~ASCII Log data
# ...
      1086.0         0.47          9.7 
      1087.0         0.33         12.9 
      1088.0         0.33         15.3 
      1089.0         0.32         15.6 
      1090.0         0.33         15.2 
      1091.0         0.33         14.6 
      1092.0         0.30         14.2 
      1093.0         0.30         13.7 
      1094.0         0.37         14.5 
      1095.0         0.37         14.7 
      1096.0         0.37         14.4 
      1097.0         0.33         13.3 
      1098.0         0.55         12.9 
      1099.0         0.27         11.1 
      1100.0         0.30          9.2 
      1101.0         0.30          7.4 
      1102.0         0.30          6.5 
      1103.0         0.40          6.6 
      1104.0         0.40          7.1 
      1105.0         0.20          7.3 
      1106.0         3.15          6.9 
      1107.0         0.37         -0.2 
      1108.0         0.38         -0.2 
      1109.0         0.40          1.0 
      1110.0         0.40          2.6 
      1111.0         0.43          4.4 
      1112.0         0.30          5.1 
      1113.0         0.33          5.3 
      1114.0         0.57          4.7 
      1115.0         0.72          4.2 
      1116.0         0.37          2.6 
      1117.0         0.30          1.3 
      1118.0         0.30          0.2 
      1119.0         0.27          0.0 
      1120.0         0.30         -0.2 
      1121.0         0.30         -0.5 
      1122.0         0.27         -0.5 
      1123.0         0.33          0.0 
      1124.0         0.27          0.6 
      1125.0         0.30          1.3 
      1126.0         0.32          2.4 
      1127.0         0.33          2.7 
      1128.0         0.37          3.1 
      1129.0         0.30          2.7 
      1130.0         0.40          2.6 
      1131.0         0.27          3.6 
      1132.0         0.17          3.9 
      1133.0         0.17          4.1 
      1134.0         0.17          4.9 
      1135.0         0.17          5.5 
      1136.0         2.22          6.7 
      1137.0         0.17          0.5 
      1138.0         0.13          0.4 
      1139.0         0.27          0.4 
      1140.0         0.43          1.1 
      1141.0         0.40          2.2 
      1142.0         0.35          4.0 
      1143.0         0.37          5.9 
      1144.0         0.53          6.5 
      1145.0         0.43          5.8 
      1146.0         0.50          4.8 
      1147.0         0.40          4.0 
      1148.0         0.37          2.3 
      1149.0         0.37          1.5 
      1150.0         0.38          0.6 
      1151.0         0.30          0.9 
      1152.0         0.37          2.0 
      1153.0         0.30          2.3 
      1154.0         0.30          2.4 
      1155.0         0.37          2.6 
      1156.0         0.33          2.5 
      1157.0         0.37          2.4 
      1158.0         0.30          2.0 
      1159.0         0.32          2.3 
      1160.0         0.33          2.3 
      1161.0         0.27          1.9 
      1162.0         0.27          0.8 
      1163.0         0.30          0.6 
      1164.0         0.33          0.9 
      1165.0         0.27          1.3 
      1166.0         1.55          4.3 
      1167.0         0.40        142.1 
      1168.0         0.37        229.3 
      1169.0         0.27        240.9 
      1170.0         0.23        250.1 
      1171.0         0.33        273.3 
      1172.0         0.47        274.3 
      1173.0         0.53        256.4 
      1174.0         0.62        242.7 
      1175.0         0.63        241.0 
      1176.0         0.27        264.5 
      1177.0         0.27        271.2 
      1178.0         0.27        271.4 
      1179.0         0.27        269.2 
      1180.0         0.27        265.6 
      1181.0         0.27        260.5 
      1182.0         0.23        255.5 
      1183.0         0.32        253.6 
      1184.0         0.27        251.6 
      1185.0         0.23        246.5 
      1186.0         0.27        243.5 
      1187.0         0.33        238.4 
      1188.0         0.37        239.1 
      1189.0         0.27        238.5 
      1190.0         0.30        237.5 
      1191.0         0.30        236.6 
      1192.0         0.30        231.6 
      1193.0         0.33        235.5 
      1194.0         0.35        229.5 
      1195.0         0.23        177.8 
      1196.0         1.80        412.3 
      1197.0         0.47        427.9 
      1198.0         0.33        411.8 
      1199.0         0.25        305.0 
      1200.0         0.27        255.1 
      1201.0         0.20        219.4 
      1202.0         0.23        217.5 
      1203.0         0.37        220.0 
      1204.0         0.50        217.8 
      1205.0         1.00        194.8 
      1206.0         0.50        205.4 
      1207.0         0.38        205.3 
      1208.0         0.27        199.1 
      1209.0         0.23        200.7 
      1210.0         0.27        206.4 
      1211.0         0.23        215.9 
      1212.0         0.23        222.2 
      1213.0         0.23        226.0 
      1214.0         0.23        225.8 
      1215.0         0.27        223.0 
      1216.0         0.27        222.8 
      1217.0         0.27        217.5 
      1218.0         0.32        206.8 
      1219.0         0.33        204.6 
      1220.0         0.40        204.9 
      1221.0         0.40        204.5 
      1222.0         0.40        205.0 
      1223.0         0.40        211.1 
      1224.0         0.33        216.7 
      1225.0         0.33        180.4 
      1226.0         1.95        427.8 
      1227.0         0.40        427.0 
      1228.0         0.30        421.4 
      1229.0         0.23        381.7 
      1230.0         0.23        338.9 
      1231.0         0.17        279.2 
      1232.0         0.13        254.7 
      1233.0         0.28        241.0 
      1234.0         0.37        222.0 
      1235.0         0.40        208.8 
      1236.0         0.57        200.4 
      1237.0         0.53        191.5 
      1238.0         0.50        181.7 
      1239.0         0.67        176.7 
      1240.0         0.62        186.9 
      1241.0         0.33        199.1 
      1242.0         0.20        197.5 
      1243.0         0.13        193.1 
      1244.0         0.17        188.4 
      1245.0         0.23        184.9 
      1246.0         0.27        182.9 
      1247.0         0.27        188.3 
      1248.0         0.30        195.1 
      1249.0         0.23        195.4 
      1250.0         0.23        194.4 
      1251.0         0.25        192.1 
      1252.0         0.20        188.6 
      1253.0         0.27        205.6 
      1254.0         0.33        203.7 
      1255.0         0.47        165.3 
      1256.0         1.73        909.3 
      1257.0         0.45        919.6 
      1258.0         0.37        841.3 
      1259.0         0.33        663.7 
      1260.0         0.30        523.2 
      1261.0         0.30        440.0 
      1262.0         0.33        225.8 
      1263.0         0.43        199.7 
      1264.0         0.83        170.3 
      1265.0         0.58        172.1 
      1266.0         0.37        214.7 
      1267.0         0.23        212.4 
      1268.0         0.20        187.5 
      1269.0         0.17        163.8 
      1270.0         0.17        156.6 
      1271.0         0.17        159.4 
      1272.0         0.13        166.1 
      1273.0         0.23        175.9 
      1274.0         0.40        191.5 
      1275.0         0.43        194.9 
      1276.0         0.32        188.2 
      1277.0         0.33        186.6 
      1278.0         0.33        198.3 
      1279.0         0.27        204.6 
      1280.0         0.30        203.7 
      1281.0         0.30        176.2 
      1282.0         0.30        134.2 
      1283.0         0.37        148.2 
      1284.0         0.23        161.7 
      1285.0         0.52        185.2 
