~Version Information
VERS.                      2.0: CWLS Log ASCII Standard - VERSION 2.0
WRAP.                       NO: One line per depth step
~Well Information Block
STRT.FT                -7.2500: 
STOP.FT              1196.2500: 
STEP.FT                 0.2500: 
NULL.                -999.2500: 
COMP.          Pioneer Natural Resources: COMPANY
WELL.             Mahalo 12-20: WELL
FLD.           Purgatorie River: FIELD
LOC.           1689' FNL & 479' FWL--: LOCATION
CNTY.               Las Animas: COUNTY
SRVC.          Patterson Wireline: SERVICE COMPANY
DATE.          Tue Mar 14 15:40:32 2006: LOG DATE
UWI.           05 071 08700 00: UNIQUE WELL ID
STAT.                       CO: STATE
~Curve Information Block
DEPT.FT            0 000 00 00: Depth
CCL.                          : Casing Collar Locator
TT3.usec                      : CBL 3' Travel Time
AMP3.mV                       : CBL 3' Amplitude
GR.GAPI                       : Gamma Ray
~Parameter Information Block
~A  Depth       CCL         TT3         AMP3         GR     
# ...
   629.2500      0.0000    425.4449      9.8781    129.5967
   629.5000      0.0000    452.4285      9.6504    124.2698
   629.7500      0.0000    501.1737      9.2768    122.4453
   630.0000      0.0000    561.9418      8.7959    125.6219
   630.2500      0.0000    623.5923      8.2488    132.4227
   630.5000      0.0000    675.4978      7.6700    140.5821
   630.7500      0.0000    710.4644      7.0889    148.2160
   631.0000      0.0000    727.8129      6.5276    154.2660
   631.2500      0.0000    732.2064      5.9999    158.6076
   631.5000      0.0000    729.4554      5.5137    161.8012
   631.7500      0.0000    724.3498      5.0758    164.3604
   632.0000      0.0000    721.1416      4.6955    165.9912
   632.2500      0.0000    723.0110      4.3866    165.7797
   632.5000      0.0000    729.9603      4.1668    163.5839
   632.7500      0.0000    738.7615      4.0514    160.8058
   633.0000      0.0000    745.8020      4.0476    158.8469
   633.2500      0.0000    749.5499      4.1535    156.9584
   633.5000      0.0000    750.2889      4.3570    152.6403
   633.7500      0.0000    748.4333      4.6330    144.5103
   634.0000      0.0000    743.5920      4.9520    134.2960
   634.2500      0.0000    735.1384      5.2968    125.5658
   634.5000      0.0000    723.6109      5.6654    120.6047
   634.7500      0.0000    711.2938      6.0555    118.9100
   635.0000      0.0000    700.7006      6.4522    118.5692
   635.2500      0.0000    691.9327      6.8368    118.2199
   635.5000      0.0000    680.9514      7.2063    117.4732
   635.7500      0.0000    659.9210      7.5843    116.3885
   636.0000      0.0000    620.7223      8.0083    115.2912
   636.2500      0.0000    561.7247      8.4939    114.8256
   636.5000      0.0000    492.6556      8.9986    115.6460
   636.7500      0.0000    430.6665      9.4313    117.8405
   637.0000      0.0000    389.8909      9.7143    120.7022
   637.2500      0.0000    375.5628      9.8363    123.2217
   637.5000      0.0000    387.1073      9.8404    125.0466
   637.7500      0.0000    422.2809      9.7710    126.9110
   638.0000      0.0000    474.5396      9.6484    129.8795
   638.2500      0.0000    528.6957      9.4882    134.1166
   638.5000      0.0000    565.6259      9.3199    138.4001
   638.7500      0.0000    574.8373      9.1775    140.8594
   639.0000      0.0000    561.5883      9.0828    140.5024
   639.2500      0.0000    541.7751      9.0381    138.3204
   639.5000      0.0000    530.3679      9.0259    136.8545
   639.7500      0.0000    531.1657      9.0215    138.5661
   640.0000      0.0000    534.4918      9.0135    144.3877
   640.2500      0.0000    528.4974      9.0082    153.0602
   640.5000      0.0000    515.5247      9.0073    161.4184
   640.7500      0.0000    513.0840      8.9970    166.1163
   641.0000      0.0000    535.6740      8.9662    165.8804
   641.2500      0.0000    578.7775      8.9218    161.9782
   641.5000      0.0000    622.2496      8.8761    156.5507
   641.7500      0.0000    647.1249      8.8295    150.8870
   642.0000      0.0000    649.2067      8.7739    145.1122
   642.2500      0.0000    640.2791      8.7049    138.9465
   642.5000      0.0000    637.5543      8.6220    132.6659
   642.7500      0.0000    649.6335      8.5251    127.3988
   643.0000      0.0000    671.3088      8.4167    124.2034
   643.2500      0.0000    691.2692      8.3049    122.8823
   643.5000      0.0000    702.2723      8.2006    122.0730
   643.7500      0.0000    702.7784      8.1151    120.5933
   644.0000      0.0000    692.7905      8.0547    118.3277
   644.2500      0.0000    673.4301      8.0049    115.7955
   644.5000      0.0000    650.9617      7.9202    113.2868
   644.7500      0.0000    636.6593      7.7429    110.5447
   645.0000      0.0000    638.7058      7.4472    107.0035
   645.2500      0.0000    655.2086      7.0686    102.2883
   645.5000      0.0000    676.8274      6.6890     96.6527
   645.7500      0.0000    694.8448      6.3848     90.9398
   646.0000      0.0000    705.9142      6.1813     86.0388
   646.2500     -2.0000    711.8361      6.0522     82.3623
   646.5000      2.0000    716.5857      5.9525     79.8826
   646.7500      0.0000    722.1892      5.8475     78.7067
   647.0000      0.0000    726.5529      5.7241     79.3395
   647.2500      0.0000    726.5322      5.5891     81.9347
   647.5000      0.0000    723.2274      5.4594     85.3818
   647.7500      0.0000    722.3713      5.3470     87.8718
   648.0000      0.0000    728.9675      5.2491     88.4626
   648.2500      0.0000    742.6696      5.1484     87.5103
   648.5000      0.0000    758.6247      5.0269     85.6838
   648.7500      0.0000    771.5707      4.8825     83.4667
   649.0000      0.0000    778.4191      4.7332     81.5998
   649.2500      0.0000    777.8735      4.6001     81.0424
   649.5000      0.0000    769.1587      4.4919     82.0465
   649.7500      0.0000    752.3594      4.4054     83.6598
   650.0000      0.0000    730.0269      4.3362     84.3584
   650.2500      0.0000    707.3152      4.2836     83.1602
   650.5000      0.0000    689.3968      4.2481     80.2790
   650.7500      0.0000    678.7869      4.2298     76.8540
   651.0000      0.0000    675.3167      4.2273     74.0538
   651.2500      0.0000    678.1477      4.2388     72.4860
   651.5000      0.0000    686.9074      4.2618     72.2548
   651.7500      0.0000    700.6553      4.2935     73.1172
   652.0000      0.0000    716.6748      4.3304     74.4336
   652.2500      0.0000    731.6836      4.3675     75.2178
   652.5000      0.0000    744.8699      4.4010     74.5801
   652.7500      0.0000    758.5269      4.4309     72.4579
   653.0000      0.0000    774.0307      4.4583     69.9542
   653.2500      0.0000    787.3491      4.4808     68.6969
   653.5000      0.0000    791.1119      4.4957     69.7694
   653.7500      0.0000    782.6768      4.5067     73.4136
   654.0000      0.0000    767.7460      4.5269     79.5318
   654.2500      0.0000    754.1205      4.5719     87.9837
   654.5000      0.0000    744.6029      4.6457     98.0888
   654.7500      0.0000    737.7555      4.7311    107.9794
   655.0000      0.0000    732.3010      4.7960    115.1487
   655.2500      0.0000    728.2748      4.8149    118.2509
   655.5000      0.0000    725.6736      4.7875    118.2502
   655.7500      0.0000    723.8565      4.7390    117.6288
   656.0000      0.0000    722.1209      4.7020    118.6620
   656.2500      0.0000    720.6826      4.6980    122.2071
   656.5000      0.0000    720.8252      4.7286    127.5048
   656.7500      0.0000    723.0931      4.7794    132.8737
   657.0000      0.0000    725.5581      4.8305    136.9141
   657.2500      0.0000    725.1671      4.8676    139.2582
   657.5000      0.0000    721.0950      4.8844    140.1872
   657.7500      0.0000    715.8882      4.8789    139.7286
   658.0000      0.0000    713.0178      4.8500    137.5437
   658.2500      0.0000    713.7235      4.8001    133.7683
   658.5000      0.0000    716.1296      4.7364    129.8092
   658.7500      0.0000    717.0618      4.6694    128.1328
   659.0000      0.0000    714.8517      4.6095    130.6798
   659.2500      0.0000    710.5210      4.5653    136.6559
   659.5000      0.0000    706.4297      4.5419    142.2450
   659.7500      0.0000    704.2922      4.5365    143.6500
   660.0000      0.0000    704.6587      4.5379    140.3773
   660.2500      0.0000    707.3159      4.5332    134.8827
   660.5000      0.0000    711.0156      4.5181    129.6782
   660.7500      0.0000    712.9189      4.4987    125.9295
   661.0000      0.0000    709.7295      4.4851    124.2064
   661.2500      0.0000    700.4320      4.4826    124.6270
   661.5000      0.0000    687.5402      4.4896    125.9486
   661.7500      0.0000    675.3158      4.5008    126.1175
   662.0000      0.0000    667.3117      4.5107    124.5815
   662.2500      0.0000    665.4775      4.5164    123.2064
   662.5000      0.0000    670.0994      4.5168    124.5272
