~Version Information
VERS.                      2.0: CWLS Log ASCII Standard - VERSION 2.0
WRAP.                       NO: One line per depth step
~Well Information Block
STRT.FT                -7.7500: 
STOP.FT              1485.2500: 
STEP.FT                 0.2500: 
NULL.                -999.2500: 
COMP.          Pioneer Natural Resources: COMPANY
WELL.          Hammerhead 24-24 Tr: WELL
FLD.           Purgatorie River: FIELD
LOC.           953' FSL & 1922' FWL--: LOCATION
CNTY.               Las Animas: COUNTY
SRVC.          Patterson Wireline: SERVICE COMPANY
DATE.          Thu Feb 02 15:03:23 2006: LOG DATE
UWI.           05 071 08669 00: UNIQUE WELL ID
STAT.                       CO: STATE
~Curve Information Block
DEPT.FT            0 000 00 00: Depth
CCL.                          : Casing Collar Locator
TT3.usec                      : CBL 3' Travel Time
AMP3.mV                       : CBL 3' Amplitude
GR.GAPI                       : Gamma Ray
~Parameter Information Block
~A  Depth       CCL         TT3         AMP3         GR     
# ...
   193.2500      0.0000    746.5216      8.8929     68.5055
   193.5000      0.0000    751.2695      8.9585     68.1362
   193.7500      0.0000    752.1020      9.0164     66.4044
   194.0000      0.0000    747.6261      9.0669     65.4870
   194.2500      0.0000    738.3251      9.1100     66.7667
   194.5000      0.0000    726.4272      9.1467     69.7671
   194.7500      0.0000    714.6661      9.1789     73.3041
   195.0000      0.0000    705.1639      9.2088     76.7843
   195.2500      0.0000    698.8200      9.2378     80.1783
   195.5000      0.0000    695.3135      9.2626     83.5956
   195.7500      0.0000    693.6826      9.2738     87.4172
   196.0000      0.0000    693.0019      9.2624     92.1144
   196.2500      0.0000    692.6989      9.2277     97.1538
   196.5000      0.0000    692.5167      9.1805    100.6146
   196.7500      0.0000    692.3804      9.1362    100.8742
   197.0000      0.0000    692.2846      9.1060     98.4919
   197.2500      0.0000    692.2366      9.0915     95.5425
   197.5000      0.0000    692.2404      9.0880     93.3205
   197.7500      0.0000    692.2953      9.0897     91.7036
   198.0000      0.0000    692.3920      9.0927     90.5643
   198.2500      0.0000    692.5052      9.0936     90.4366
   198.5000      0.0000    692.5985      9.0892     91.3132
   198.7500      0.0000    692.6405      9.0785     91.5934
   199.0000      0.0000    692.6198      9.0631     89.0727
   199.2500      0.0000    692.5424      9.0460     83.1565
   199.5000      0.0000    692.4217      9.0292     75.6674
   199.7500      0.0000    692.2708      9.0145     69.0956
   200.0000      0.0000    692.1024      9.0045     64.3697
   200.2500      0.0000    691.9366      9.0014     60.8002
   200.5000      0.0000    691.8087      9.0031     57.8764
   200.7500      0.0000    691.7595      9.0022     56.4128
   201.0000      0.0000    691.8082      8.9915     57.7714
   201.2500      0.0000    691.9317      8.9695     62.3451
   201.5000      0.0000    692.0794      8.9396     69.0667
   201.7500      0.0000    692.2079      8.9044     76.1810
   202.0000      0.0000    692.2968      8.8638     82.3805
   202.2500      0.0000    692.3352      8.8189     87.4187
   202.5000      0.0000    692.3115      8.7764     91.7651
   202.7500      0.0000    692.2266      8.7458     95.5574
   203.0000      0.0000    692.1099      8.7331     97.9992
   203.2500      0.0000    692.0079      8.7346     98.0954
   203.5000      0.0000    691.9526      8.7410     95.9856
   203.7500      0.0000    691.9426      8.7440     93.3035
   204.0000      0.0000    691.9528      8.7412     92.1311
   204.2500      0.0000    691.9554      8.7350     93.5719
   204.5000      0.0000    691.9321      8.7296     97.1928
   204.7500      0.0000    691.8764      8.7278    101.5442
   205.0000      0.0000    691.7970      8.7284    105.0286
   205.2500      0.0000    691.7202      8.7255    106.4410
   205.5000      0.0000    691.6786      8.7124    105.0672
   205.7500      0.0000    691.6955      8.6884    100.7133
   206.0000      0.0000    691.7786      8.6601     93.9453
   206.2500      0.0000    691.9263      8.6359     86.1153
   206.5000      0.0000    692.1327      8.6184     78.7562
   206.7500      0.0000    692.3823      8.6053     72.9275
   207.0000      0.0000    692.6425      8.5934     69.2398
   207.2500      0.0000    692.8668      8.5824     68.0952
   207.5000      0.0000    693.0127      8.5743     69.2837
   207.7500      0.0000    693.0685      8.5705     71.4843
   208.0000      0.0000    693.0590      8.5685     72.8787
   208.2500      0.0000    693.0184      8.5634     72.5474
   208.5000      0.0000    692.9581      8.5523     71.0260
   208.7500      0.0000    692.8649      8.5375     69.4822
   209.0000      0.0000    692.7225      8.5229     68.6198
   209.2500      0.0000    692.5250      8.5106     68.4407
   209.5000      0.0000    692.2798      8.5001     68.9525
   209.7500      0.0000    692.0095      8.4901     70.7863
   210.0000      0.0000    691.7531      8.4796     74.6017
   210.2500      0.0000    691.5583      8.4687     79.7892
   210.5000      0.0000    691.4615      8.4588     84.3176
   210.7500      0.0000    691.4657      8.4504     86.2083
   211.0000      0.0000    691.5337      8.4411     85.0771
   211.2500      0.0000    691.6100      8.4275     82.3955
   211.5000      0.0000    691.6588      8.4093     80.5709
   211.7500      0.0000    691.6840      8.3902     81.4468
   212.0000      0.0000    691.7103      8.3750     85.0177
   212.2500      0.0000    691.7481      8.3668     89.4726
   212.5000      0.0000    691.7772      8.3663     92.6897
   212.7500      0.0000    691.7681      8.3718     93.7188
   213.0000      0.0000    691.7203      8.3781     92.9506
   213.2500      0.0000    691.6720      8.3767     91.2759
   213.5000      0.0000    691.6666      8.3601     89.4340
   213.7500      0.0000    691.7158      8.3272     88.0272
   214.0000      0.0000    691.8034      8.2852     87.5773
   214.2500      0.0000    691.9481      8.2430     88.1903
   214.5000      0.0000    692.2528      8.2051     89.4192
   214.7500      0.0000    692.8565      8.1679     90.7355
   215.0000      0.0000    693.6615      8.1152     92.0019
   215.2500      0.0000    693.8958      8.0108     93.4289
   215.5000      0.0000    692.1868      7.8054     95.3887
   215.7500      0.0000    687.9271      7.4782     98.1636
   216.0000      0.0000    683.1531      7.0791    101.4024
   216.2500      0.0000    682.3869      6.7045    103.8377
   216.5000      0.0000    689.4116      6.4219    103.9703
   216.7500      0.0000    703.9166      6.2401    101.1605
   217.0000      0.0000    721.8939      6.1401     96.0237
   217.2500      0.0000    739.4274      6.0973     89.9926
   217.5000      0.0000    755.4649      6.0811     84.6160
   217.7500     -2.0000    770.5955      6.0723     80.7830
   218.0000      2.0000    783.6202      6.0935     78.1063
   218.2500      0.0000    789.9500      6.2238     75.3653
   218.5000      0.0000    784.2460      6.5753     71.9809
   218.7500      0.0000    765.6938      7.2064     68.6811
   219.0000      0.0000    740.3490      8.0112     66.4542
   219.2500      0.0000    717.1347      8.7315     65.5450
   219.5000      0.0000    701.6016      9.1507     65.8010
   219.7500      0.0000    693.8458      9.2624     67.2552
   220.0000      0.0000    691.0469      9.2085     69.9327
   220.2500      0.0000    690.5065      9.1075     73.4043
   220.5000      0.0000    690.7272      8.9963     76.7547
   220.7500      0.0000    691.1103      8.8851     78.9727
   221.0000      0.0000    691.4647      8.7901     79.5513
   221.2500      0.0000    691.7446      8.7192     78.7754
   221.5000      0.0000    691.9621      8.6639     77.3790
   221.7500      0.0000    692.1385      8.6138     76.0735
   222.0000      0.0000    692.2830      8.5699     75.3462
   222.2500      0.0000    692.4076      8.5408     75.3546
   222.5000      0.0000    692.5416      8.5315     75.9970
   222.7500      0.0000    692.7183      8.5394     77.1396
   223.0000      0.0000    692.9489      8.5576     78.4601
   223.2500      0.0000    693.2173      8.5794     79.0270
   223.5000      0.0000    693.4969      8.5997     77.6109
   223.7500      0.0000    693.7618      8.6160     73.7654
   224.0000      0.0000    693.9830      8.6282     68.3076
   224.2500      0.0000    694.1361      8.6377     62.6302
   224.5000      0.0000    694.2261      8.6472     57.7643
   224.7500      0.0000    694.3322      8.6597     53.9480
   225.0000      0.0000    694.6262      8.6761     50.8482
   225.2500      0.0000    695.3438      8.6940     48.2837
   225.5000      0.0000    696.6368      8.7099     46.6486
   225.7500      0.0000    698.1274      8.7226     46.2781
   226.0000      0.0000    698.1619      8.7346     46.5738
   226.2500      0.0000    692.9000      8.7506     46.3128
   226.5000      0.0000    676.0265      8.7737     44.9022
