~Version Information
VERS.                      2.0: CWLS Log ASCII Standard - VERSION 2.0
WRAP.                       NO: One line per depth step
~Well Information Block
STRT.FT               875.0000: 
STOP.FT              2947.2000: 
STEP.FT                 0.1000: 
NULL.                -999.2500: 
COMP.          Pioneer Natural Resources: COMPANY
WELL.          Hanginstone 21-27: WELL
FLD.           Purgatoire River: FIELD
LOC.           1186' FNL & 1606' FWL--: LOCATION
PROV.                 Colorado: PROVINCE
CNTY.               Las Animas: COUNTRY
SRVC.                Patterson: SERVICE COMPANY
DATE.          Mon Jan 09 07:31:45 2006: LOG DATE
UWI.           05 071 08632 00: UNIQUE WELL ID
~Curve Information Block
DEPT.FT            0 000 00 00: Depth
DCAL.in                       : CDL Caliper
RHOB.g/cc                     : CDL Bulk Density
RHOC.g/cc                     : CDL Density Correction
DPOR.pu                       : CDL Density Porosity
NPOR.pu                       : Neutron Porosity
GR.GAPI                       : Gamma Ray
~Parameter Information Block
~A  Depth       DCAL        RHOB        RHOC        DPOR        NPOR         GR     
# ...
  2238.2000      7.8291      2.6163      0.0606      2.0407     27.1678    107.7048
  2238.3000      7.8294      2.5900      0.0686      3.6338     27.3762    108.3166
  2238.4000      7.8294      2.5446      0.0352      6.3858     27.3749    110.0873
  2238.5000      7.8283      2.5001     -0.0630      9.0834     27.3032    111.7429
  2238.6000      7.8283      2.4854     -0.0291      9.9787     27.5075    114.6582
  2238.7000      7.8283      2.4985     -0.0253      9.1815     27.9293    122.2422
  2238.8000      7.8278      2.5205      0.0177      7.8465     28.0700    138.2898
  2238.9000      7.8278      2.5372      0.0751      6.8371     27.9250    157.5395
  2239.0000      7.8268      2.5373      0.0608      6.8315     27.9083    166.4017
  2239.1000      7.8268      2.5249      0.0555      7.5840     27.9921    161.7123
  2239.2000      7.8268      2.5195      0.0679      7.9065     27.8034    149.7028
  2239.3000      7.8258      2.5335      0.0690      7.0620     27.3802    139.6241
  2239.4000      7.8258      2.5578      0.0909      5.5905     27.1521    138.0448
  2239.5000      7.8264      2.5770      0.0705      4.4230     27.1710    139.9597
  2239.6000      7.8264      2.5823      0.1181      4.1060     26.9546    135.9976
  2239.7000      7.8264      2.5659      0.0782      5.0993     26.5441    128.8885
  2239.8000      7.8277      2.5396      0.0245      6.6912     26.6040    127.0100
  2239.9000      7.8277      2.5309      0.0500      7.2193     27.0886    130.4333
  2240.0000      7.8281      2.5404      0.0996      6.6454     27.4584    135.8740
  2240.1000      7.8281      2.5439      0.0608      6.4311     27.6973    140.5258
  2240.2000      7.8281      2.5349      0.0457      6.9782     27.6381    141.7377
  2240.3000      7.8265      2.5256      0.0498      7.5392     27.0801    139.7507
  2240.4000      7.8265      2.5295      0.0454      7.3030     26.4853    136.4244
  2240.5000      7.8228      2.5521      0.0583      5.9333     26.2522    132.3446
  2240.6000      7.8228      2.5851      0.0706      3.9312     26.1856    126.4497
  2240.7000      7.8228      2.6186      0.0706      1.9006     26.0183    119.1121
  2240.8000      7.8173      2.6472      0.1059      0.1717     25.7946    115.6275
  2240.9000      7.8173      2.6682      0.1080     -1.1047     25.6285    111.7921
  2241.0000      7.8109      2.6866      0.1093     -2.2154     25.5633     98.4242
  2241.1000      7.8109      2.7045      0.0899     -3.3014     25.4355     81.6656
  2241.2000      7.8109      2.7222      0.0737     -4.3763     25.1413     72.9069
  2241.3000      7.8050      2.7402      0.0850     -5.4641     24.7044     73.0456
  2241.4000      7.8050      2.7450      0.0618     -5.7575     24.0211     74.8040
  2241.5000      7.8012      2.7265     -0.0017     -4.6340     23.0173     73.3713
  2241.6000      7.8012      2.6933      0.0058     -2.6235     21.8621     69.2439
  2241.7000      7.8012      2.6648     -0.0022     -0.8941     20.8825     64.9028
  2241.8000      7.8001      2.6634      0.0772     -0.8141     20.2380     62.0998
  2241.9000      7.8001      2.6821      0.1540     -1.9447     19.6472     60.1260
  2242.0000      7.7999      2.6921      0.1230     -2.5508     18.7963     58.5817
  2242.1000      7.7999      2.6873      0.0859     -2.2614     18.1106     58.0831
  2242.2000      7.7999      2.6726      0.1026     -1.3691     18.2100     55.0705
  2242.3000      7.7996      2.6514      0.0661     -0.0846     18.8134     47.5251
  2242.4000      7.7996      2.6347      0.0625      0.9252     19.2003     41.7053
  2242.5000      7.7993      2.6261      0.0645      1.4501     19.1537     40.7974
  2242.6000      7.7993      2.6215      0.0136      1.7283     18.7644     39.8822
  2242.7000      7.7993      2.6202      0.0841      1.8086     18.0233     36.8715
  2242.8000      7.8054      2.6121      0.0979      2.2940     17.0601     35.0114
  2242.9000      7.8054      2.5873      0.0573      3.8009     16.1133     37.0208
  2243.0000      7.8186      2.5533      0.0417      5.8586     15.6359     39.6325
  2243.1000      7.8186      2.5263      0.0269      7.4955     16.0036     39.9765
  2243.2000      7.8186      2.5176      0.0077      8.0219     17.0330     40.3709
  2243.3000      7.8298      2.5298      0.0205      7.2858     18.2577     39.9114
  2243.4000      7.8298      2.5544      0.0209      5.7957     19.1975     35.4854
  2243.5000      7.8361      2.5796      0.0492      4.2683     19.5773     30.3960
  2243.6000      7.8361      2.5983      0.0541      3.1325     19.4725     29.7582
  2243.7000      7.8361      2.6102      0.0560      2.4113     19.1781     32.2653
  2243.8000      7.8375      2.6120      0.0886      2.3019     19.0945     34.4569
  2243.9000      7.8375      2.5949      0.0978      3.3417     19.6470     35.7867
  2244.0000      7.8356      2.5625      0.0449      5.3014     21.0045     39.0520
  2244.1000      7.8356      2.5312      0.0344      7.1993     22.6762     44.7016
  2244.2000      7.8356      2.5047      0.0489      8.8070     23.9276     50.3790
  2244.3000      7.8359      2.4757      0.0182     10.5642     24.7310     57.0983
  2244.4000      7.8359      2.4515     -0.0537     12.0329     25.5679     65.6052
  2244.5000      7.8389      2.4412      0.0324     12.6517     26.4872     71.9077
  2244.6000      7.8389      2.4344      0.0117     13.0665     27.3108     76.5534
  2244.7000      7.8389      2.4205      0.0363     13.9071     28.0106     88.3892
  2244.8000      7.8416      2.4025      0.0260     14.9999     28.6065    108.9270
  2244.9000      7.8416      2.3887      0.0236     15.8364     28.8922    128.0882
  2245.0000      7.8477      2.3917      0.0133     15.6529     28.5706    138.7020
  2245.1000      7.8477      2.4187      0.0754     14.0158     28.0502    140.5235
  2245.2000      7.8477      2.4545      0.1370     11.8458     27.9569    137.9266
  2245.3000      7.8675      2.4768      0.1274     10.4941     28.0747    134.8299
  2245.4000      7.8675      2.4818      0.1293     10.1954     28.0084    132.2984
  2245.5000      7.8981      2.4842      0.1254     10.0464     27.9408    131.7448
  2245.6000      7.8981      2.5009      0.1017      9.0378     27.9686    133.2431
  2245.7000      7.8981      2.5282      0.1715      7.3832     27.8263    137.1258
  2245.8000      7.9200      2.5499      0.1342      6.0689     27.4654    142.7540
  2245.9000      7.9200      2.5704      0.1243      4.8267     27.0320    146.6344
  2246.0000      7.9219      2.6003      0.1159      3.0150     26.7122    144.4278
  2246.1000      7.9219      2.6208      0.1483      1.7707     26.5477    136.0642
  2246.2000      7.9219      2.6163      0.0897      2.0450     26.3694    126.9405
  2246.3000      7.9120      2.6118      0.0135      2.3150     26.2871    120.5128
  2246.4000      7.9120      2.6225      0.0991      1.6682     26.5529    111.6208
  2246.5000      7.9050      2.6264      0.0403      1.4326     26.9852     95.5714
  2246.6000      7.9050      2.6136      0.0749      2.2068     27.3549     79.5129
  2246.7000      7.9050      2.5934      0.0412      3.4284     27.6145     71.9946
  2246.8000      7.9004      2.5603      0.0260      5.4358     27.6765     73.5507
  2246.9000      7.9004      2.4896      0.0201      9.7227     27.7432     79.1282
  2247.0000      7.8910      2.3722     -0.0332     16.8384     27.8862     82.7103
  2247.1000      7.8910      2.2373     -0.1094     25.0127     27.8169     82.0500
  2247.2000      7.8910      2.1173     -0.0848     32.2855     27.9541     80.6537
  2247.3000      7.8791      2.0037     -0.1021     39.1670     28.5374     83.5508
  2247.4000      7.8791      1.8676     -0.1843     47.4196     28.9692     88.7399
  2247.5000      7.8658      1.7016     -0.2127     57.4777     29.2677     88.6517
  2247.6000      7.8658      1.5282     -0.2588     67.9901     29.9136     80.4341
  2247.7000      7.8658      1.3827     -0.2730     76.8068     30.9663     69.3841
