~Version Information
 VERS.                                  2.0 : CWLS LAS VERSION
 WRAP.                                   NO : WRAPING MODE
 SWARE .                 MController 2.5.0J : SOFTWARE VERSION
~Well Information
 WELL.                       Parsons 15-23R : WELL
 COMP.                Petrogulf Corporation : COMPANY
 FLD.                      Purgatoire River : FIELD
 LOC.                NE/SW Sec 15 T33S R67W : LOCATION
 DATE.                             09/12/05 : DATE(S) LOGGED
 SRVC.       Blanco Geological Services LLC : SERVICE COMPANY
 STAT.                             Colorado : STATE
 CNTY.                           Las Animas : COUNTY
 CTRY.                                  USA : COUNTRY
 API.                       05-071-08441-00 : API NUMBER
 STRT.FT                             423.00 : START DEPTH
 STOP.FT                            1250.00 : STOP DEPTH
 STEP.FT                               1.00 : DEPTH INCREMENT
 NULL.                                -9999 : NULL VALUE
~Curve information
 DEPTH.FT                                   :
 ROP.MIN/FT                                 :
 GAS.UNITS                                  :
~ASCII Log data
# ...
       823.0         0.27        645.1 
       824.0         0.27        643.8 
       825.0         0.17        641.9 
       826.0         0.17        638.7 
       827.0         0.23        636.5 
       828.0         0.13        635.6 
       829.0         0.10        630.5 
       830.0         0.10        624.4 
       831.0         0.07        616.2 
       832.0         0.13        608.3 
       833.0         0.17        618.7 
       834.0         0.20        691.7 
       835.0         1.75       1749.2 
       836.0         0.43       1252.9 
       837.0         0.27        995.5 
       838.0         0.23        892.0 
       839.0         0.20        831.4 
       840.0         0.20        789.5 
       841.0         0.23        755.2 
       842.0         0.25        723.2 
       843.0         0.20        699.0 
       844.0         0.23        682.8 
       845.0         0.23        667.3 
       846.0         0.27        654.0 
       847.0         0.23        645.7 
       848.0         0.23        644.1 
       849.0         0.17        640.0 
       850.0         0.20        636.2 
       851.0         0.20        634.0 
       852.0         0.17        634.3 
       853.0         0.17        634.0 
       854.0         0.20        633.0 
       855.0         0.17        632.1 
       856.0         0.23        634.0 
       857.0         0.13        634.0 
       858.0         0.20        635.9 
       859.0         0.18        633.6 
       860.0         0.17        633.3 
       861.0         0.17        624.1 
       862.0         0.20        607.9 
       863.0         0.20        590.8 
       864.0         0.23        624.1 
       865.0         2.28       1582.6 
       866.0         0.37        964.4 
       867.0         0.23        863.1 
       868.0         0.27        819.0 
       869.0         0.30        775.5 
       870.0         0.27        737.4 
       871.0         0.23        705.4 
       872.0         0.20        686.7 
       873.0         0.17        671.7 
       874.0         0.20        660.3 
       875.0         0.17        645.1 
       876.0         0.20        638.7 
       877.0         0.13        634.6 
       878.0         0.17        634.0 
       879.0         0.15        634.6 
       880.0         0.23        636.2 
       881.0         0.23        636.5 
       882.0         0.27        637.8 
       883.0         0.17        639.4 
       884.0         0.17        640.0 
       885.0         0.33        641.9 
       886.0         0.13        641.6 
       887.0         0.17        641.6 
       888.0         0.23        642.5 
       889.0         0.27        642.9 
       890.0         0.20        642.2 
       891.0         0.23        634.6 
       892.0         0.27        614.6 
       893.0         0.18        674.0 
       894.0         0.23        833.6 
       895.0         1.10       1444.6 
       896.0         0.17       1313.8 
       897.0         0.27       1219.5 
       898.0         0.27       1079.3 
       899.0         0.30        965.3 
       900.0         0.27        871.4 
       901.0         0.28        817.1 
       902.0         0.23        769.5 
       903.0         0.20        732.7 
       904.0         0.20        710.5 
       905.0         0.20        688.9 
       906.0         0.20        674.3 
       907.0         0.17        663.5 
       908.0         0.17        658.4 
       909.0         0.17        654.0 
       910.0         0.17        650.2 
       911.0         0.13        648.2 
       912.0         0.17        646.0 
       913.0         0.17        643.2 
       914.0         0.13        643.8 
       915.0         0.17        643.8 
       916.0         0.13        643.5 
       917.0         0.17        645.7 
       918.0         0.13        642.9 
       919.0         0.17        641.9 
       920.0         0.15        640.0 
       921.0         0.17        628.3 
       922.0         0.17        617.5 
       923.0         0.17        646.3 
       924.0         0.20        740.6 
       925.0         1.77       1453.1 
       926.0         0.35       1028.8 
       927.0         0.23        885.7 
       928.0         0.37        829.2 
       929.0         0.23        773.9 
       930.0         0.27        747.0 
       931.0         0.20        724.4 
       932.0         0.23        708.6 
       933.0         0.20        687.6 
       934.0         0.30        673.6 
       935.0         0.27        659.0 
       936.0         0.23        659.0 
       937.0         0.27        657.8 
       938.0         0.23        655.5 
       939.0         0.18        654.3 
       940.0         0.20        654.3 
       941.0         0.17        658.1 
       942.0         0.17        659.4 
       943.0         0.20        662.5 
       944.0         0.20        663.8 
       945.0         0.23        666.3 
       946.0         0.20        664.8 
       947.0         0.23        664.8 
       948.0         0.23        665.7 
       949.0         0.13        660.0 
       950.0         0.13        655.2 
       951.0         0.23        646.3 
       952.0         0.20        632.7 
       953.0         0.23        693.0 
       954.0         0.33        955.2 
       955.0         1.22       1377.6 
       956.0         0.33       1134.5 
       957.0         0.40       1005.3 
       958.0         0.30        883.4 
       959.0         0.33        827.3 
       960.0         0.33        780.3 
       961.0         0.20        739.0 
       962.0         0.23        717.4 
       963.0         0.25        704.1 
       964.0         0.23        691.7 
       965.0         0.17        683.2 
       966.0         0.13        675.2 
       967.0         0.23        673.0 
       968.0         0.23        667.6 
       969.0         0.23        666.0 
       970.0         0.23        664.1 
       971.0         0.23        662.8 
       972.0         0.27        656.2 
       973.0         0.23        654.3 
       974.0         0.20        649.8 
       975.0         0.20        649.8 
       976.0         0.23        654.0 
       977.0         0.25        652.4 
       978.0         0.20        653.3 
       979.0         0.30        654.0 
       980.0         0.20        653.6 
       981.0         0.23        650.8 
       982.0         0.20        642.2 
       983.0         0.23        626.0 
       984.0         0.30        604.4 
       985.0         2.18       1420.1 
       986.0         0.20       1049.7 
       987.0         0.23        966.6 
       988.0         0.33        898.0 
       989.0         0.43        833.6 
       990.0         0.30        761.6 
       991.0         0.27        739.3 
       992.0         0.30        717.1 
       993.0         0.23        697.8 
       994.0         0.32        685.7 
       995.0         0.23        675.9 
       996.0         0.17        672.1 
       997.0         0.20        669.8 
       998.0         0.27        667.9 
       999.0         0.20        663.8 
      1000.0         0.23        662.5 
      1001.0         0.20        661.9 
      1002.0         0.17        660.3 
      1003.0         0.13        660.3 
      1004.0         0.23        661.9 
      1005.0         0.23        661.3 
      1006.0         0.23        663.8 
      1007.0         0.27        660.3 
      1008.0         0.23        193.4 
      1009.0         0.23        193.4 
      1010.0         0.22        193.4 
      1011.0         0.17        193.4 
      1012.0         0.13        193.4 
      1013.0         0.13        193.4 
      1014.0         0.23        193.4 
      1015.0         0.17        193.4 
      1016.0        11.22       1262.4 
      1017.0         0.23       1108.5 
      1018.0         0.20       1024.0 
      1019.0         0.23        953.3 
      1020.0         0.27        889.1 
      1021.0         0.27        850.4 
      1022.0         0.23        821.2 
