~Version Information
VERS.                      2.0: CWLS Log ASCII Standard - VERSION 2.0
WRAP.                       NO: One line per depth step
~Well Information Block
STRT.FT               892.0000: 
STOP.FT              2094.0000: 
STEP.FT                 0.1000: 
NULL.                -999.2500: 
COMP.          Pioneer Natural Resources: COMPANY
WELL.          Greenwood 43-29 Tr: WELL
FLD.           Purgatoire River: FIELD
LOC.           1478' FSL & 744' FEL: LOCATION
STAT.                 Colorado: State
CNTY.               Las Animas: COUNTY
CTRY. USA : Country
SECT. 29 : Section
TOWN. 32S : Township
RANG. 67W : Range
SRVC.                Patterson: SERVICE COMPANY
DATE.          Wed Aug 31 10:39:20 2005: LOG DATE
API.           05 071 08478 00: UNIQUE WELL ID
~Curve Information Block
DEPT.FT            0 000 00 00: Depth
DCAL.in                       : CDL Caliper
RHOB.g/cc                     : CDL Bulk Density
RHOC.g/cc                     : CDL Density Correction
DPOR.pu                       : CDL Density Porosity
GR.GAPI                       : Gamma Ray
NPOR.pu                       : Neutron Porosity
~Parameter Information Block
~A  Depth       DCAL        RHOB        RHOC        DPOR         GR         NPOR    
# ...
  1602.4000      8.1385      2.6079      0.2058      2.5538    130.8869     28.6940
  1602.5000      8.1412      2.6031      0.1691      2.8433    135.4146     28.5399
  1602.6000      8.1412      2.5735      0.0965      4.6346    135.2301     28.9553
  1602.7000      8.1412      2.5468      0.0968      6.2522    132.9532     29.7072
  1602.8000      8.1282      2.5347      0.0617      6.9852    131.9061     29.7518
  1602.9000      8.1282      2.5319      0.0294      7.1601    129.9510     28.4838
  1603.0000      8.1393      2.5368      0.0569      6.8624    129.5376     26.8751
  1603.1000      8.1393      2.5521      0.0658      5.9311    136.0318     26.3837
  1603.2000      8.1393      2.5734      0.1062      4.6438    144.4544     27.1704
  1603.3000      8.1426      2.5897      0.0612      3.6548    144.4425     27.6660
  1603.4000      8.1426      2.5993      0.0583      3.0726    135.4770     26.8348
  1603.5000      8.1263      2.6054      0.0734      2.7053    123.8947     25.8340
  1603.6000      8.1263      2.6075      0.0904      2.5765    114.7508     25.7075
  1603.7000      8.1263      2.6071      0.0688      2.6020    112.3407     25.9737
  1603.8000      8.1156      2.6018      0.1026      2.9237    117.6713     25.8757
  1603.9000      8.1156      2.5840      0.0676      3.9987    124.6621     25.2608
  1604.0000      8.0966      2.5635      0.0337      5.2446    129.3387     24.6847
  1604.1000      8.0966      2.5545      0.0464      5.7857    132.7046     24.7282
  1604.2000      8.0966      2.5529      0.0467      5.8858    130.9008     25.3272
  1604.3000      8.0973      2.5564     -0.0023      5.6754    123.4884     26.3927
  1604.4000      8.0973      2.5809      0.0280      4.1884    121.6293     27.7345
  1604.5000      8.1085      2.6320      0.0714      1.0911    127.3618     28.6488
  1604.6000      8.1085      2.6893      0.0915     -2.3823    130.5606     28.4326
  1604.7000      8.1085      2.7210      0.1815     -4.3048    128.0109     27.8379
  1604.8000      8.0742      2.7096      0.1177     -3.6118    121.6442     27.7651
  1604.9000      8.0742      2.6637      0.0838     -0.8300    115.4237     27.7585
  1605.0000      8.1150      2.5990      0.0292      3.0919    113.3436     27.7205
  1605.1000      8.1150      2.5353     -0.0374      6.9495    113.9319     27.9172
  1605.2000      8.1150      2.4821     -0.0014     10.1745    115.3621     27.6211
  1605.3000      8.0808      2.4363     -0.0985     12.9490    118.9068     26.4993
  1605.4000      8.0808      2.4140     -0.0780     14.3038    125.1986     26.0647
  1605.5000      8.0699      2.4205      0.0569     13.9096    130.3991     27.4735
  1605.6000      8.0699      2.4349      0.0600     13.0365    130.2412     29.7157
  1605.7000      8.0699      2.4483      0.0391     12.2230    129.3299     30.7124
  1605.8000      8.1278      2.4675      0.0395     11.0607    133.6206     29.9347
  1605.9000      8.1278      2.4954      0.1231      9.3706    135.8238     28.7410
  1606.0000      8.1398      2.5256      0.1659      7.5370    131.1248     28.0978
  1606.1000      8.1398      2.5599      0.1390      5.4586    129.2238     28.0571
  1606.2000      8.1398      2.6063      0.1646      2.6463    137.4593     28.7574
  1606.3000      8.1321      2.6517      0.2347     -0.1025    149.0479     29.7192
  1606.4000      8.1321      2.6762      0.0812     -1.5864    152.2451     29.7627
  1606.5000      8.1310      2.6803      0.1240     -1.8380    145.6879     29.1040
  1606.6000      8.1310      2.6732      0.0740     -1.4041    136.9950     28.7645
  1606.7000      8.1310      2.6650      0.1006     -0.9080    132.1804     28.6727
  1606.8000      8.1287      2.6543      0.0677     -0.2617    131.3551     28.7944
  1606.9000      8.1287      2.6363      0.0234      0.8333    131.5579     29.3244
  1607.0000      8.1124      2.6295      0.0290      1.2395    133.0630     29.8840
  1607.1000      8.1124      2.6637      0.0383     -0.8310    137.1948     30.4274
  1607.2000      8.1124      2.7388      0.1347     -5.3821    138.0254     30.9734
  1607.3000      8.1128      2.8209      0.1169    -10.3572    133.3194     30.7018
  1607.4000      8.1128      2.8808      0.1558    -13.9890    130.0282     29.3992
  1607.5000      8.0992      2.9045      0.1660    -15.4223    127.8160     27.8620
  1607.6000      8.0992      2.8798      0.1812    -13.9274    122.0519     26.4769
  1607.7000      8.0992      2.8084      0.1368     -9.5980    117.2243     25.7470
  1607.8000      8.0749      2.7176      0.0266     -4.0987    117.6999     26.1616
  1607.9000      8.0749      2.6380     -0.1133      0.7294    123.0438     27.0998
  1608.0000      8.0778      2.5778     -0.1614      4.3742    131.9680     27.6791
  1608.1000      8.0778      2.5370     -0.1273      6.8470    140.6791     27.5997
  1608.2000      8.0778      2.5294     -0.2202      7.3091    141.8599     26.8891
  1608.3000      8.0306      2.5634     -0.0567      5.2509    133.1131     26.2002
  1608.4000      8.0306      2.6105      0.0466      2.3930    123.6521     26.8486
  1608.5000      8.1203      2.6355      0.0699      0.8767    120.4707     28.6177
  1608.6000      8.1203      2.6290      0.0834      1.2700    121.1609     29.7724
  1608.7000      8.1203      2.6030      0.0652      2.8509    127.1953     29.8556
  1608.8000      8.1794      2.5729      0.0566      4.6706    139.1217     29.1367
  1608.9000      8.1794      2.5483      0.0507      6.1631    148.6593     27.8085
  1609.0000      8.1519      2.5368      0.0654      6.8612    154.5844     26.6629
  1609.1000      8.1519      2.5304      0.0778      7.2495    159.5335     26.5527
  1609.2000      8.1519      2.5133      0.0392      8.2859    157.1623     27.7607
  1609.3000      8.1526      2.4990      0.0315      9.1517    149.2535     29.5377
  1609.4000      8.1526      2.5055      0.0432      8.7592    146.6444     30.5398
  1609.5000      8.1583      2.5131      0.0903      8.2969    151.5554     30.6591
  1609.6000      8.1583      2.5046      0.0821      8.8140    155.3584     30.5394
  1609.7000      8.1583      2.5026      0.0422      8.9363    152.9284     30.1340
  1609.8000      8.1557      2.5244      0.0494      7.6134    150.8398     29.5800
  1609.9000      8.1557      2.5508      0.0718      6.0106    154.0977     29.6024
  1610.0000      8.1614      2.5565      0.0666      5.6652    158.8089     30.4957
  1610.1000      8.1614      2.5484      0.0090      6.1551    159.7540     31.2785
  1610.2000      8.1614      2.5554      0.0926      5.7358    156.4277     30.7144
  1610.3000      8.1616      2.5809      0.1000      4.1859    153.0773     29.2471
  1610.4000      8.1616      2.6109      0.1000      2.3709    156.0189     28.1900
  1610.5000      8.1739      2.6315      0.1826      1.1189    162.8093     28.0362
  1610.6000      8.1739      2.6265      0.1435      1.4216    161.8301     28.3332
  1610.7000      8.1739      2.5986      0.1303      3.1150    150.7548     28.7701
  1610.8000      8.1613      2.5689      0.1236      4.9147    140.9167     29.1284
  1610.9000      8.1613      2.5562      0.0582      5.6870    142.0546     28.5792
  1611.0000      8.0604      2.5556      0.1235      5.7193    151.9220     27.4465
  1611.1000      8.0604      2.5479      0.0867      6.1882    163.9119     27.0676
  1611.2000      8.0604      2.5389      0.0974      6.7325    170.3516     27.8125
  1611.3000      8.0639      2.5459      0.1136      6.3114    162.9607     29.3588
  1611.4000      8.0639      2.5624      0.1225      5.3100    146.5102     30.6527
  1611.5000      8.1140      2.5660      0.1525      5.0925    136.7211     30.6425
  1611.6000      8.1140      2.5495      0.1188      6.0904    139.3501     29.9128
  1611.7000      8.1140      2.5256      0.1304      7.5390    148.2978     29.2977
  1611.8000      8.1258      2.5081      0.0987      8.5998    157.3343     28.8726
  1611.9000      8.1258      2.4999      0.1342      9.0993    161.3227     28.5614
