~Version Information
VERS.                      2.0: CWLS Log ASCII Standard - VERSION 2.0
WRAP.                       NO: One line per depth step
~Well Information Block
STRT.FT               550.0000: 
STOP.FT              1664.0000: 
STEP.FT                 0.2500: 
NULL.                -999.2500: 
COMP.          Pioneer Natural Resources: COMPANY
WELL.          Stock Canyon 34-33: WELL
FLD.           Purgatorie River: FIELD
LOC.           980' FSL & 2191' FEL: LOCATION
PROV.                 Colorado: PROVINCE
CNTY.               Las Animas: COUNTRY
SRVC.                Patterson: SERVICE COMPANY
DATE.          Mon Dec 05 09:58:03 2005: LOG DATE
UWI.                          : UNIQUE WELL ID
~Curve Information Block
DEPT.FT            0 000 00 00: Depth
SN.Ohm-m                      : IEL Short Normal
SP.mV                         : IEL Spontaneous Potential
DIR.Ohm-m                     : IEL Induction Resistivity
GR.GAPI                       : Gamma Ray
~Parameter Information Block
~A  Depth        SN          SP         DIR          GR     
# ...
  1555.0000     29.9913    268.7582     28.1195     64.3477
  1555.2500     29.3068    269.2853     27.0878     63.6070
  1555.5000     28.6066    269.7509     26.3815     63.6492
  1555.7500     27.9016    270.1480     26.0242     63.5152
  1556.0000     27.2055    270.4913     25.9426     62.7299
  1556.2500     26.5350    270.8073     26.0086     62.1244
  1556.5000     25.9118    271.1197     26.0876     61.4945
  1556.7500     25.3618    271.4395     26.0847     61.1986
  1557.0000     24.9129    271.7700     25.9777     60.8446
  1557.2500     24.5889    272.1200     25.8135     61.0083
  1557.5000     24.4044    272.5115     25.6655     62.9954
  1557.7500     24.3625    272.9764     25.5794     65.8634
  1558.0000     24.4554    273.5435     25.5483     71.5790
  1558.2500     24.6687    274.2220     25.5381     75.0066
  1558.5000     24.9836    274.9906     25.5440     77.4399
  1558.7500     25.3777    275.8040     25.6253     76.9336
  1559.0000     25.8242    276.6102     25.8763     74.2243
  1559.2500     26.2930    277.3605     26.3520     72.1857
  1559.5000     26.7536    278.0109     27.0073     69.6028
  1559.7500     27.1796    278.5267     27.6977     67.9272
  1560.0000     27.5539    278.8949     28.2521     64.7813
  1560.2500     27.8708    279.1270     28.5668     62.2620
  1560.5000     28.1342    279.2418     28.6468     58.6222
  1560.7500     28.3529    279.2431     28.5670     56.8662
  1561.0000     28.5323    279.1115     28.4087     55.7477
  1561.2500     28.6699    278.8155     28.2319     55.8310
  1561.5000     28.7544    278.3241     28.0813     56.3363
  1561.7500     28.7720    277.6122     27.9964     56.3760
  1562.0000     28.7152    276.6662     28.0022     55.2940
  1562.2500     28.5903    275.5034     28.0895     53.7319
  1562.5000     28.4185    274.2036     28.2033     50.9327
  1562.7500     28.2302    272.9461     28.2533     49.6594
  1563.0000     28.0560    272.0331     28.1410     49.9074
  1563.2500     27.9180    271.8565     27.7903     51.6106
  1563.5000     27.8265    272.7636     27.1700     55.4629
  1563.7500     27.7817    274.8558     26.3151     57.9990
  1564.0000     27.7770    277.8638     25.3364     60.7464
  1564.2500     27.8018    281.2317     24.4014     61.9484
  1564.5000     27.8427    284.3749     23.6793     63.4794
  1564.7500     27.8823    286.9225     23.2797     64.3167
  1565.0000     27.9018    288.7872     23.2193     64.2996
  1565.2500     27.8850    290.0775     23.4292     62.9238
  1565.5000     27.8244    290.9667     23.7989     59.1843
  1565.7500     27.7241    291.6083     24.2320     56.4130
  1566.0000     27.5993    292.1098     24.6744     53.2729
  1566.2500     27.4715    292.5380     25.0981     52.2628
  1566.5000     27.3626    292.9314     25.4698     52.1878
  1566.7500     27.2903    293.3139     25.7442     52.6451
  1567.0000     27.2662    293.7003     25.8866     53.2695
  1567.2500     27.2960    294.0931     25.8931     53.3849
  1567.5000     27.3810    294.4746     25.7894     53.0975
  1567.7500     27.5200    294.8051     25.6161     52.7320
  1568.0000     27.7116    295.0294     25.4195     52.2282
  1568.2500     27.9558    295.0842     25.2462     52.1572
  1568.5000     28.2548    294.9037     25.1388     52.9541
  1568.7500     28.6121    294.4264     25.1238     54.3236
  1569.0000     29.0302    293.6062     25.1988     57.4291
  1569.2500     29.5089    292.4225     25.3338     59.5581
  1569.5000     30.0433    290.8842     25.4927     61.5408
  1569.7500     30.6239    289.0302     25.6708     61.8692
  1570.0000     31.2370    286.9389     25.9182     61.8089
  1570.2500     31.8661    284.7631     26.3224     62.0401
  1570.5000     32.4928    282.7748     26.9565     62.8260
  1570.7500     33.1004    281.3674     27.8259     63.0788
  1571.0000     33.6767    280.9510     28.8460     62.1087
  1571.2500     34.2159    281.7551     29.8679     60.4435
  1571.5000     34.7152    283.6746     30.7428     56.9489
  1571.7500     35.1692    286.3057     31.3873     54.5016
  1572.0000     35.5643    289.1579     31.7991     51.6840
  1572.2500     35.8798    291.8701     32.0268     50.8309
  1572.5000     36.0951    294.2854     32.1286     51.2240
  1572.7500     36.2022    296.3957     32.1516     52.2560
  1573.0000     36.2132    298.2510     32.1284     54.0645
  1573.2500     36.1603    299.9019     32.0779     55.0328
  1573.5000     36.0871    301.3788     32.0086     55.7893
  1573.7500     36.0346    302.6946     31.9205     55.7349
  1574.0000     36.0311    303.8575     31.8123     54.7799
  1574.2500     36.0881    304.8804     31.6807     53.8196
  1574.5000     36.2042    305.7823     31.5166     52.9748
  1574.7500     36.3729    306.5856     31.3080     53.4467
  1575.0000     36.5901    307.3196     31.0563     55.8506
  1575.2500     36.8547    308.0225     30.8005     58.0114
  1575.5000     37.1644    308.7289     30.6152     60.6655
  1575.7500     37.5078    309.4416     30.5711     61.4272
  1576.0000     37.8593    310.1146     30.6853     60.9400
  1576.2500     38.1802    310.6710     30.9093     60.0547
  1576.5000     38.4280    311.0538     31.1695     59.2685
  1576.7500     38.5695    311.2758     31.4214     59.6760
  1577.0000     38.5935    311.4358     31.6566     61.5296
  1577.2500     38.5183    311.6981     31.8559     62.9396
  1577.5000     38.3904    312.2477     31.9559     64.0770
  1577.7500     38.2769    313.2271     31.8847     63.8176
  1578.0000     38.2495    314.6667     31.6406     62.1672
  1578.2500     38.3667    316.4527     31.3262     60.7344
  1578.5000     38.6585    318.3695     31.0979     58.7679
  1578.7500     39.1184    320.1941     31.0831     57.5830
  1579.0000     39.7082    321.7702     31.3288     55.8368
  1579.2500     40.3715    323.0241     31.7936     54.9543
  1579.5000     41.0513    323.9455     32.3677     54.9736
  1579.7500     41.7026    324.5704     32.9165     56.1773
  1580.0000     42.2965    324.9706     33.3439     59.2454
  1580.2500     42.8168    325.2400     33.6407     61.3692
  1580.5000     43.2537    325.4729     33.8739     63.3973
  1580.7500     43.5985    325.7473     34.1231     63.6380
  1581.0000     43.8407    326.1142     34.4153     62.6556
  1581.2500     43.9673    326.5945     34.6985     61.6343
  1581.5000     43.9635    327.1844     34.8564     60.3893
  1581.7500     43.8157    327.8675     34.7563     59.8761
  1582.0000     43.5181    328.6223     34.3132     59.1612
  1582.2500     43.0792    329.4157     33.5505     58.3966
  1582.5000     42.5253    330.1942     32.6080     56.6232
  1582.7500     41.8983    330.8927     31.6753     55.1729
  1583.0000     41.2465    331.4619     30.8995     53.0954
  1583.2500     40.6141    331.8883     30.3383     52.0257
  1583.5000     40.0339    332.1922     29.9867     51.1124
  1583.7500     39.5261    332.4099     29.8363     51.0500
  1584.0000     39.1017    332.5773     29.8998     51.9104
  1584.2500     38.7677    332.7231     30.1819     53.0851
  1584.5000     38.5297    332.8658     30.6352     55.4530
  1584.7500     38.3932    333.0096     31.1581     57.3113
  1585.0000     38.3629    333.1480     31.6382     60.6982
  1585.2500     38.4431    333.2780     32.0042     63.5868
  1585.5000     38.6389    333.4147     32.2421     68.6978
  1585.7500     38.9552    333.5878     32.3775     71.8328
  1586.0000     39.3936    333.8233     32.4490     74.1762
  1586.2500     39.9467    334.1309     32.4898     73.5682
  1586.5000     40.5907    334.5038     32.5215     70.0977
  1586.7500     41.2808    334.9237     32.5565     67.0204
  1587.0000     41.9544    335.3610     32.5975     62.6517
  1587.2500     42.5408    335.7777     32.6320     60.4252
  1587.5000     42.9778    336.1406     32.6273     58.3702
  1587.7500     43.2259    336.4358     32.5426     57.4700
  1588.0000     43.2735    336.6680     32.3582     55.7293
  1588.2500     43.1327    336.8449     32.1060     54.1518
