~Version Information
VERS.                      2.0: CWLS Log ASCII Standard - VERSION 2.0
WRAP.                       NO: One line per depth step
~Well Information Block
STRT.FT                -7.5000: 
STOP.FT              1310.7500: 
STEP.FT                 0.2500: 
NULL.                -999.2500: 
COMP.          Pioneer Natural Resources: COMPANY
WELL.          Challenger 31-29: WELL
FLD.           Purgatorie River: FIELD
LOC.           51' FNL & 1923' FEL------: LOCATION
STAT.                       CO: State
CNTY.               Las Animas: COUNTY
CTRY. USA : Country
SECT. 29 : Section
TOWN. 33S : Township
RANG. 65W : Range
SRVC.          Patterson Wireline: SERVICE COMPANY
DATE.          Wed Sep 21 12:11:38 2005: LOG DATE
API.           05 071 08514 00: UNIQUE WELL ID
~Curve Information Block
DEPT.FT            0 000 00 00: Depth
CCL.                          : Casing Collar Locator
TT3.usec                      : CBL 3' Travel Time
AMP3.mV                       : CBL 3' Amplitude
GR.GAPI                       : Gamma Ray
~Parameter Information Block
~A  Depth       CCL         TT3         AMP3         GR     
# ...
   662.5000      0.0000    301.5490     28.1304    161.0253
   662.7500      0.0000    301.6446     27.8590    145.7787
   663.0000      0.0000    301.7292     27.5784    128.5923
   663.2500      0.0000    301.8042     27.2907    113.3989
   663.5000      0.0000    301.8723     26.9949    102.5370
   663.7500      0.0000    301.9347     26.7063     96.4435
   664.0000      0.0000    301.9916     26.4563     94.6371
   664.2500      0.0000    302.0442     26.2755     96.4840
   664.5000      0.0000    302.0929     26.1785    101.2784
   664.7500      0.0000    302.1282     26.1648    108.3875
   665.0000      0.0000    302.1263     26.2270    117.4815
   665.2500      0.0000    302.0649     26.3498    127.9989
   665.5000      0.0000    301.9496     26.5031    138.2293
   665.7500      0.0000    301.8196     26.6463    145.5603
   666.0000      0.0000    301.7200     26.7442    148.3394
   666.2500      0.0000    301.6703     26.7854    147.4488
   666.5000      0.0000    301.6574     26.7880    145.4885
   666.7500      0.0000    301.6523     26.7915    144.4593
   667.0000      0.0000    301.6331     26.8371    144.8442
   667.2500      0.0000    301.5930     26.9462    146.6682
   667.5000      0.0000    301.5332     27.1106    150.2123
   667.7500      0.0000    301.4537     27.3019    155.2315
   668.0000      0.0000    301.3556     27.4891    160.1755
   668.2500      0.0000    301.2496     27.6534    162.7356
   668.5000      0.0000    301.1536     27.8007    161.3162
   668.7500      0.0000    301.0729     27.9803    156.3038
   669.0000      0.0000    300.9846     28.2852    150.0132
   669.2500      0.0000    300.8532     28.8044    144.8059
   669.5000      0.0000    300.6665     29.5538    140.9537
   669.7500      0.0000    300.4513     30.4613    136.7911
   670.0000      0.0000    300.2502     31.4210    131.1369
   670.2500      0.0000    300.0890     32.3487    124.7283
   670.5000      0.0000    299.9689     33.1911    118.9400
   670.7500      0.0000    299.8785     33.9128    113.9941
   671.0000      0.0000    299.8091     34.4896    108.8820
   671.2500      0.0000    299.7607     34.9094    102.4504
   671.5000      0.0000    299.7343     35.1735     94.3963
   671.7500      0.0000    299.7215     35.3054     85.6452
   672.0000      0.0000    299.7096     35.3470     77.8165
   672.2500      0.0000    299.7012     35.3247     72.0214
   672.5000      0.0000    299.7177     35.2192     68.1144
   672.7500      0.0000    299.7778     34.9889     65.1913
   673.0000      0.0000    299.8792     34.6271     62.6907
   673.2500      0.0000    300.0048     34.1778     60.8351
   673.5000      0.0000    300.1401     33.7006     60.0564
   673.7500      0.0000    300.2779     33.2317     60.4114
   674.0000      0.0000    300.4124     32.7781     61.7696
   674.2500      0.0000    300.5349     32.3300     63.9035
   674.5000      0.0000    300.6385     31.8765     65.9629
   674.7500      0.0000    300.7225     31.4148     66.7094
   675.0000      0.0000    300.7932     30.9536     66.0056
   675.2500      0.0000    300.8621     30.5105     65.5491
   675.5000      0.0000    300.9438     30.1034     67.5469
   675.7500      0.0000    301.0483     29.7422     72.8436
   676.0000      0.0000    301.1724     29.4319     80.5648
   676.2500      0.0000    301.3024     29.1790     89.4132
   676.5000      0.0000    301.4264     28.9839     99.0872
   676.7500      0.0000    301.5416     28.8239    109.9873
   677.0000      0.0000    301.6508     28.6521    121.5024
   677.2500      0.0000    301.7556     28.4274    131.3518
   677.5000      0.0000    301.8527     28.1510    137.0577
   677.7500      0.0000    301.9315     27.8699    137.4821
   678.0000      0.0000    301.9802     27.6375    132.7172
   678.2500      0.0000    301.9974     27.4708    123.3763
   678.5000      0.0000    301.9951     27.3478    110.7715
   678.7500      0.0000    301.9866     27.2409     97.5367
   679.0000      0.0000    301.9736     27.1416     87.2660
   679.2500      0.0000    301.9503     27.0554     82.8616
   679.5000      0.0000    301.9160     26.9894     84.9822
   679.7500      0.0000    301.8817     26.9476     92.0660
   680.0000      0.0000    301.8645     26.9261    101.6431
   680.2500      0.0000    301.8787     26.9062    111.4854
   680.5000      0.0000    301.9238     26.8671    119.9323
   680.7500      0.0000    301.9778     26.8151    125.7818
   681.0000      0.0000    302.0068     26.7878    128.3499
   681.2500      0.0000    301.9915     26.8225    127.8676
   681.5000      0.0000    301.9421     26.9233    126.0523
   681.7500      0.0000    301.8861     27.0621    125.8915
   682.0000      0.0000    301.8431     27.2025    129.8309
   682.2500      0.0000    301.8124     27.3223    137.5459
   682.5000      0.0000    301.7827     27.4207    145.8317
   682.7500      0.0000    301.7462     27.5075    151.3178
   683.0000      0.0000    301.7031     27.5830    153.4864
   683.2500      0.0000    301.6595     27.6290    154.6291
   683.5000      0.0000    301.6241     27.6248    156.7249
   683.7500      0.0000    301.6058     27.5694    159.0576
   684.0000      0.0000    301.6074     27.4837    159.2878
   684.2500      0.0000    301.6235     27.3882    155.9986
   684.5000      0.0000    301.6479     27.2830    149.6101
   684.7500      0.0000    301.6808     27.1465    141.6410
   685.0000      0.0000    301.7301     26.9527    133.9013
   685.2500      0.0000    301.8074     26.6944    127.9210
   685.5000      0.0000    301.9242     26.3983    124.3162
   685.7500      0.0000    302.1390     26.1159    122.6455
   686.0000      0.0000    302.7028     25.8770    122.0774
   686.2500      0.0000    304.2519     25.6342    121.8956
   686.5000      0.0000    307.7572     25.2592    121.2766
   686.7500      0.0000    313.8605     24.6377    119.3266
   687.0000      0.0000    322.0229     23.7901    115.8820
   687.2500      0.0000    330.8327     22.8559    111.9817
   687.5000      0.0000    339.7127     21.9236    109.2299
   687.7500      0.0000    349.9951     20.9469    108.6029
   688.0000      0.0000    363.8443     19.9092    109.5845
   688.2500      0.0000    382.6624     18.9796    110.2194
   688.5000      0.0000    407.7155     18.3913    108.4209
   688.7500     -2.0000    442.6036     18.2100    103.7296
   689.0000      0.0000    491.7600     18.3007     97.7941
   689.2500      0.0000    551.5545     18.4785     92.9666
   689.5000      0.0000    603.5209     18.6651     90.4487
   689.7500      0.0000    623.3510     18.9467     89.9182
   690.0000      0.0000    599.5831     19.4925     90.7502
   690.2500      0.0000    541.3666     20.3719     93.0542
   690.5000      0.0000    469.6560     21.4705     97.1868
   690.7500      0.0000    404.1655     22.6376    102.6178
   691.0000      0.0000    355.9343     23.8217    107.8033
   691.2500      0.0000    326.5255     24.9713    111.3296
   691.5000      0.0000    311.5524     25.9245    113.1552
   691.7500      0.0000    305.1994     26.5279    114.5677
   692.0000      0.0000    302.9930     26.7984    116.6967
   692.2500      0.0000    302.3895     26.8901    119.1256
   692.5000      0.0000    302.2595     26.9512    120.2591
   692.7500      0.0000    302.2299     27.0606    119.0486
   693.0000      0.0000    302.1810     27.2625    115.9319
   693.2500      0.0000    302.0858     27.5928    112.0766
   693.5000      0.0000    301.9407     28.0574    108.3049
   693.7500      0.0000    301.7598     28.6015    104.9983
   694.0000      0.0000    301.5660     29.1196    102.5557
   694.2500      0.0000    301.3912     29.5031    101.5221
   694.5000      0.0000    301.2713     29.6981    102.3058
   694.7500      0.0000    301.2249     29.7386    104.8845
   695.0000      0.0000    301.2365     29.7247    108.6063
   695.2500      0.0000    301.2690     29.7477    112.1778
   695.5000      0.0000    301.2928     29.8286    114.0158
   695.7500      0.0000    301.2990     29.9236    112.7928
