~Version Information
VERS.                      2.0: CWLS Log ASCII Standard - VERSION 2.0
WRAP.                       NO: One line per depth step
~Well Information Block
STRT.FT                -8.2500: 
STOP.FT              2119.7500: 
STEP.FT                 0.2500: 
NULL.                -999.2500: 
COMP.          Pioneer Natural Resources: COMPANY
WELL.          Hemisphere 32-24: WELL
FLD.           Purgatorie River: FIELD
LOC.           1850' FNL & 2284' FEL--: LOCATION
PROV.                       CO: PROVINCE
CNTY.               Las Animas: COUNTRY
SRVC.          Patterson Wireline: SERVICE COMPANY
DATE.          Sat Aug 27 08:06:42 2005: LOG DATE
UWI.           05 071 08440 00: UNIQUE WELL ID
~Curve Information Block
DEPT.FT            0 000 00 00: Depth
CCL.                          : Casing Collar Locator
TT3.usec                      : CBL 3' Travel Time
AMP3.mV                       : CBL 3' Amplitude
GR.GAPI                       : Gamma Ray
~Parameter Information Block
~A  Depth       CCL         TT3         AMP3         GR     
# ...
  1130.7500      0.0000    677.7991      5.1073    133.4375
  1131.0000      0.0000    677.2853      5.0219    130.2773
  1131.2500      0.0000    675.0219      4.9522    126.4379
  1131.5000      0.0000    672.7070      4.9075    121.8632
  1131.7500      0.0000    670.8642      4.8890    117.5570
  1132.0000      0.0000    669.0052      4.8923    114.9084
  1132.2500      0.0000    667.0997      4.9118    114.1788
  1132.5000      0.0000    665.7431      4.9441    114.1300
  1132.7500      0.0000    665.2337      4.9866    113.7211
  1133.0000      0.0000    665.3351      5.0346    113.4149
  1133.2500      0.0000    665.8336      5.0769    113.9513
  1133.5000      0.0000    666.9163      5.0914    114.6047
  1133.7500      0.0000    669.0297      5.0490    113.9390
  1134.0000      0.0000    672.4136      4.9349    112.0749
  1134.2500      0.0000    676.9684      4.7754    111.0377
  1134.5000      0.0000    683.3736      4.6314    112.4087
  1134.7500      0.0000    694.7772      4.5459    115.1429
  1135.0000      0.0000    716.0458      4.5064    116.3000
  1135.2500      0.0000    749.0394      4.4793    113.8837
  1135.5000      0.0000    787.9552      4.4636    108.5588
  1135.7500      0.0000    820.6785      4.4825    102.5130
  1136.0000      0.0000    836.5369      4.5392     97.2340
  1136.2500      2.0000    833.7408      4.6138     92.7316
  1136.5000      0.0000    819.3322      4.6982     88.2465
  1136.7500      0.0000    802.1794      4.8212     83.0247
  1137.0000      0.0000    786.6991      5.0364     76.7936
  1137.2500      0.0000    772.8255      5.3667     70.1396
  1137.5000      0.0000    760.0177      5.7430     64.2674
  1137.7500      0.0000    749.8973      6.0255     60.0722
  1138.0000      0.0000    745.1290      6.1245     57.5119
  1138.2500      0.0000    746.4641      6.0797     55.8841
  1138.5000      0.0000    751.5414      5.9951     54.4365
  1138.7500      0.0000    756.8045      5.9303     52.7129
  1139.0000      0.0000    760.0618      5.8819     50.7489
  1139.2500      0.0000    760.8143      5.8322     49.2502
  1139.5000      0.0000    758.7394      5.7805     49.3924
  1139.7500      0.0000    752.5651      5.7355     51.9047
  1140.0000      0.0000    740.8859      5.7004     56.1010
  1140.2500      0.0000    724.4482      5.6686     60.2206
  1140.5000      0.0000    707.6744      5.6308     63.1910
  1140.7500      0.0000    697.1359      5.5868     65.8930
  1141.0000      0.0000    697.4393      5.5468     70.4840
  1141.2500      0.0000    707.9717      5.5245     78.7143
  1141.5000      0.0000    723.4194      5.5304     90.9870
  1141.7500      0.0000    737.1865      5.5714    106.3380
  1142.0000      0.0000    744.1547      5.6498    122.5811
  1142.2500      0.0000    741.3705      5.7607    136.5368
  1142.5000      0.0000    728.7001      5.8887    145.0246
  1142.7500      0.0000    709.8818      6.0116    146.6652
  1143.0000      0.0000    691.1973      6.1113    143.0845
  1143.2500      0.0000    677.5985      6.1847    137.7998
  1143.5000      0.0000    670.2192      6.2449    133.4654
  1143.7500      0.0000    667.4154      6.3076    130.2514
  1144.0000      0.0000    667.1943      6.3753    126.7550
  1144.2500      0.0000    668.5680      6.4370    121.8719
  1144.5000      0.0000    671.4487      6.4818    115.7456
  1144.7500      0.0000    675.6828      6.5078    109.6247
  1145.0000      0.0000    680.1586      6.5172    105.1226
  1145.2500      0.0000    683.2288      6.5053    103.1858
  1145.5000      0.0000    684.2960      6.4609    103.5285
  1145.7500      0.0000    684.2773      6.3780    105.1617
  1146.0000      0.0000    683.9205      6.2692    107.4023
  1146.2500      0.0000    682.5016      6.1661    110.1812
  1146.5000      0.0000    679.0473      6.1039    113.4583
  1146.7500      0.0000    674.1110      6.0985    116.4620
  1147.0000      0.0000    669.4329      6.1366    117.7265
  1147.2500      0.0000    666.2877      6.1919    116.3576
  1147.5000      0.0000    664.7704      6.2495    113.5167
  1147.7500      0.0000    664.3260      6.3127    112.1242
  1148.0000      0.0000    664.4197      6.3900    114.4909
  1148.2500      0.0000    664.8418      6.4766    120.1916
  1148.5000      0.0000    665.8021      6.5503    126.4822
  1148.7500      0.0000    667.9952      6.5857    130.6905
  1149.0000      0.0000    672.4489      6.5739    132.1351
  1149.2500      0.0000    679.8503      6.5287    132.0903
  1149.5000      0.0000    689.6649      6.4771    132.3547
  1149.7500      0.0000    700.1571      6.4472    133.9205
  1150.0000      0.0000    709.8181      6.4589    136.5963
  1150.2500      0.0000    718.7469      6.5152    139.2760
  1150.5000      0.0000    728.2948      6.5960    140.3143
  1150.7500      0.0000    739.4349      6.6686    138.1087
  1151.0000      0.0000    751.7311      6.7094    132.0467
  1151.2500      0.0000    763.7219      6.7129    123.2318
  1151.5000      0.0000    773.8369      6.6856    114.3018
  1151.7500      0.0000    780.8431      6.6395    108.2345
  1152.0000      0.0000    783.8207      6.5912    106.5283
  1152.2500      0.0000    782.2441      6.5571    107.9605
  1152.5000      0.0000    776.5692      6.5476    109.4399
  1152.7500      0.0000    769.0009      6.5596    108.5854
  1153.0000      0.0000    762.9316      6.5737    105.6137
  1153.2500      0.0000    760.4121      6.5585    102.9402
  1153.5000      0.0000    760.2260      6.4902    103.2952
  1153.7500      0.0000    759.5047      6.3769    107.9919
  1154.0000      0.0000    757.1481      6.2629    116.2264
  1154.2500      0.0000    754.5137      6.1998    125.3592
  1154.5000      0.0000    752.9445      6.2090    131.9932
  1154.7500      0.0000    752.0804      6.2723    133.6546
  1155.0000      0.0000    751.1057      6.3564    130.2431
  1155.2500      0.0000    750.5095      6.4423    123.9918
  1155.5000      0.0000    751.6984      6.5295    117.8329
  1155.7500      0.0000    755.3007      6.6203    113.6319
  1156.0000      0.0000    760.5581      6.7076    111.5642
  1156.2500      0.0000    766.2305      6.7812    110.4258
  1156.5000      0.0000    771.4781      6.8420    108.3350
  1156.7500      0.0000    775.7039      6.9059    103.9689
  1157.0000      0.0000    778.0227      6.9861     97.9290
  1157.2500      0.0000    777.4265      7.0699     92.7314
  1157.5000      0.0000    773.5786      7.1150     90.9527
  1157.7500      0.0000    767.2156      7.0789     93.2152
  1158.0000      0.0000    759.7435      6.9552     98.0948
  1158.2500      0.0000    752.7780      6.7833    103.9366
  1158.5000      0.0000    748.0228      6.6181    110.4091
  1158.7500      0.0000    746.8965      6.4895    118.0804
  1159.0000      0.0000    749.6684      6.3899    126.8770
  1159.2500      0.0000    754.8008      6.2953    135.2589
  1159.5000      0.0000    759.5073      6.1957    140.6694
  1159.7500      0.0000    761.6091      6.1046    140.9633
  1160.0000      0.0000    760.9290      6.0439    136.0144
  1160.2500      0.0000    758.4474      6.0184    127.9361
  1160.5000      0.0000    754.7057      6.0078    119.4819
  1160.7500      0.0000    749.9706      5.9841    112.5705
  1161.0000      0.0000    744.9912      5.9367    108.3200
  1161.2500      0.0000    740.1221      5.8752    107.4359
  1161.5000      0.0000    734.7477      5.8104    109.8684
  1161.7500      0.0000    728.7371      5.7385    114.4771
  1162.0000      0.0000    722.7479      5.6473    119.5036
  1162.2500      0.0000    716.1338      5.5376    123.6814
  1162.5000      0.0000    706.9058      5.4298    127.3700
  1162.7500      0.0000    694.8646      5.3466    132.6435
  1163.0000      0.0000    682.8004      5.2939    141.4342
  1163.2500      0.0000    673.8500      5.2619    153.0165
  1163.5000      0.0000    669.0525      5.2424    163.6150
  1163.7500      0.0000    667.8386      5.2371    168.9608
  1164.0000      0.0000    669.7225      5.2503    167.3450
