~Version Information
VERS.                      2.0: CWLS Log ASCII Standard - VERSION 2.0
WRAP.                       NO: One line per depth step
~Well Information Block
STRT.FT               480.0000: 
STOP.FT              1946.0000: 
STEP.FT                 0.1000: 
NULL.                -999.2500: 
COMP.          XTO Energy Inc.: COMPANY
WELL.          Golden Eagle 19-15: WELL
FLD.           Purgatoire River: FIELD
LOC.           1121' FSL & 2332' FEL--: LOCATION
CNTY.               Las Animas: COUNTY
SRVC.                Patterson: SERVICE COMPANY
DATE.          Mon Mar 13 10:27:20 2006: LOG DATE
UWI.           05 071 08717 00: UNIQUE WELL ID
STAT.                 Colorado: STATE
~Curve Information Block
DEPT.FT            0 000 00 00: Depth
DCAL.in                       : CDL Caliper
RHOB.g/cc                     : CDL Bulk Density
RHOC.g/cc                     : CDL Density Correction
DPOR.pu                       : CDL Density Porosity
NPOR.pu                       : Neutron Porosity
GR.GAPI                       : Gamma Ray
~Parameter Information Block
~A  Depth       DCAL        RHOB        RHOC        DPOR        NPOR         GR     
# ...
   960.0000      8.0593      2.5903      0.0952      3.6164     24.2836    138.6353
   960.1000      8.0593      2.6067      0.0994      2.6226     24.2509    138.0269
   960.2000      8.0593      2.6208      0.0822      1.7679     24.2434    133.2090
   960.3000      8.0617      2.6281      0.1307      1.3297     24.3673    127.1918
   960.4000      8.0617      2.6251      0.0669      1.5097     24.7293    127.3266
   960.5000      8.0624      2.6148      0.0677      2.1320     25.2859    131.1399
   960.6000      8.0624      2.5926      0.0935      3.4786     25.7845    132.4613
   960.7000      8.0624      2.5610      0.0497      5.3962     26.1277    131.9540
   960.8000      8.0618      2.5339      0.0548      7.0339     26.2756    131.7588
   960.9000      8.0618      2.5175      0.0035      8.0285     26.1152    133.5558
   961.0000      8.0579      2.5115      0.0296      8.3970     25.6819    139.7778
   961.1000      8.0579      2.5205     -0.0287      7.8486     25.2700    147.8587
   961.2000      8.0579      2.5487      0.0370      6.1373     25.1143    148.8530
   961.3000      8.0520      2.5782      0.0622      4.3514     24.9116    142.4616
   961.4000      8.0520      2.5865      0.0846      3.8498     24.4468    138.9178
   961.5000      8.0486      2.5789      0.0426      4.3083     24.0849    142.0070
   961.6000      8.0486      2.5718      0.0535      4.7377     23.9932    144.7695
   961.7000      8.0486      2.5645      0.0781      5.1828     23.7245    141.5124
   961.8000      8.0485      2.5524      0.0727      5.9173     22.9412    137.4930
   961.9000      8.0485      2.5399      0.0683      6.6707     22.0890    140.0798
   962.0000      8.0483      2.5290      0.0412      7.3309     21.7471    147.2858
   962.1000      8.0483      2.5206      0.0221      7.8395     21.7523    151.7306
   962.2000      8.0483      2.5182      0.0227      7.9891     21.7836    147.7680
   962.3000      8.0487      2.5211      0.0590      7.8141     21.8799    137.6030
   962.4000      8.0487      2.5303      0.0188      7.2547     21.9557    128.0482
   962.5000      8.0502      2.5494      0.0673      6.0947     21.9772    122.4345
   962.6000      8.0502      2.5758      0.0867      4.4996     22.1259    119.3381
   962.7000      8.0502      2.6029      0.0632      2.8561     22.5263    116.3974
   962.8000      8.0502      2.6180      0.1477      1.9367     23.3399    114.2262
   962.9000      8.0502      2.6154      0.0701      2.0991     24.4223    112.1534
   963.0000      8.0499      2.6141      0.0485      2.1741     25.2351    107.4206
   963.1000      8.0499      2.6303      0.0611      1.1962     25.6443    103.0113
   963.2000      8.0499      2.6523      0.0870     -0.1402     25.9558    103.3204
   963.3000      8.0507      2.6603      0.0720     -0.6240     26.3203    108.2397
   963.4000      8.0507      2.6528      0.0594     -0.1685     26.6263    115.0747
   963.5000      8.0536      2.6390      0.0401      0.6658     26.8716    118.9938
   963.6000      8.0536      2.6218      0.0049      1.7095     26.9138    119.8654
   963.7000      8.0536      2.6011     -0.0042      2.9648     26.6640    122.0830
   963.8000      8.0625      2.5798      0.0067      4.2523     26.4137    128.8818
   963.9000      8.0625      2.5666     -0.0384      5.0516     26.2363    136.6145
   964.0000      8.0718      2.5621      0.0111      5.3293     26.1177    138.6623
   964.1000      8.0718      2.5576     -0.0100      5.5997     26.1618    135.6132
   964.2000      8.0718      2.5586     -0.0142      5.5396     26.2478    131.6455
   964.3000      8.0761      2.5749     -0.0103      4.5485     26.3174    127.8279
   964.4000      8.0761      2.6045      0.0236      2.7594     26.5868    125.1104
   964.5000      8.0773      2.6344      0.0495      0.9455     27.0965    128.0859
   964.6000      8.0773      2.6507      0.0095     -0.0400     27.3822    137.4934
   964.7000      8.0773      2.6435      0.0813      0.3915     26.8959    148.0777
   964.8000      8.0765      2.6161      0.0072      2.0570     25.8670    154.0781
   964.9000      8.0765      2.5927     -0.0184      3.4712     24.9839    154.5191
   965.0000      8.0762      2.5863      0.0013      3.8598     24.5456    154.3069
   965.1000      8.0762      2.5881     -0.0139      3.7519     24.5601    155.7412
   965.2000      8.0762      2.5967      0.0127      3.2330     24.8747    156.1795
   965.3000      8.0773      2.6171      0.0223      1.9946     25.1169    155.4251
   965.4000      8.0773      2.6411      0.0635      0.5380     25.0787    153.6791
   965.5000      8.0792      2.6495      0.0546      0.0317     25.0509    149.1100
   965.6000      8.0792      2.6375      0.0254      0.7580     25.2671    144.6453
   965.7000      8.0792      2.6238     -0.0225      1.5896     25.4024    142.3484
   965.8000      8.0805      2.6246      0.0559      1.5411     25.2453    140.5830
   965.9000      8.0805      2.6304      0.0220      1.1879     25.1032    140.2679
   966.0000      8.0816      2.6170      0.0534      1.9985     25.2935    143.3168
   966.1000      8.0816      2.5807     -0.0252      4.1990     25.7107    145.5494
   966.2000      8.0816      2.5527     -0.0468      5.8962     25.9044    141.6099
   966.3000      8.0836      2.5529      0.0127      5.8858     25.7123    134.8890
   966.4000      8.0836      2.5651     -0.0109      5.1430     25.2649    133.4964
   966.5000      8.0856      2.5757     -0.0197      4.5050     24.7852    143.0926
   966.6000      8.0856      2.5872     -0.0070      3.8045     24.5852    159.3938
   966.7000      8.0856      2.5888      0.0399      3.7065     24.8858    169.1747
   966.8000      8.0856      2.5722     -0.0567      4.7164     25.5267    168.7740
   966.9000      8.0856      2.5618     -0.0301      5.3436     26.0910    163.8786
   967.0000      8.0866      2.5691      0.0084      4.9009     26.4304    159.6896
   967.1000      8.0866      2.5812     -0.0048      4.1726     26.4250    163.4784
   967.2000      8.0866      2.5903      0.0419      3.6195     26.0889    171.3420
   967.3000      8.0851      2.5926      0.0234      3.4788     25.7754    170.6720
   967.4000      8.0851      2.5889      0.0066      3.7057     25.5875    163.8056
   967.5000      8.0799      2.5873      0.0220      3.8014     25.3233    159.8050
   967.6000      8.0799      2.5970      0.0048      3.2117     24.9898    157.3341
   967.7000      8.0799      2.6115      0.0463      2.3360     24.7698    152.8475
   967.8000      8.0767      2.6122      0.0473      2.2901     24.6644    149.6097
   967.9000      8.0767      2.5981      0.0158      3.1484     24.4477    149.9818
   968.0000      8.0781      2.5856      0.0219      3.9049     24.0271    153.1799
   968.1000      8.0781      2.5889      0.0004      3.7010     23.7779    157.5065
   968.2000      8.0781      2.6051      0.0593      2.7201     23.9625    160.3738
   968.3000      8.0807      2.6166      0.0290      2.0226     24.3839    160.0341
   968.4000      8.0807      2.6101      0.0551      2.4211     24.7233    154.4041
   968.5000      8.0807      2.5873     -0.0008      3.8022     24.7532    144.0793
   968.6000      8.0807      2.5647     -0.0089      5.1714     24.4682    137.2762
   968.7000      8.0807      2.5520      0.0379      5.9421     24.2094    136.0852
   968.8000      8.0814      2.5462     -0.0134      6.2907     24.1623    135.1910
   968.9000      8.0814      2.5468      0.0284      6.2564     24.2341    135.9373
   969.0000      8.0838      2.5487      0.0223      6.1369     24.4525    139.8249
   969.1000      8.0838      2.5530      0.0068      5.8764     24.9137    142.6061
   969.2000      8.0838      2.5764     -0.0079      4.4635     25.3392    143.8893
   969.3000      8.0853      2.6149      0.0497      2.1286     25.2575    145.7634
   969.4000      8.0853      2.6327      0.0938      1.0456     24.8014    145.7705
   969.5000      8.0845      2.6170      0.0208      1.9979     24.5005    143.1201
