~Version Information
VERS.                      2.0: CWLS Log ASCII Standard - VERSION 2.0
WRAP.                       NO: One line per depth step
~Well Information Block
STRT.FT               875.0000: 
STOP.FT              2947.2000: 
STEP.FT                 0.1000: 
NULL.                -999.2500: 
COMP.          Pioneer Natural Resources: COMPANY
WELL.          Hanginstone 21-27: WELL
FLD.           Purgatoire River: FIELD
LOC.           1186' FNL & 1606' FWL--: LOCATION
PROV.                 Colorado: PROVINCE
CNTY.               Las Animas: COUNTRY
SRVC.                Patterson: SERVICE COMPANY
DATE.          Mon Jan 09 07:31:45 2006: LOG DATE
UWI.           05 071 08632 00: UNIQUE WELL ID
~Curve Information Block
DEPT.FT            0 000 00 00: Depth
DCAL.in                       : CDL Caliper
RHOB.g/cc                     : CDL Bulk Density
RHOC.g/cc                     : CDL Density Correction
DPOR.pu                       : CDL Density Porosity
NPOR.pu                       : Neutron Porosity
GR.GAPI                       : Gamma Ray
~Parameter Information Block
~A  Depth       DCAL        RHOB        RHOC        DPOR        NPOR         GR     
# ...
  2507.0000      7.9263      1.4375     -0.1135     73.4871     32.2266     74.7578
  2507.1000      7.9263      1.4357     -0.0394     73.5958     31.5466     62.9600
  2507.2000      7.9263      1.4699      0.0283     71.5233     31.1577     54.7585
  2507.3000      7.9416      1.5203      0.0492     68.4655     30.8485     50.5481
  2507.4000      7.9416      1.5790      0.0437     64.9091     30.4368     50.4912
  2507.5000      7.9776      1.6622      0.0638     59.8675     30.1392     54.1282
  2507.6000      7.9776      1.7836      0.1192     52.5109     29.7550     59.1392
  2507.7000      7.9776      1.9281      0.1772     43.7539     28.9938     63.0624
  2507.8000      8.0105      2.0634      0.2316     35.5516     27.9159     65.1767
  2507.9000      8.0105      2.1764      0.2515     28.7003     26.8104     67.7063
  2508.0000      8.0050      2.2861      0.2432     22.0545     25.9345     72.8176
  2508.1000      8.0050      2.4073      0.2573     14.7111     25.0958     79.4178
  2508.2000      8.0050      2.5128      0.2803      8.3179     24.3645     86.7197
  2508.3000      7.9608      2.5620      0.2028      5.3311     24.2671     92.7153
  2508.4000      7.9608      2.5621      0.0891      5.3284     24.8084     96.5002
  2508.5000      7.9231      2.5539      0.0575      5.8231     25.2127    103.4752
  2508.6000      7.9231      2.5538      0.0759      5.8308     25.0162    115.8851
  2508.7000      7.9231      2.5491      0.0711      6.1172     24.8197    126.1221
  2508.8000      7.9043      2.5319      0.0532      7.1582     24.9095    131.0636
  2508.9000      7.9043      2.5149      0.0185      8.1896     24.6860    133.4800
  2509.0000      7.8895      2.5169      0.0180      8.0657     24.2234    132.7823
  2509.1000      7.8895      2.5338      0.0642      7.0419     24.0833    128.8641
  2509.2000      7.8895      2.5416      0.0423      6.5707     23.9967    126.8723
  2509.3000      7.8809      2.5326      0.0433      7.1159     23.8135    133.0070
  2509.4000      7.8809      2.5147      0.0693      8.1989     23.8214    141.8356
  2509.5000      7.8809      2.4925     -0.0031      9.5470     23.7279    144.6140
  2509.6000      7.8809      2.4755      0.0174     10.5788     23.4195    142.6668
  2509.7000      7.8809      2.4775      0.0013     10.4557     23.1965    138.8245
  2509.8000      7.8814      2.4977      0.0548      9.2307     22.9888    134.1581
  2509.9000      7.8814      2.5183      0.0493      7.9839     22.6592    133.0678
  2510.0000      7.8792      2.5271      0.0605      7.4484     22.2986    138.0787
  2510.1000      7.8792      2.5239      0.0424      7.6434     21.9885    140.8982
  2510.2000      7.8792      2.5136      0.0250      8.2654     21.7790    134.3295
  2510.3000      7.8792      2.5035      0.0300      8.8786     21.9800    125.3773
  2510.4000      7.8792      2.4999      0.0008      9.0950     22.5492    121.7387
  2510.5000      7.8818      2.5021      0.0443      8.9644     22.7331    121.1014
  2510.6000      7.8818      2.5014      0.0242      9.0056     22.2041    118.8868
  2510.7000      7.8818      2.5008      0.0018      9.0403     21.4003    118.1794
  2510.8000      7.8829      2.5176     -0.0255      8.0214     20.9359    122.6801
  2510.9000      7.8829      2.5541      0.0531      5.8128     21.0638    130.8538
  2511.0000      7.8820      2.5912      0.0404      3.5619     21.3285    141.1519
  2511.1000      7.8820      2.6180      0.0734      1.9384     21.3349    149.1169
  2511.2000      7.8820      2.6342      0.0550      0.9592     21.2401    147.5610
  2511.3000      7.8836      2.6381      0.0831      0.7206     21.2100    134.7551
  2511.4000      7.8836      2.6297      0.0625      1.2305     21.1859    117.1056
  2511.5000      7.8880      2.6212      0.0545      1.7461     21.1809    102.6192
  2511.6000      7.8880      2.6253      0.1032      1.4973     21.1831     93.6143
  2511.7000      7.8880      2.6404      0.0910      0.5808     21.2824     86.8952
  2511.8000      7.8860      2.6531      0.1117     -0.1897     21.4511     77.9165
  2511.9000      7.8860      2.6538      0.0936     -0.2309     21.2402     71.8530
  2512.0000      7.8805      2.6558      0.0782     -0.3541     20.5291     76.0464
  2512.1000      7.8805      2.6646      0.1240     -0.8875     19.7553     81.3301
  2512.2000      7.8805      2.6611      0.0861     -0.6730     19.0832     77.5586
  2512.3000      7.8793      2.6379      0.0936      0.7307     18.7474     69.7037
  2512.4000      7.8793      2.6074      0.0681      2.5821     19.0249     66.4748
  2512.5000      7.8845      2.5883      0.0178      3.7381     19.2774     68.3698
  2512.6000      7.8845      2.5848      0.0539      3.9488     18.9163     69.0619
  2512.7000      7.8845      2.5755      0.0486      4.5142     18.3341     67.8573
  2512.8000      7.8926      2.5531      0.0037      5.8749     17.9055     70.5678
  2512.9000      7.8926      2.5420      0.0119      6.5454     17.7015     76.3216
  2513.0000      7.8986      2.5608      0.0053      5.4041     17.7671     78.3774
  2513.1000      7.8986      2.5976      0.0642      3.1748     17.7940     75.3307
  2513.2000      7.8986      2.6267      0.0419      1.4104     17.5470     71.8297
  2513.3000      7.9021      2.6335      0.1054      1.0001     17.3935     71.5391
  2513.4000      7.9021      2.6217      0.0433      1.7149     17.5415     75.1215
  2513.5000      7.9033      2.6113      0.0277      2.3478     17.7729     83.2146
  2513.6000      7.9033      2.6107      0.0540      2.3827     17.8910     91.7832
  2513.7000      7.9033      2.6072      0.0320      2.5925     17.9382     91.8287
  2513.8000      7.9030      2.5895      0.0590      3.6670     18.0972     83.8169
  2513.9000      7.9030      2.5598      0.0187      5.4672     18.4308     76.9868
  2514.0000      7.9037      2.5331      0.0199      7.0868     18.8485     74.6198
  2514.1000      7.9037      2.5209      0.0264      7.8258     19.1466     73.0016
  2514.2000      7.9037      2.5241     -0.0003      7.6309     19.3962     69.7867
  2514.3000      7.9108      2.5347      0.0487      6.9858     19.7784     66.1149
  2514.4000      7.9108      2.5443      0.0362      6.4089     20.1008     63.9099
  2514.5000      7.9233      2.5554      0.0475      5.7345     20.4307     64.4320
  2514.6000      7.9233      2.5730      0.0340      4.6677     20.9297     66.4518
  2514.7000      7.9233      2.5931      0.0474      3.4474     21.0618     69.1581
  2514.8000      7.9288      2.6000      0.1082      3.0330     20.5427     72.8333
  2514.9000      7.9288      2.5822      0.0577      4.1097     19.8862     75.8912
  2515.0000      7.9187      2.5524      0.0309      5.9163     19.4703     76.6577
  2515.1000      7.9187      2.5344      0.0136      7.0048     19.3899     78.4529
  2515.2000      7.9187      2.5419      0.0320      6.5489     19.6843     85.0243
  2515.3000      7.8977      2.5600      0.0865      5.4559     20.0406     93.8286
  2515.4000      7.8977      2.5596      0.0531      5.4798     20.2560     98.8688
  2515.5000      7.8822      2.5435      0.0247      6.4539     20.4227     97.5843
  2515.6000      7.8822      2.5439     -0.0078      6.4308     20.4550     92.5477
  2515.7000      7.8822      2.5703      0.0776      4.8314     20.3995     90.3482
  2515.8000      7.8775      2.5983      0.1030      3.1340     20.5553     95.3365
  2515.9000      7.8775      2.6129      0.0705      2.2495     20.7905    100.8741
  2516.0000      7.8777      2.6186      0.0705      1.9056     20.8141     97.5137
  2516.1000      7.8777      2.6145      0.0936      2.1530     20.4919     86.7782
  2516.2000      7.8777      2.5986      0.0597      3.1149     19.8007     80.5329
  2516.3000      7.8800      2.5827      0.0272      4.0801     19.3696     83.2330
  2516.4000      7.8800      2.5743      0.0488      4.5866     19.7359     86.3549
  2516.5000      7.8819      2.5641      0.0496      5.2089     20.3938     86.1176
