~Version Information
VERS.                      2.0: CWLS Log ASCII Standard - VERSION 2.0
WRAP.                       NO: One line per depth step
~Well Information Block
STRT.FT                10.0000: 
STOP.FT               743.5000: 
STEP.FT                 0.1000: 
NULL.                -999.2500: 
COMP.          Pioneer Natural Resources: COMPANY
WELL.                Mia 21-18: WELL
FLD.           Purgatorie River: FIELD
LOC.           1067' FNL & 1824' FWL: LOCATION
PROV.                 Colorado: PROVINCE
CNTY.               Las Animas: COUNTRY
SRVC.                Patterson: SERVICE COMPANY
DATE.          Tue Nov 22 15:40:03 2005: LOG DATE
UWI.           05-071-08559               : UNIQUE WELL ID
~Curve Information Block
DEPT.FT            0 000 00 00: Depth
DCAL.in                       : CDL Caliper
RHOB.g/cc                     : CDL Bulk Density
RHOC.g/cc                     : CDL Density Correction
DPOR.pu                       : CDL Density Porosity
GR.GAPI                       : Gamma Ray
NPOR.pu                       : Neutron Porosity
~Parameter Information Block
~A  Depth       DCAL        RHOB        RHOC        DPOR         GR         NPOR    
# ...
   250.0000     -3.1029      2.1973      2.4484     -0.0091     89.8652     22.0044
   250.1000     -3.1029      2.2209      2.4726     -0.0086     87.3941     21.9914
   250.2000     -3.1029      2.2445      2.4890     -0.0081     85.8477     22.3391
   250.3000     -3.1029      2.2536      2.5180     -0.0079     86.1016     22.8925
   250.4000     -3.1029      2.2459      2.4776     -0.0081     86.4361     23.0471
   250.5000     -3.1029      2.2396      2.4494     -0.0082     85.1351     22.7650
   250.6000     -3.1029      2.2457      2.4963     -0.0081     83.9240     22.4102
   250.7000     -3.1029      2.2527      2.4794     -0.0080     85.1189     22.2301
   250.8000     -3.1029      2.2492      2.4922     -0.0080     87.3802     22.4289
   250.9000     -3.1029      2.2367      2.4581     -0.0083     88.0965     22.7999
   251.0000     -3.1029      2.2248      2.4660     -0.0085     86.1351     22.7997
   251.1000     -3.1029      2.2199      2.4667     -0.0086     81.9391     22.4163
   251.2000     -3.1029      2.2189      2.4689     -0.0086     78.6841     22.1222
   251.3000     -3.1029      2.2165      2.4567     -0.0087     79.8797     21.9859
   251.4000     -3.1029      2.2155      2.4618     -0.0087     83.9657     21.8153
   251.5000     -3.1029      2.2233      2.4593     -0.0085     86.5969     21.6525
   251.6000     -3.1029      2.2371      2.5008     -0.0083     87.0578     21.6968
   251.7000     -3.1029      2.2441      2.5197     -0.0081     88.1012     22.0004
   251.8000     -3.1029      2.2401      2.4941     -0.0082     90.5468     22.3462
   251.9000     -3.1029      2.2363      2.4788     -0.0083     92.6161     22.5559
   252.0000     -3.1029      2.2414      2.4856     -0.0082     93.5893     22.6366
   252.1000     -3.1029      2.2429      2.5223     -0.0081     93.2650     22.5088
   252.2000     -3.1029      2.2261      2.4985     -0.0085     90.9745     22.1026
   252.3000     -3.1029      2.2014      2.4397     -0.0090     87.8155     21.7357
   252.4000     -3.1029      2.1909      2.4185     -0.0092     85.0158     21.9816
   252.5000     -3.1029      2.2001      2.4809     -0.0090     82.8106     22.7391
   252.6000     -3.1029      2.2221      2.4580     -0.0086     81.2701     23.1758
   252.7000     -3.1029      2.2446      2.4944     -0.0081     80.3395     23.0587
   252.8000     -3.1029      2.2471      2.4837     -0.0081     80.9662     22.6936
   252.9000     -3.1029      2.2279      2.4463     -0.0084     82.7370     22.2038
   253.0000     -3.1029      2.2081      2.4517     -0.0088     83.6939     21.8364
   253.1000     -3.1029      2.1988      2.4567     -0.0090     83.9308     21.7703
   253.2000     -3.1029      2.1946      2.4498     -0.0091     83.4177     21.6722
   253.3000     -3.1029      2.1887      2.4334     -0.0092     81.2735     21.4097
   253.4000     -3.1029      2.1803      2.4394     -0.0094     79.2358     21.4454
   253.5000     -3.1029      2.1726      2.4748     -0.0096     80.6300     21.8029
   253.6000     -3.1029      2.1654      2.4881     -0.0097     85.3448     21.9744
   253.7000     -3.1029      2.1642      2.3977     -0.0097     88.8155     21.9494
   253.8000     -3.1029      2.1797      2.4608     -0.0094     87.8419     22.2235
   253.9000     -3.1029      2.2146      2.4489     -0.0087     84.0960     22.9902
   254.0000     -3.1029      2.2697      2.4712     -0.0076     80.6660     24.0497
   254.1000     -3.1029      2.3429      2.5389     -0.0061     78.9824     25.3201
   254.2000     -3.1029      2.4269      2.5317     -0.0045     78.6552     26.6053
   254.3000     -3.1029      2.5128      2.5943     -0.0027     78.1892     27.5833
   254.4000     -3.1029      2.5845      2.6363     -0.0013     76.4955     28.6257
   254.5000     -3.1029      2.6280      2.6256     -0.0004     74.3218     30.0478
   254.6000     -3.1029      2.6445      2.6338     -0.0001     72.3173     31.4421
   254.7000     -3.1029      2.6473      2.5913     -0.0001     69.6424     32.4310
   254.8000     -3.1029      2.6490      2.5889     -0.0000     65.8010     32.9421
   254.9000     -3.1029      2.6517      2.5608      0.0000     61.4632     33.1142
   255.0000     -3.1029      2.6519      2.5433      0.0000     57.0585     33.0298
   255.1000     -3.1029      2.6441      2.5896     -0.0001     54.0836     32.4154
   255.2000     -3.1029      2.6159      2.5894     -0.0007     55.1814     31.1606
   255.3000     -3.1029      2.5596      2.5547     -0.0018     58.6755     29.6024
   255.4000     -3.1029      2.4820      2.5323     -0.0034     59.4958     28.0495
   255.5000     -3.1029      2.3964      2.5219     -0.0051     57.8169     26.4109
   255.6000     -3.1029      2.3150      2.5081     -0.0067     57.6572     24.5335
   255.7000     -3.1029      2.2484      2.4525     -0.0080     59.4029     22.7706
   255.8000     -3.1029      2.1988      2.4798     -0.0090     60.1819     21.6215
   255.9000     -3.1029      2.1629      2.4183     -0.0097     59.1607     21.0039
   256.0000     -3.1029      2.1430      2.4213     -0.0101     57.8606     20.6487
   256.1000     -3.1029      2.1375      2.4265     -0.0103     57.6725     20.4548
   256.2000     -3.1029      2.1425      2.4068     -0.0102     59.4149     20.3931
   256.3000     -3.1029      2.1568      2.4246     -0.0099     61.8881     20.4149
   256.4000     -3.1029      2.1876      2.4332     -0.0093     63.1405     20.4271
   256.5000     -3.1029      2.2800      2.4375     -0.0074     63.3801     20.3016
   256.6000     -3.1029      2.5042      2.4265     -0.0029     63.2709     20.2398
   256.7000     -3.1029      2.8289      2.6023      0.0036     61.9899     20.4837
   256.8000     -3.1029      3.1026      2.6838      0.0091     59.3797     20.7396
   256.9000     -3.1029      3.2422      2.6862      0.0119     56.4122     20.7172
   257.0000     -3.1029      3.2722      2.7009      0.0125     53.5250     20.4784
   257.1000     -3.1029      3.1935      2.6885      0.0109     50.9646     20.1318
   257.2000     -3.1029      2.9618      2.6104      0.0062     48.5700     19.8983
   257.3000     -3.1029      2.6183      1.8177     -0.0006     47.4006     19.8840
   257.4000     -3.1029      2.3191      1.4987     -0.0066     49.1358     19.8100
   257.5000     -3.1029      2.1571      1.5049     -0.0099     51.7943     19.5094
   257.6000     -3.1029      2.1041      1.4466     -0.0109     52.5478     19.2016
   257.7000     -3.1029      2.1125      1.4912     -0.0108     51.7951     18.9802
   257.8000     -3.1029      2.1480      1.4878     -0.0100     50.8149     18.8650
   257.9000     -3.1029      2.1735      1.6252     -0.0095     50.2421     18.9531
   258.0000     -3.1029      2.1649      1.5433     -0.0097     50.4010     18.8954
   258.1000     -3.1029      2.1414      1.5193     -0.0102     51.4082     18.6173
   258.2000     -3.1029      2.1270      1.5450     -0.0105     53.5993     18.6739
   258.3000     -3.1029      2.1165      1.5312     -0.0107     57.4000     19.1580
   258.4000     -3.1029      2.1048      1.4920     -0.0109     62.0177     19.6835
   258.5000     -3.1029      2.0997      1.4884     -0.0110     66.1768     19.9486
   258.6000     -3.1029      2.1043      1.5363     -0.0109     69.1824     19.9603
   258.7000     -3.1029      2.1112      1.5239     -0.0108     71.7793     20.0646
   258.8000     -3.1029      2.1165      1.4841     -0.0107     75.4223     20.5247
   258.9000     -3.1029      2.1194      1.5409     -0.0106     79.4201     21.1969
   259.0000     -3.1029      2.1163      1.5177     -0.0107     81.8962     21.7980
   259.1000     -3.1029      2.1125      1.5305     -0.0108     82.7483     22.3433
   259.2000     -3.1029      2.1141      1.5251     -0.0107     82.9141     22.7493
   259.3000     -3.1029      2.1117      1.5162     -0.0108     83.9252     22.8588
   259.4000     -3.1029      2.0951      1.5160     -0.0111     86.5366     22.8459
   259.5000     -3.1029      2.0761      1.4399     -0.0115     87.6624     22.8777
