~Version Information
VERS.                      2.0: CWLS Log ASCII Standard - VERSION 2.0
WRAP.                       NO: One line per depth step
~Well Information Block
STRT.FT               620.0000: 
STOP.FT              3067.2000: 
STEP.FT                 0.1000: 
NULL.                -999.2500: 
COMP.          Pioneer Natural Resources: COMPANY
WELL.          Interceptor 43-13 Kv: WELL
FLD.           Purgatoire River: FIELD
LOC.           2073' FSL & 519' FEL--: LOCATION
PROV.                 Colorado: PROVINCE
CNTY.               Las Animas: COUNTRY
SRVC.                Patterson: SERVICE COMPANY
DATE.          Sat Jan 14 20:27:27 2006: LOG DATE
UWI.           05 071 08655 00: UNIQUE WELL ID
~Curve Information Block
DEPT.FT            0 000 00 00: Depth
DCAL.in                       : CDL Caliper
RHOB.g/cc                     : CDL Bulk Density
RHOC.g/cc                     : CDL Density Correction
DPOR.pu                       : CDL Density Porosity
NPOR.pu                       : Neutron Porosity
GR.GAPI                       : Gamma Ray
~Parameter Information Block
~A  Depth       DCAL        RHOB        RHOC        DPOR        NPOR         GR     
# ...
  2232.8000      8.0039      2.6054      0.0545      2.7010     25.7591    106.2061
  2232.9000      8.0039      2.5950      0.0127      3.3339     25.7288    110.6935
  2233.0000      8.0064      2.5735      0.0173      4.6359     26.2261    110.1221
  2233.1000      8.0064      2.5534      0.0130      5.8527     27.1587    111.2423
  2233.2000      8.0064      2.5453      0.0243      6.3454     27.8830    117.3716
  2233.3000      8.0083      2.5505     -0.0049      6.0293     27.8606    121.3082
  2233.4000      8.0083      2.5694      0.0250      4.8859     27.5312    123.6398
  2233.5000      8.0099      2.5925      0.0624      3.4865     27.3601    131.5795
  2233.6000      8.0099      2.6082      0.0396      2.5336     26.9984    141.8897
  2233.7000      8.0099      2.6146      0.0871      2.1466     26.4655    146.9965
  2233.8000      8.0104      2.6090      0.0647      2.4828     26.3627    146.9985
  2233.9000      8.0104      2.5984      0.0709      3.1296     26.6667    146.3472
  2234.0000      8.0097      2.6057      0.0249      2.6824     26.8811    146.2863
  2234.1000      8.0097      2.6412      0.0765      0.5345     26.8194    145.4387
  2234.2000      8.0097      2.6788      0.0934     -1.7436     26.3719    143.6356
  2234.3000      8.0086      2.6874      0.0924     -2.2690     25.6347    140.6440
  2234.4000      8.0086      2.6692      0.0671     -1.1614     25.1340    137.1613
  2234.5000      8.0062      2.6486      0.0313      0.0873     25.0227    132.8965
  2234.6000      8.0062      2.6359      0.0257      0.8546     25.1772    126.1743
  2234.7000      8.0062      2.6208      0.0180      1.7697     25.4848    119.6525
  2234.8000      8.0063      2.5996     -0.0160      3.0557     25.7157    116.0819
  2234.9000      8.0063      2.5835      0.0028      4.0279     25.8512    114.8249
  2235.0000      8.0089      2.5839      0.0323      4.0044     26.0914    116.9833
  2235.1000      8.0089      2.6022      0.0335      2.8960     26.3562    127.0547
  2235.2000      8.0089      2.6176      0.1084      1.9624     26.2781    139.7949
  2235.3000      8.0103      2.6148      0.0157      2.1320     26.2288    141.7683
  2235.4000      8.0103      2.6131      0.0437      2.2344     26.9733    134.1293
  2235.5000      8.0099      2.6230      0.0698      1.6356     28.1093    127.8381
  2235.6000      8.0099      2.6332      0.0742      1.0164     28.5403    125.7734
  2235.7000      8.0099      2.6413      0.0713      0.5268     27.8958    124.2785
  2235.8000      8.0074      2.6553      0.0657     -0.3196     26.6432    120.5753
  2235.9000      8.0074      2.6740      0.0906     -1.4530     25.8157    114.7528
  2236.0000      8.0059      2.6814      0.0776     -1.9058     25.7873    107.2927
  2236.1000      8.0059      2.6701      0.0712     -1.2181     25.7360    101.9514
  2236.2000      8.0059      2.6505      0.0926     -0.0302     25.2472    106.7475
  2236.3000      8.0070      2.6328      0.0392      1.0423     24.5377    119.1035
  2236.4000      8.0070      2.6175      0.0744      1.9693     23.7574    123.2359
  2236.5000      8.0078      2.6083      0.0108      2.5254     23.3331    114.1907
  2236.6000      8.0078      2.6144      0.0121      2.1574     23.4651    101.9583
  2236.7000      8.0078      2.6225      0.0788      1.6651     23.6994     97.2580
  2236.8000      8.0079      2.6163      0.0113      2.0435     23.5879    101.3484
  2236.9000      8.0079      2.6090     -0.0297      2.4825     23.1327    103.4833
  2237.0000      8.0098      2.6124      0.0173      2.2800     22.5384     94.8772
  2237.1000      8.0098      2.6202      0.0303      1.8037     21.7055     81.4147
  2237.2000      8.0098      2.6353      0.0254      0.8922     20.5688     75.8031
  2237.3000      8.0112      2.6594      0.0615     -0.5684     19.8165     80.7289
  2237.4000      8.0112      2.6711      0.0774     -1.2764     19.6228     88.2755
  2237.5000      8.0098      2.6529      0.0588     -0.1769     19.5500     92.6237
  2237.6000      8.0098      2.6240     -0.0231      1.5729     19.9950     92.9109
  2237.7000      8.0098      2.6125     -0.0013      2.2753     21.3876     89.0888
  2237.8000      8.0077      2.6073      0.0480      2.5873     22.8506     83.7363
  2237.9000      8.0077      2.5879     -0.0127      3.7667     23.3583     83.0879
  2238.0000      8.0079      2.5671      0.0180      5.0263     23.3248     88.2581
  2238.1000      8.0079      2.5626      0.0287      5.2996     23.5502     92.6531
  2238.2000      8.0079      2.5715      0.0228      4.7577     23.9810     93.5396
  2238.3000      8.0089      2.5812      0.0373      4.1671     24.1394     96.3713
  2238.4000      8.0089      2.5793      0.0530      4.2820     23.9203    102.0544
  2238.5000      8.0094      2.5667      0.0062      5.0511     23.6973    103.7880
  2238.6000      8.0094      2.5670     -0.0027      5.0313     23.7798    102.1431
  2238.7000      8.0094      2.5927      0.0501      3.4753     24.0357    107.2191
  2238.8000      8.0104      2.6209      0.0819      1.7607     24.2369    119.6729
  2238.9000      8.0104      2.6293      0.0554      1.2537     24.1494    126.6774
  2239.0000      8.0145      2.6261      0.0516      1.4495     23.6091    123.1505
  2239.1000      8.0145      2.6293      0.0479      1.2560     23.0596    115.7032
  2239.2000      8.0145      2.6361      0.0711      0.8413     22.6027    109.4398
  2239.3000      8.0180      2.6404      0.0426      0.5809     21.9314    102.5222
  2239.4000      8.0180      2.6509      0.0486     -0.0522     21.3633     94.0329
  2239.5000      8.0155      2.6639      0.0511     -0.8402     21.2279     88.0129
  2239.6000      8.0155      2.6635      0.0857     -0.8164     21.3868     83.4657
  2239.7000      8.0155      2.6519      0.0348     -0.1124     21.5822     75.8684
  2239.8000      8.0093      2.6502      0.0213     -0.0147     21.5690     66.3168
  2239.9000      8.0093      2.6641      0.0553     -0.8567     21.2325     59.6470
  2240.0000      8.0056      2.6692      0.0939     -1.1622     21.0253     59.3456
  2240.1000      8.0056      2.6617      0.0105     -0.7105     21.3375     63.9841
  2240.2000      8.0056      2.6657      0.0432     -0.9540     21.6111     67.7837
  2240.3000      8.0067      2.6729      0.0943     -1.3853     21.5046     68.4220
  2240.4000      8.0067      2.6661      0.0205     -0.9741     21.4756     68.4752
  2240.5000      8.0079      2.6607      0.0237     -0.6465     21.5770     68.6403
  2240.6000      8.0079      2.6611      0.0913     -0.6719     21.2571     67.7163
  2240.7000      8.0079      2.6521      0.0626     -0.1287     20.4128     66.5501
  2240.8000      8.0077      2.6400      0.0302      0.6068     19.8466     65.9776
  2240.9000      8.0077      2.6345      0.0694      0.9403     19.9333     64.8715
  2241.0000      8.0092      2.6216      0.0581      1.7202     20.1375     63.6994
  2241.1000      8.0092      2.5944      0.0108      3.3681     20.1649     65.6480
  2241.2000      8.0092      2.5704      0.0045      4.8265     20.2771     69.8264
  2241.3000      8.0103      2.5712     -0.0133      4.7729     20.6806     72.0742
  2241.4000      8.0103      2.6017     -0.0130      2.9297     21.3011     73.0602
  2241.5000      8.0091      2.6372      0.0620      0.7744     22.1753     75.4820
  2241.6000      8.0091      2.6516      0.0519     -0.0997     23.0586     80.2638
  2241.7000      8.0091      2.6440      0.0976      0.3660     23.6698     85.9799
  2241.8000      8.0074      2.6234      0.0263      1.6123     24.0250     89.0872
  2241.9000      8.0074      2.6060      0.0341      2.6651     23.9065     87.2914
  2242.0000      8.0077      2.6091     -0.0101      2.4815     23.6488     84.1164
  2242.1000      8.0077      2.6241      0.0661      1.5691     23.8421     85.3503
  2242.2000      8.0077      2.6288      0.0401      1.2856     24.1944     90.1207
  2242.3000      8.0105      2.6230      0.0512      1.6360     24.4221     94.8470
