~Version Information
VERS.                      2.0: CWLS Log ASCII Standard - VERSION 2.0
WRAP.                       NO: One line per depth step
~Well Information Block
STRT.FT               460.0000: 
STOP.FT              1509.0000: 
STEP.FT                 0.2500: 
NULL.                -999.2500: 
COMP.          Pioneer Natural Resources: COMPANY
WELL.           Amore 32-09 Tr: WELL
FLD.           Purgatoire River: FIELD
LOC.           1941' FNL & 2297' FEL: LOCATION
PROV.                 Colorado: PROVINCE
CNTY.               Las Animas: COUNTRY
SRVC.                Patterson: SERVICE COMPANY
DATE.          Mon Nov 14 11:07:52 2005: LOG DATE
UWI.           05 071 08584 00: UNIQUE WELL ID
~Curve Information Block
DEPT.FT            0 000 00 00: Depth
SN.Ohm-m                      : IEL Short Normal
SP.mV                         : IEL Spontaneous Potential
DIR.Ohm-m                     : IEL Induction Resistivity
GR.GAPI                       : Gamma Ray
~Parameter Information Block
~A  Depth        SN          SP         DIR          GR     
# ...
   527.0000   2000.0000   2000.0000     28.9402    118.9504
   527.2500   2000.0000   2000.0000     28.1808    117.2069
   527.5000   2000.0000   2000.0000     27.3255    114.0976
   527.7500   2000.0000   2000.0000     26.4476    112.4067
   528.0000   2000.0000   2000.0000     25.6308    111.3519
   528.2500   2000.0000   2000.0000     24.9400    111.8042
   528.5000   2000.0000   2000.0000     24.4018    114.0426
   528.7500   2000.0000   2000.0000     24.0069    116.3664
   529.0000   2000.0000   2000.0000     23.7266    120.4262
   529.2500   2000.0000   2000.0000     23.5339    122.8207
   529.5000   2000.0000   2000.0000     23.4169    124.7178
   529.7500   2000.0000   2000.0000     23.3796    124.6234
   530.0000   2000.0000   2000.0000     23.4332    123.1287
   530.2500   2000.0000   2000.0000     23.5846    121.9076
   530.5000   2000.0000   2000.0000     23.8273    120.7502
   530.7500   2000.0000   2000.0000     24.1356    120.7751
   531.0000   2000.0000   2000.0000     24.4620    121.9686
   531.2500   2000.0000   2000.0000     24.7464    123.1665
   531.5000   2000.0000   2000.0000     24.9400    124.9680
   531.7500   2000.0000   2000.0000     25.0351    126.1531
   532.0000   2000.0000   2000.0000     25.0733    128.0974
   532.2500   2000.0000   2000.0000     25.1235    129.3298
   532.5000   2000.0000   2000.0000     25.2438    130.2918
   532.7500   2000.0000   2000.0000     25.4554    130.0350
   533.0000   2000.0000   2000.0000     25.7405    128.6429
   533.2500   2000.0000   2000.0000     26.0569    127.5489
   533.5000   2000.0000   2000.0000     26.3561    126.1186
   533.7500   2000.0000   2000.0000     26.5943    125.1125
   534.0000   2000.0000   2000.0000     26.7321    123.0071
   534.2500   2000.0000   2000.0000     26.7330    121.1938
   534.5000   2000.0000   2000.0000     26.5723    118.2216
   534.7500   2000.0000   2000.0000     26.2571    116.3574
   535.0000   2000.0000   2000.0000     25.8428    114.6768
   535.2500   2000.0000   2000.0000     25.4235    115.1222
   535.5000   2000.0000   2000.0000     25.0951    118.7819
   535.7500   2000.0000   2000.0000     24.9123    122.4814
   536.0000   2000.0000   2000.0000     24.8661    127.4197
   536.2500   2000.0000   2000.0000     24.9008    129.2668
   536.5000   2000.0000   2000.0000     24.9606    130.1628
   536.7500   2000.0000   2000.0000     25.0309    130.4628
   537.0000   2000.0000   2000.0000     25.1381    131.6469
   537.2500   2000.0000   2000.0000     25.3094    132.9644
   537.5000   2000.0000   2000.0000     25.5336    135.3755
   537.7500   2000.0000   2000.0000     25.7547    137.0305
   538.0000   2000.0000   2000.0000     25.9070    138.6354
   538.2500   2000.0000   2000.0000     25.9666    138.3011
   538.5000   2000.0000   2000.0000     25.9785    135.1599
   538.7500   2000.0000   2000.0000     26.0445    131.9404
   539.0000   2000.0000   2000.0000     26.2842    127.0868
   539.2500   2000.0000   2000.0000     26.7986    124.3165
   539.5000   2000.0000   2000.0000     27.6440    120.7269
   539.7500   2000.0000   2000.0000     28.8158    118.5735
   540.0000   2000.0000   2000.0000     30.2479    115.6778
   540.2500   2000.0000   2000.0000     31.8448    113.7908
   540.5000   2000.0000   2000.0000     33.5354    110.1493
   540.7500   2000.0000   2000.0000     35.3012    106.6417
   541.0000   2000.0000   2000.0000     37.1401     99.5790
   541.2500   2000.0000   2000.0000     39.0025     94.0542
   541.5000   2000.0000   2000.0000     40.7844     85.4378
   541.7500   2000.0000   2000.0000     42.4214     79.9022
   542.0000   2000.0000   2000.0000     43.9950     72.6148
   542.2500   2000.0000   2000.0000     45.7222     68.8818
   542.5000   2000.0000   2000.0000     47.8074     65.4269
   542.7500   2000.0000   2000.0000     50.2729     64.4309
   543.0000   2000.0000   2000.0000     52.8795     64.2010
   543.2500   2000.0000   2000.0000     55.2093     64.5296
   543.5000   2000.0000   2000.0000     56.8892     65.7311
   543.7500   2000.0000   2000.0000     57.8024     67.3101
   544.0000   2000.0000   2000.0000     58.0912     71.1377
   544.2500   2000.0000   2000.0000     57.9911     74.2941
   544.5000   2000.0000   2000.0000     57.6928     78.6504
   544.7500   2000.0000   2000.0000     57.3441     80.7725
   545.0000   2000.0000   2000.0000     57.1161     82.9785
   545.2500   2000.0000   2000.0000     57.1989     84.3581
   545.5000   2000.0000   2000.0000     57.6856     87.0709
   545.7500   2000.0000   2000.0000     58.4445     89.3230
   546.0000   2000.0000   2000.0000     59.1041     92.8015
   546.2500   2000.0000   2000.0000     59.2521     94.8822
   546.5000   2000.0000   2000.0000     58.7284     97.5008
   546.7500   2000.0000   2000.0000     57.7223     98.8049
   547.0000   2000.0000   2000.0000     56.5596     99.2693
   547.2500   2000.0000   2000.0000     55.4472     97.8557
   547.5000   2000.0000   2000.0000     54.4178     92.5919
   547.7500   2000.0000   2000.0000     53.4479     87.4485
   548.0000   2000.0000   2000.0000     52.5456     78.8143
   548.2500   2000.0000   2000.0000     51.7237     73.1832
   548.5000   2000.0000   2000.0000     50.9156     65.7060
   548.7500   2000.0000   2000.0000     49.9665     61.8166
   549.0000   2000.0000   2000.0000     48.7170     58.5786
   549.2500   2000.0000   2000.0000     47.1033     58.6335
   549.5000   2000.0000   2000.0000     45.1793     62.3970
   549.7500   2000.0000   2000.0000     43.0648     67.2445
   550.0000   2000.0000   2000.0000     40.8897     77.3912
   550.2500   2000.0000   2000.0000     38.7677     85.5270
   550.5000   2000.0000   2000.0000     36.7906     98.5182
   550.7500   2000.0000   2000.0000     35.0211    106.7529
   551.0000   2000.0000   2000.0000     33.4769    116.9395
   551.2500   2000.0000   2000.0000     32.1229    121.8400
   551.5000   2000.0000   2000.0000     30.8894    126.3668
   551.7500   2000.0000   2000.0000     29.7172    127.5712
   552.0000   2000.0000   2000.0000     28.6029    126.6526
   552.2500   2000.0000   2000.0000     27.6051    124.5562
   552.5000   2000.0000   2000.0000     26.8079    120.7547
   552.7500   2000.0000   2000.0000     26.2741    118.6950
   553.0000   2000.0000   2000.0000     26.0209    116.2276
   553.2500   2000.0000   2000.0000     26.0245    113.8895
   553.5000   2000.0000   2000.0000     26.2419    107.4537
   553.7500   2000.0000   2000.0000     26.6317    101.1765
   554.0000   2000.0000   2000.0000     27.1674     90.6430
   554.2500   2000.0000   2000.0000     27.8451     84.2363
   554.5000   2000.0000   2000.0000     28.6837     76.7749
   554.7500   2000.0000   2000.0000     29.7120     73.0141
   555.0000   2000.0000   2000.0000     30.9318     67.8714
   555.2500   2000.0000   2000.0000     32.2742     64.1721
   555.5000   2000.0000   2000.0000     33.5903     58.3578
   555.7500   2000.0000   2000.0000     34.7106     54.8621
   556.0000   2000.0000   2000.0000     35.5428     50.9364
   556.2500   2000.0000   2000.0000     36.1174     49.3404
   556.5000   2000.0000   2000.0000     36.5363     48.6895
   556.7500   2000.0000   2000.0000     36.8856     49.6155
   557.0000   2000.0000   2000.0000     37.1903     53.1892
   557.2500   2000.0000   2000.0000     37.4248     56.9858
   557.5000   2000.0000   2000.0000     37.5492     64.8139
   557.7500   2000.0000   2000.0000     37.5395     71.3841
   558.0000   2000.0000   2000.0000     37.3973     82.1578
   558.2500   2000.0000   2000.0000     37.1404     88.5635
   558.5000   2000.0000   2000.0000     36.7898     94.5643
   558.7500   2000.0000   2000.0000     36.3657     95.7049
   559.0000   2000.0000   2000.0000     35.8915     94.4633
   559.2500   2000.0000   2000.0000     35.3936     92.8294
   559.5000   2000.0000   2000.0000     34.9004     90.0827
   559.7500   2000.0000   2000.0000     34.4416     87.9601
   560.0000   2000.0000   2000.0000     34.0469     84.3142
   560.2500   2000.0000   2000.0000     33.7411     81.9977
