~Version Information
VERS.                      2.0: CWLS Log ASCII Standard - VERSION 2.0
WRAP.                       NO: One line per depth step
~Well Information Block
STRT.FT                -6.7500: 
STOP.FT              2256.0000: 
STEP.FT                 0.2500: 
NULL.                -999.2500: 
COMP.          Pioneer Natural Resources: COMPANY
WELL.               Relay 12-7: WELL
FLD.           Purgatorie River: FIELD
LOC.           1999' FNL & 848' FWL--: LOCATION
PROV.                       CO: PROVINCE
CNTY.               Las Animas: COUNTRY
SRVC.          Patterson Wireline: SERVICE COMPANY
DATE.          Thu Dec 22 09:06:31 2005: LOG DATE
UWI.           05 071 08453 00: UNIQUE WELL ID
~Curve Information Block
DEPT.FT            0 000 00 00: Depth
CCL.                          : Casing Collar Locator
TT3.usec                      : CBL 3' Travel Time
AMP3.mV                       : CBL 3' Amplitude
GR.GAPI                       : Gamma Ray
~Parameter Information Block
~A  Depth       CCL         TT3         AMP3         GR     
# ...
   897.7500      0.0000    793.2005      7.6209    122.7739
   898.0000      0.0000    809.4030      7.5414    126.7619
   898.2500      0.0000    826.3215      7.4810    131.4376
   898.5000      0.0000    839.6450      7.4350    135.8815
   898.7500      0.0000    848.5007      7.3968    140.3160
   899.0000      0.0000    854.6282      7.3635    144.6681
   899.2500      0.0000    860.0931      7.3342    148.0157
   899.5000      0.0000    865.2990      7.3083    149.3912
   899.7500      0.0000    868.6151      7.2882    148.5611
   900.0000      0.0000    867.9480      7.2800    146.3970
   900.2500      0.0000    862.6750      7.2880    144.7006
   900.5000      0.0000    853.9351      7.3078    144.9273
   900.7500      0.0000    843.5751      7.3284    146.7099
   901.0000      0.0000    833.2443      7.3399    148.2503
   901.2500      0.0000    823.6783      7.3385    148.2770
   901.5000      0.0000    813.9651      7.3235    147.0517
   901.7500      0.0000    802.3175      7.2959    145.4822
   902.0000      0.0000    788.4532      7.2623    143.9669
   902.2500      0.0000    774.5466      7.2358    142.1575
   902.5000      0.0000    763.4470      7.2280    139.3030
   902.7500      0.0000    756.7657      7.2383    134.7997
   903.0000      0.0000    754.6080      7.2531    128.8686
   903.2500      0.0000    755.9304      7.2563    122.8898
   903.5000      0.0000    758.8382      7.2412    119.0093
   903.7500      0.0000    761.2415      7.2137    119.1305
   904.0000      0.0000    761.4117      7.1836    123.4745
   904.2500      0.0000    757.7664      7.1574    129.6926
   904.5000      0.0000    748.4202      7.1405    134.0774
   904.7500      0.0000    731.5204      7.1429    134.2613
   905.0000      0.0000    706.6610      7.1768    130.5560
   905.2500      0.0000    676.9843      7.2405    124.7776
   905.5000      0.0000    650.1931      7.3078    118.7090
   905.7500      0.0000    635.7727      7.3430    113.9221
   906.0000      0.0000    638.8456      7.3316    112.0180
   906.2500      0.0000    656.1127      7.2925    113.9070
   906.5000      0.0000    678.0165      7.2551    118.7984
   906.7500      0.0000    695.0665      7.2285    124.5127
   907.0000      0.0000    703.5663      7.2011    129.1198
   907.2500      0.0000    707.5359      7.1671    132.2113
   907.5000      0.0000    715.1791      7.1398    134.6374
   907.7500      0.0000    731.7784      7.1349    137.2407
   908.0000      0.0000    755.5646      7.1515    139.9621
   908.2500      0.0000    780.5591      7.1751    142.0413
   908.5000      0.0000    801.9170      7.1943    142.6896
   908.7500      0.0000    817.5914      7.2099    141.4467
   909.0000      0.0000    826.4770      7.2308    138.2084
   909.2500      0.0000    827.3911      7.2665    133.1255
   909.5000      0.0000    820.4979      7.3190    126.4988
   909.7500      0.0000    808.5911      7.3837    118.8519
   910.0000      0.0000    795.7157      7.4559    111.1411
   910.2500      0.0000    784.3303      7.5339    104.6746
   910.5000      0.0000    774.1940      7.6171    100.5460
   910.7500      0.0000    764.0101      7.7047     99.0929
   911.0000      0.0000    753.7191      7.7945     99.9013
   911.2500      0.0000    745.3716      7.8789    102.0764
   911.5000      0.0000    742.3027      7.9432    104.2315
   911.7500      0.0000    747.0945      7.9742    104.7939
   912.0000      0.0000    759.0892      7.9716    103.3174
   912.2500      0.0000    773.5687      7.9496    101.2526
   912.5000      0.0000    784.1671      7.9254    100.4849
   912.7500      0.0000    786.0383      7.9032    101.3587
   913.0000      0.0000    775.8422      7.8727    102.7803
   913.2500      0.0000    750.1008      7.8228    103.5575
   913.5000      0.0000    708.4459      7.7581    102.8398
   913.7500      0.0000    661.1360      7.6975    100.1269
   914.0000      0.0000    628.3229      7.6566     95.9326
   914.2500      0.0000    623.4745      7.6384     92.2419
   914.5000      0.0000    636.6381      7.6372     91.5337
   914.7500      0.0000    641.2022      7.6455     94.8276
   915.0000      0.0000    621.7095      7.6542    100.6747
   915.2500      0.0000    592.2651      7.6527    106.5970
   915.5000      0.0000    584.1316      7.6331    111.8290
   915.7500      0.0000    615.9423      7.5911    118.2002
   916.0000      0.0000    677.7014      7.5249    127.7371
   916.2500      0.0000    742.0861      7.4387    139.4781
   916.5000      0.0000    787.3668      7.3460    149.2110
   916.7500      0.0000    809.0636      7.2657    152.6984
   917.0000      0.0000    814.8952      7.2128    149.3162
   917.2500      0.0000    814.2167      7.1927    142.5399
   917.5000      0.0000    812.4276      7.2019    136.8756
   917.7500      0.0000    811.1617      7.2303    134.5938
   918.0000      0.0000    810.4032      7.2650    135.3767
   918.2500      0.0000    809.8677      7.2942    138.1253
   918.5000      0.0000    809.4242      7.3081    142.0603
   918.7500      0.0000    808.9964      7.2978    146.2724
   919.0000      0.0000    808.3510      7.2601    149.2550
   919.2500      0.0000    806.8856      7.2044    149.5949
   919.5000      0.0000    803.5729      7.1478    147.0612
   919.7500      0.0000    797.2538      7.1025    142.6731
   920.0000      0.0000    787.2889      7.0734    137.8119
   920.2500      0.0000    774.0673      7.0670    133.7016
   920.5000      0.0000    759.1485      7.0933    131.5751
   920.7500      0.0000    745.1255      7.1516    132.4173
   921.0000      0.0000    735.0032      7.2130    136.0186
   921.2500      0.0000    730.8260      7.2186    140.5521
   921.5000      0.0000    732.7635      7.1110    143.5113
   921.7500      0.0000    739.6839      6.8863    143.1707
   922.0000      0.0000    750.3306      6.6208    139.3429
   922.2500      0.0000    764.0197      6.4219    133.2201
   922.5000      0.0000    780.7634      6.3436    126.8990
   922.7500      0.0000    800.0081      6.3557    122.8515
   923.0000      0.0000    818.1075      6.3918    122.8627
   923.2500     -2.0000    827.8246      6.4071    126.6407
   923.5000      0.0000    822.6926      6.4017    131.7715
   923.7500      0.0000    803.4680      6.4162    135.6454
   924.0000      0.0000    779.4752      6.5019    137.3906
   924.2500      0.0000    761.5997      6.6675    137.8398
   924.5000      0.0000    753.5787      6.8628    137.9978
   924.7500      0.0000    750.9456      7.0419    137.8014
   925.0000      0.0000    747.7313      7.2145    136.2138
   925.2500      0.0000    742.1479      7.4027    132.5107
   925.5000      0.0000    735.8378      7.5804    127.5978
   925.7500      0.0000    730.2079      7.6918    123.8968
   926.0000      0.0000    725.3293      7.7088    123.6478
   926.2500      0.0000    721.2947      7.6492    127.1063
   926.5000      0.0000    719.0464      7.5561    132.3850
   926.7500      0.0000    719.8276      7.4681    137.1411
   927.0000      0.0000    724.3270      7.4035    140.3777
   927.2500      0.0000    732.0391      7.3601    142.6108
   927.5000      0.0000    741.1015      7.3274    144.7031
   927.7500      0.0000    749.1180      7.2980    146.9997
   928.0000      0.0000    754.5547      7.2701    149.3706
   928.2500      0.0000    757.4033      7.2447    151.3223
   928.5000      0.0000    758.6171      7.2223    152.0459
   928.7500      0.0000    759.1696      7.2019    151.1491
   929.0000      0.0000    759.6014      7.1825    149.4135
   929.2500      0.0000    760.1360      7.1659    147.8721
   929.5000      0.0000    761.0020      7.1576    145.8211
   929.7500      0.0000    762.6987      7.1661    140.7033
   930.0000      0.0000    766.0276      7.1998    130.6601
   930.2500      0.0000    771.6888      7.2660    116.7646
   930.5000      0.0000    779.5497      7.3719    102.2869
   930.7500      0.0000    788.2770      7.5256     90.2538
   931.0000      0.0000    795.9684      7.7300     82.0783
