~Version Information
 VERS.                                  2.0 : CWLS LAS VERSION
 WRAP.                                   NO : WRAPING MODE
 SWARE .                 MController 2.5.0N : SOFTWARE VERSION
~Well Information
 WELL.                          AMX 13-13TR : WELL
 COMP.       Pioneer Natural Resources, USA : COMPANY
 FLD.                       Purgatory River : FIELD
 LOC.                NW/SW Sec 13 T32S R67W : LOCATION
 DATE.                             12/21/05 : DATE(S) LOGGED
 SRVC.      Blanco Geological Services, LLC : SERVICE COMPANY
 STAT.                             Colorado : STATE
 CNTY.                           Las Animas : COUNTY
 CTRY.                                  USA : COUNTRY
 API.                       05-071-08631-00 : API NUMBER
 STRT.FT                             395.00 : START DEPTH
 STOP.FT                            2187.00 : STOP DEPTH
 STEP.FT                               1.00 : DEPTH INCREMENT
 NULL.                                -9999 : NULL VALUE
~Curve information
 DEPTH.FT                                   :
 ROP.MIN/FT                                 :
 GAS.UNITS                                  :
~ASCII Log data
# ...
       595.0         0.17          4.6 
       596.0         1.73          4.7 
       597.0         0.30          4.8 
       598.0         0.32          4.8 
       599.0         0.23          4.8 
       600.0         0.27          4.9 
       601.0         0.23          4.9 
       602.0         0.23          4.8 
       603.0         0.23          5.2 
       604.0         0.23          5.1 
       605.0         0.20          5.0 
       606.0         0.23          5.1 
       607.0         0.27          4.8 
       608.0         0.20          4.5 
       609.0         0.20          4.6 
       610.0         0.20          4.7 
       611.0         0.20          4.6 
       612.0         0.22          4.6 
       613.0         0.17          4.5 
       614.0         0.17          4.6 
       615.0         0.13          4.6 
       616.0         0.17          4.6 
       617.0         0.17          4.6 
       618.0         0.17          4.6 
       619.0         0.17          4.6 
       620.0         0.20          4.8 
       621.0         0.17          4.6 
       622.0         0.20          5.0 
       623.0         0.20          5.0 
       624.0         0.23          5.1 
       625.0         0.20          5.3 
       626.0         1.62          5.4 
       627.0         0.20          5.2 
       628.0         0.30          5.2 
       629.0         0.27          5.2 
       630.0         0.33          5.1 
       631.0         0.20          5.1 
       632.0         0.20          5.0 
       633.0         0.20          5.1 
       634.0         0.20          5.4 
       635.0         0.17          5.1 
       636.0         0.20          5.3 
       637.0         0.17          5.1 
       638.0         0.20          5.3 
       639.0         0.18          5.1 
       640.0         0.20          5.1 
       641.0         0.17          5.2 
       642.0         0.20          5.1 
       643.0         0.17          5.3 
       644.0         0.17          5.4 
       645.0         0.17          5.2 
       646.0         0.17          5.1 
       647.0         0.17          5.1 
       648.0         0.17          5.3 
       649.0         0.20          5.3 
       650.0         0.20          5.2 
       651.0         0.20          5.4 
       652.0         0.20          5.3 
       653.0         0.23          5.3 
       654.0         0.20          5.6 
       655.0         0.20          5.4 
       656.0         2.22          5.7 
       657.0         0.30          5.5 
       658.0         0.20          5.5 
       659.0         0.20          5.4 
       660.0         0.20          5.5 
       661.0         0.20          5.5 
       662.0         0.22          5.5 
       663.0         0.20          5.4 
       664.0         0.20          5.3 
       665.0         0.20          5.3 
       666.0         0.23          5.4 
       667.0         0.20          5.3 
       668.0         0.20          5.3 
       669.0         0.20          5.1 
       670.0         0.23          4.8 
       671.0         0.23          4.9 
       672.0         0.20          4.8 
       673.0         0.23          4.8 
       674.0         0.23          4.8 
       675.0         0.20          4.8 
       676.0         0.23          4.9 
       677.0         0.17          4.9 
       678.0         0.22          5.0 
       679.0         0.23          5.1 
       680.0         0.20          5.1 
       681.0         0.20          3.8 
       682.0         0.20          4.2 
       683.0         0.20          4.2 
       684.0         0.20          3.9 
       685.0         0.23          3.7 
       686.0         1.50          3.3 
       687.0         0.35          2.7 
       688.0         0.33          2.6 
       689.0         0.27          2.6 
       690.0         0.20          2.5 
       691.0         0.23          2.3 
       692.0         0.23          2.4 
       693.0         0.23          2.5 
       694.0         0.20          2.4 
       695.0         0.23          2.6 
       696.0         0.20          2.6 
       697.0         0.23          2.6 
       698.0         0.20          2.8 
       699.0         0.20          2.6 
       700.0         0.20          2.9 
       701.0         0.20          2.8 
       702.0         0.22          2.8 
       703.0         0.23         26.9 
       704.0         0.20         62.5 
       705.0         0.20         62.0 
       706.0         0.20         42.9 
       707.0         0.20         23.2 
       708.0         0.20         10.7 
       709.0         0.23          4.4 
       710.0         0.20          1.8 
       711.0         0.23          0.5 
       712.0         0.20          0.0 
       713.0         0.20          0.4 
       714.0         0.23          0.5 
       715.0         0.27          0.3 
       716.0         1.82          0.4 
       717.0         0.40          2.8 
       718.0         0.27          3.0 
       719.0         0.23          3.4 
       720.0         0.23          3.5 
       721.0         0.27          3.6 
       722.0         0.23          3.6 
       723.0         0.25          3.7 
       724.0         0.23          3.8 
       725.0         0.23          3.7 
       726.0         0.23          3.7 
       727.0         0.37          3.9 
       728.0         0.20          4.1 
       729.0         0.20          3.8 
       730.0         0.23          4.1 
       731.0         0.23          3.9 
       732.0         0.20          4.1 
       733.0         0.20          4.2 
       734.0         0.20          4.1 
       735.0         0.20          4.0 
       736.0         0.20          4.3 
       737.0         0.20          4.3 
       738.0         0.22          4.8 
       739.0         0.20          5.0 
       740.0         0.17          5.2 
       741.0         0.20          5.3 
       742.0         0.17          5.3 
       743.0         0.20          5.4 
       744.0         0.20          5.5 
       745.0         0.17          5.4 
       746.0         2.22          5.6 
       747.0         0.33          5.4 
       748.0         0.27          5.1 
       749.0         0.27          5.2 
       750.0         0.23          5.1 
       751.0         0.23          5.2 
       752.0         0.23          5.2 
       753.0         0.20          5.3 
       754.0         0.23          5.3 
       755.0         0.20          5.3 
       756.0         0.20          5.4 
       757.0         0.20          5.5 
       758.0         0.20          5.6 
       759.0         0.20          5.7 
       760.0         0.22          5.6 
       761.0         0.17          5.9 
       762.0         0.20          6.0 
       763.0         0.20          6.1 
       764.0         0.23          6.2 
       765.0         0.20          6.3 
       766.0         0.20          6.7 
       767.0         0.23          6.5 
       768.0         0.20          6.5 
       769.0         0.20          6.6 
       770.0         0.20          6.7 
       771.0         0.20          6.8 
       772.0         0.20          6.9 
       773.0         0.20          6.8 
       774.0         0.20          6.7 
       775.0         0.13          6.8 
       776.0         1.98          7.1 
       777.0         0.23          7.0 
       778.0         0.20          7.2 
       779.0         0.20          7.3 
       780.0         0.20          7.4 
       781.0         0.23          7.4 
       782.0         0.23          7.7 
       783.0         0.20          7.5 
       784.0         0.22          7.4 
       785.0         0.20          7.3 
       786.0         0.20          7.0 
       787.0         0.40          7.2 
       788.0         0.23          7.3 
       789.0         0.17          6.0 
       790.0         0.20          5.4 
       791.0         0.17          5.1 
       792.0         0.20          4.8 
       793.0         0.17          4.7 
       794.0         0.20          4.8 
