~Version Information
VERS.                      2.0: CWLS Log ASCII Standard - VERSION 2.0
WRAP.                       NO: One line per depth step
~Well Information Block
STRT.FT               555.0000: 
STOP.FT              1158.0000: 
STEP.FT                 0.1000: 
NULL.                -999.2500: 
COMP.          Pioneer Natural Resources: COMPANY
WELL.              Draco 31-21: WELL
FLD.           Purgatoire River: FIELD
LOC.           491' FNL & 2446' FEL: LOCATION
CNTY.               Las Animas: COUNTY
SRVC.                Patterson: SERVICE COMPANY
DATE.          Wed Feb 01 07:01:32 2006: LOG DATE
UWI.           05 071 08672 00: UNIQUE WELL ID
STAT.                 Colorado: STATE
~Curve Information Block
DEPT.FT            0 000 00 00: Depth
DCAL.in                       : CDL Caliper
RHOB.g/cc                     : CDL Bulk Density
RHOC.g/cc                     : CDL Density Correction
DPOR.pu                       : CDL Density Porosity
GR.GAPI                       : Gamma Ray
NPOR.pu                       : Neutron Porosity
~Parameter Information Block
~A  Depth       DCAL        RHOB        RHOC        DPOR         GR         NPOR    
# ...
   670.2000      7.9521      2.4853      0.0784      9.9801    128.4471     36.7774
   670.3000      7.9488      2.4739      0.0609     10.6727    131.7978     35.7620
   670.4000      7.9488      2.4535      0.0461     11.9070    132.8333     -6.7463
   670.5000      7.9409      2.4454      0.0536     12.4005    134.4430     -1.0186
   670.6000      7.9409      2.4544      0.0701     11.8576    136.7661      0.7497
   670.7000      7.9409      2.4677      0.1039     11.0470    136.9015     -0.5015
   670.8000      7.9494      2.4700      0.0969     10.9096    135.6347     -1.8003
   670.9000      7.9494      2.4585      0.0847     11.6047    134.8437     -1.2268
   671.0000      7.9477      2.4460      0.0778     12.3617    136.6418      1.7524
   671.1000      7.9477      2.4461      0.0497     12.3558    143.8963      5.6740
   671.2000      7.9477      2.4526      0.1127     11.9640    152.5451      7.4443
   671.3000      7.9498      2.4503      0.0592     12.1023    158.0089      6.5161
   671.4000      7.9498      2.4447      0.0465     12.4442    160.4749      4.2790
   671.5000      7.9489      2.4419      0.0771     12.6122    160.9997      3.7251
   671.6000      7.9489      2.4350      0.0669     13.0292    161.3329      7.0179
   671.7000      7.9489      2.4279      0.0236     13.4589    162.4410     10.8713
   671.8000      7.9535      2.4266      0.0998     13.5395    163.3431     12.8116
   671.9000      7.9535      2.4269      0.0423     13.5191    160.7577     13.4730
   672.0000      7.9548      2.4351      0.0477     13.0248    155.6911     13.3789
   672.1000      7.9548      2.4514      0.0866     12.0357    154.2646     12.5624
   672.2000      7.9548      2.4588      0.0805     11.5887    156.1698     11.7391
   672.3000      7.9551      2.4547      0.0915     11.8343    157.1187     11.2434
   672.4000      7.9551      2.4589      0.0843     11.5804    157.8130     10.0821
   672.5000      7.9544      2.4798      0.1318     10.3156    159.2337      8.2000
   672.6000      7.9544      2.4987      0.1198      9.1719    157.9637      7.4104
   672.7000      7.9544      2.5029      0.0775      8.9145    153.6044      8.4092
   672.8000      7.9554      2.5051      0.0307      8.7798    149.8916      9.8789
   672.9000      7.9554      2.5189      0.0554      7.9480    149.1089     11.2969
   673.0000      7.9543      2.5442      0.0997      6.4150    150.3120     12.7090
   673.1000      7.9543      2.5752      0.0992      4.5332    149.0072     13.7155
   673.2000      7.9543      2.6011      0.1113      2.9623    145.2201     14.0961
   673.3000      7.9540      2.6084      0.1037      2.5187    144.2318     14.1609
   673.4000      7.9540      2.5947      0.1056      3.3503    145.9463     13.9720
   673.5000      7.9527      2.5725      0.0327      4.6975    146.2693     13.1391
   673.6000      7.9527      2.5548      0.0448      5.7723    145.2663     11.6881
   673.7000      7.9527      2.5439      0.0273      6.4286    145.9381     10.7292
   673.8000      7.9499      2.5408      0.0181      6.6157    145.4574     11.3839
   673.9000      7.9499      2.5385      0.0319      6.7558    140.2879     12.6985
   674.0000      7.9495      2.5269     -0.0095      7.4613    136.2033     13.0418
   674.1000      7.9495      2.5122     -0.0034      8.3532    139.3119     11.6682
   674.2000      7.9495      2.5144     -0.0519      8.2154    142.0062      8.8361
   674.3000      7.9505      2.5453     -0.0107      6.3453    134.1348      7.0657
   674.4000      7.9505      2.5832      0.0826      4.0491    120.1989      8.4645
   674.5000      7.9501      2.5987      0.0519      3.1103    111.1213     10.5209
   674.6000      7.9501      2.5910      0.0447      3.5732    110.5632     11.1567
   674.7000      7.9501      2.5738      0.0053      4.6180    115.2390     11.0648
   674.8000      7.9547      2.5545      0.0391      5.7875    121.8614     11.3023
   674.9000      7.9547      2.5406     -0.0085      6.6286    125.5921     12.0710
   675.0000      7.9534      2.5451     -0.0290      6.3586    120.3776     12.7185
   675.1000      7.9534      2.5610      0.0465      5.3935    110.5337     12.6769
   675.2000      7.9534      2.5616      0.0358      5.3593    108.7736     12.2226
   675.3000      7.9521      2.5394      0.0224      6.7005    116.5262     11.8713
   675.4000      7.9521      2.5105      0.0050      8.4518    123.3603     11.9745
   675.5000      7.9496      2.4878     -0.0031      9.8329    124.8097     12.7123
   675.6000      7.9496      2.4714      0.0232     10.8231    125.6296     13.9241
   675.7000      7.9496      2.4603     -0.0208     11.4949    128.5440     15.3646
   675.8000      7.9542      2.4530     -0.0161     11.9412    133.2991     16.5121
   675.9000      7.9542      2.4391      0.0130     12.7812    140.8304     16.5690
   676.0000      7.9513      2.4190     -0.0414     13.9972    148.2214     15.0701
   676.1000      7.9513      2.4086     -0.0030     14.6309    151.7269     13.2131
   676.2000      7.9513      2.4103      0.0403     14.5266    151.8677     13.7753
   676.3000      7.9453      2.4162      0.0691     14.1709    148.3573     16.1208
   676.4000      7.9453      2.4256      0.0355     13.5974    141.7808     17.4703
   676.5000      7.9452      2.4370      0.0440     12.9062    137.2517     17.9858
   676.6000      7.9452      2.4337      0.0507     13.1113    135.6929     18.7655
   676.7000      7.9452      2.4006      0.0252     15.1176    135.8817     19.0038
   676.8000      7.9432      2.3408      0.0024     18.7389    139.1371     18.1040
   676.9000      7.9432      2.2634      0.0433     23.4287    142.5454     16.5179
   677.0000      7.9416      2.1834     -0.0059     28.2782    143.1323     15.0971
   677.1000      7.9416      2.1306     -0.0630     31.4811    141.6124     15.4242
   677.2000      7.9416      2.1172      0.0289     32.2893    138.0972     17.7323
   677.3000      7.9461      2.1217      0.0388     32.0169    135.0818     20.0184
   677.4000      7.9461      2.1275      0.0583     31.6687    134.0220     20.6587
   677.5000      7.9486      2.1457      0.0487     30.5659    130.1225     20.2572
   677.6000      7.9486      2.2004      0.0925     27.2472    121.9372     20.6461
   677.7000      7.9486      2.2934      0.1974     21.6098    115.2423     21.9129
   677.8000      7.9463      2.3863      0.2864     15.9814    116.0473     22.7012
   677.9000      7.9463      2.4425      0.1887     12.5780    122.6928     23.0540
   678.0000      7.9481      2.4677      0.1582     11.0463    129.6929     23.8227
   678.1000      7.9481      2.4835      0.1150     10.0893    136.2455     24.3108
   678.2000      7.9481      2.5002      0.0708      9.0769    142.5627     22.9770
   678.3000      7.9619      2.5174      0.0946      8.0391    147.8266     20.4665
   678.4000      7.9619      2.5238      0.1133      7.6494    153.3567     19.4062
   678.5000      7.9302      2.5108      0.0997      8.4340    157.5431     20.6377
   678.6000      7.9302      2.4895      0.0255      9.7257    157.2419     21.7763
   678.7000      7.9302      2.4777     -0.0004     10.4409    153.0486     21.1718
   678.8000      7.9209      2.4788      0.0000     10.3770    150.1898     19.7068
   678.9000      7.9209      2.4896     -0.0014      9.7205    150.2386     18.7542
   679.0000      7.9158      2.5034      0.0564      8.8850    147.2399     18.7163
   679.1000      7.9158      2.5093      0.0459      8.5264    141.1564     19.1014
   679.2000      7.9158      2.5104      0.0358      8.4609    135.3304     19.5699
   679.3000      7.9172      2.5118      0.0640      8.3760    129.2466     20.2130
   679.4000      7.9172      2.5145      0.0188      8.2112    128.2125     20.6665
   679.5000      7.9201      2.5243      0.0092      7.6208    136.1884     20.4898
   679.6000      7.9201      2.5378      0.0625      6.7998    145.1780     19.8969
   679.7000      7.9201      2.5451      0.0625      6.3602    145.6622     19.6240
