~Version Information
VERS.                      2.0: CWLS Log ASCII Standard - VERSION 2.0
WRAP.                       NO: One line per depth step
~Well Information Block
STRT.FT                -8.5000: 
STOP.FT              1945.2500: 
STEP.FT                 0.2500: 
NULL.                -999.2500: 
COMP.          Pioneer Natural Resources: COMPANY
WELL.          Flying Horse 12-11 Tr: WELL
FLD.           Purgatorie River: FIELD
LOC.           2459' FNL & 410' FWL: LOCATION
STAT.                       CO: PROVINCE
CNTY.               Las Animas: COUNTY
CTRY.        USA : Country
SECT. 11 : Section
TOWN. 32S : Township
RANG. 66W : Range
SRVC.          Patterson Wireline: SERVICE COMPANY
DATE.          Thu Sep 08 15:44:22 2005: LOG DATE
API.           05 071 08485 00: UNIQUE WELL ID
~Curve Information Block
DEPT.FT            0 000 00 00: Depth
CCL.                          : Casing Collar Locator
TT3.usec                      : CBL 3' Travel Time
AMP3.mV                       : CBL 3' Amplitude
GR.GAPI                       : Gamma Ray
~Parameter Information Block
~A  Depth       CCL         TT3         AMP3         GR     
# ...
  1901.0000      0.0000    674.8386     11.9503    142.8244
  1901.2500      0.0000    716.2029     11.9254    143.8282
  1901.5000      0.0000    736.5382     11.9364    147.6174
  1901.7500      0.0000    744.6589     11.9832    153.0003
  1902.0000      0.0000    748.2769     12.0544    158.8243
  1902.2500      0.0000    747.4348     12.1395    163.9076
  1902.5000      0.0000    734.4652     12.2338    166.7125
  1902.7500      0.0000    700.7623     12.3336    165.4137
  1903.0000      0.0000    646.5999     12.4302    158.8609
  1903.2500      0.0000    585.4734     12.5103    148.0322
  1903.5000      0.0000    536.1730     12.5625    136.2758
  1903.7500      0.0000    508.5893     12.5818    127.3410
  1904.0000      0.0000    498.1430     12.5706    122.8002
  1904.2500      0.0000    494.9377     12.5367    121.5395
  1904.5000      0.0000    496.5357     12.4909    121.6399
  1904.7500      0.0000    509.0134     12.4461    122.2693
  1905.0000      0.0000    535.8674     12.4156    123.6868
  1905.2500      0.0000    570.6220     12.4073    125.9700
  1905.5000      0.0000    603.7770     12.4133    128.1480
  1905.7500      0.0000    633.3481     12.4112    128.6606
  1906.0000      0.0000    662.6479     12.3795    126.8850
  1906.2500      0.0000    688.1876     12.3117    124.2151
  1906.5000      0.0000    695.5403     12.2166    123.2037
  1906.7500      0.0000    670.0800     12.1101    125.1725
  1907.0000      0.0000    611.0721     12.0107    128.5694
  1907.2500      0.0000    534.7227     11.9344    129.8264
  1907.5000      0.0000    463.3055     11.8885    126.2701
  1907.7500      0.0000    411.0389     11.8643    118.6799
  1908.0000      0.0000    379.4409     11.8311    110.8791
  1908.2500      0.0000    363.2348     11.7357    106.4725
  1908.5000      0.0000    357.3660     11.5202    106.0471
  1908.7500      0.0000    359.0029     11.1629    107.6410
  1909.0000      0.0000    366.9343     10.7168    109.2351
  1909.2500      0.0000    382.3177     10.3001    110.2487
  1909.5000      0.0000    409.5016     10.0132    111.1536
  1909.7500      0.0000    452.2427      9.8442    112.4959
  1910.0000      0.0000    505.4795      9.6797    114.3454
  1910.2500      0.0000    551.7236      9.4476    116.2905
  1910.5000      0.0000    570.4710      9.2189    117.8548
  1910.7500      0.0000    553.9376      9.1212    119.0437
  1911.0000     -2.0000    512.8380      9.1782    120.5588
  1911.2500      2.0000    467.0548      9.2765    123.2156
  1911.5000      0.0000    432.1595      9.2794    126.9828
  1911.7500      0.0000    413.6130      9.1583    130.6565
  1912.0000      0.0000    410.3789      9.0409    132.7160
  1912.2500      0.0000    421.6762      9.1249    132.6617
  1912.5000      0.0000    449.0635      9.5020    131.4037
  1912.7500      0.0000    492.1239     10.0678    130.3023
  1913.0000      0.0000    544.6017     10.6434    130.0013
  1913.2500      0.0000    597.4114     11.1518    130.2023
  1913.5000      0.0000    644.0960     11.6204    130.3021
  1913.7500      0.0000    681.0562     12.0572    130.2771
  1914.0000      0.0000    704.9738     12.4207    131.0247
  1914.2500      0.0000    713.5054     12.6974    133.5973
  1914.5000      0.0000    706.7786     12.9365    138.0622
  1914.7500      0.0000    685.9359     13.2003    143.5008
  1915.0000      0.0000    653.4747     13.5095    148.9117
  1915.2500      0.0000    618.6444     13.8335    153.4256
  1915.5000      0.0000    599.1277     14.1144    155.9571
  1915.7500      0.0000    609.9822     14.2977    155.6431
  1916.0000      0.0000    648.8134     14.3535    152.8773
  1916.2500      0.0000    695.7863     14.2840    149.2960
  1916.5000      0.0000    729.9246     14.1227    146.4544
  1916.7500      0.0000    743.9429     13.9239    144.9234
  1917.0000      0.0000    744.6967     13.7419    144.7561
  1917.2500      0.0000    743.3210     13.6102    145.9993
  1917.5000      0.0000    745.6031     13.5376    147.9317
  1917.7500      0.0000    749.1099     13.5222    148.2034
  1918.0000      0.0000    747.5989     13.5646    143.8143
  1918.2500      0.0000    738.2073     13.6702    133.6174
  1918.5000      0.0000    724.3578     13.8490    119.7670
  1918.7500      0.0000    711.1340     14.1184    106.3370
  1919.0000      0.0000    697.6349     14.4979     96.3483
  1919.2500      0.0000    674.6492     14.9965     90.0148
  1919.5000      0.0000    631.3933     15.5977     85.5539
  1919.7500      0.0000    566.2564     16.2512     81.3747
  1920.0000      0.0000    491.3944     16.8775     77.4387
  1920.2500      0.0000    425.6511     17.3892     74.6112
  1920.5000      0.0000    382.1276     17.7149     73.0072
  1920.7500      0.0000    362.1259     17.8157     71.3782
  1921.0000      0.0000    358.6717     17.6897     68.2841
  1921.2500      0.0000    363.1497     17.3702     63.8014
  1921.5000      0.0000    369.4743     16.9117     59.9672
  1921.7500      0.0000    375.7205     16.3697     59.4178
  1922.0000      0.0000    384.8122     15.7889     63.3212
  1922.2500      0.0000    403.7427     15.2073     70.4986
  1922.5000      0.0000    439.2288     14.6590     78.6585
  1922.7500      0.0000    490.3212     14.1684     86.4545
  1923.0000      0.0000    544.9323     13.7468     94.0928
  1923.2500      0.0000    587.6140     13.4012    102.2545
  1923.5000      0.0000    612.7888     13.1422    111.1108
  1923.7500      0.0000    627.7582     12.9788    120.3605
  1924.0000      0.0000    641.7584     12.9079    129.5255
  1924.2500      0.0000    655.4658     12.9125    137.8750
  1924.5000      0.0000    661.5854     12.9701    144.3787
  1924.7500      0.0000    651.2007     13.0617    148.1768
  1925.0000      0.0000    619.2310     13.1712    149.1463
  1925.2500      0.0000    568.5080     13.2807    147.5763
  1925.5000      0.0000    510.1385     13.3683    143.3976
  1925.7500      0.0000    458.1174     13.4150    136.4807
  1926.0000      0.0000    422.9758     13.4172    127.6744
  1926.2500      0.0000    410.3894     13.3930    118.8763
  1926.5000      0.0000    423.7049     13.3674    112.1760
  1926.7500      0.0000    464.0885     13.3474    109.1278
  1927.0000      0.0000    525.9716     13.3135    109.9423
  1927.2500      0.0000    594.4361     13.2396    112.6483
  1927.5000      0.0000    651.7039     13.1177    113.9458
  1927.7500      0.0000    688.0166     12.9614    112.0790
  1928.0000      0.0000    705.2109     12.7918    108.6213
  1928.2500      0.0000    710.8235     12.6224    106.9027
  1928.5000      0.0000    711.0642     12.4534    108.9768
  1928.7500      0.0000    708.6517     12.2750    114.1796
  1929.0000      0.0000    704.5025     12.0751    119.7865
  1929.2500      0.0000    700.0197     11.8526    122.6542
  1929.5000      0.0000    697.7274     11.6248    121.0633
  1929.7500      0.0000    699.6730     11.4167    115.9422
  1930.0000      0.0000    705.2130     11.2425    110.4739
  1930.2500      0.0000    711.0384     11.1039    107.9876
  1930.5000      0.0000    713.7814     11.0030    109.3698
  1930.7500      0.0000    712.5703     10.9497    111.6966
  1931.0000      0.0000    709.4193     10.9490    109.4039
  1931.2500      0.0000    707.9271     10.9863     97.8130
  1931.5000      0.0000    711.2972     11.0304     76.7795
  1931.7500      0.0000    720.0415     11.0512     51.3956
  1932.0000      0.0000    731.0681     11.0361     28.6943
  1932.2500      0.0000    740.3433     10.9893     13.1351
  1932.5000      0.0000    746.8497     10.9236      4.8659
  1932.7500      0.0000    752.6904     10.8584      1.4444
  1933.0000      0.0000    759.5521     10.8210      0.3403
  1933.2500      0.0000    766.9377     10.8376      0.0626
  1933.5000      0.0000    773.7501     10.9188      0.0082
  1933.7500      0.0000    779.6827     11.0540      0.0000
  1934.0000      0.0000    784.7181     11.2184   -999.2500
  1934.2500      0.0000    788.5894     11.3803   -999.2500
