~Version Information
VERS.                      2.0: CWLS Log ASCII Standard - VERSION 2.0
WRAP.                       NO: One line per depth step
~Well Information Block
STRT.FT                31.2500: 
STOP.FT               700.7500: 
STEP.FT                 0.2500: 
NULL.                -999.2500: 
COMP.          XTO Energy Inc.: COMPANY
WELL.          Golden Eagle 20-14: WELL
FLD.           Purgatrorie River: FIELD
LOC.           587' FSL & 2478' FWL--: LOCATION
STAT.                       CO: State
CNTY.               Las Animas: COUNTY
CTRY. USA : Country
SECT. 20 : Section
TOWN. 33S : Township
RANG. 67W : Range
SRVC.          Patterson Wireline: SERVICE COMPANY
DATE.          Sat Dec 10 15:54:00 2005: LOG DATE
API.           05 071 08614 00: UNIQUE WELL ID
~Curve Information Block
DEPT.FT            0 000 00 00: Depth
CCL.                          : Casing Collar Locator
TT3.usec                      : CBL 3' Travel Time
AMP3.mV                       : CBL 3' Amplitude
GR.GAPI                       : Gamma Ray
~Parameter Information Block
~A  Depth       CCL         TT3         AMP3         GR     
# ...
   165.2500      0.0000    894.0000      2.3921    149.7182
   165.5000      0.0000    894.0000      2.3977    151.0963
   165.7500      0.0000    894.0000      2.4021    152.8094
   166.0000      0.0000    894.0000      2.4045    154.7835
   166.2500      0.0000    894.0000      2.4035    156.4063
   166.5000      0.0000    894.0000      2.3983    157.6462
   166.7500      0.0000    894.0000      2.3904    159.5090
   167.0000      0.0000    894.0000      2.3840    163.2197
   167.2500      0.0000    894.0000      2.3822    168.3642
   167.5000      0.0000    894.0000      2.3839    172.0546
   167.7500      0.0000    894.0000      2.3851    170.9840
   168.0000     -0.5453    894.0000      2.3828    164.5678
   168.2500      0.0000    894.0000      2.3787    155.4877
   168.5000      0.0000    894.0000      2.3761    147.3787
   168.7500      0.0000    894.0000      2.3769    142.5909
   169.0000      0.0000    894.0000      2.3810    141.5219
   169.2500      0.0000    894.0000      2.3875    143.0412
   169.5000      0.0000    894.0000      2.3940    145.7625
   169.7500      0.0000    894.0000      2.3968    149.2782
   170.0000      0.0000    894.0000      2.3944    153.5758
   170.2500      0.0000    894.0000      2.3886    157.3671
   170.5000      0.0000    894.0000      2.3825    158.3887
   170.7500      0.0000    894.0000      2.3765    155.8065
   171.0000      0.0000    894.0000      2.3688    151.1889
   171.2500      0.0000    894.0000      2.3583    146.7021
   171.5000      0.0000    894.0000      2.3481    143.3531
   171.7500      0.0000    894.0000      2.3425    141.3053
   172.0000      0.0000    894.0000      2.3434    140.6705
   172.2500      0.0000    894.0000      2.3478    141.2829
   172.5000      0.0000    894.0000      2.3515    142.2859
   172.7500      0.0000    894.0000      2.3530    142.5266
   173.0000      0.0000    894.0000      2.3554    141.2917
   173.2500      0.0000    894.0000      2.3630    138.6772
   173.5000      0.0000    894.0000      2.3769    135.3505
   173.7500      0.0000    894.0000      2.3924    131.9005
   174.0000      0.0000    894.0000      2.4028    128.5491
   174.2500      0.0000    894.0000      2.4050    125.5636
   174.5000      0.0000    894.0000      2.4023    123.4394
   174.7500      0.0000    894.0000      2.4000    122.4502
   175.0000      0.0000    894.0000      2.4011    122.5451
   175.2500      0.0000    894.0000      2.4049    123.8384
   175.5000      0.0000    894.0000      2.4085    126.5681
   175.7500      0.0000    894.0000      2.4089    130.2398
   176.0000      0.0000    894.0000      2.4043    133.2862
   176.2500      0.5307    894.0000      2.3939    134.2302
   176.5000      0.0000    894.0000      2.3790    133.0900
   176.7500      0.0000    894.0000      2.3646    131.0977
   177.0000      0.0000    894.0000      2.3567    129.0976
   177.2500      0.0000    894.0000      2.3584    126.8210
   177.5000      0.0000    894.0000      2.3683    123.7766
   177.7500      0.0000    894.0000      2.3811    120.2570
   178.0000      0.0000    894.0000      2.3911    117.0818
   178.2500      0.0000    894.0000      2.3941    114.5976
   178.5000      0.0000    894.0000      2.3903    112.3476
   178.7500      0.0000    894.0000      2.3825    109.6616
   179.0000      0.0000    894.0000      2.3741    106.3649
   179.2500      0.0000    894.0000      2.3674    103.1421
   179.5000      0.0000    894.0000      2.3624    101.3064
   179.7500      0.0000    894.0000      2.3578    101.6892
   180.0000      0.0000    894.0000      2.3528    103.5800
   180.2500      0.5432    894.0000      2.3484    105.1840
   180.5000      0.0000    894.0000      2.3465    105.0424
   180.7500      0.0000    894.0000      2.3485    102.7029
   181.0000      0.0000    894.0000      2.3533     98.4987
   181.2500      0.0000    894.0000      2.3592     93.0622
   181.5000      0.0000    894.0000      2.3652     86.7839
   181.7500      0.0000    894.0000      2.3712     79.7724
   182.0000      0.0000    894.0000      2.3765     72.6523
   182.2500      0.0000    894.0000      2.3800     67.1411
   182.5000     -0.5453    894.0000      2.3813     65.3731
   182.7500      2.0000    894.0000      2.3821     68.4790
   183.0000     -2.0000    894.0000      2.3840     75.6676
   183.2500      0.0000    894.0000      2.3877     84.4204
   183.5000      0.0000    894.0000      2.3928     91.5748
   183.7500      0.0000    894.0000      2.3983     94.9016
   184.0000      0.0000    894.0000      2.4019     94.4490
   184.2500      0.0000    894.0000      2.4002     92.2926
   184.5000      0.0000    894.0000      2.3928     90.5016
   184.7500      0.0000    894.0000      2.3838     89.6022
   185.0000      0.0000    894.0000      2.3779     89.3367
   185.2500      0.0000    894.0000      2.3764     89.9185
   185.5000      0.0000    894.0000      2.3778     91.5102
   185.7500      0.0000    894.0000      2.3802     93.1488
   186.0000      0.0000    894.0000      2.3820     93.3928
   186.2500      0.0000    894.0000      2.3829     91.8516
   186.5000      0.0000    894.0000      2.3836     89.4503
   186.7500      0.0000    894.0000      2.3832     87.5388
   187.0000      0.0000    894.0000      2.3784     87.2236
   187.2500      0.0000    894.0000      2.3664     89.1073
   187.5000      0.0000    894.0000      2.3496     93.0309
   187.7500      0.0000    894.0000      2.3347     98.1864
   188.0000      0.0000    894.0000      2.3273    103.8884
   188.2500      0.0000    894.0000      2.3290    110.1597
   188.5000      0.0000    894.0000      2.3375    117.0918
   188.7500      0.0000    894.0000      2.3482    123.7610
   189.0000      0.0000    894.0000      2.3569    128.5342
   189.2500      0.0000    894.0000      2.3609    130.6833
   189.5000      0.0000    894.0000      2.3586    131.1128
   189.7500      0.0000    894.0000      2.3498    131.1945
   190.0000      0.0000    894.0000      2.3386    131.3170
   190.2500      0.5310    894.0000      2.3322    130.8480
   190.5000      0.0000    894.0000      2.3355    129.2109
   190.7500      0.0000    894.0000      2.3475    126.8894
   191.0000      0.0000    894.0000      2.3632    125.4671
   191.2500      0.0000    894.0000      2.3779    126.5981
   191.5000      0.0000    894.0000      2.3890    130.9008
   191.7500      0.0000    894.0000      2.3946    137.7139
   192.0000      0.0000    894.0000      2.3939    145.4335
   192.2500      0.0000    894.0000      2.3888    151.8956
   192.5000      0.0000    894.0000      2.3841    155.0800
   192.7500      0.0000    894.0000      2.3840    154.3128
   193.0000      0.0000    894.0000      2.3885    151.0197
   193.2500      0.0000    894.0000      2.3931    147.9311
   193.5000      0.0000    894.0000      2.3937    147.1257
   193.7500      0.0000    894.0000      2.3901    148.5101
   194.0000      0.0000    894.0000      2.3862    149.8449
   194.2500      0.0000    894.0000      2.3862    148.3862
   194.5000      0.0000    894.0000      2.3916    143.1979
   194.7500      0.0000    894.0000      2.4003    136.1696
   195.0000      0.0000    894.0000      2.4076    130.2432
   195.2500      0.0000    894.0000      2.4085    126.3893
   195.5000      0.0000    894.0000      2.4008    122.7525
   195.7500      0.0000    894.0000      2.3867    116.9308
   196.0000      0.0000    894.0000      2.3716    108.6370
   196.2500      0.0000    894.0000      2.3613    100.0575
   196.5000      0.0000    894.0000      2.3588     94.2413
   196.7500      0.0000    894.0000      2.3624     93.2704
   197.0000      0.0000    894.0000      2.3666     97.0822
   197.2500      0.0000    894.0000      2.3665    103.3754
   197.5000      0.0000    894.0000      2.3620    109.0976
   197.7500      0.0000    894.0000      2.3573    112.8401
   198.0000      0.0000    894.0000      2.3565    115.9177
   198.2500      0.0000    894.0000      2.3600    120.7594
   198.5000      0.0000    894.0000      2.3647    128.2198
