~Version Information
VERS.                      2.0: CWLS Log ASCII Standard - VERSION 2.0
WRAP.                       NO: One line per depth step
~Well Information Block
STRT.FT                -6.5000: 
STOP.FT              1317.5000: 
STEP.FT                 0.2500: 
NULL.                -999.2500: 
COMP.          Pioneer Natural Resources: COMPANY
WELL.              Dicks 32-5R: WELL
FLD.           Purgatorie River: FIELD
LOC.           1485' FNL & 1684' FEL--: LOCATION
PROV.                       CO: PROVINCE
CNTY.               Las Animas: COUNTRY
SRVC.          Patterson Wireline: SERVICE COMPANY
DATE.          Tue Dec 13 09:33:22 2005: LOG DATE
UWI.           05 071 08596 00: UNIQUE WELL ID
~Curve Information Block
DEPT.FT            0 000 00 00: Depth
CCL.                          : Casing Collar Locator
TT3.usec                      : CBL 3' Travel Time
AMP3.mV                       : CBL 3' Amplitude
GR.GAPI                       : Gamma Ray
~Parameter Information Block
~A  Depth       CCL         TT3         AMP3         GR     
# ...
   596.5000      0.0000    829.6347     12.1963    137.7302
   596.7500      0.0000    829.0971     12.3340    138.0366
   597.0000      0.0000    828.1901     12.4468    136.5003
   597.2500      0.0000    826.4479     12.5391    133.4035
   597.5000      0.0000    824.1531     12.6226    129.8485
   597.7500      0.0000    822.9055     12.7099    127.2752
   598.0000      0.0000    824.6690     12.8036    126.7466
   598.2500      0.0000    829.2296     12.8903    128.4368
   598.5000      0.0000    832.7855     12.9447    131.6992
   598.7500      0.0000    830.2807     12.9442    135.4086
   599.0000      0.0000    819.8705     12.8834    138.1564
   599.2500      0.0000    805.0038     12.7791    138.5899
   599.5000      0.0000    791.8808     12.6581    136.1602
   599.7500      0.0000    784.8152     12.5384    131.6478
   600.0000      0.0000    783.9105     12.4179    126.8859
   600.2500      0.0000    786.7255     12.2802    123.9011
   600.5000      0.0000    791.3548     12.1108    123.7738
   600.7500      0.0000    797.4562     11.9134    125.7359
   601.0000      0.0000    805.0621     11.7150    127.6252
   601.2500      0.0000    813.7524     11.5511    127.7670
   601.5000      0.0000    822.6549     11.4402    126.5601
   601.7500      0.0000    830.0370     11.3755    126.1189
   602.0000      0.0000    833.4376     11.3405    128.1833
   602.2500      0.0000    831.6628     11.3253    132.1743
   602.5000      0.0000    826.3254     11.3260    135.5003
   602.7500      0.0000    820.3530     11.3360    136.0373
   603.0000      0.0000    815.2865     11.3456    133.9970
   603.2500      0.0000    810.7061     11.3461    131.0214
   603.5000      0.0000    805.8503     11.3296    128.0014
   603.7500      0.0000    800.9506     11.2906    124.6259
   604.0000      0.0000    796.8253     11.2304    120.8523
   604.2500      0.0000    793.6902     11.1576    117.8459
   604.5000      0.0000    790.7551     11.0833    117.1429
   604.7500      0.0000    786.9186     11.0177    119.2898
   605.0000      0.0000    781.7581     10.9642    123.4555
   605.2500      0.0000    775.9680     10.9154    128.1125
   605.5000      0.0000    770.8254     10.8566    131.8880
   605.7500      0.0000    767.2388     10.7792    133.9512
   606.0000      0.0000    765.2531     10.6915    134.2313
   606.2500      0.0000    764.5969     10.6188    133.6174
   606.5000      0.0000    765.7698     10.5904    133.4164
   606.7500      0.0000    771.0043     10.6242    134.0381
   607.0000      0.0000    783.6318     10.7191    134.4571
   607.2500      0.0000    804.4354     10.8605    133.3377
   607.5000      0.0000    827.3591     11.0299    130.3400
   607.7500      0.0000    841.3027     11.2088    126.0483
   608.0000      0.0000    839.3925     11.3804    121.0606
   608.2500      0.0000    825.4745     11.5364    115.5605
   608.5000      0.0000    809.4794     11.6848    109.7043
   608.7500      0.0000    798.2831     11.8420    104.2584
   609.0000      0.0000    792.6607     12.0109    100.4550
   609.2500      0.0000    790.4030     12.1688     98.9085
   609.5000      0.0000    789.5513     12.2790     99.1095
   609.7500      0.0000    789.1939     12.3155    100.5936
   610.0000      0.0000    789.0144     12.2788    104.1919
   610.2500      0.0000    788.8952     12.1943    111.0700
   610.5000      0.0000    788.7504     12.0931    120.3403
   610.7500      0.0000    788.5456     11.9947    128.6842
   611.0000      0.0000    788.2842     11.9048    132.9185
   611.2500      0.0000    787.9999     11.8270    132.4034
   611.5000      0.0000    787.7443     11.7673    128.7998
   611.7500      0.0000    787.5718     11.7250    124.1529
   612.0000      0.0000    787.5223     11.6874    119.3099
   612.2500      0.0000    787.6096     11.6378    113.7949
   612.5000      0.0000    787.8494     11.5696    107.1463
   612.7500      0.0000    788.3697     11.4904    100.2208
   613.0000      0.0000    789.5583     11.4176     94.6260
   613.2500      0.0000    792.0495     11.3668     90.9015
   613.5000      0.0000    796.2912     11.3426     88.0111
   613.7500      0.0000    801.8964     11.3379     84.7903
   614.0000      0.0000    807.5914     11.3415     81.2105
   614.2500      0.0000    812.1246     11.3445     78.1087
   614.5000      0.0000    815.0081     11.3444     76.4636
   614.7500      0.0000    816.0430     11.3489     77.1117
   615.0000      0.0000    814.6930     11.3731     80.3370
   615.2500      0.0000    810.8765     11.4258     85.3461
   615.5000      0.0000    806.4167     11.4976     90.7196
   615.7500      0.0000    805.0974     11.5678     95.6849
   616.0000      0.0000    810.7157     11.6256    100.4333
   616.2500      0.0000    824.1358     11.6726    105.0172
   616.5000      0.0000    841.2756     11.7060    108.6311
   616.7500      0.0000    854.5604     11.7107    110.4668
   617.0000      0.0000    858.3630     11.6760    110.8022
   617.2500      0.0000    853.6614     11.6125    110.8013
   617.5000      0.0000    846.1143     11.5458    111.3542
   617.7500      0.0000    839.5448     11.4959    112.1775
   618.0000      0.0000    833.1163     11.4697    112.1215
   618.2500      0.0000    824.8716     11.4682    110.5518
   618.5000      0.0000    815.3115     11.4929    108.2990
   618.7500      0.0000    806.4788     11.5416    106.9634
   619.0000      0.0000    799.6352     11.6050    107.5507
   619.2500      0.0000    795.0939     11.6736    110.0456
   619.5000      0.0000    792.9716     11.7524    113.8886
   619.7500      0.0000    793.1418     11.8638    118.3144
   620.0000      0.0000    795.0317     12.0277    122.3919
   620.2500      0.0000    798.9625     12.2235    125.3942
   620.5000      0.0000    807.7269     12.3709    127.3316
   620.7500      0.0000    824.7972     12.3508    128.7269
   621.0000      0.0000    848.0202     12.0738    129.7432
   621.2500      0.0000    866.0651     11.5579    129.9426
   621.5000      0.0000    866.1307     10.9332    129.0410
   621.7500      0.0000    847.8301     10.3399    127.5142
   622.0000      0.0000    826.3578      9.8389    126.1690
   622.2500      0.0000    819.5633      9.4491    125.3584
   622.5000      0.0000    834.8844      9.2098    124.8941
   622.7500      0.0000    869.5595      9.1424    124.4632
   623.0000      0.0000    916.2157      9.1861    123.8439
   623.2500     -2.0000    962.9616      9.2346    122.8945
   623.5000      0.0000    993.1615      9.2284    121.6245
   623.7500      0.0000    992.3207      9.2028    120.3409
   624.0000      0.0000    956.9870      9.2620    119.4907
   624.2500      0.0000    897.4872      9.4874    119.2429
   624.5000      0.0000    833.3266      9.8290    119.3767
   624.7500      0.0000    784.1170     10.1122    119.6530
   625.0000      0.0000    759.3535     10.2122    120.0860
   625.2500      0.0000    754.4662     10.1896    120.5586
   625.5000      0.0000    757.0782     10.1963    120.4042
   625.7500      0.0000    756.8629     10.3017    119.1029
   626.0000      0.0000    750.4603     10.4758    117.4680
   626.2500      0.0000    740.4393     10.6786    117.4585
   626.5000      0.0000    731.1890     10.8944    120.2944
   626.7500      0.0000    725.0187     11.1074    124.9394
   627.0000      0.0000    721.5792     11.2978    128.9514
   627.2500      0.0000    720.0354     11.4577    130.8486
   627.5000      0.0000    720.2974     11.5847    131.0664
   627.7500      0.0000    722.1705     11.6704    130.4673
   628.0000      0.0000    724.9424     11.7092    128.5705
   628.2500      0.0000    728.1212     11.7110    123.9105
   628.5000      0.0000    731.6111     11.6867    116.3389
   628.7500      0.0000    735.0734     11.6239    108.6494
   629.0000      0.0000    737.8270     11.4845    105.1015
   629.2500      0.0000    739.4191     11.2328    107.7668
   629.5000      0.0000    739.8191     10.8674    114.6372
   629.7500      0.0000    738.9985     10.4331    121.7101
