~Version Information
 VERS.                                  2.0 : CWLS LAS VERSION
 WRAP.                                   NO : WRAPING MODE
 SWARE .                  MController 2.5.1 : SOFTWARE VERSION
~Well Information
 WELL.                    Sparrowhawk 22-12 : WELL
 COMP.  Pioneer Natural Resources USA, Inc. : COMPANY
 FLD.                      Purgatoire River : FIELD
 LOC.             SE/NE Sec. 12, T32S, R66W : LOCATION
 DATE.                03/22/2006-03/23/2006 : DATE(S) LOGGED
 SRVC.                  Entrada GeoSciences : SERVICE COMPANY
 STAT.                             Colorado : STATE
 CNTY.                           Las Animas : COUNTY
 CTRY.                        United States : COUNTRY
 API.                          05-071-08484 : API NUMBER
 STRT.FT                             533.00 : START DEPTH
 STOP.FT                            2380.00 : STOP DEPTH
 STEP.FT                               1.00 : DEPTH INCREMENT
 NULL.                                -9999 : NULL VALUE
~Curve information
 DEPTH.FT                                   :
 ROP.MIN/FT                                 :
 GAS.UNITS                                  :
~ASCII Log data
# ...
      733.00         0.25          1.0 
      734.00         0.20          1.7 
      735.00         0.20          0.2 
      736.00         0.23          0.5 
      737.00         0.20          0.4 
      738.00         0.27          0.7 
      739.00         0.30          0.5 
      740.00         0.23          1.1 
      741.00         0.20          0.7 
      742.00         0.20          0.6 
      743.00         0.20          1.1 
      744.00         0.23          1.0 
      745.00         0.23          0.8 
      746.00         0.13          0.7 
      747.00         0.23          0.7 
      748.00         0.20          0.5 
      749.00         0.20          1.1 
      750.00         0.20          0.5 
      751.00         0.30          0.9 
      752.00         0.20          0.9 
      753.00         0.20          1.0 
      754.00         0.20          0.8 
      755.00         0.20          1.1 
      756.00         0.23          0.6 
      757.00         0.23          2.1 
      758.00         0.23          1.5 
      759.00         0.23          2.1 
      760.00         0.27          1.5 
      761.00         0.32          1.6 
      762.00         0.27          1.5 
      763.00         0.27          0.0 
      764.00         0.23          1.1 
      765.00         0.27          0.9 
      766.00         0.20          1.0 
      767.00         0.27          1.2 
      768.00         0.33          0.7 
      769.00         0.23          0.8 
      770.00         0.20          1.1 
      771.00         0.20          1.3 
      772.00         0.20          0.9 
      773.00         0.20          1.7 
      774.00         0.20          0.1 
      775.00         0.18          0.8 
      776.00         0.30          1.1 
      777.00         0.27          0.2 
      778.00         0.30          0.4 
      779.00         0.33          0.1 
      780.00         0.43          0.1 
      781.00         0.27          0.7 
      782.00         0.27          0.7 
      783.00         0.23          0.1 
      784.00         0.30          0.9 
      785.00         0.23          0.1 
      786.00         0.28          0.2 
      787.00         0.20          0.9 
      788.00         0.20          0.4 
      789.00         0.20          0.3 
      790.00         0.23          0.4 
      791.00         0.23          0.2 
      792.00         0.27          0.9 
      793.00         0.33          0.2 
      794.00         0.40          0.5 
      795.00         0.23          0.5 
      796.00         0.23          0.2 
      797.00         0.40          0.9 
      798.00         0.27          0.4 
      799.00         0.35          0.2 
      800.00         0.37          0.1 
      801.00         0.37          0.2 
      802.00         0.33          0.0 
      803.00         0.30          0.1 
      804.00         0.30          1.1 
      805.00         0.30          0.2 
      806.00         0.30         14.3 
      807.00         0.27         15.6 
      808.00         0.17         16.9 
      809.00         0.32         18.6 
      810.00         0.23         21.6 
      811.00         0.23         23.0 
      812.00         0.23         25.6 
      813.00         0.20         27.0 
      814.00         0.30         43.3 
      815.00         0.27         80.9 
      816.00         0.27        107.4 
      817.00         0.23        113.2 
      818.00         0.23        106.6 
      819.00         0.23         92.7 
      820.00         0.23         80.4 
      821.00         0.23         72.5 
      822.00         0.27         63.6 
      823.00         0.25         54.5 
      824.00         0.30         44.3 
      825.00         0.30         36.8 
      826.00         0.27         30.4 
      827.00         0.23         27.1 
      828.00         0.33         23.5 
      829.00         0.33         21.0 
      830.00         0.40         19.7 
      831.00         0.27         18.6 
      832.00         0.13         18.6 
      833.00         0.30         18.4 
      834.00         0.23         17.8 
      835.00         0.25         16.0 
      836.00         0.27         16.6 
      837.00         0.33         15.4 
      838.00         0.27         14.5 
      839.00         0.18         14.8 
      840.00         0.27         14.5 
      841.00         0.13         13.7 
      842.00         0.27         13.2 
      843.00         0.23         12.9 
      844.00         0.20         13.4 
      845.00         0.17         13.3 
      846.00         0.23         13.4 
      847.00         0.30         15.5 
      848.00         0.33         18.3 
      849.00         0.27         31.0 
      850.00         0.27         51.3 
      851.00         0.20         60.1 
      852.00         0.23         62.8 
      853.00         0.25         60.8 
      854.00         0.17         58.0 
      855.00         0.17         54.2 
      856.00         0.13         51.5 
      857.00         0.13         47.5 
      858.00         0.37         40.2 
      859.00         0.17         36.9 
      860.00         0.27         33.1 
      861.00         0.30         28.3 
      862.00         0.20         26.0 
      863.00         0.27         23.1 
      864.00         0.20         21.6 
      865.00         0.23         20.1 
      866.00         0.27         26.0 
      867.00         0.30         25.3 
      868.00         0.27         24.2 
      869.00         0.28         22.8 
      870.00         0.23         22.5 
      871.00         0.27         23.4 
      872.00         0.27         23.6 
      873.00         0.17         24.3 
      874.00         0.30         26.9 
      875.00         0.20         31.9 
      876.00         0.20         48.0 
      877.00         0.20         73.9 
      878.00         0.23         94.3 
      879.00         0.23        103.0 
      880.00         0.20        101.2 
      881.00         0.23         91.8 
      882.00         0.23         80.6 
      883.00         0.25         69.1 
      884.00         0.20         62.0 
      885.00         0.27         53.0 
      886.00         0.30         45.0 
      887.00         0.27         39.7 
      888.00         0.20         35.6 
      889.00         0.23         32.1 
      890.00         0.23         29.9 
      891.00         0.23         27.3 
      892.00         0.20         25.2 
      893.00         0.20         24.5 
      894.00         0.20         22.6 
      895.00         0.17         22.1 
      896.00         0.27         17.1 
      897.00         0.30         16.2 
      898.00         0.23         16.0 
      899.00         0.20         15.5 
      900.00         0.28         14.7 
      901.00         0.23         14.0 
      902.00         0.23         13.8 
      903.00         0.27         15.0 
      904.00         0.20         15.5 
      905.00         0.13         16.4 
      906.00         0.23         17.3 
      907.00         0.23         19.7 
      908.00         0.20         28.0 
      909.00         0.27         44.6 
      910.00         0.23         53.9 
      911.00         0.20         57.7 
      912.00         0.23         58.1 
      913.00         0.20         56.4 
      914.00         0.13         54.6 
      915.00         0.25         51.2 
      916.00         0.23         47.0 
      917.00         0.27         41.8 
      918.00         0.27         36.5 
      919.00         0.23         32.0 
      920.00         0.23         28.7 
      921.00         0.20         26.7 
      922.00         0.17         25.0 
      923.00         0.20         23.6 
      924.00         0.20         21.8 
      925.00         0.17         20.8 
      926.00         0.27         11.1 
      927.00         0.07         11.2 
      928.00         0.23         11.4 
      929.00         0.17         11.3 
      930.00         0.17         12.0 
      931.00         0.17         12.2 
      932.00         0.10         12.4 
