~Version Information
VERS.                      2.0: CWLS Log ASCII Standard - VERSION 2.0
WRAP.                       NO: One line per depth step
~Well Information Block
STRT.FT                -8.2500: 
STOP.FT              2119.7500: 
STEP.FT                 0.2500: 
NULL.                -999.2500: 
COMP.          Pioneer Natural Resources: COMPANY
WELL.          Hemisphere 32-24: WELL
FLD.           Purgatorie River: FIELD
LOC.           1850' FNL & 2284' FEL--: LOCATION
PROV.                       CO: PROVINCE
CNTY.               Las Animas: COUNTRY
SRVC.          Patterson Wireline: SERVICE COMPANY
DATE.          Sat Aug 27 08:06:42 2005: LOG DATE
UWI.           05 071 08440 00: UNIQUE WELL ID
~Curve Information Block
DEPT.FT            0 000 00 00: Depth
CCL.                          : Casing Collar Locator
TT3.usec                      : CBL 3' Travel Time
AMP3.mV                       : CBL 3' Amplitude
GR.GAPI                       : Gamma Ray
~Parameter Information Block
~A  Depth       CCL         TT3         AMP3         GR     
# ...
  1834.2500      0.0000    570.7432      3.8264     87.2032
  1834.5000      0.0000    540.6961      3.8348     91.3596
  1834.7500      0.0000    510.4235      3.8202     95.4128
  1835.0000      0.0000    492.8943      3.7734     97.1508
  1835.2500      0.0000    498.0897      3.6871     95.0087
  1835.5000      0.0000    526.0460      3.5592     89.5821
  1835.7500      0.0000    566.3153      3.4091     83.2545
  1836.0000      0.0000    604.3962      3.2866     78.0623
  1836.2500      0.0000    630.1092      3.2533     73.8959
  1836.5000      0.0000    641.9851      3.3411     68.9804
  1836.7500      0.0000    645.9717      3.5191     62.1533
  1837.0000      0.0000    650.4814      3.7101     54.4859
  1837.2500      0.0000    660.8779      3.8588     48.5917
  1837.5000      0.0000    676.7610      3.9884     46.4724
  1837.7500      0.0000    693.7534      4.1751     48.0783
  1838.0000      0.0000    707.6732      4.4593     51.7705
  1838.2500      0.0000    716.9739      4.7975     55.8576
  1838.5000      2.0000    721.8508      5.1057     59.5600
  1838.7500      0.0000    722.6160      5.3387     62.7711
  1839.0000      0.0000    719.8506      5.5428     65.5115
  1839.2500      0.0000    714.9410      5.8508     67.9634
  1839.5000      0.0000    708.4953      6.3824     70.6772
  1839.7500      0.0000    698.6606      7.0975     74.2437
  1840.0000      0.0000    683.4802      7.7756     78.7968
  1840.2500      0.0000    665.8078      8.2040     83.9799
  1840.5000      0.0000    653.5223      8.3564     89.0821
  1840.7500      0.0000    652.7580      8.3391     92.9979
  1841.0000      0.0000    662.1455      8.2262     94.5162
  1841.2500      0.0000    674.9655      8.0166     93.2223
  1841.5000      0.0000    685.3144      7.7053     90.1210
  1841.7500      0.0000    691.0723      7.3289     87.0246
  1842.0000      0.0000    692.6202      6.9498     85.2127
  1842.2500      0.0000    690.8353      6.6223     84.8436
  1842.5000      0.0000    686.8441      6.3728     85.5758
  1842.7500      0.0000    682.7390      6.1942     87.1486
  1843.0000      0.0000    681.0318      6.0562     88.9766
  1843.2500      0.0000    682.6643      5.9261     89.7785
  1843.5000      0.0000    685.8846      5.7861     88.6139
  1843.7500      0.0000    687.8281      5.6365     86.2923
  1844.0000      0.0000    687.3176      5.4866     84.8873
  1844.2500      0.0000    685.7018      5.3432     85.5403
  1844.5000      0.0000    684.6743      5.2067     87.2639
  1844.7500      0.0000    683.5101      5.0745     88.1978
  1845.0000      0.0000    679.0751      4.9480     87.5938
  1845.2500      0.0000    668.6054      4.8355     86.2183
  1845.5000      0.0000    652.3438      4.7462     85.1273
  1845.7500      0.0000    633.9561      4.6812     84.6526
  1846.0000      0.0000    618.4430      4.6307     84.6075
  1846.2500      0.0000    607.7234      4.5817     84.9532
  1846.5000      0.0000    597.0093      4.5287     85.8777
  1846.7500      0.0000    578.4649      4.4758     87.3465
  1847.0000      0.0000    551.2722      4.4299     88.9065
  1847.2500      0.0000    525.2538      4.3957     89.8846
  1847.5000      0.0000    511.6131      4.3762     89.6816
  1847.7500      0.0000    513.1533      4.3743     88.2405
  1848.0000      0.0000    526.2656      4.3913     86.4089
  1848.2500      0.0000    548.1368      4.4264     85.3872
  1848.5000      0.0000    577.3810      4.4783     85.5961
  1848.7500      0.0000    610.3738      4.5471     86.3351
  1849.0000      0.0000    641.3189      4.6323     86.3852
  1849.2500      0.0000    665.0839      4.7312     84.8192
  1849.5000      0.0000    678.2451      4.8372     81.7420
  1849.7500      0.0000    679.1631      4.9407     78.4605
  1850.0000      0.0000    669.3637      5.0346     76.5038
  1850.2500      0.0000    653.9501      5.1182     76.5124
  1850.5000      0.0000    637.8944      5.1964     78.2503
  1850.7500      0.0000    621.3942      5.2744     81.2937
  1851.0000      0.0000    601.0859      5.3528     85.3178
  1851.2500      0.0000    576.3725      5.4285     89.8442
  1851.5000      0.0000    552.0566      5.4965     94.1393
  1851.7500      0.0000    533.8719      5.5527     97.6888
  1852.0000      0.0000    523.6374      5.5951    100.6660
  1852.2500      0.0000    519.6184      5.6234    103.4694
  1852.5000      0.0000    519.9442      5.6386    105.6535
  1852.7500      0.0000    524.8758      5.6422    105.9012
  1853.0000      0.0000    536.5087      5.6356    103.4537
  1853.2500      0.0000    556.5064      5.6196     99.1795
  1853.5000      0.0000    583.4271      5.5937     94.7866
  1853.7500      0.0000    612.2836      5.5560     91.3040
  1854.0000      0.0000    637.6088      5.5051     88.7667
  1854.2500      0.0000    657.2563      5.4430     87.0285
  1854.5000      0.0000    672.7661      5.3747     86.2111
  1854.7500      0.0000    686.0615      5.3057     86.3209
  1855.0000      0.0000    696.7116      5.2425     86.6936
  1855.2500      0.0000    702.9076      5.1959     86.0551
  1855.5000      0.0000    704.1542      5.1788     83.4366
  1855.7500      0.0000    701.6702      5.1950     79.0584
  1856.0000      0.0000    696.4088      5.2321     74.1524
  1856.2500      0.0000    688.2154      5.2706     70.0510
  1856.5000      0.0000    677.0699      5.3006     67.5674
  1856.7500      0.0000    664.1984      5.3271     66.9406
  1857.0000      0.0000    652.2118      5.3618     67.9407
  1857.2500      0.0000    644.9724      5.4141     70.0606
  1857.5000      0.0000    646.1143      5.4891     72.7638
  1857.7500      0.0000    655.6120      5.5872     75.4431
  1858.0000      0.0000    667.9415      5.7025     77.2742
  1858.2500      0.0000    675.0142      5.8267     77.6455
  1858.5000      0.0000    671.7133      5.9533     76.8074
  1858.7500      0.0000    659.3864      6.0767     75.5620
  1859.0000      0.0000    644.9908      6.1888     74.1476
  1859.2500      0.0000    636.4095      6.2821     71.9776
  1859.5000      0.0000    637.0234      6.3541     68.7733
  1859.7500      0.0000    644.1285      6.4026     65.5816
  1860.0000      0.0000    652.5060      6.4203     64.2606
  1860.2500      0.0000    658.9609      6.3980     65.8754
  1860.5000      0.0000    663.3867      6.3304     69.5508
  1860.7500      0.0000    666.8002      6.2142     72.8675
  1861.0000      0.0000    669.4039      6.0471     73.5510
  1861.2500      0.0000    670.5709      5.8370     71.0639
  1861.5000      0.0000    670.2489      5.6086     66.7885
  1861.7500      0.0000    669.9484      5.3955     62.9699
  1862.0000      0.0000    672.0914      5.2241     61.4385
  1862.2500      0.0000    678.1335      5.1046     62.6470
  1862.5000      0.0000    686.8771      5.0299     65.3014
  1862.7500      0.0000    694.4440      4.9820     67.1112
  1863.0000      0.0000    696.6907      4.9463     66.5170
  1863.2500      0.0000    692.5568      4.9236     63.9416
  1863.5000      0.0000    685.0342      4.9268     61.2941
  1863.7500      0.0000    678.5117      4.9684     60.3246
  1864.0000      0.0000    675.2925      5.0466     61.3982
  1864.2500      0.0000    674.7307      5.1420     63.5068
  1864.5000      0.0000    674.9381      5.2244     65.2254
  1864.7500      0.0000    674.3983      5.2684     65.7707
  1865.0000      0.0000    672.2620      5.2681     65.3358
  1865.2500      0.0000    668.4160      5.2382     64.7489
  1865.5000      0.0000    663.9321      5.1989     65.1292
  1865.7500      0.0000    660.9305      5.1611     67.4610
  1866.0000      0.0000    661.1728      5.1226     71.6950
  1866.2500      0.0000    664.3133      5.0763     76.2458
  1866.5000      0.0000    667.7905      5.0205     78.8862
  1866.7500      0.0000    669.0471      4.9653     78.3527
  1867.0000      0.0000    667.7197      4.9251     75.2085
  1867.2500      0.0000    665.2848      4.9057     71.4177
  1867.5000      0.0000    662.9767      4.9017     69.1107
