~Version Information
VERS.                      2.0: CWLS Log ASCII Standard - VERSION 2.0
WRAP.                       NO: One line per depth step
~Well Information Block
STRT.FT                -6.7500: 
STOP.FT              2027.0000: 
STEP.FT                 0.2500: 
NULL.                -999.2500: 
COMP.          Pioneer Natural Resources: COMPANY
WELL.             Fleming 11-2: WELL
FLD.           Purgatorie River: FIELD
LOC.           534' FNL & 160' FWL--: LOCATION
CNTY.               Las Animas: COUNTY
SRVC.          Patterson Wireline: SERVICE COMPANY
DATE.          Thu Jul 13 10:28:00 2006: LOG DATE
UWI.           05 071 08491 00: UNIQUE WELL ID
STAT.                       CO: STATE
~Curve Information Block
DEPT.FT            0 000 00 00: Depth
CCL.                          : Casing Collar Locator
TT3.usec                      : CBL 3' Travel Time
AMP3.mV                       : CBL 3' Amplitude
GR.GAPI                       : Gamma Ray
~Parameter Information Block
~A  Depth       CCL         TT3         AMP3         GR     
# ...
   797.2500      0.0000    605.6899      3.9669    140.0324
   797.5000      0.0000    594.3345      3.9866    139.8721
   797.7500      0.0000    589.9297      3.9926    139.7518
   798.0000      0.0000    590.2258      3.9916    139.4287
   798.2500      0.0000    591.2802      3.9956    139.3837
   798.5000      0.0000    590.1796      4.0093    140.9809
   798.7500      0.0000    585.0659      4.0292    144.8323
   799.0000      0.0000    574.9762      4.0529    149.2960
   799.2500      0.0000    561.2283      4.0829    151.3155
   799.5000      0.0000    548.9144      4.1214    148.9416
   799.7500      0.0000    545.7526      4.1638    143.1335
   800.0000      0.0000    557.7121      4.1999    137.2745
   800.2500      0.0000    584.2131      4.2214    134.7239
   800.5000      0.0000    617.4251      4.2297    136.2273
   800.7500      0.0000    647.3355      4.2352    139.4318
   801.0000      0.0000    668.3536      4.2493    140.9731
   801.2500      0.0000    681.2366      4.2760    139.2121
   801.5000      0.0000    689.6348      4.3103    135.2706
   801.7500      0.0000    696.0283      4.3417    131.8281
   802.0000      0.0000    700.6235      4.3615    131.0768
   802.2500      0.0000    702.4547      4.3670    133.4921
   802.5000      0.0000    700.6089      4.3601    137.9349
   802.7500      0.0000    695.0747      4.3430    142.5140
   803.0000      0.0000    687.4142      4.3168    145.3899
   803.2500      0.0000    680.4456      4.2820    145.4508
   803.5000      0.0000    676.4705      4.2425    143.0396
   803.7500      0.0000    675.6702      4.2088    140.0496
   804.0000      0.0000    676.5222      4.1938    138.5536
   804.2500      0.0000    677.4645      4.2045    138.9779
   804.5000      0.0000    677.8270      4.2371    140.0287
   804.7500      0.0000    677.5869      4.2822    140.5887
   805.0000      0.0000    676.7718      4.3313    141.2383
   805.2500      0.0000    675.0494      4.3787    143.7522
   805.5000      0.0000    671.6907      4.4157    149.1431
   805.7500      0.0000    666.1539      4.4254    156.0947
   806.0000      0.0000    659.1791      4.3848    161.4816
   806.2500      0.0000    653.1754      4.2845    162.8646
   806.5000      0.0000    650.4609      4.1534    160.3880
   806.7500      0.0000    650.2296      4.0535    156.0384
   807.0000      0.0000    647.4727      4.0317    151.4919
   807.2500      0.0000    635.7184      4.0785    147.0303
   807.5000      0.0000    611.4532      4.1452    142.0714
   807.7500      0.0000    576.8837      4.1946    136.4211
   808.0000      0.0000    539.4770      4.2195    131.1528
   808.2500      2.0000    508.9034      4.2247    128.1866
   808.5000     -2.0000    493.0455      4.2156    128.5132
   808.7500      0.0000    495.0813      4.2007    130.5922
   809.0000      0.0000    512.7559      4.1954    130.7919
   809.2500      0.0000    539.9997      4.2174    125.8707
   809.5000      0.0000    569.7889      4.2717    115.3609
   809.7500      0.0000    595.7624      4.3342    101.7139
   810.0000      0.0000    612.5275      4.3687     88.1594
   810.2500      0.0000    616.5849      4.3763     76.4991
   810.5000      0.0000    607.8452      4.4064     67.0329
   810.7500      0.0000    589.9282      4.4977     60.0610
   811.0000      0.0000    569.3586      4.6272     56.4200
   811.2500      0.0000    554.2861      4.7309     56.4530
   811.5000      0.0000    551.4992      4.7585     59.5144
   811.7500      0.0000    561.4760      4.6997     64.8614
   812.0000      0.0000    575.7304      4.5773     72.1878
   812.2500      0.0000    582.2067      4.4285     80.9001
   812.5000      0.0000    576.3496      4.2895     89.7368
   812.7500      0.0000    565.5089      4.1867     97.7809
   813.0000      0.0000    559.5911      4.1326    105.2110
   813.2500      0.0000    559.9249      4.1251    112.3729
   813.5000      0.0000    561.8618      4.1482    118.6342
   813.7500      0.0000    565.6108      4.1766    122.7975
   814.0000      0.0000    577.5541      4.1855    124.3224
   814.2500      0.0000    600.5511      4.1625    123.9394
   814.5000      0.0000    628.6428      4.1156    123.4939
   814.7500      0.0000    652.6743      4.0675    124.9826
   815.0000      0.0000    667.8734      4.0418    128.7023
   815.2500      0.0000    675.0959      4.0476    132.0823
   815.5000      0.0000    677.5286      4.0760    131.3275
   815.7500      0.0000    677.8564      4.1103    125.0856
   816.0000      0.0000    677.5502      4.1382    116.3530
   816.2500      0.0000    677.2277      4.1557    110.1637
   816.5000      0.0000    677.0889      4.1611    109.3352
   816.7500      0.0000    677.1459      4.1505    112.8885
   817.0000      0.0000    677.3201      4.1199    118.3319
   817.2500      0.0000    677.4974      4.0724    124.2081
   817.5000      0.0000    677.5865      4.0242    129.8483
   817.7500      0.0000    677.5645      3.9963    133.9672
   818.0000      0.0000    677.4671      3.9996    135.1407
   818.2500      0.0000    677.3384      4.0278    133.6105
   818.5000      0.0000    677.1990      4.0689    131.5285
   818.7500      0.0000    677.0581      4.1188    131.0543
   819.0000      0.0000    676.9373      4.1808    132.5493
   819.2500      0.0000    676.8704      4.2522    134.6814
   819.5000      0.0000    676.8773      4.3192    135.8353
   819.7500      0.0000    676.9434      4.3676    135.2918
   820.0000      0.0000    677.0356      4.3940    133.6601
   820.2500      0.0000    677.1333      4.4041    132.7609
   820.5000      0.0000    677.2287      4.4021    134.5195
   820.7500      0.0000    677.3025      4.3878    138.9883
   821.0000      0.0000    677.3212      4.3631    143.4832
   821.2500      0.0000    677.2693      4.3376    144.4018
   821.5000      0.0000    677.1650      4.3258    140.1441
   821.7500      0.0000    677.0361      4.3351    132.4353
   822.0000      0.0000    676.8923      4.3593    125.0985
   822.2500      0.0000    676.7355      4.3835    121.2972
   822.5000      0.0000    676.5865      4.3960    121.4448
   822.7500      0.0000    676.4888      4.3953    123.6023
   823.0000      0.0000    676.4747      4.3866    125.7723
   823.2500      0.0000    676.5283      4.3758    127.5605
   823.5000      0.0000    676.5405      4.3687    129.7721
   823.7500      0.0000    676.2310      4.3719    133.0434
   824.0000      0.0000    675.0132      4.3902    137.1728
   824.2500      0.0000    671.9608      4.4236    141.3871
   824.5000      0.0000    666.2099      4.4650    144.6721
   824.7500      0.0000    657.8513      4.5025    146.0083
   825.0000      0.0000    648.5612      4.5226    145.1108
   825.2500      0.0000    641.1181      4.5156    143.2369
   825.5000      0.0000    638.0557      4.4802    142.4488
   825.7500      0.0000    640.4794      4.4253    143.5076
   826.0000      0.0000    647.5686      4.3652    144.9004
   826.2500      0.0000    656.8581      4.3113    144.4236
   826.5000      0.0000    665.4207      4.2648    141.3719
   826.7500      0.0000    671.3816      4.2198    136.8116
   827.0000      0.0000    674.5389      4.1735    132.1307
   827.2500      0.0000    675.7495      4.1333    127.8036
   827.5000      0.0000    675.9914      4.1114    123.5773
   827.7500      0.0000    675.9108      4.1103    119.6360
   828.0000      0.0000    675.8185      4.1163    117.0650
   828.2500      0.0000    675.8077      4.1116    116.6719
   828.5000      0.0000    675.8491      4.0935    117.7609
   828.7500      0.0000    675.8701      4.0787    118.7677
   829.0000      0.0000    675.8141      4.0855    118.7818
   829.2500      0.0000    675.6757      4.1136    117.9727
   829.5000      0.0000    675.5012      4.1426    117.0156
   829.7500      0.0000    675.3566      4.1489    116.5658
   830.0000      0.0000    675.2822      4.1250    116.8907
   830.2500      0.0000    675.2712      4.0857    117.8057
   830.5000      0.0000    675.2928      4.0528    119.1192
