~Version Information
VERS.                      2.0: CWLS Log ASCII Standard - VERSION 2.0
WRAP.                       NO: One line per depth step
~Well Information Block
STRT.FT                 0.0000: 
STOP.FT              2792.7500: 
STEP.FT                 0.2500: 
NULL.                -999.2500: 
COMP.          Pioneer Natural Resources: COMPANY
WELL.          Black Cat 13-32: WELL
FLD.           Purgatorie River: FIELD
LOC.           1865' FSL & 1120' FWL: LOCATION
PROV.                 Colorado: PROVINCE
CNTY.               Las Animas: COUNTRY
SRVC.                Patterson: SERVICE COMPANY
DATE.          Fri Aug 19 09:19:21 2005: LOG DATE
UWI.                          : UNIQUE WELL ID
~Curve Information Block
DEPT.FT            0 000 00 00: Depth
CCL.                          : Casing Collar Locator
TT3.usec                      : CBL 3' Travel Time
AMP3.mV                       : CBL 3' Amplitude
GR.GAPI                       : Gamma Ray
~Parameter Information Block
~A  Depth       CCL         TT3         AMP3         GR     
# ...
   904.5000      0.0000    675.9304      5.9487    104.1724
   904.7500      0.0000    693.8124      5.8968    101.2218
   905.0000      0.0000    707.5577      5.8518    100.5256
   905.2500      0.0000    714.9318      5.8296    102.8921
   905.5000      0.0000    715.0228      5.8361    107.6882
   905.7500      0.0000    708.8796      5.8878    113.0300
   906.0000      0.0000    699.1959      5.9848    117.0455
   906.2500      0.0000    687.8246      6.0702    118.8740
   906.5000      0.0000    678.2761      6.0812    118.8246
   906.7500      0.0000    675.1843      6.0171    118.0789
   907.0000      0.0000    681.3406      5.9113    118.2129
   907.2500      0.0000    696.5744      5.7603    120.4358
   907.5000      0.0000    715.5318      5.5197    124.6299
   907.7500      0.0000    729.7658      5.1895    128.8912
   908.0000      0.0000    734.4867      4.8683    130.2909
   908.2500      0.0000    729.5335      4.6763    126.7693
   908.5000      0.0000    717.8813      4.6463    118.9228
   908.7500      0.0000    708.8524      4.7329    109.9098
   909.0000      0.0000    714.6160      4.8936    103.2458
   909.2500      0.0000    735.8512      5.0971    100.7353
   909.5000      0.0000    757.3531      5.2860    102.3344
   909.7500      0.0000    761.4869      5.4091    106.9762
   910.0000      0.0000    742.9388      5.4955    112.8995
   910.2500      0.0000    712.9401      5.6456    117.9087
   910.5000      0.0000    689.6899      5.9137    120.3249
   910.7500      0.0000    682.7731      6.2381    119.9264
   911.0000      0.0000    688.4581      6.5214    117.8835
   911.2500      0.0000    696.6870      6.7068    115.8540
   911.5000      0.0000    699.5209      6.7717    115.1246
   911.7500      0.0000    693.6992      6.7387    116.2825
   912.0000      0.0000    679.1824      6.6627    119.1167
   912.2500      0.0000    660.6649      6.5638    122.5434
   912.5000      0.0000    647.8384      6.4366    124.8464
   912.7500      0.0000    650.2124      6.3070    124.3885
   913.0000      0.0000    669.7758      6.2109    120.4387
   913.2500      0.0000    695.9559      6.1469    113.7143
   913.5000      0.0000    709.7938      6.1039    106.3137
   913.7500      0.0000    702.2682      6.0882    100.8724
   914.0000      0.0000    684.7935      6.0974     99.2487
   914.2500      0.0000    672.1404      6.1087    101.5183
   914.5000      0.0000    667.0245      6.1042    105.9891
   914.7500      0.0000    665.3797      6.0777    110.2908
   915.0000      0.0000    663.7603      6.0293    112.7299
   915.2500      0.0000    660.2675      5.9732    112.9391
   915.5000      0.0000    655.4031      5.9350    111.4684
   915.7500      0.0000    652.9497      5.9389    108.8818
   916.0000      0.0000    655.5549      5.9888    105.4334
   916.2500      0.0000    660.6818      6.0584    101.6746
   916.5000      0.0000    665.1635      6.1141     98.7624
   916.7500      0.0000    671.0466      6.1363     97.5166
   917.0000      0.0000    684.8901      6.1164     97.5192
   917.2500      0.0000    710.1573      6.0627     97.9690
   917.5000      0.0000    738.2521      5.9985     99.2450
   917.7500      0.0000    754.1733      5.9318    102.5976
   918.0000      0.0000    753.8687      5.8445    108.0634
   918.2500      0.0000    745.1414      5.7338    113.7131
   918.5000      0.0000    732.8406      5.6419    117.7117
   918.7500      0.0000    715.6208      5.6052    120.3504
   919.0000      0.0000    695.4552      5.5980    123.1247
   919.2500      0.0000    679.3126      5.5715    126.3486
   919.5000      0.0000    671.2518      5.5226    128.6527
   919.7500      0.0000    670.8124      5.4825    128.6305
   920.0000      0.0000    678.2638      5.4649    126.2896
   920.2500      0.0000    694.5907      5.4582    122.9195
   920.5000      0.0000    716.6103      5.4598    119.9866
   920.7500      0.0000    739.4542      5.4788    118.3106
   921.0000      0.0000    764.9868      5.5078    117.9658
   921.2500      0.0000    800.4375      5.5309    118.5596
   921.5000      0.0000    846.5381      5.5545    119.4874
   921.7500      0.0000    892.8168      5.5954    120.1903
   922.0000      0.0000    928.7906      5.6499    120.5298
   922.2500      0.0000    946.7064      5.7000    120.9128
   922.5000      0.0000    929.9622      5.7231    121.6849
   922.7500      0.0000    867.5826      5.6946    122.3581
   923.0000      0.0000    784.1354      5.6336    121.7533
   923.2500      0.0000    733.4953      5.5777    118.9458
   923.5000      0.0000    761.5841      5.4313    113.8884
   923.7500      0.0000    866.5523      5.0898    107.1958
   924.0000      0.0000    985.1695      4.7268     99.6735
   924.2500      0.0000   1061.7042      4.5921     92.1940
   924.5000      2.0000   1119.5806      4.6713     85.8096
   924.7500     -2.0000   1191.2297      4.7591     81.6768
   925.0000     -2.0000   1235.7002      4.7039     80.7327
   925.2500      2.0000   1199.8612      4.5207     83.4395
   925.5000      0.0000   1092.5701      4.3376     89.5109
   925.7500      0.0000    960.4628      4.3043     97.5755
   926.0000      0.0000    843.4108      4.4986    105.3170
   926.2500      0.0000    765.5337      4.8182    110.4542
   926.5000      0.0000    731.7495      5.0775    111.9567
   926.7500      0.0000    727.5138      5.2301    110.5343
   927.0000      0.0000    731.7951      5.3286    108.1209
   927.2500      0.0000    730.0339      5.3933    106.9687
   927.5000      0.0000    719.6185      5.4361    108.8224
   927.7500      0.0000    709.5499      5.4792    114.1626
   928.0000      0.0000    710.6753      5.5292    121.7591
   928.2500      0.0000    720.1111      5.5780    129.1665
   928.5000      0.0000    724.4526      5.6050    134.0415
   928.7500      0.0000    723.1445      5.6002    135.3134
   929.0000      0.0000    730.9694      5.5888    133.5210
   929.2500      0.0000    752.4059      5.6083    130.3316
   929.5000      0.0000    774.6190      5.6512    127.6476
   929.7500      0.0000    787.1978      5.6437    126.8873
   930.0000      0.0000    790.6171      5.5115    128.6852
   930.2500      0.0000    787.0273      5.2484    132.7718
   930.5000      0.0000    774.0765      4.8795    137.9337
   930.7500      0.0000    750.5579      4.4131    142.3249
   931.0000      0.0000    726.7934      3.8924    144.2209
   931.2500      0.0000    724.4399      3.4155    142.6963
   931.5000      0.0000    763.2598      3.0527    137.6656
   931.7500      0.0000    841.2897      2.8126    129.5339
   932.0000      0.0000    921.6934      2.6830    119.2141
   932.2500      0.0000    965.3728      2.6453    108.4884
   932.5000      0.0000    978.2693      2.6655     99.8023
   932.7500      0.0000    979.2148      2.7031     95.2911
   933.0000      0.0000    950.1538      2.7433     95.9528
   933.2500      0.0000    876.4050      2.8257    101.4734
   933.5000      0.0000    789.4862      3.0250    110.4138
   933.7500      0.0000    731.4781      3.3729    120.5387
   934.0000      0.0000    713.5757      3.8168    129.3583
   934.2500      0.0000    720.4001      4.2663    134.9672
   934.5000      0.0000    732.3127      4.6479    137.1131
   934.7500      0.0000    739.4006      4.9168    137.5762
   935.0000      0.0000    741.6179      5.0611    138.7435
   935.2500      0.0000    741.8563      5.1060    141.3577
   935.5000      0.0000    741.8592      5.0979    144.1375
   935.7500      0.0000    742.0911      5.0721    145.6808
   936.0000      0.0000    742.4737      5.0428    146.0461
   936.2500      0.0000    742.8513      5.0074    146.3949
   936.5000      0.0000    743.3464      4.9468    147.8163
   936.7500      0.0000    745.0749      4.8478    150.6585
   937.0000      0.0000    750.5192      4.7355    154.3070
   937.2500      0.0000    761.3450      4.6653    157.1569
   937.5000      0.0000    774.8883      4.6702    157.1655
   937.7500      0.0000    785.6760      4.7285    152.9972
