~Version Information
VERS.                      2.0: CWLS Log ASCII Standard - VERSION 2.0
WRAP.                       NO: One line per depth step
~Well Information Block
STRT.FT                10.0000: 
STOP.FT               907.0000: 
STEP.FT                 0.1000: 
NULL.                -999.2500: 
COMP.          Pioneer Natural Resources: COMPANY
WELL.           Hartford 31-18: WELL
FLD.           Purgatorie River: FIELD
LOC.           375' FNL & 1660' FEL: LOCATION
PROV.                 Colorado: PROVINCE
CNTY.               Las Animas: COUNTRY
SRVC.                Patterson: SERVICE COMPANY
DATE.          Mon Nov 21 07:39:41 2005: LOG DATE
UWI.            05-071-08555              : UNIQUE WELL ID
~Curve Information Block
DEPT.FT            0 000 00 00: Depth
DCAL.in                       : CDL Caliper
RHOB.g/cc                     : CDL Bulk Density
RHOC.g/cc                     : CDL Density Correction
DPOR.pu                       : CDL Density Porosity
GR.GAPI                       : Gamma Ray
NPOR.pu                       : Neutron Porosity
~Parameter Information Block
~A  Depth       DCAL        RHOB        RHOC        DPOR         GR         NPOR    
# ...
   365.2000      8.1003      2.2661     -0.5115     23.2658     73.4020     38.4222
   365.3000      8.0948      2.2690     -0.5394     23.0881     74.8427     38.4377
   365.4000      8.0948      2.2834     -0.4436     22.2163     73.9372     38.5326
   365.5000      8.1010      2.2929     -0.4509     21.6454     73.9203     38.7009
   365.6000      8.1010      2.2939     -0.4688     21.5840     76.9324     38.9039
   365.7000      8.1010      2.2870     -0.4385     21.9988     79.7832     39.0008
   365.8000      8.0970      2.2682     -0.4995     23.1411     79.9300     39.0698
   365.9000      8.0970      2.2319     -0.4800     25.3405     79.4743     39.1846
   366.0000      8.0985      2.1687     -0.4958     29.1725     80.0081     39.1891
   366.1000      8.0985      2.0845     -0.5596     34.2706     81.7771     39.0476
   366.2000      8.0985      2.0119     -0.5984     38.6754     86.9252     38.6477
   366.3000      8.1051      1.9796     -0.5805     40.6291     95.5292     37.7320
   366.4000      8.1051      1.9875     -0.5707     40.1507    103.1096     36.4394
   366.5000      8.3043      2.0241     -0.5093     37.9331    106.1136     34.9816
   366.6000      8.3043      2.0845     -0.5071     34.2711    105.5571     33.2481
   366.7000      8.3043      2.1641     -0.3877     29.4509    105.9226     31.3344
   366.8000      8.3033      2.2431     -0.2653     24.6596    108.6726     29.5300
   366.9000      8.3033      2.2957     -0.1360     21.4751    111.4524     27.9370
   367.0000      8.3184      2.3261     -0.1267     19.6287    114.0134     26.4766
   367.1000      8.3184      2.3562      0.0646     17.8043    117.1999     25.0480
   367.2000      8.3184      2.3734      0.1501     16.7622    118.9927     23.7567
   367.3000      8.3588      2.3606      0.1155     17.5365    118.4050     22.9617
   367.4000      8.3588      2.3340      0.1053     19.1485    118.1216     22.6365
   367.5000      8.5300      2.3118      0.1172     20.4998    120.1013     22.3237
   367.6000      8.5300      2.2930      0.1354     21.6355    126.1079     21.9467
   367.7000      8.5300      2.2759      0.1451     22.6728    137.4046     21.8972
   367.8000      8.5640      2.2678      0.1269     23.1621    150.7295     22.2539
   367.9000      8.5640      2.2766      0.1513     22.6309    162.4215     22.6468
   368.0000      8.5617      2.3105      0.1816     20.5783    170.4578     23.1380
   368.1000      8.5617      2.3833      0.2883     16.1659    172.5623     23.8947
   368.2000      8.5617      2.4974      0.4142      9.2469    168.7336     24.3505
   368.3000      8.6631      2.6178      0.5840      1.9529    161.5326     23.9713
   368.4000      8.6631      2.6871      0.6195     -2.2473    152.5410     23.0602
   368.5000      8.9013      2.6833      0.5300     -2.0173    141.2258     22.2042
   368.6000      8.9013      2.6383      0.4213      0.7110    127.6782     21.6132
   368.7000      8.9013      2.5959      0.3513      3.2767    116.2598     21.0485
   368.8000      9.2536      2.5741      0.3364      4.5992    108.7686     20.2248
   368.9000      9.2536      2.5733      0.2757      4.6472    103.3550     19.3083
   369.0000      9.9558      2.5919      0.2669      3.5192     98.9951     18.6527
   369.1000      9.9558      2.6158      0.2734      2.0752     95.5607     18.3717
   369.2000      9.9558      2.6272      0.2964      1.3814     94.6745     18.2989
   369.3000     10.8829      2.6259      0.2930      1.4601     96.5993     18.0695
   369.4000     10.8829      2.6251      0.2281      1.5076     98.2839     17.5440
   369.5000     11.5400      2.6295      0.2579      1.2424     98.6699     17.0558
   369.6000     11.5400      2.6305      0.2333      1.1848     99.6361     16.8707
   369.7000     11.5400      2.6284      0.2042      1.3061    100.8271     16.8597
   369.8000     11.7175      2.6273      0.2333      1.3741    100.3898     17.0228
   369.9000     11.7175      2.6183      0.2163      1.9213     99.1592     17.4486
   370.0000     11.7402      2.5889      0.2062      3.7053     99.7255     17.7530
   370.1000     11.7402      2.5451      0.1142      6.3551    101.7059     17.7557
   370.2000     11.7402      2.5137      0.1407      8.2603    102.7441     17.7695
   370.3000     11.7535      2.5080      0.1110      8.6073    102.9490     17.8202
   370.4000     11.7535      2.5113      0.1561      8.4081    103.3891     17.6874
   370.5000     11.7533      2.4998      0.0979      9.1054    103.7890     17.5468
   370.6000     11.7533      2.4759      0.0533     10.5493    102.4184     17.6709
   370.7000     11.7533      2.4563      0.0602     11.7415     99.5266     17.8670
   370.8000     11.7875      2.4387      0.0601     12.8034     97.8174     17.9034
   370.9000     11.7875      2.4151     -0.0306     14.2345     97.7367     17.8477
   371.0000     11.7974      2.3979     -0.0258     15.2765     97.7310     17.9904
   371.1000     11.7974      2.4032      0.0155     14.9577     98.0436     18.3072
   371.2000     11.7974      2.4255      0.0274     13.6067    100.6376     18.3367
   371.3000     11.8099      2.4503      0.0494     12.1031    107.0847     18.1214
   371.4000     11.8099      2.4736      0.0277     10.6912    116.2100     18.0949
   371.5000     11.8308      2.4961      0.0473      9.3280    122.5907     18.3185
   371.6000     11.8308      2.5135      0.0695      8.2738    122.5442     18.6040
   371.7000     11.8308      2.5254      0.0607      7.5535    117.7452     18.8893
   371.8000     11.8324      2.5299      0.0784      7.2765    111.4712     19.2411
   371.9000     11.8324      2.5203      0.0895      7.8627    106.4732     19.5134
   372.0000     11.8417      2.4985      0.0158      9.1788    105.3019     19.2923
   372.1000     11.8417      2.4734      0.0361     10.7017    107.7369     18.7048
   372.2000     11.8417      2.4540     -0.0182     11.8815    111.0267     18.4799
   372.3000     11.8228      2.4476      0.0255     12.2680    114.3055     18.7360
   372.4000     11.8228      2.4487      0.0188     12.1981    116.4087     18.8436
   372.5000     11.8002      2.4495      0.0241     12.1514    114.6031     18.6211
   372.6000     11.8002      2.4530      0.0285     11.9412    111.3000     18.3681
   372.7000     11.8002      2.4664      0.0620     11.1274    112.7055     18.2647
   372.8000     11.8224      2.4892      0.0429      9.7432    118.2287     18.3887
   372.9000     11.8224      2.5074      0.0718      8.6418    122.0115     18.6801
   373.0000     11.8178      2.5099      0.0483      8.4936    122.4116     18.9857
   373.1000     11.8178      2.4997      0.0772      9.1105    122.5564     19.1477
   373.2000     11.8178      2.4829      0.0325     10.1250    123.8605     19.1101
   373.3000     11.8140      2.4699     -0.0146     10.9172    124.8566     19.1858
   373.4000     11.8140      2.4651      0.0578     11.2068    124.7624     19.4522
   373.5000     11.8037      2.4575      0.0665     11.6673    125.0039     19.4171
   373.6000     11.8037      2.4434      0.0036     12.5241    127.5370     19.0791
   373.7000     11.8037      2.4356     -0.0223     12.9944    130.9631     19.1013
   373.8000     11.8083      2.4407      0.0178     12.6867    132.8851     19.4774
   373.9000     11.8083      2.4541      0.0191     11.8716    134.2202     19.5623
   374.0000     11.8232      2.4716      0.0572     10.8104    136.9260     19.3529
   374.1000     11.8232      2.4826      0.0590     10.1443    140.2335     19.3106
   374.2000     11.8232      2.4729      0.0526     10.7308    142.4232     19.5047
   374.3000     11.8222      2.4468      0.0334     12.3151    144.4310     19.6406
   374.4000     11.8222      2.4271     -0.0103     13.5094    146.2877     19.5623
   374.5000     11.8090      2.4251      0.0252     13.6327    146.2124     19.3648
   374.6000     11.8090      2.4291      0.0839     13.3905    146.0469     19.1116
   374.7000     11.8090      2.4343      0.0469     13.0722    148.3175     18.7799
