~Version Information
VERS.                      2.0: CWLS Log ASCII Standard - VERSION 2.0
WRAP.                       NO: One line per depth step
~Well Information Block
STRT.FT               555.0000: 
STOP.FT              1159.0000: 
STEP.FT                 0.2500: 
NULL.                -999.2500: 
COMP.          Pioneer Natural Resources: COMPANY
WELL.              Draco 31-21: WELL
FLD.           Purgatoire River: FIELD
LOC.           491' FNL & 2446' FEL: LOCATION
CNTY.               Las Animas: COUNTY
SRVC.                Patterson: SERVICE COMPANY
DATE.          Tue Jan 31 17:48:38 2006: LOG DATE
UWI.           05 071 08672 00: UNIQUE WELL ID
STAT.                 Colorado: STATE
~Curve Information Block
DEPT.FT            0 000 00 00: Depth
SN.Ohm-m                      : IEL Short Normal
SP.mV                         : IEL Spontaneous Potential
DIR.Ohm-m                     : IEL Induction Resistivity
GR.GAPI                       : Gamma Ray
~Parameter Information Block
~A  Depth        SN          SP         DIR          GR     
# ...
  1124.5000     17.7262     54.2672     16.0507    106.0854
  1124.7500     18.4936     54.1653     16.0780    104.2567
  1125.0000     19.2511     54.0559     16.0705     99.2899
  1125.2500     19.8595     53.9345     16.0255     95.6121
  1125.5000     20.3001     53.7968     15.9413     92.6044
  1125.7500     20.5949     53.6386     15.8166     93.1172
  1126.0000     20.6657     53.4553     15.6540     96.9154
  1126.2500     20.3779     53.2446     15.4651    100.6850
  1126.5000     19.6952     53.0097     15.2716    107.5140
  1126.7500     18.7605     52.7631     15.0979    112.6067
  1127.0000     17.8022     52.5254     14.9600    120.2121
  1127.2500     16.9548     52.3187     14.8573    124.6958
  1127.5000     16.2146     52.1564     14.7734    130.2227
  1127.7500     15.5608     52.0351     14.6862    133.2507
  1128.0000     15.0407     51.9342     14.5812    136.7009
  1128.2500     14.7511     51.8265     14.4618    137.8773
  1128.5000     14.7670     51.6924     14.3488    137.5990
  1128.7500     15.0480     51.5273     14.2706    136.3354
  1129.0000     15.4284     51.3387     14.2517    133.5071
  1129.2500     15.7763     51.1406     14.3061    131.2118
  1129.5000     16.1434     50.9471     14.4378    127.6650
  1129.7500     16.6500     50.7681     14.6468    125.8753
  1130.0000     17.3385     50.6086     14.9335    125.2999
  1130.2500     18.1856     50.4715     15.2971    126.6532
  1130.5000     19.0330     50.3576     15.7271    130.7341
  1130.7500     19.5910     50.2647     16.1918    134.0133
  1131.0000     19.7526     50.1899     16.6371    138.4280
  1131.2500     19.7229     50.1342     17.0054    140.6351
  1131.5000     19.6847     50.1040     17.2664    142.7318
  1131.7500     19.6365     50.1079     17.4331    143.4019
  1132.0000     19.6059     50.1548     17.5401    143.6549
  1132.2500     19.6533     50.2506     17.6038    143.5428
  1132.5000     19.7413     50.3937     17.6046    142.6706
  1132.7500     19.8123     50.5728     17.5075    140.8433
  1133.0000     19.8058     50.7694     17.3012    134.6476
  1133.2500     19.6254     50.9654     17.0183    128.0362
  1133.5000     19.3027     51.1492     16.7225    116.4896
  1133.7500     19.0141     51.3177     16.4783    110.0432
  1134.0000     18.8164     51.4728     16.3293    106.0644
  1134.2500     18.6033     51.6159     16.2929    108.0304
  1134.5000     18.3372     51.7421     16.3640    115.8902
  1134.7500     18.1141     51.8388     16.5206    121.8061
  1135.0000     17.9907     51.8908     16.7267    127.4788
  1135.2500     17.9187     51.8912     16.9363    128.1823
  1135.5000     17.8878     51.8493     17.1046    126.0765
  1135.7500     17.9920     51.7863     17.2048    124.1404
  1136.0000     18.3307     51.7225     17.2397    121.8116
  1136.2500     18.8893     51.6680     17.2384    120.2909
  1136.5000     19.5178     51.6224     17.2418    117.0719
  1136.7500     20.0811     51.5812     17.2876    114.4153
  1137.0000     20.5911     51.5431     17.4017    110.7871
  1137.2500     21.0538     51.5130     17.5943    109.0928
  1137.5000     21.2967     51.5032     17.8551    107.7509
  1137.7500     21.1924     51.5318     18.1522    107.5465
  1138.0000     20.8900     51.6165     18.4356    107.8639
  1138.2500     20.6209     51.7649     18.6527    107.9383
  1138.5000     20.4979     51.9705     18.7664    106.4521
  1138.7500     20.5246     52.2207     18.7652    103.5636
  1139.0000     20.6068     52.5061     18.6597     94.9098
  1139.2500     20.6578     52.8169     18.4710     85.3366
  1139.5000     20.7009     53.1321     18.2189     64.8818
  1139.7500     20.7758     53.4178     17.9162     48.7274
  1140.0000     20.8474     53.6415     17.5679     26.0460
  1140.2500     20.8193     53.7891     17.1765     14.7661
  1140.5000     20.5760     53.8714     16.7483      4.9205
  1140.7500     20.0589     53.9165     16.2975      1.9857
  1141.0000     19.3176     53.9533     15.8449      0.3869
  1141.2500     18.4767     53.9983     15.4144      0.1069
  1141.5000     17.6876     54.0517     15.0258      0.0102
  1141.7500     17.0566     54.1044     14.6904      0.0000
  1142.0000     16.5743     54.1502     14.4081   -999.2500
  1142.2500     16.1756     54.1922     14.1667   -999.2500
  1142.5000     15.8255     54.2383     13.9451   -999.2500
  1142.7500     15.5129     54.2924     13.7191   -999.2500
  1143.0000     15.2450     54.3493     13.4722   -999.2500
  1143.2500     15.0192     54.3965     13.2051   -999.2500
  1143.5000     14.7988     54.4183     12.9379   -999.2500
  1143.7500     14.6163     54.4019     12.7020   -999.2500
  1144.0000     14.5836     54.3462     12.5242   -999.2500
  1144.2500     14.7298     54.2665     12.4156   -999.2500
  1144.5000     14.9690     54.1895     12.3684   -999.2500
  1144.7500     15.2335     54.1407     12.3611   -999.2500
  1145.0000     15.5002     54.1348     12.3685   -999.2500
  1145.2500     15.6769     54.1726     12.3726   -999.2500
  1145.5000     15.6479     54.2462     12.3695   -999.2500
  1145.7500     15.4448     54.3462     12.3707   -999.2500
  1146.0000     15.2342     54.4682     12.3698   -999.2500
  1146.2500     15.0991     54.6102     12.4367   -999.2500
  1146.5000     14.9909     54.7645     12.5467   -999.2500
  1146.7500     14.9255     54.9152     12.6862   -999.2500
  1147.0000     14.9642     55.0443     12.8347   -999.2500
  1147.2500     15.0626     55.1427     12.9757   -999.2500
  1147.5000     15.1798     55.2160     13.1032   -999.2500
  1147.7500     15.3307     55.2763     13.2212   -999.2500
  1148.0000     15.4403     55.3291     13.3451   -999.2500
  1148.2500     15.4468     55.3656     13.5059   -999.2500
  1148.5000     15.4787     55.3700     13.7624   -999.2500
  1148.7500     15.7083     55.3356     14.2213   -999.2500
  1149.0000     16.1398     55.2772     15.0663   -999.2500
  1149.2500     16.6200     55.2279     16.6016   -999.2500
  1149.5000     17.0196     55.2224     19.4089   -999.2500
  1149.7500     17.3693     55.2773     24.2496   -999.2500
  1150.0000     17.8121     55.3818     32.7834   -999.2500
  1150.2500     18.4318     55.5061     47.8958   -999.2500
  1150.5000     19.1058     55.6203     74.1955   -999.2500
  1150.7500     19.5942     55.7084    116.3083   -999.2500
  1151.0000     19.7613     55.7693    171.4180   -999.2500
  1151.2500     19.6021     55.8080    223.4392   -999.2500
  1151.5000     19.2287     55.8276    258.8056   -999.2500
  1151.7500     18.8424     55.8257    281.9434   -999.2500
  1152.0000     18.5423     55.7956    305.8508   -999.2500
  1152.2500     18.2952     55.7324    343.6565   -999.2500
  1152.5000     18.0612     55.6395 100000.0000   -999.2500
  1152.7500     17.8115     55.5312 100000.0000   -999.2500
  1153.0000     17.5593     55.4260 100000.0000   -999.2500
  1153.2500     17.3190     55.3377 100000.0000   -999.2500
  1153.5000     17.0256     55.2703 100000.0000   -999.2500
  1153.7500     16.6780     55.2154 100000.0000   -999.2500
  1154.0000     16.3748     55.1492 100000.0000   -999.2500
  1154.2500     16.1062     54.9913 100000.0000   -999.2500
  1154.5000     15.7703     54.4833 100000.0000   -999.2500
  1154.7500     15.3631     52.9891 100000.0000   -999.2500
  1155.0000     14.9607     49.4332 100000.0000   -999.2500
  1155.2500     14.5391     42.7876 100000.0000   -999.2500
  1155.5000     13.7739     33.1009 100000.0000   -999.2500
  1155.7500     11.9921     22.1063 100000.0000   -999.2500
  1156.0000      8.8070     12.3912 100000.0000   -999.2500
  1156.2500      5.0128      5.7080 100000.0000   -999.2500
  1156.5000      2.0708      2.1283 100000.0000   -999.2500
  1156.7500      0.5937      0.6353 100000.0000   -999.2500
  1157.0000      0.1147      0.1505 100000.0000   -999.2500
  1157.2500      0.0146      0.0279 100000.0000   -999.2500
  1157.5000      0.0012      0.0037 100000.0000   -999.2500
  1157.7500   -999.2500   -999.2500 100000.0000   -999.2500
