~Version Information
VERS.                      2.0: CWLS Log ASCII Standard - VERSION 2.0
WRAP.                       NO: One line per depth step
~Well Information Block
STRT.FT                -2.7500: 
STOP.FT               973.2500: 
STEP.FT                 0.2500: 
NULL.                -999.2500: 
COMP.          Pioneer Natural Resources: COMPANY
WELL.          Red Raider 22-15: WELL
FLD.           Purgatoire River: FIELD
LOC.           1809' FNL & 2107' FWL: LOCATION
CNTY.               Las Animas: COUNTY
SRVC.                Patterson: SERVICE COMPANY
DATE.          Mon Apr 17 16:50:50 2006: LOG DATE
UWI.           05 071 08718 00: UNIQUE WELL ID
STAT.                 Colorado: STATE
~Curve Information Block
DEPT.FT            0 000 00 00: Depth
GR.GAPI                       : Gamma Ray
CCL.                          : Casing Collar Locator
TT3.usec                      : CBL 3' Travel Time
AMP3.mV                       : CBL 3' Amplitude
~Parameter Information Block
~A  Depth        GR         CCL         TT3         AMP3    
    -2.7500   -999.2500   -999.2500   -999.2500   -999.2500
    -2.5000   -999.2500   -999.2500   -999.2500   -999.2500
    -2.2500   -999.2500   -999.2500   -999.2500   -999.2500
    -2.0000   -999.2500   -999.2500    801.0000      2.4663
    -1.7500   -999.2500   -999.2500    801.0000      2.4745
    -1.5000   -999.2500   -999.2500    801.0000      2.4844
    -1.2500   -999.2500   -999.2500    801.0000      2.4912
    -1.0000   -999.2500   -999.2500    801.0000      2.4921
    -0.7500   -999.2500   -999.2500    801.0000      2.4882
    -0.5000   -999.2500   -999.2500    801.0000      2.4831
    -0.2500   -999.2500   -999.2500    801.0000      2.4797
     0.0000   -999.2500   -999.2500    801.0000      2.4806
     0.2500   -999.2500   -999.2500    801.0000      2.4937
     0.5000   -999.2500   -999.2500    801.0000      2.5000
     0.7500   -999.2500   -999.2500    801.0000      2.5030
     1.0000   -999.2500   -999.2500    801.0000      2.5024
     1.2500   -999.2500   -999.2500    801.0000      2.4983
     1.5000   -999.2500   -999.2500    801.0000      2.4906
     1.7500   -999.2500   -999.2500    801.0000      2.4783
     2.0000   -999.2500   -999.2500    801.0000      2.4617
     2.2500   -999.2500   -999.2500    801.0000      2.4455
     2.5000   -999.2500   -999.2500    801.0000      2.4377
     2.7500   -999.2500   -999.2500    801.0000      2.4423
     3.0000   -999.2500   -999.2500    801.0000      2.4553
     3.2500   -999.2500   -999.2500    801.0000      2.4694
     3.5000   -999.2500      0.0000    801.0000      2.4813
     3.7500   -999.2500      0.0000    801.0000      2.4923
     4.0000   -999.2500      0.0000    801.0000      2.5043
     4.2500   -999.2500      0.0000    801.0000      2.5179
     4.5000   -999.2500      0.0000    801.0000      2.5319
     4.7500   -999.2500      0.0000    801.0000      2.5435
     5.0000   -999.2500      0.0000    800.9911      2.5505
     5.2500   -999.2500      0.0000    800.9055      2.5592
     5.5000   -999.2500      0.0000    800.4308      2.5987
     5.7500   -999.2500      0.0000    798.3505      2.7879
     6.0000   -999.2500      0.0000    791.1403      3.4986
     6.2500   -999.2500      0.0000    771.3735      5.5993
     6.5000   -999.2500      0.0000    728.5184     10.4908
     6.7500   -999.2500      0.0000    655.0959     19.4377
     7.0000   -999.2500      0.0000    555.7968     32.2524
     7.2500   -999.2500      0.0000    449.9287     46.5884
     7.5000   -999.2500      0.0000    361.0846     59.0890
     7.7500   -999.2500      0.0000    302.4925     67.5727
     8.0000   -999.2500      0.0000    272.1770     72.0509
     8.2500     63.4026      0.0000    259.8935     73.8872
     8.5000     63.5300      0.0000    256.0026     74.4609
     8.7500     64.8701      0.0000    255.0402     74.5749
     9.0000     67.1861      0.0000    254.8549     74.5604
     9.2500     69.6939      0.0000    254.8301     74.5295
     9.5000     71.4327      0.0000    254.8335     74.5187
     9.7500     71.7642      0.0000    254.8372     74.5430
    10.0000     70.6066      0.0000    254.8425     74.6010
    10.2500     68.4070      0.0000    254.8504     74.6598
    10.5000     66.1040      0.0000    254.8607     74.6469
    10.7500     65.0012      0.0000    254.8723     74.4879
    11.0000     66.3049      0.0000    254.8827     74.1702
    11.2500     70.6161      0.0000    254.8903     73.7684
    11.5000     77.5022      0.0000    254.8958     73.4004
    11.7500     85.0081      0.0000    254.9023     73.1593
    12.0000     89.8875      0.0000    254.9117     73.0760
    12.2500     89.5268      0.0000    254.9248     73.1138
    12.5000     84.2297      0.0000    254.9544     73.1662
    12.7500     77.0588      0.0000    255.0464     73.0574
    13.0000     71.1992      0.0000    255.3190     72.5567
    13.2500     67.9372      0.0000    256.0012     71.4383
    13.5000     66.8545      0.0000    257.4234     69.5867
    13.7500     66.8666      0.0000    259.8474     67.0707
    14.0000     66.8307      0.0000    263.0990     64.1185
    14.2500     65.9420      0.0000    266.3047     61.0605
    14.5000     64.0402      0.0000    268.2578     58.3032
    14.7500     61.5818      0.0000    268.3499     56.2283
    15.0000     59.4099      0.0000    267.0854     54.9996
    15.2500     58.4299      0.0000    265.5639     54.4990
    15.5000     58.9975      0.0000    264.6263     54.4972
    15.7500     60.4681      3.0000    264.6030     54.8693
    16.0000     61.6318      0.0000    265.5083     55.7057
    16.2500     61.8074      0.0000    267.0046     57.2902
    16.5000     61.4278      0.0000    268.1772     59.8935
    16.7500     61.4037      0.0000    267.8562     63.4137
    17.0000     61.9846      0.0000    265.5891     67.2232
    17.2500     62.4585      0.0000    262.1618     70.5310
    17.5000     61.9834      0.0000    258.9243     72.9102
    17.7500     60.5107      0.0000    256.7234     74.4075
    18.0000     58.7126      0.0000    255.5851     75.2667
    18.2500     57.1351      0.0000    255.1208     75.7062
    18.5000     55.7440      0.0000    254.9650     75.8936
    18.7500     54.4669      0.0000    254.9189     75.9578
    19.0000     53.8988      0.0000    254.9064     75.9630
    19.2500     54.9255      0.0000    254.9078     75.9043
    19.5000     57.5782      0.0000    254.9168     75.7614
    19.7500     60.7249      0.0000    254.9301     75.5501
    20.0000     63.0517      0.0000    254.9442     75.3240
    20.2500     64.0303      0.0000    254.9547     75.1396
    20.5000     63.8757      0.0000    254.9566     75.0208
    20.7500     62.9469      0.0000    254.9490     74.9367
    21.0000     61.4193      0.0000    254.9385     74.8134
    21.2500     59.3905      0.0000    254.9358     74.5875
    21.5000     57.1141      0.0000    254.9470     74.2552
    21.7500     55.0829      0.0000    254.9697     73.8747
    22.0000     53.8567      0.0000    254.9962     73.5314
    22.2500     53.7134      0.0000    255.0210     73.3053
    22.5000     54.3720      0.0000    255.0441     73.2416
    22.7500     55.1513      0.0000    255.0687     73.3252
    23.0000     55.4696      0.0000    255.0957     73.4861
    23.2500     55.1158      0.0000    255.1223     73.6442
    23.5000     54.1837      0.0000    255.1467     73.7557
    23.7500     52.9825      0.0000    255.1708     73.8286
    24.0000     51.8893      0.0000    255.1963     73.9065
    24.2500     51.1232      0.0000    255.2187     74.0339
    24.5000     50.8035      0.0000    255.2302     74.2241
    24.7500     51.2465      0.0000    255.2269     74.4518
    25.0000     52.8471      0.0000    255.2099     74.6729
    25.2500     55.4204      0.0000    255.1821     74.8474
    25.5000     57.8368      0.0000    255.1484     74.9508
    25.7500     58.6423      0.0000    255.1181     74.9818
    26.0000     57.3092      0.0000    255.0990     74.9745
    26.2500     54.7783      0.0000    255.0897     74.9944
    26.5000     52.5268      0.0000    255.0802     75.1003
    26.7500     51.2752      0.0000    255.0636     75.2963
    27.0000     50.8439      0.0000    255.0434     75.5211
    27.2500     50.8625      0.0000    255.0273     75.6934
    27.5000     51.0786      0.0000    255.0168     75.7702
    27.7500     51.2197      0.0000    255.0086     75.7629
    28.0000     51.1840      0.0000    255.0030     75.7060
    28.2500     51.3899      0.0000    255.0039     75.6274
    28.5000     52.4484      0.0000    255.0104     75.5495
    28.7500     54.2770      0.0000    255.0132     75.4942
    29.0000     55.8130      0.0000    255.0033     75.4684
    29.2500     55.9946      0.0000    254.9810     75.4495
    29.5000     55.0618      0.0000    254.9545     75.3965
    29.7500     54.5623      0.0000    254.9335     75.2751
    30.0000     55.9513      0.0000    254.9247     75.0798
    30.2500     59.3653      0.0000    254.9323     74.8413
    30.5000     63.7490      0.0000    254.9561     74.6177
