~Version Information
VERS.                      2.0: CWLS Log ASCII Standard - VERSION 2.0
WRAP.                       NO: One line per depth step
~Well Information Block
STRT.FT               555.0000: 
STOP.FT              2322.2500: 
STEP.FT                 0.2500: 
NULL.                -999.2500: 
COMP.          Pioneer Natural Resources: COMPANY
WELL.          Fittipaldi 21-12: WELL
FLD.           Purgatoire River: FIELD
LOC.           207' FNL & 2110' FWL--: LOCATION
CNTY.               Las Animas: COUNTY
SRVC.                Patterson: SERVICE COMPANY
DATE.          Tue Mar 21 10:27:48 2006: LOG DATE
UWI.           05 071 08492 00: UNIQUE WELL ID
STAT.                 Colorado: STATE
~Curve Information Block
DEPT.FT            0 000 00 00: Depth
SN.Ohm-m                      : IEL Short Normal
SP.mV                         : IEL Spontaneous Potential
DIR.Ohm-m                     : IEL Induction Resistivity
GR.GAPI                       : Gamma Ray
~Parameter Information Block
~A  Depth        SN          SP         DIR          GR     
# ...
   890.0000   2000.0000   1990.0000     43.9170    101.1682
   890.2500   2000.0000   1990.0000     43.8008     99.9560
   890.5000   2000.0000   1990.0000     43.8035     96.2484
   890.7500   2000.0000   1990.0000     43.8793     93.2647
   891.0000   2000.0000   1990.0000     44.0214     89.3988
   891.2500   2000.0000   1990.0000     44.2590     87.6519
   891.5000   2000.0000   1990.0000     44.6336     85.8776
   891.7500   2000.0000   1990.0000     45.1603     84.5589
   892.0000   2000.0000   1990.0000     45.8016     81.4866
   892.2500   2000.0000   1990.0000     46.4648     78.7588
   892.5000   2000.0000   1990.0000     47.0230     74.2716
   892.7500   2000.0000   1990.0000     47.3429     71.3216
   893.0000   2000.0000   1990.0000     47.3116     67.4503
   893.2500   2000.0000   1990.0000     46.8518     65.6250
   893.5000   2000.0000   1990.0000     45.9155     64.4150
   893.7500   2000.0000   1990.0000     44.4716     64.4335
   894.0000   2000.0000   1990.0000     42.5151     65.0859
   894.2500   2000.0000   1990.0000     40.1034     65.9555
   894.5000   2000.0000   1990.0000     37.3800     68.9871
   894.7500   2000.0000   1990.0000     34.5526     73.0247
   895.0000   2000.0000   1990.0000     31.8323     82.8590
   895.2500   2000.0000   1990.0000     29.3780     91.5161
   895.5000   2000.0000   1990.0000     27.2748    105.4462
   895.7500   2000.0000   1990.0000     25.5474    113.6568
   896.0000   2000.0000   1990.0000     24.1885    122.0363
   896.2500   2000.0000   1990.0000     23.1829    124.5581
   896.5000   2000.0000   1990.0000     22.5196    124.5362
   896.7500   2000.0000   1990.0000     22.1898    122.8553
   897.0000   2000.0000   1990.0000     22.1765    119.0246
   897.2500   2000.0000   1990.0000     22.4406    115.7809
   897.5000   2000.0000   1990.0000     22.9093    109.2582
   897.7500   2000.0000   1990.0000     23.4772    103.3107
   898.0000   2000.0000   1990.0000     24.0268     92.2092
   898.2500   2000.0000   1990.0000     24.4632     84.4244
   898.5000   2000.0000   1990.0000     24.7437     74.7581
   898.7500   2000.0000   1990.0000     24.8849     70.8232
   899.0000   2000.0000   1990.0000     24.9437     69.3521
   899.2500   2000.0000   1990.0000     24.9821     70.9756
   899.5000   2000.0000   1990.0000     25.0294     75.7315
   899.7500   2000.0000   1990.0000     25.0583     79.0848
   900.0000   2000.0000   1990.0000     24.9870     81.9053
   900.2500   2000.0000   1990.0000     24.7142     81.3927
   900.5000   2000.0000   1990.0000     24.1698     77.5262
   900.7500   2000.0000   1990.0000     23.3525     74.4773
   901.0000   2000.0000   1990.0000     22.3265     72.8350
   901.2500   2000.0000   1990.0000     21.1852     75.2062
   901.5000   2000.0000   1990.0000     20.0125     84.2151
   901.7500   2000.0000   1990.0000     18.8638     92.7805
   902.0000   2000.0000   1990.0000     17.7664    106.7353
   902.2500   2000.0000   1990.0000     16.7303    115.3042
   902.5000   2000.0000   1990.0000     15.7605    125.4165
   902.7500   2000.0000   1990.0000     14.8668    129.9456
   903.0000   2000.0000   1990.0000     14.0704    133.5661
   903.2500   2000.0000   1990.0000     13.4027    134.3605
   903.5000   2000.0000   1990.0000     12.8975    134.4946
   903.7500   2000.0000   1990.0000     12.5810    134.6453
   904.0000   2000.0000   1990.0000     12.4636    135.2737
   904.2500   2000.0000   1990.0000     12.5381    135.3493
   904.5000   2000.0000   1990.0000     12.7822    133.3480
   904.7500   2000.0000   1990.0000     13.1646    130.1957
   905.0000   2000.0000   1990.0000     13.6525    123.7530
   905.2500   2000.0000   1990.0000     14.2156    119.5028
   905.5000   2000.0000   1990.0000     14.8269    114.7921
   905.7500   2000.0000   1990.0000     15.4609    113.0096
   906.0000   2000.0000   1990.0000     16.0913    111.9044
   906.2500   2000.0000   1990.0000     16.6921    111.8151
   906.5000   2000.0000   1990.0000     17.2372    112.2816
   906.7500   2000.0000   1990.0000     17.7014    112.9885
   907.0000   2000.0000   1990.0000     18.0640    114.5477
   907.2500   2000.0000   1990.0000     18.3215    115.4545
   907.5000   2000.0000   1990.0000     18.5018    115.0580
   907.7500   2000.0000   1990.0000     18.6641    112.8033
   908.0000   2000.0000   1990.0000     18.8781    106.4631
   908.2500   2000.0000   1990.0000     19.1952    101.2269
   908.5000   2000.0000   1990.0000     19.6264     94.0341
   908.7500   2000.0000   1990.0000     20.1358     90.5517
   909.0000   2000.0000   1990.0000     20.6491     87.7074
   909.2500   2000.0000   1990.0000     21.0717     87.2682
   909.5000   2000.0000   1990.0000     21.3124     88.5699
   909.7500   2000.0000   1990.0000     21.3042     90.7268
   910.0000   2000.0000   1990.0000     21.0165     95.9017
   910.2500   2000.0000   1990.0000     20.4585    100.5936
   910.5000   2000.0000   1990.0000     19.6771    109.2728
   910.7500   2000.0000   1990.0000     18.7479    115.7772
   911.0000   2000.0000   1990.0000     17.7581    124.9202
   911.2500   2000.0000   1990.0000     16.7890    129.0425
   911.5000   2000.0000   1990.0000     15.9047    130.2866
   911.7500   2000.0000   1990.0000     15.1513    128.2463
   912.0000   2000.0000   1990.0000     14.5600    124.2468
   912.2500   2000.0000   1990.0000     14.1503    122.8847
   912.5000   2000.0000   1990.0000     13.9313    123.2727
   912.7500   2000.0000   1990.0000     13.9009    123.8656
   913.0000   2000.0000   1990.0000     14.0445    122.7472
   913.2500   2000.0000   1990.0000     14.3341    119.9820
   913.5000   2000.0000   1990.0000     14.7292    113.1166
   913.7500   2000.0000   1990.0000     15.1831    107.5009
   914.0000   2000.0000   1990.0000     15.6519     99.4477
   914.2500   2000.0000   1990.0000     16.1017     95.4491
   914.5000   2000.0000   1990.0000     16.5082     92.6222
   914.7500   2000.0000   1990.0000     16.8465     92.9198
   915.0000   2000.0000   1990.0000     17.0810     96.3283
   915.2500   2000.0000   1990.0000     17.1653    100.3974
   915.5000   2000.0000   1990.0000     17.0591    108.5544
   915.7500   2000.0000   1990.0000     16.7521    114.4578
   916.0000   2000.0000   1990.0000     16.2764    121.9045
   916.2500   2000.0000   1990.0000     15.6942    125.1151
   916.5000   2000.0000   1990.0000     15.0737    127.5166
   916.7500   2000.0000   1990.0000     14.4696    128.2622
   917.0000   2000.0000   1990.0000     13.9173    129.2034
   917.2500   2000.0000   1990.0000     13.4363    129.8687
   917.5000   2000.0000   1990.0000     13.0359    130.4534
   917.7500   2000.0000   1990.0000     12.7190    130.1593
   918.0000   2000.0000   1990.0000     12.4842    128.5514
   918.2500   2000.0000   1990.0000     12.3270    127.2057
   918.5000   2000.0000   1990.0000     12.2390    125.9860
   918.7500   2000.0000   1990.0000     12.2073    125.9256
   919.0000   2000.0000   1990.0000     12.2144    126.2116
   919.2500   2000.0000   1990.0000     12.2411    126.0952
   919.5000   2000.0000   1990.0000     12.2743    125.2456
   919.7500   2000.0000   1990.0000     12.3144    124.5697
   920.0000   2000.0000   1990.0000     12.3762    124.3069
   920.2500   2000.0000   1990.0000     12.4798    125.0521
   920.5000   2000.0000   1990.0000     12.6386    127.5393
   920.7500   2000.0000   1990.0000     12.8497    129.5338
   921.0000   2000.0000   1990.0000     13.0931    131.4260
   921.2500   2000.0000   1990.0000     13.3369    131.1973
   921.5000   2000.0000   1990.0000     13.5467    128.6002
   921.7500   2000.0000   1990.0000     13.6952    126.1779
   922.0000   2000.0000   1990.0000     13.7667    123.4640
   922.2500   2000.0000   1990.0000     13.7582    123.0781
   922.5000   2000.0000   1990.0000     13.6769    124.6354
   922.7500   2000.0000   1990.0000     13.5380    126.3778
   923.0000   2000.0000   1990.0000     13.3612    128.7334
   923.2500   2000.0000   1990.0000     13.1666    129.9105
