~Version Information
VERS.                      2.0: CWLS Log ASCII Standard - VERSION 2.0
WRAP.                       NO: One line per depth step
~Well Information Block
STRT.FT               570.0000: 
STOP.FT              2090.5000: 
STEP.FT                 0.1000: 
NULL.                -999.2500: 
COMP.          XTO Energy Inc.: COMPANY
WELL.          Golden Eagle 19-10: WELL
FLD.           Purgatoire River: FIELD
LOC.           2684' FSL & 1825' FEL: LOCATION
CNTY.               Las Animas: COUNTY
SRVC.                Patterson: SERVICE COMPANY
DATE.          Mon Mar 06 07:05:15 2006: LOG DATE
UWI.           05 071 08697 00: UNIQUE WELL ID
STAT.                 Colorado: STATE
~Curve Information Block
DEPT.FT            0 000 00 00: Depth
DCAL.in                       : CDL Caliper
RHOB.g/cc                     : CDL Bulk Density
RHOC.g/cc                     : CDL Density Correction
DPOR.pu                       : CDL Density Porosity
GR.GAPI                       : Gamma Ray
NPOR.pu                       : Neutron Porosity
~Parameter Information Block
~A  Depth       DCAL        RHOB        RHOC        DPOR         GR         NPOR    
# ...
  1270.8000      7.8369      2.5327      0.0897      7.1064     47.9155     21.8505
  1270.9000      7.8369      2.5276      0.0627      7.4174     49.6470     21.8064
  1271.0000      7.8374      2.5171      0.0060      8.0546     49.4045     21.4453
  1271.1000      7.8374      2.5272      0.0607      7.4425     49.4331     20.9243
  1271.2000      7.8374      2.5443      0.0746      6.4037     49.4191     21.1842
  1271.3000      7.8370      2.5457      0.0376      6.3219     49.5039     22.3498
  1271.4000      7.8370      2.5369      0.0214      6.8547     50.8961     24.1424
  1271.5000      7.8370      2.5398     -0.0075      6.6776     55.1701     25.8601
  1271.6000      7.8370      2.5532      0.1006      5.8659     62.1056     26.4535
  1271.7000      7.8370      2.5500      0.0576      6.0623     69.7512     26.0234
  1271.8000      7.8377      2.5279      0.0229      7.4004     78.7439     25.9783
  1271.9000      7.8377      2.5107     -0.0351      8.4397     92.4109     26.9895
  1272.0000      7.8385      2.5033      0.0077      8.8929    110.7814     28.2912
  1272.1000      7.8385      2.4981     -0.0339      9.2082    128.3070     28.8174
  1272.2000      7.8385      2.4984      0.0195      9.1908    141.1753     28.6600
  1272.3000      7.8387      2.4977      0.0341      9.2283    149.1571     28.7133
  1272.4000      7.8387      2.4884     -0.0026      9.7911    153.0249     29.0043
  1272.5000      7.8373      2.4800      0.0343     10.3008    156.8563     29.0073
  1272.6000      7.8373      2.4844     -0.0074     10.0368    164.6124     28.5895
  1272.7000      7.8373      2.4970      0.0317      9.2755    173.6006     28.0443
  1272.8000      7.8343      2.4999      0.0255      9.0947    179.8138     27.7194
  1272.9000      7.8343      2.4949      0.0076      9.4019    184.4346     27.7389
  1273.0000      7.8320      2.5014      0.0199      9.0053    187.0409     27.9084
  1273.1000      7.8320      2.5216      0.0299      7.7826    185.5746     27.6820
  1273.2000      7.8320      2.5347      0.0592      6.9907    182.7065     26.9423
  1273.3000      7.8313      2.5293      0.0362      7.3163    179.9365     26.0617
  1273.4000      7.8313      2.5165      0.0541      8.0920    176.9690     25.1402
  1273.5000      7.8310      2.5095      0.0301      8.5159    177.5470     24.4735
  1273.6000      7.8310      2.5141      0.0485      8.2378    184.0092     24.7896
  1273.7000      7.8310      2.5292      0.0728      7.3223    190.3457     26.0218
  1273.8000      7.8306      2.5517      0.0381      5.9605    190.8872     27.1309
  1273.9000      7.8306      2.5769      0.0910      4.4306    186.6091     27.2113
  1274.0000      7.8307      2.5934      0.0933      3.4299    180.6464     26.3431
  1274.1000      7.8307      2.5975      0.0721      3.1840    174.7391     25.4002
  1274.2000      7.8307      2.5998      0.0443      3.0454    170.0216     24.7866
  1274.3000      7.8313      2.6097      0.0463      2.4403    167.6959     24.1784
  1274.4000      7.8313      2.6197      0.1276      1.8357    166.3818     23.5053
  1274.5000      7.8313      2.6106      0.1083      2.3854    163.4309     22.8662
  1274.6000      7.8313      2.5802      0.0354      4.2278    160.1382     22.5782
  1274.7000      7.8313      2.5444      0.0416      6.4030    160.5502     23.1174
  1274.8000      7.8310      2.5181      0.0104      7.9940    165.3218     24.3152
  1274.9000      7.8310      2.5154      0.0008      8.1588    170.6093     25.3238
  1275.0000      7.8310      2.5369      0.0321      6.8535    170.3804     25.5030
  1275.1000      7.8310      2.5621      0.0704      5.3259    162.3697     25.3955
  1275.2000      7.8310      2.5773      0.0290      4.4057    152.1128     25.2409
  1275.3000      7.8305      2.5883      0.0514      3.7416    145.6686     24.4873
  1275.4000      7.8305      2.5984      0.0840      3.1245    143.2124     23.3642
  1275.5000      7.8297      2.6055      0.0853      2.6948    140.4283     22.1659
  1275.6000      7.8297      2.6054      0.1157      2.7059    135.2789     21.6065
  1275.7000      7.8297      2.5940      0.1136      3.3958    131.1716     22.7847
  1275.8000      7.8306      2.5829      0.0679      4.0655    133.1698     24.8184
  1275.9000      7.8306      2.5836      0.0989      4.0216    140.6185     25.7363
  1276.0000      7.8348      2.5895      0.0662      3.6673    149.0107     24.8984
  1276.1000      7.8348      2.5926      0.0975      3.4768    154.3429     23.4072
  1276.2000      7.8348      2.5899      0.0566      3.6434    151.9407     22.7573
  1276.3000      7.8401      2.5819      0.0291      4.1256    142.1555     23.1470
  1276.4000      7.8401      2.5739      0.0680      4.6110    130.1409     23.7235
  1276.5000      7.8427      2.5708      0.0360      4.7997    121.6153     23.4677
  1276.6000      7.8427      2.5701      0.0768      4.8395    118.6159     22.4427
  1276.7000      7.8427      2.5608      0.0519      5.4078    114.2641     21.5409
  1276.8000      7.8432      2.5371      0.0573      6.8442    103.4293     21.0538
  1276.9000      7.8432      2.5041      0.0588      8.8394     93.5924     21.3241
  1277.0000      7.8436      2.4741      0.0047     10.6598     92.2595     22.5668
  1277.1000      7.8436      2.4566      0.0049     11.7227     97.0213     23.7222
  1277.2000      7.8436      2.4505      0.0240     12.0914    101.3248     23.6093
  1277.3000      7.8441      2.4557     -0.0132     11.7760    102.2988     22.7149
  1277.4000      7.8441      2.4774      0.0393     10.4623    100.6704     22.2035
  1277.5000      7.8448      2.5128      0.0588      8.3132    100.3123     22.2764
  1277.6000      7.8448      2.5521      0.0941      5.9317    103.8512     22.6447
  1277.7000      7.8448      2.5832      0.1469      4.0503    108.4246     23.0320
  1277.8000      7.8451      2.5941      0.1856      3.3890    109.8115     23.3599
  1277.9000      7.8451      2.5842      0.1199      3.9849    108.2227     23.4430
  1278.0000      7.8446      2.5660      0.1049      5.0930    106.3947     22.9302
  1278.1000      7.8446      2.5517      0.0434      5.9587    105.3682     22.1951
  1278.2000      7.8446      2.5489      0.0307      6.1276    105.6861     21.6941
  1278.3000      7.8447      2.5543      0.0392      5.7973    108.2127     21.8390
  1278.4000      7.8447      2.5550      0.0380      5.7568    112.1038     22.9137
  1278.5000      7.8456      2.5454      0.0440      6.3390    114.5955     23.8698
  1278.6000      7.8456      2.5346      0.0385      6.9934    113.2839     23.6777
  1278.7000      7.8456      2.5261      0.0607      7.5094    107.5776     22.5210
  1278.8000      7.8457      2.5087      0.0566      8.5629     99.0452     20.9352
  1278.9000      7.8457      2.4764      0.0289     10.5205     89.8340     19.9309
  1279.0000      7.8451      2.4379      0.0021     12.8534     79.7543     19.8716
  1279.1000      7.8451      2.4089     -0.0227     14.6099     68.8502     19.7616
  1279.2000      7.8451      2.4002     -0.0114     15.1404     61.1331     19.3940
  1279.3000      7.8443      2.4075      0.0210     14.6942     57.3957     19.4922
  1279.4000      7.8443      2.4237      0.0260     13.7151     54.8744     19.9823
  1279.5000      7.8438      2.4463      0.0686     12.3457     53.4288     20.0094
  1279.6000      7.8438      2.4691      0.0929     10.9649     51.9861     19.2239
  1279.7000      7.8438      2.4875      0.1033      9.8458     48.6245     18.0008
  1279.8000      7.8449      2.4977      0.1571      9.2280     44.4259     16.4823
  1279.9000      7.8449      2.4854      0.1541      9.9785     42.5874     14.9004
  1280.0000      7.8473      2.4504      0.0842     12.0948     44.5637     13.9806
  1280.1000      7.8473      2.4216      0.0216     13.8418     47.2161     14.1030
  1280.2000      7.8473      2.4173      0.0407     14.1030     47.8492     14.6988
  1280.3000      7.8496      2.4226      0.0816     13.7821     47.0037     15.1270
