~Version Information
VERS.                      2.0: CWLS Log ASCII Standard - VERSION 2.0
WRAP.                       NO: One line per depth step
~Well Information Block
STRT.FT               595.0000: 
STOP.FT              1693.0000: 
STEP.FT                 0.1000: 
NULL.                -999.2500: 
COMP.          Pioneer Natural Resources: COMPANY
WELL.          Rollerball 34-30: WELL
FLD.           Purgatoire River: FIELD
LOC.           893' FSL & 2408' FEL: LOCATION
CNTY.               Las Animas: COUNTY
SRVC.                Patterson: SERVICE COMPANY
DATE.          Tue Feb 14 15:43:01 2006: LOG DATE
UWI.           05 071 08581 00: UNIQUE WELL ID
STAT.                 Colorado: STATE
~Curve Information Block
DEPT.FT            0 000 00 00: Depth
DCAL.in                       : CDL Caliper
RHOB.g/cc                     : CDL Bulk Density
RHOC.g/cc                     : CDL Density Correction
DPOR.pu                       : CDL Density Porosity
GR.GAPI                       : Gamma Ray
NPOR.pu                       : Neutron Porosity
~Parameter Information Block
~A  Depth       DCAL        RHOB        RHOC        DPOR         GR         NPOR    
# ...
  1315.0000      8.1027      2.4862      0.0173      9.9244     48.0340     25.7202
  1315.1000      8.1027      2.4609     -0.0320     11.4632     49.4145     25.2907
  1315.2000      8.1027      2.4487     -0.0198     12.1992     47.8937     24.1677
  1315.3000      8.1019      2.4510      0.0030     12.0588     44.6454     23.1122
  1315.4000      8.1019      2.4595      0.0073     11.5446     43.2247     22.5453
  1315.5000      8.1024      2.4667      0.0135     11.1088     43.8607     22.0570
  1315.6000      8.1024      2.4705      0.0099     10.8811     43.6776     21.9309
  1315.7000      8.1024      2.4672      0.0521     11.0813     40.7544     22.4752
  1315.8000      8.1012      2.4542      0.0174     11.8675     36.5528     22.6849
  1315.9000      8.1012      2.4453     -0.0378     12.4067     33.9017     22.0650
  1316.0000      8.0988      2.4479      0.0232     12.2487     32.0501     21.2237
  1316.1000      8.0988      2.4527      0.0180     11.9559     29.0241     20.4200
  1316.2000      8.0988      2.4529      0.0181     11.9426     26.1695     19.6937
  1316.3000      8.0979      2.4432      0.0456     12.5361     25.4365     19.2513
  1316.4000      8.0979      2.4248      0.0224     13.6506     26.2101     19.3165
  1316.5000      8.0974      2.4121      0.0119     14.4187     28.1765     19.7142
  1316.6000      8.0974      2.4105      0.0559     14.5139     31.5253     20.1777
  1316.7000      8.0974      2.4091      0.0623     14.5975     34.5672     20.8141
  1316.8000      8.0971      2.3997      0.0623     15.1683     36.3040     21.3423
  1316.9000      8.0971      2.3846      0.0033     16.0848     37.7361     21.0168
  1317.0000      8.0967      2.3732      0.0014     16.7745     38.8503     19.9865
  1317.1000      8.0967      2.3693      0.0417     17.0137     38.3344     19.4183
  1317.2000      8.0967      2.3677      0.0755     17.1088     36.0403     19.8990
  1317.3000      8.0968      2.3617      0.0515     17.4744     34.0888     20.9278
  1317.4000      8.0968      2.3505      0.0152     18.1536     33.9327     21.4762
  1317.5000      8.0977      2.3446      0.0380     18.5061     34.7068     20.8595
  1317.6000      8.0977      2.3533      0.0382     17.9795     35.6393     19.6080
  1317.7000      8.0977      2.3650      0.0742     17.2732     36.5000     18.5895
  1317.8000      8.0977      2.3638      0.0228     17.3478     35.7303     18.1522
  1317.9000      8.0977      2.3577      0.0455     17.7177     32.5937     18.6072
  1318.0000      8.0966      2.3575      0.0463     17.7243     29.4712     19.6427
  1318.1000      8.0966      2.3621      0.0112     17.4506     28.6827     19.8766
  1318.2000      8.0966      2.3683      0.0457     17.0725     29.1853     18.6768
  1318.3000      8.0970      2.3690      0.0744     17.0330     27.5035     17.0160
  1318.4000      8.0970      2.3626      0.0042     17.4181     24.4521     15.8097
  1318.5000      8.0948      2.3611      0.0238     17.5105     25.0025     15.0793
  1318.6000      8.0948      2.3656      0.0598     17.2382     28.4902     14.7927
  1318.7000      8.0948      2.3674      0.0600     17.1271     29.7270     14.6529
  1318.8000      8.0942      2.3691      0.0452     17.0251     27.8346     14.3005
  1318.9000      8.0942      2.3791      0.0318     16.4196     24.7613     13.9186
  1319.0000      8.1013      2.3924      0.0637     15.6110     20.8686     13.6488
  1319.1000      8.1013      2.3979      0.0490     15.2786     17.0250     13.5295
  1319.2000      8.1013      2.3974      0.0482     15.3107     15.1988     13.6400
  1319.3000      8.1027      2.3954      0.0785     15.4321     14.8009     13.8237
  1319.4000      8.1027      2.3931      0.0201     15.5694     13.9270     13.8849
  1319.5000      8.1042      2.3915      0.0269     15.6653     13.0188     13.9915
  1319.6000      8.1042      2.3849      0.0480     16.0663     13.3517     14.4166
  1319.7000      8.1042      2.3732      0.0358     16.7763     15.0954     15.0097
  1319.8000      8.1034      2.3693      0.0156     17.0134     17.1886     15.0297
  1319.9000      8.1034      2.3771      0.0671     16.5399     17.9307     14.5822
  1320.0000      8.1030      2.3868      0.0408     15.9491     17.3345     14.6767
  1320.1000      8.1030      2.3878      0.0639     15.8894     17.0947     15.2956
  1320.2000      8.1030      2.3673      0.0593     17.1361     18.5101     15.6686
  1320.3000      8.1029      2.3325      0.0020     19.2453     21.3342     15.6866
  1320.4000      8.1029      2.3174     -0.0133     20.1563     23.9216     16.0066
  1320.5000      8.1021      2.3411      0.0263     18.7237     27.9616     16.8725
  1320.6000      8.1021      2.3906      0.0321     15.7205     37.3493     17.5021
  1320.7000      8.1021      2.4412      0.0699     12.6561     51.3942     17.2159
  1320.8000      8.0995      2.4753      0.0652     10.5885     62.7190     16.4573
  1320.9000      8.0995      2.4963      0.0571      9.3133     65.3655     16.1258
  1321.0000      8.0902      2.5128      0.1028      8.3139     62.3471     16.6263
  1321.1000      8.0902      2.5281      0.1006      7.3907     60.0527     17.6875
  1321.2000      8.0902      2.5453      0.0907      6.3455     61.1377     18.7105
  1321.3000      8.0910      2.5566      0.1190      5.6624     65.9139     19.3755
  1321.4000      8.0910      2.5534      0.0128      5.8515     73.6619     19.5001
  1321.5000      8.0979      2.5411      0.0455      6.5998     80.4788     19.1747
  1321.6000      8.0979      2.5259      0.0304      7.5205     83.9057     18.9027
  1321.7000      8.0979      2.5205      0.0025      7.8463     85.1668     19.3106
  1321.8000      8.1061      2.5286      0.0569      7.3595     83.1890     20.4516
  1321.9000      8.1061      2.5247      0.0784      7.5963     77.6173     21.3717
  1322.0000      8.1128      2.4917      0.0520      9.5935     72.0135     21.2729
  1322.1000      8.1128      2.4500      0.0273     12.1183     67.0673     20.5925
  1322.2000      8.1128      2.4263      0.0170     13.5592     62.5648     20.4359
  1322.3000      8.1115      2.4182      0.0391     14.0498     60.6944     21.1935
  1322.4000      8.1115      2.4089      0.0422     14.6146     62.7171     21.8742
  1322.5000      8.1131      2.4003      0.0176     15.1355     66.9265     22.0595
  1322.6000      8.1131      2.4102      0.0114     14.5351     67.8582     22.2642
  1322.7000      8.1131      2.4374      0.0652     12.8854     63.0342     22.1994
  1322.8000      8.1138      2.4604      0.0601     11.4884     56.1150     21.4618
  1322.9000      8.1138      2.4714      0.0458     10.8236     50.0697     20.3859
  1323.0000      8.1130      2.4809      0.0525     10.2502     47.6255     19.6872
  1323.1000      8.1130      2.4932      0.0550      9.5027     49.5511     20.0225
  1323.2000      8.1130      2.5051      0.0403      8.7808     52.7518     21.0110
  1323.3000      8.1136      2.5209      0.0323      7.8242     53.3103     21.7100
  1323.4000      8.1136      2.5407      0.0609      6.6229     49.8549     21.9186
  1323.5000      8.1138      2.5459      0.0881      6.3118     45.1827     22.0167
  1323.6000      8.1138      2.5313      0.0058      7.1910     43.8552     21.8590
  1323.7000      8.1138      2.5178      0.0586      8.0148     47.0190     21.4109
  1323.8000      8.1132      2.5130      0.0498      8.3023     51.6730     21.5900
  1323.9000      8.1132      2.5180      0.0118      7.9970     54.5942     22.6641
  1324.0000      8.1167      2.5297      0.0512      7.2911     57.6131     23.3893
  1324.1000      8.1167      2.5282      0.0612      7.3845     64.6391     23.1914
  1324.2000      8.1167      2.5111     -0.0295      8.4164     73.7012     23.1639
  1324.3000      8.1151      2.4980      0.0036      9.2148     80.3793     23.9473
  1324.4000      8.1151      2.4956      0.0152      9.3588     87.0340     24.9752
  1324.5000      8.1169      2.4998     -0.0112      9.1012     96.8269     25.7379
