~Version Information
VERS.                      2.0: CWLS Log ASCII Standard - VERSION 2.0
WRAP.                       NO: One line per depth step
~Well Information Block
STRT.FT                -9.2500: 
STOP.FT              1854.7500: 
STEP.FT                 0.2500: 
NULL.                -999.2500: 
COMP.          Pioneer Natural Resources: COMPANY
WELL.          State Wildlife 32-16 Tr: WELL
FLD.           Purgatoire River: FIELD
LOC.           1838' FNL & 1850' FEL--: LOCATION
STAT.                       CO: State
CNTY.               Las Animas: COUNTY
CTRY. USA : Country
SECT. 16 : Section
TOWN. 32S : Township
RANG. 66W : Range
SRVC.          Patterson Wireline: SERVICE COMPANY
DATE.          Tue Nov 22 10:17:13 2005: LOG DATE
API.           05 071 08568 00: UNIQUE WELL ID
~Curve Information Block
DEPT.FT            0 000 00 00: Depth
CCL.                          : Casing Collar Locator
TT3.usec                      : CBL 3' Travel Time
AMP3.mV                       : CBL 3' Amplitude
GR.GAPI                       : Gamma Ray
~Parameter Information Block
~A  Depth       CCL         TT3         AMP3         GR     
# ...
   493.2500      0.0000    753.8665     11.8421    111.0796
   493.5000      0.0000    751.1460     11.6676    109.9860
   493.7500      0.0000    749.7090     11.5261    108.7413
   494.0000      0.0000    749.0406     11.4523    107.0027
   494.2500      0.0000    748.7564     11.4645    105.4007
   494.5000      0.0000    748.6741     11.5586    104.6285
   494.7500      0.0000    748.7212     11.7024    104.8740
   495.0000      0.0000    748.8679     11.8495    106.1414
   495.2500      0.0000    749.1465     11.9658    108.5088
   495.5000      0.0000    749.7382     12.0389    111.8238
   495.7500      0.0000    751.0954     12.0695    115.2157
   496.0000      0.0000    753.9689     12.0669    116.9252
   496.2500      0.0000    759.0712     12.0503    115.0406
   496.5000      0.0000    766.3501     12.0440    109.1580
   496.7500      0.0000    774.5373     12.0656    101.3455
   497.0000      0.0000    781.6951     12.1110     94.8973
   497.2500      0.0000    786.3534     12.1501     91.9359
   497.5000      0.0000    788.0364     12.1477     92.3623
   497.7500      0.0000    786.9018     12.0933     94.7955
   498.0000      0.0000    783.4742     12.0050     97.9002
   498.2500      0.0000    779.0013     11.9072    100.7807
   498.5000      0.0000    775.5098     11.8143    102.7944
   498.7500      0.0000    774.6003     11.7296    103.5822
   499.0000      0.0000    776.0281     11.6469    103.3826
   499.2500      0.0000    778.0585     11.5571    103.0526
   499.5000      0.0000    779.3704     11.4639    103.5460
   499.7500      0.0000    780.0255     11.3908    105.2475
   500.0000      0.0000    780.5219     11.3649    107.6052
   500.2500      0.0000    780.8141     11.3932    109.2170
   500.5000      0.0000    780.7383     11.4603    108.6478
   500.7500      0.0000    780.6002     11.5467    105.6077
   501.0000      0.0000    780.6825     11.6494    101.2795
   501.2500      0.0000    780.7663     11.7855     97.3801
   501.5000      0.0000    780.7736     11.9744     95.0062
   501.7500      0.0000    781.3467     12.2130     94.1421
   502.0000      0.0000    783.1237     12.4653     93.9271
   502.2500      0.0000    785.7830     12.6760     93.3169
   502.5000      0.0000    788.3300     12.8016     91.4380
   502.7500      0.0000    790.0743     12.8359     87.7253
   503.0000      0.0000    790.9975     12.8065     82.5903
   503.2500      0.0000    791.4055     12.7499     78.0081
   503.5000      0.0000    791.5569     12.6954     76.4848
   503.7500      0.0000    791.5697     12.6623     78.9446
   504.0000      0.0000    791.4780     12.6567     83.8914
   504.2500      0.0000    791.2596     12.6633     88.7621
   504.5000      0.0000    790.8083     12.6524     91.9813
   504.7500      0.0000    789.8805     12.6048     93.8487
   505.0000      0.0000    788.1539     12.5280     95.7321
   505.2500      0.0000    785.5325     12.4481     98.4628
   505.5000      0.0000    782.4423     12.3847    101.6010
   505.7500      0.0000    779.5743     12.3308    104.3565
   506.0000      0.0000    777.1832     12.2593    106.8600
   506.2500      0.0000    774.9207     12.1533    109.9196
   506.5000      0.0000    772.5824     12.0276    113.6278
   506.7500      0.0000    770.8130     11.9156    116.7708
   507.0000      0.0000    770.8636     11.8378    117.6710
   507.2500      0.0000    773.5471     11.7896    115.3017
   507.5000      0.0000    778.3177     11.7574    109.7331
   507.7500      0.0000    783.4837     11.7373    101.9834
   508.0000      0.0000    787.4587     11.7377     93.5070
   508.2500      0.0000    789.7228     11.7680     85.5402
   508.5000      0.0000    790.6804     11.8257     78.7815
   508.7500      0.0000    790.9630     11.8954     73.5692
   509.0000      0.0000    790.9937     11.9600     70.1163
   509.2500      0.0000    790.9222     12.0132     68.4824
   509.5000      0.0000    790.6712     12.0623     68.3923
   509.7500      0.0000    789.9474     12.1174     69.2648
   510.0000      0.0000    788.3151     12.1793     70.5695
   510.2500      0.0000    785.5161     12.2341     72.1341
   510.5000      0.0000    781.9186     12.2625     74.0542
   510.7500      0.0000    778.5373     12.2551     76.4667
   511.0000      0.0000    776.2770     12.2208     79.4726
   511.2500      0.0000    774.9823     12.1779     82.9189
   511.5000      0.0000    773.3567     12.1371     86.0572
   511.7500      0.0000    770.0960     12.0948     87.7835
   512.0000      0.0000    765.2085     12.0378     87.4295
   512.2500      0.0000    760.0469     11.9530     85.0293
   512.5000      0.0000    756.0357     11.8325     81.0652
   512.7500      0.0000    753.6289     11.6681     76.6664
   513.0000      0.0000    752.4206     11.4319     73.6828
   513.2500      0.0000    751.8460     11.0681     73.4003
   513.5000      0.0000    751.7488     10.5321     75.0215
   513.7500      0.0000    753.0308      9.8688     76.1611
   514.0000      0.0000    758.5436      9.2412     74.8534
   514.2500      0.0000    773.3259      8.8290     70.7401
   514.5000      0.0000    802.0002      8.6776     64.8416
   514.7500      0.0000    843.5002      8.6766     58.8480
   515.0000      0.0000    888.2142      8.6933     54.2896
   515.2500      0.0000    922.4828      8.6862     51.8756
   515.5000      0.0000    937.6449      8.6940     51.8412
   515.7500     -2.0000    935.0750      8.7695     55.0135
   516.0000      2.0000    922.8953      8.9436     62.7527
   516.2500      0.0000    907.8524      9.2333     75.1467
   516.5000      0.0000    890.3917      9.6561     89.6738
   516.7500      0.0000    868.0348     10.2016    102.3967
   517.0000      0.0000    841.8593     10.7733    110.4883
   517.2500      0.0000    817.1970     11.2102    113.5910
   517.5000      0.0000    799.0916     11.4260    113.4569
   517.7500      0.0000    789.1757     11.4910    112.8178
   518.0000      0.0000    785.9252     11.5370    113.9293
   518.2500      0.0000    786.3130     11.6380    117.2453
   518.5000      0.0000    787.3718     11.8087    121.2381
   518.7500      0.0000    787.3179     12.0350    123.7736
   519.0000      0.0000    785.8893     12.2640    123.8819
   519.2500      0.0000    784.0196     12.4142    122.3247
   519.5000      0.0000    783.0021     12.4347    120.6366
   519.7500      0.0000    783.2487     12.3445    119.8544
   520.0000      0.0000    783.7743     12.2054    120.2306
   520.2500      0.0000    783.1666     12.0723    121.7776
   520.5000      0.0000    781.0955     11.9654    124.4184
   520.7500      0.0000    778.6447     11.8775    127.4419
   521.0000      0.0000    777.1671     11.7964    129.3963
   521.2500      0.0000    776.8013     11.7210    129.2213
   521.5000      0.0000    775.9707     11.6555    127.5320
   521.7500      0.0000    772.5060     11.5961    126.3860
   522.0000      0.0000    765.7879     11.5324    127.4784
   522.2500      0.0000    757.9741     11.4635    130.4870
   522.5000      0.0000    752.7330     11.4040    133.3217
   522.7500      0.0000    752.4894     11.3712    134.0464
   523.0000      0.0000    756.7231     11.3705    132.4250
   523.2500      0.0000    762.6831     11.3941    129.9226
   523.5000      0.0000    767.5488     11.4315    128.7718
   523.7500      0.0000    769.9767     11.4747    130.6616
   524.0000      0.0000    770.1132     11.5112    135.4424
   524.2500      0.0000    768.8189     11.5176    141.0193
   524.5000      0.0000    767.0287     11.4732    144.9095
   524.7500      0.0000    765.3416     11.3874    146.0256
   525.0000      0.0000    764.0223     11.3086    145.0529
   525.2500      0.0000    763.6055     11.2928    143.6078
   525.5000      0.0000    765.2150     11.3592    143.1816
   525.7500      0.0000    769.5739     11.4779    144.2403
   526.0000      0.0000    775.7404     11.5971    145.6946
   526.2500      0.0000    781.3919     11.6788    145.4602
   526.5000      0.0000    784.4697     11.7118    142.0887
