~Version Information
VERS.                      2.0: CWLS Log ASCII Standard - VERSION 2.0
WRAP.                       NO: One line per depth step
~Well Information Block
STRT.FT                 0.0000: 
STOP.FT              2072.7500: 
STEP.FT                 0.2500: 
NULL.                -999.2500: 
COMP.          Pioneer Natural Resources: COMPANY
WELL.          Greenwood 43-29 Tr: WELL
FLD.           Purgatorie River: FIELD
LOC.           1478' FSL & 744' FEL: LOCATION
STAT.                 Colorado: State
CNTY.               Las Animas: COUNTY
CTRY. USA : Country
SECT. 29 : Section
TOWN. 32S : Township
RANG. 67W : Range
SRVC.                Patterson: SERVICE COMPANY
DATE.          Tue Sep 06 12:54:40 2005: LOG DATE
API. 05-071-08478                          : UNIQUE WELL ID
~Curve Information Block
DEPT.FT            0 000 00 00: Depth
GR.GAPI                       : Gamma Ray
CCL.                          : Casing Collar Locator
TT3.usec                      : CBL 3' Travel Time
AMP3.mV                       : CBL 3' Amplitude
~Parameter Information Block
~A  Depth        GR         CCL         TT3         AMP3    
# ...
  1239.5000    125.6808      0.0000    782.7648      9.2976
  1239.7500    119.9769      0.0000    782.5325      9.3243
  1240.0000    115.8376      0.0000    782.4874      9.3359
  1240.2500    114.7347      0.0000    782.5517      9.3291
  1240.5000    116.3648      0.0000    782.6516      9.3094
  1240.7500    118.9573      0.0000    782.7961      9.2807
  1241.0000    120.7180      0.0000    782.9651      9.2499
  1241.2500    120.5931      0.0000    783.0367      9.2297
  1241.5000    118.1654      0.0000    782.9586      9.2273
  1241.7500    113.6529      0.0000    782.8431      9.2462
  1242.0000    107.9689      0.0000    782.7762      9.2913
  1242.2500    102.3046      0.0000    782.7189      9.3516
  1242.5000     97.5991      0.0000    782.6384      9.3988
  1242.7500     94.4308      0.0000    782.6005      9.4198
  1243.0000     93.3196      0.0000    782.7378      9.4313
  1243.2500     94.9423      0.0000    783.1136      9.4546
  1243.5000     99.5882      0.0000    783.5773      9.4972
  1243.7500    106.1621      0.0000    783.8883      9.5578
  1244.0000    112.3417      0.0000    783.9985      9.6330
  1244.2500    116.2865      0.0000    783.9658      9.7136
  1244.5000    118.0400      0.0000    783.7227      9.7847
  1244.7500    119.0689      0.0000    783.2535      9.8395
  1245.0000    120.7229      0.0000    782.7594      9.8858
  1245.2500    123.1313      0.0000    782.4507      9.9236
  1245.5000    125.1881      0.0000    782.3696      9.9309
  1245.7500    125.5002      0.0000    782.4053      9.8962
  1246.0000    123.6386      0.0000    782.3648      9.8463
  1246.2500    120.5806      0.0000    782.1193      9.8155
  1246.5000    117.8851      0.0000    781.7471      9.8096
  1246.7500    116.5908      0.0000    781.4474      9.8103
  1247.0000    117.0662      0.0000    781.3212      9.7949
  1247.2500    119.2829      0.0000    781.3659      9.7527
  1247.5000    122.5669      0.0000    781.5938      9.6881
  1247.7500    125.5732      0.0000    781.9844      9.6085
  1248.0000    127.2458      0.0000    782.6027      9.5123
  1248.2500    127.5672      0.0000    784.0818      9.3853
  1248.5000    126.9955      0.0000    787.4868      9.2078
  1248.7500    125.5588      0.0000    792.4398      8.9821
  1249.0000    122.9876      0.0000    796.3292      8.7514
  1249.2500    119.6066      0.0000    798.5107      8.5721
  1249.5000    116.6768      0.0000    802.0107      8.4680
  1249.7500    115.7120      0.0000    806.8752      8.4166
  1250.0000    117.5340      0.0000    809.0172      8.3709
  1250.2500    121.7956      0.0000    807.8657      8.2933
  1250.5000    127.0272      0.0000    807.1984      8.1711
  1250.7500    131.1646      0.0000    810.2546      8.0297
  1251.0000    132.5251      0.0000    818.5088      7.9514
  1251.2500    130.6535      0.0000    831.3541      7.9378
  1251.5000    126.3719      0.0000    843.9551      7.7299
  1251.7500    121.0565      0.0000    847.1872      7.1720
  1252.0000    115.7809      0.0000    837.7199      6.6008
  1252.2500    111.0270      0.0000    826.0010      6.3573
  1252.5000    107.2342      0.0000    823.1880      6.3482
  1252.7500    105.2938      0.0000    828.3188      6.3495
  1253.0000    105.8154      1.0000    833.9835      6.2890
  1253.2500    107.8943      0.0000    833.8034      6.2013
  1253.5000    109.3962      0.0000    826.5294      6.1603
  1253.7500    108.8323      0.0000    817.7228      6.2911
  1254.0000    106.5008      0.0000    810.1655      6.6514
  1254.2500    103.5900      0.0000    795.2414      7.0336
  1254.5000    100.7999      0.0000    762.7497      7.2838
  1254.7500     98.2043      0.0000    720.8948      7.6527
  1255.0000     95.8235      0.0000    699.3867      8.2767
  1255.2500     93.8352      0.0000    715.6353      8.8614
  1255.5000     92.5043      0.0000    749.5867      9.1738
  1255.7500     92.0687      0.0000    773.8148      9.2796
  1256.0000     92.4125      0.0000    783.5351      9.3217
  1256.2500     92.8888      0.0000    787.0620      9.3751
  1256.5000     92.9210      0.0000    790.7195      9.4474
  1256.7500     92.8880      0.0000    795.3441      9.5136
  1257.0000     94.0087      0.0000    797.6002      9.5601
  1257.2500     96.9562      0.0000    795.1365      9.5967
  1257.5000    100.6619      0.0000    790.3582      9.6261
  1257.7500    102.8193      0.0000    786.7712      9.6328
  1258.0000    101.7008      0.0000    785.0644      9.6139
  1258.2500     97.4249      0.0000    784.3037      9.5890
  1258.5000     91.7701      0.0000    783.8704      9.5777
  1258.7500     87.1229      0.0000    783.6707      9.5903
  1259.0000     85.3081      0.0000    783.7088      9.6293
  1259.2500     86.7327      0.0000    783.8470      9.6823
  1259.5000     90.3406      0.0000    783.9099      9.7217
  1259.7500     94.4104      0.0000    783.9004      9.7220
  1260.0000     97.4896      0.0000    783.9845      9.6769
  1260.2500     98.9124      0.0000    784.2460      9.6005
  1260.5000     98.8552      0.0000    784.5632      9.5163
  1260.7500     97.9183      0.0000    784.5264      9.4440
  1261.0000     96.5981      0.0000    782.2046      9.3942
  1261.2500     95.2887      0.0000    770.3602      9.3719
  1261.5000     94.5247      0.0000    734.1517      9.3755
  1261.7500     94.6267      0.0000    663.6095      9.3896
  1262.0000     95.1758      0.0000    575.4954      9.4008
  1262.2500     95.3120      0.0000    504.9335      9.4145
  1262.5000     94.5275      0.0000    469.0388      9.4388
  1262.7500     92.7828      0.0000    459.4886      9.4689
  1263.0000     90.0429      0.0000    467.8588      9.4867
  1263.2500     86.3117      0.0000    500.8069      9.4558
  1263.5000     82.3710      0.0000    567.2456      9.3297
  1263.7500     80.0840      0.0000    654.1125      9.0758
  1264.0000     81.5056      0.0000    729.6736      8.6862
  1264.2500     87.3102      0.0000    774.8574      8.1931
  1264.5000     95.8135      0.0000    795.3572      7.6872
  1264.7500    103.6902      0.0000    809.0193      7.2770
  1265.0000    108.1515      0.0000    832.0824      7.0140
  1265.2500    108.6216      0.0000    865.9755      6.8704
  1265.5000    106.4122      0.0000    896.6360      6.7830
  1265.7500    103.3404      0.0000    913.0700      6.7104
  1266.0000    100.9313      0.0000    914.4413      6.6567
  1266.2500    100.2107      0.0000    900.1803      6.6600
  1266.5000    101.4274      0.0000    873.7219      6.7665
  1266.7500    104.1208      0.0000    847.7945      7.0004
  1267.0000    107.9510      0.0000    829.4033      7.3504
  1267.2500    113.1810      0.0000    807.6674      7.7831
  1267.5000    119.7324      0.0000    760.6603      8.2523
  1267.7500    126.0411      0.0000    676.6674      8.6904
  1268.0000    129.7020      0.0000    574.4789      9.0204
  1268.2500    129.3256      0.0000    490.0779      9.2065
  1268.5000    125.3301      0.0000    440.9939      9.2761
  1268.7500    119.1652      0.0000    419.6587      9.2849
  1269.0000    112.5134      0.0000    412.5512      9.2753
  1269.2500    107.1171      0.0000    411.8927      9.2689
  1269.5000    104.3033      0.0000    415.9797      9.2865
  1269.7500    104.0371      0.0000    424.8622      9.3518
  1270.0000    104.8971      0.0000    435.2908      9.4589
  1270.2500    105.4958      0.0000    441.4473      9.5667
  1270.5000    105.7026      0.0000    441.8054      9.6436
  1270.7500    106.2859      0.0000    441.6532      9.6870
  1271.0000    107.7116      0.0000    447.2144      9.7035
  1271.2500    109.6711      0.0000    463.9622      9.7002
  1271.5000    111.5638      0.0000    503.2007      9.6881
  1271.7500    112.9139      0.0000    574.1590      9.6784
  1272.0000    113.2551      0.0000    660.6828      9.6731
  1272.2500    112.1408      0.0000    727.7151      9.6648
  1272.5000    109.4648      0.0000    759.3478      9.6473
  1272.7500    105.5809      0.0000    768.8394      9.6196
