~Version Information
VERS.                      2.0: CWLS Log ASCII Standard - VERSION 2.0
WRAP.                       NO: One line per depth step
~Well Information Block
STRT.FT                 0.0000: 
STOP.FT              1201.0000: 
STEP.FT                 0.2500: 
NULL.                -999.2500: 
COMP.          Pioneer Natural Resources: COMPANY
WELL.             Margaux 11-1: WELL
FLD.           Purgatoire River: FIELD
LOC.           1154' FNL & 472' FWL --------: LOCATION
PROV.                 Colorado: PROVINCE
CNTY.               Las Animas: COUNTRY
SRVC.                         : SERVICE COMPANY
DATE.          Thu Jan 05 11:16:55 2006: LOG DATE
UWI.                          : UNIQUE WELL ID
~Curve Information Block
DEPT.FT            0 000 00 00: Depth
CCL.                          : Casing Collar Locator
TT3.usec                      : CBL 3' Travel Time
AMP3.mV                       : CBL 3' Amplitude
AMP5.mV                       : CBL 5' Amplitude
GR.GAPI                       : Gamma Ray
~Parameter Information Block
~A  Depth       CCL         TT3         AMP3        AMP5         GR     
# ...
   224.0000      0.0000    762.7094      8.2879      2.7490     37.9990
   224.2500      0.0000    759.4935      8.2700      2.5958     36.5784
   224.5000      0.0000    753.4274      8.3419      2.3931     36.4969
   224.7500      0.0000    746.8151      8.5098      2.2338     38.6701
   225.0000      0.0000    742.4321      8.7447      2.1766     43.1329
   225.2500      0.0000    741.5784      8.9794      2.2100     48.7907
   225.5000      0.0000    743.4299      9.1301      2.2775     54.3249
   225.7500      0.0000    746.2097      9.1312      2.3341     59.2771
   226.0000      0.0000    748.5866      8.9597      2.3692     64.0298
   226.2500      0.0000    749.7884      8.6414      2.3853     68.8974
   226.5000      0.0000    749.0541      8.2460      2.3773     73.6802
   226.7500      0.0000    745.9405      7.8682      2.3361     78.1333
   227.0000      0.0000    741.3702      7.5951      2.2609     82.3169
   227.2500      0.0000    737.6143      7.4655      2.1664     86.1674
   227.5000      0.0000    736.6017      7.4457      2.0862     89.0465
   227.7500      0.0000    738.2617      7.4510      2.0614     90.1525
   228.0000      0.0000    740.6425      7.3986      2.1132     89.4094
   228.2500      0.0000    741.4936      7.2431      2.2274     87.7374
   228.5000      0.0000    739.7801      6.9738      2.3559     86.3281
   228.7500      0.0000    736.1428      6.6056      2.4331     85.7591
   229.0000      0.0000    732.3711      6.1919      2.4137     85.8548
   229.2500      0.0000    730.4312      5.8317      2.3043     86.1982
   229.5000      0.0000    731.7033      5.6328      2.1527     86.5619
   229.7500      0.0000    736.6333      5.6533      2.0102     86.9337
   230.0000      0.0000    744.5266      5.8698      1.9121     87.3407
   230.2500      0.0000    753.5763      6.1905      1.8788     87.6931
   230.5000      0.0000    761.5980      6.4996      1.9147     87.6817
   230.7500      0.0000    767.1679      6.7149      1.9991     86.7645
   231.0000      0.0000    770.1473      6.8276      2.0899     84.4501
   231.2500      0.0000    771.2421      6.8906      2.1497     80.8629
   231.5000      0.0000    771.2639      6.9608      2.1742     76.9828
   231.7500      0.0000    770.6404      7.0577      2.1963     74.0712
   232.0000      0.0000    769.1849      7.1742      2.2527     72.7753
   232.2500      0.0000    766.1586      7.3040      2.3424     72.9187
   232.5000      0.0000    760.8707      7.4388      2.4211     74.0421
   232.7500      0.0000    753.7309      7.5514      2.4453     75.8470
   233.0000      0.0000    746.7587      7.6018      2.4159     78.0696
   233.2500      0.0000    742.5535      7.5662      2.3624     80.2538
   233.5000      0.0000    742.3535      7.4520      2.2981     81.9073
   233.7500      0.0000    745.1160      7.2917      2.2152     82.8498
   234.0000      0.0000    748.4016      7.1228      2.1189     83.3476
   234.2500      0.0000    750.0025      6.9598      2.0388     83.9877
   234.5000      0.0000    749.1068      6.7759      2.0030     85.2547
   234.7500      0.0000    746.4209      6.5340      2.0141     87.0800
   235.0000      0.0000    743.1155      6.2502      2.0487     88.9616
   235.2500      0.0000    739.6867      6.0082      2.0731     90.4800
   235.5000      0.0000    736.2100      5.8932      2.0563     91.3791
   235.7500      0.0000    733.4636      5.9188      1.9830     91.2875
   236.0000      0.0000    733.0448      6.0165      1.8695     89.8892
   236.2500      0.0000    736.1515      6.0728      1.7604     87.4086
   236.5000      0.0000    742.2509      5.9757      1.6955     84.5821
   236.7500      0.0000    748.9099      5.6652      1.6814     82.0993
   237.0000      0.0000    753.1948      5.1695      1.6969     80.2035
   237.2500      0.0000    753.8022      4.5952      1.7206     78.8095
   237.5000      0.0000    752.2600      4.0759      1.7396     77.8416
   237.7500      0.0000    752.6605      3.7256      1.7345     77.4357
   238.0000      0.0000    760.3234      3.6174      1.6783     77.7554
   238.2500      0.0000    778.6360      3.7713      1.5645     78.5430
   238.5000      0.0000    804.3546      4.1392      1.4280     79.0921
   238.7500      0.0000    826.5555      4.6108      1.3212     78.9839
   239.0000      0.0000    833.8276      5.0566      1.2761     78.6726
   239.2500      0.0000    823.8737      5.3768      1.2937     79.1778
   239.5000      0.0000    804.3714      5.5200      1.3623     81.2047
   239.7500      0.0000    784.5575      5.4826      1.4686     84.4317
   240.0000      0.0000    768.1489      5.3108      1.5915     87.5821
   240.2500      0.0000    753.9576      5.0904      1.6949     89.3778
   240.5000      0.0000    740.3397      4.9106      1.7446     89.5983
   240.7500      0.0000    727.8917      4.8277      1.7385     89.1887
   241.0000      0.0000    719.2946      4.8564      1.7086     89.2726
   241.2500      0.0000    717.5634      4.9703      1.6898     89.9841
   241.5000      0.0000    723.6954      5.1085      1.6932     90.2081
   241.7500      0.0000    735.2574      5.2079      1.7107     88.5244
   242.0000      0.0000    747.3495      5.2443      1.7306     84.4792
   242.2500      0.0000    755.3238      5.2243      1.7441     79.1361
   242.5000      0.0000    757.2611      5.1466      1.7472     74.4846
   242.7500      0.0000    755.0095      5.0117      1.7495     72.0896
   243.0000      0.0000    753.5163      4.8756      1.7695     72.0501
   243.2500      0.0000    758.2445      4.8482      1.8120     73.2603
   243.5000      0.0000    771.5428      5.0167      1.8548     74.3858
   243.7500      0.0000    790.8370      5.3775      1.8691     74.3418
   244.0000      0.0000    810.7542      5.8430      1.8516     72.3385
   244.2500      0.0000    827.1480      6.3011      1.8309     68.1688
   244.5000      0.0000    838.9022      6.6774      1.8368     62.4499
   244.7500      0.0000    846.6038      6.9644      1.8741     56.3015
   245.0000      0.0000    851.0163      7.2023      1.9322     50.7422
   245.2500      0.0000    853.1790      7.4341      2.0077     46.3327
   245.5000      0.0000    854.6976      7.6788      2.0992     43.2101
   245.7500      0.0000    856.4428      7.9406      2.1853     41.4198
   246.0000      0.0000    857.1082      8.2244      2.2324     41.2064
   246.2500      0.0000    854.2482      8.5324      2.2269     43.0244
   246.5000      0.0000    847.1236      8.8494      2.1893     47.2825
   246.7500      0.0000    837.7272      9.1364      2.1557     53.7886
   247.0000      0.0000    828.4937      9.3411      2.1550     61.1979
   247.2500      0.0000    819.4496      9.4186      2.1937     67.5227
   247.5000      0.0000    808.4719      9.3501      2.2511     71.6927
   247.7500      0.0000    794.4904      9.1549      2.2934     74.2490
   248.0000      0.0000    779.5106      8.8922      2.3062     76.1778
   248.2500      0.0000    766.8248      8.6430      2.3152     77.6546
   248.5000      0.0000    758.0140      8.4774      2.3669     78.4354
   248.7500      0.0000    752.7183      8.4268      2.4792     78.8758
   249.0000      0.0000    750.6289      8.4815      2.6106     79.7479
   249.2500      0.0000    752.1825      8.6058      2.6889     81.1959
   249.5000      0.0000    757.3550      8.7550      2.6757     82.5234
   249.7500      0.0000    765.1417      8.8903      2.5927     83.0961
   250.0000      0.0000    774.4775      8.9894      2.4893     83.0876
   250.2500      0.0000    784.2882      9.0450      2.4029     83.2521
   250.5000      0.0000    792.1406      9.0601      2.3507     84.1163
   250.7500      0.0000    794.2638      9.0463      2.3379     85.4811
   251.0000      0.0000    788.3126      9.0211      2.3582     86.8194
   251.2500      0.0000    775.6876      8.9952      2.3954     88.2632
   251.5000      0.0000    760.4910      8.9614      2.4327     90.8861
   251.7500      0.0000    746.7264      8.8984      2.4607     95.3865
