~Version Information
VERS.                      2.0: CWLS Log ASCII Standard - VERSION 2.0
WRAP.                       NO: One line per depth step
~Well Information Block
STRT.FT               370.0000: 
STOP.FT              2831.7500: 
STEP.FT                 0.2500: 
NULL.                -999.2500: 
COMP.          Pioneer Natural Resources: COMPANY
WELL.          Black Cat 13-32: WELL
FLD.           Purgatoire River: FIELD
LOC.           1865' FSL & 1120' FWL--: LOCATION
PROV.                 Colorado: PROVINCE
CNTY.               Las Animas: COUNTRY
SRVC.                Patterson: SERVICE COMPANY
DATE.          Sun Jul 31 08:49:16 2005: LOG DATE
UWI.           05 071 08450 00: UNIQUE WELL ID
~Curve Information Block
DEPT.FT            0 000 00 00: Depth
DIR.Ohm-m                     : IEL Induction Resistivity
SN.Ohm-m                      : IEL Short Normal
SP.mV                         : IEL Spontaneous Potential
GR.GAPI                       : Gamma Ray
~Parameter Information Block
~A  Depth       DIR          SN          SP          GR     
# ...
   671.5000     15.2855   2000.0000   1966.0000    169.5105
   671.7500     15.1594   2000.0000   1966.0000    166.9143
   672.0000     15.0213   2000.0000   1966.0000    161.8944
   672.2500     14.8938   2000.0000   1966.0000    158.0741
   672.5000     14.7909   2000.0000   1966.0000    152.2976
   672.7500     14.7192   2000.0000   1966.0000    148.8916
   673.0000     14.6809   2000.0000   1966.0000    145.1533
   673.2500     14.6745   2000.0000   1966.0000    143.6340
   673.5000     14.6927   2000.0000   1966.0000    142.1930
   673.7500     14.7204   2000.0000   1966.0000    141.3745
   674.0000     14.7381   2000.0000   1966.0000    140.1805
   674.2500     14.7261   2000.0000   1966.0000    139.4562
   674.5000     14.6704   2000.0000   1966.0000    138.2185
   674.7500     14.5661   2000.0000   1966.0000    137.1011
   675.0000     14.4202   2000.0000   1966.0000    135.5644
   675.2500     14.2516   2000.0000   1966.0000    135.5775
   675.5000     14.0866   2000.0000   1966.0000    138.6801
   675.7500     13.9512   2000.0000   1966.0000    142.9213
   676.0000     13.8639   2000.0000   1966.0000    151.0483
   676.2500     13.8312   2000.0000   1966.0000    156.1768
   676.5000     13.8486   2000.0000   1966.0000    161.3294
   676.7500     13.9049   2000.0000   1966.0000    162.7458
   677.0000     13.9886   2000.0000   1966.0000    162.7549
   677.2500     14.0942   2000.0000   1966.0000    162.0501
   677.5000     14.2226   2000.0000   1966.0000    160.4765
   677.7500     14.3788   2000.0000   1966.0000    159.2495
   678.0000     14.5658   2000.0000   1966.0000    157.8966
   678.2500     14.7795   2000.0000   1966.0000    157.8114
   678.5000     15.0052   2000.0000   1966.0000    158.7730
   678.7500     15.2194   2000.0000   1966.0000    159.5137
   679.0000     15.3977   2000.0000   1966.0000    160.0294
   679.2500     15.5260   2000.0000   1966.0000    160.0985
   679.5000     15.6065   2000.0000   1966.0000    160.0997
   679.7500     15.6545   2000.0000   1966.0000    159.7470
   680.0000     15.6890   2000.0000   1966.0000    157.8436
   680.2500     15.7248   2000.0000   1966.0000    155.6030
   680.5000     15.7719   2000.0000   1966.0000    151.8380
   680.7500     15.8387   2000.0000   1966.0000    149.9223
   681.0000     15.9334   2000.0000   1966.0000    148.8741
   681.2500     16.0608   2000.0000   1966.0000    149.3909
   681.5000     16.2173   2000.0000   1966.0000    151.3275
   681.7500     16.3921   2000.0000   1966.0000    152.9039
   682.0000     16.5726   2000.0000   1966.0000    155.1137
   682.2500     16.7535   2000.0000   1966.0000    156.3341
   682.5000     16.9411   2000.0000   1966.0000    157.5452
   682.7500     17.1498   2000.0000   1966.0000    157.6578
   683.0000     17.3920   2000.0000   1966.0000    156.3822
   683.2500     17.6681   2000.0000   1966.0000    154.7543
   683.5000     17.9635   2000.0000   1966.0000    152.3069
   683.7500     18.2563   2000.0000   1966.0000    151.3983
   684.0000     18.5269   2000.0000   1966.0000    151.5391
   684.2500     18.7627   2000.0000   1966.0000    152.4538
   684.5000     18.9549   2000.0000   1966.0000    154.7240
   684.7500     19.0942   2000.0000   1966.0000    156.6573
   685.0000     19.1743   2000.0000   1966.0000    159.3271
   685.2500     19.2017   2000.0000   1966.0000    160.2456
   685.5000     19.2002   2000.0000   1966.0000    159.8840
   685.7500     19.2017   2000.0000   1966.0000    158.9280
   686.0000     19.2314   2000.0000   1966.0000    157.5209
   686.2500     19.2984   2000.0000   1966.0000    156.8849
   686.5000     19.4005   2000.0000   1966.0000    156.1753
   686.7500     19.5340   2000.0000   1966.0000    155.6595
   687.0000     19.6971   2000.0000   1966.0000    154.6264
   687.2500     19.8838   2000.0000   1966.0000    153.6017
   687.5000     20.0753   2000.0000   1966.0000    150.9541
   687.7500     20.2431   2000.0000   1966.0000    148.0314
   688.0000     20.3642   2000.0000   1966.0000    141.7001
   688.2500     20.4362   2000.0000   1966.0000    136.7451
   688.5000     20.4761   2000.0000   1966.0000    130.5134
   688.7500     20.5034   2000.0000   1966.0000    128.7030
   689.0000     20.5220   2000.0000   1966.0000    130.6743
   689.2500     20.5162   2000.0000   1966.0000    134.3824
   689.5000     20.4622   2000.0000   1966.0000    140.5609
   689.7500     20.3436   2000.0000   1966.0000    143.3967
   690.0000     20.1612   2000.0000   1966.0000    144.6168
   690.2500     19.9340   2000.0000   1966.0000    143.8913
   690.5000     19.6951   2000.0000   1966.0000    141.8100
   690.7500     19.4854   2000.0000   1966.0000    140.0245
   691.0000     19.3487   2000.0000   1966.0000    136.3084
   691.2500     19.3252   2000.0000   1966.0000    132.9467
   691.5000     19.4459   2000.0000   1966.0000    127.0497
   691.7500     19.7264   2000.0000   1966.0000    123.0228
   692.0000     20.1644   2000.0000   1966.0000    117.1309
   692.2500     20.7373   2000.0000   1966.0000    113.1126
   692.5000     21.3994   2000.0000   1966.0000    106.7282
   692.7500     22.0807   2000.0000   1966.0000    102.5359
   693.0000     22.6922   2000.0000   1966.0000     97.4234
   693.2500     23.1467   2000.0000   1966.0000     95.3031
   693.5000     23.3864   2000.0000   1966.0000     94.3705
   693.7500     23.4016   2000.0000   1966.0000     95.4668
   694.0000     23.2256   2000.0000   1966.0000    100.5517
   694.2500     22.9128   2000.0000   1966.0000    106.5341
   694.5000     22.5163   2000.0000   1966.0000    118.2309
   694.7500     22.0752   2000.0000   1966.0000    126.1659
   695.0000     21.6132   2000.0000   1966.0000    135.1718
   695.2500     21.1429   2000.0000   1966.0000    138.2003
   695.5000     20.6746   2000.0000   1966.0000    138.4255
   695.7500     20.2221   2000.0000   1966.0000    136.6973
   696.0000     19.8027   2000.0000   1966.0000    133.7550
   696.2500     19.4301   2000.0000   1966.0000    132.8655
   696.5000     19.1075   2000.0000   1966.0000    133.8469
   696.7500     18.8272   2000.0000   1966.0000    135.2180
   697.0000     18.5770   2000.0000   1966.0000    135.9849
   697.2500     18.3480   2000.0000   1966.0000    134.9401
   697.5000     18.1402   2000.0000   1966.0000    132.1074
   697.7500     17.9645   2000.0000   1966.0000    130.6400
   698.0000     17.8380   2000.0000   1966.0000    130.1608
   698.2500     17.7761   2000.0000   1966.0000    130.5264
   698.5000     17.7841   2000.0000   1966.0000    130.6328
   698.7500     17.8553   2000.0000   1966.0000    130.1357
   699.0000     17.9751   2000.0000   1966.0000    129.4622
   699.2500     18.1276   2000.0000   1966.0000    129.7067
   699.5000     18.3000   2000.0000   1966.0000    131.0502
   699.7500     18.4788   2000.0000   1966.0000    131.9320
   700.0000     18.6422   2000.0000   1966.0000    132.2549
   700.2500     18.7518   2000.0000   1966.0000    131.7970
   700.5000     18.7534   2000.0000   1966.0000    130.8350
   700.7500     18.5929   2000.0000   1966.0000    130.5323
   701.0000     18.2443   2000.0000   1966.0000    131.3598
   701.2500     17.7302   2000.0000   1966.0000    133.0712
   701.5000     17.1180   2000.0000   1966.0000    137.2972
   701.7500     16.4927   2000.0000   1966.0000    140.7453
   702.0000     15.9280   2000.0000   1966.0000    145.8628
   702.2500     15.4708   2000.0000   1966.0000    148.9776
   702.5000     15.1398   2000.0000   1966.0000    153.2720
   702.7500     14.9317   2000.0000   1966.0000    155.7205
   703.0000     14.8310   2000.0000   1966.0000    157.7134
   703.2500     14.8207   2000.0000   1966.0000    157.3453
   703.5000     14.8889   2000.0000   1966.0000    154.3954
   703.7500     15.0291   2000.0000   1966.0000    151.4856
   704.0000     15.2343   2000.0000   1966.0000    146.8293
   704.2500     15.4905   2000.0000   1966.0000    144.0052
   704.5000     15.7758   2000.0000   1966.0000    141.0151
   704.7500     16.0674   2000.0000   1966.0000    140.3167
