~Version Information
VERS.                      2.0: CWLS Log ASCII Standard - VERSION 2.0
WRAP.                       NO: One line per depth step
~Well Information Block
STRT.FT                -7.0000: 
STOP.FT              1155.0000: 
STEP.FT                 0.2500: 
NULL.                -999.2500: 
COMP.          Pioneer Natural Resources: COMPANY
WELL.          Whitecoat 14-36: WELL
FLD.           Purgatorie River: FIELD
LOC.           606' FSL & 260' FWL--: LOCATION
PROV.                       CO: PROVINCE
CNTY.               Las Animas: COUNTRY
SRVC.          Patterson Wireline: SERVICE COMPANY
DATE.          Mon Dec 12 12:56:49 2005: LOG DATE
UWI.           08 071 08593 00: UNIQUE WELL ID
~Curve Information Block
DEPT.FT            0 000 00 00: Depth
CCL.                          : Casing Collar Locator
TT3.usec                      : CBL 3' Travel Time
AMP3.mV                       : CBL 3' Amplitude
GR.GAPI                       : Gamma Ray
~Parameter Information Block
~A  Depth       CCL         TT3         AMP3         GR     
# ...
   462.0000      0.0000    695.0942      7.6070    127.5689
   462.2500      0.0000    695.1024      7.5114    132.6721
   462.5000      0.0000    695.0641      7.4513    136.3406
   462.7500      0.0000    694.9680      7.4338    136.5185
   463.0000      0.0000    694.8292      7.4464    132.9927
   463.2500      0.0000    694.6715      7.4690    127.5367
   463.5000      0.0000    694.5113      7.4899    122.2960
   463.7500      0.0000    694.3538      7.5114    118.2194
   464.0000      0.0000    694.1925      7.5403    114.9127
   464.2500      0.0000    694.0130      7.5786    111.7821
   464.5000      0.0000    693.8029      7.6253    109.1065
   464.7500      0.0000    693.5637      7.6800    107.7185
   465.0000      0.0000    693.3148      7.7426    107.7683
   465.2500      0.0000    693.0987      7.8087    108.2965
   465.5000      0.0000    692.9813      7.8685    108.1248
   465.7500      0.0000    693.0663      7.9078    106.8954
   466.0000      0.0000    693.5236      7.9140    105.2250
   466.2500      0.0000    694.6252      7.8849    104.1932
   466.5000      0.0000    696.6472      7.8290    104.9893
   466.7500      0.0000    699.4722      7.7505    108.8889
   467.0000      0.0000    702.1786      7.6371    116.7431
   467.2500      0.0000    703.3834      7.4728    127.7054
   467.5000      0.0000    702.4073      7.2616    138.6915
   467.7500      0.0000    699.9720      7.0358    146.2295
   468.0000      0.0000    697.4915      6.8411    149.5613
   468.2500      0.0000    695.8660      6.7105    151.3905
   468.5000      0.0000    695.1180      6.6473    154.9686
   468.7500      0.0000    694.8600      6.6285    160.8304
   469.0000      0.0000    694.7806      6.6226    166.7282
   469.2500      0.0000    694.7654      6.6083    170.0526
   469.5000      0.0000    694.7999      6.5804    169.8219
   469.7500      0.0000    694.8721      6.5416    167.0156
   470.0000      0.0000    694.9399      6.4933    163.6828
   470.2500      0.0000    694.9559      6.4406    161.5461
   470.5000      0.0000    694.9012      6.3988    161.2906
   470.7500      0.0000    694.8033      6.3849    162.8923
   471.0000      0.0000    694.7191      6.4010    165.8678
   471.2500      0.0000    694.6995      6.4347    169.1566
   471.5000      0.0000    694.7629      6.4746    171.7322
   471.7500      0.0000    694.8934      6.5193    173.6053
   472.0000      0.0000    695.0580      6.5686    175.5111
   472.2500      0.0000    695.2259      6.6135    177.6540
   472.5000      0.0000    695.3787      6.6375    179.4502
   472.7500      0.0000    695.5143      6.6227    180.2320
   473.0000      0.0000    695.6532      6.5569    179.6077
   473.2500      0.0000    695.8367      6.4406    177.5437
   473.5000      0.0000    696.1110      6.2903    174.8085
   473.7500      0.0000    696.4976      6.1285    173.0119
   474.0000      0.0000    696.9703      5.9621    173.5248
   474.2500      0.0000    697.4941      5.7752    176.1834
   474.5000      0.0000    698.1307      5.5497    179.0575
   474.7500      0.0000    699.1384      5.2969    179.4855
   475.0000      0.0000    700.8635      5.0601    175.6419
   475.2500      0.0000    703.3704      4.8826    167.4429
   475.5000      0.0000    706.1765      4.7756    156.2329
   475.7500      0.0000    708.8715      4.7231    144.0207
   476.0000      0.0000    712.3492      4.7115    132.8630
   476.2500      0.0000    719.0285      4.7465    124.1677
   476.5000      0.0000    731.1319      4.8412    118.1227
   476.7500      0.0000    748.3821      5.0001    114.0957
   477.0000      0.0000    766.8375      5.2160    111.8294
   477.2500      0.0000    779.6337      5.4735    111.9406
   477.5000      0.0000    780.2311      5.7547    115.0485
   477.7500      0.0000    767.0754      6.0460    120.7111
   478.0000      0.0000    745.4684      6.3361    127.5279
   478.2500      0.0000    723.9464      6.6025    133.9896
   478.5000      0.0000    708.5096      6.8071    138.9604
   478.7500      0.0000    700.1705      6.9156    141.8433
   479.0000      0.0000    696.7604      6.9233    142.9559
   479.2500      0.0000    695.7657      6.8572    143.5577
   479.5000      0.0000    695.6497      6.7581    144.8405
   479.7500      0.0000    695.7853      6.6637    146.8327
   480.0000      0.0000    695.9934      6.5997    148.6456
   480.2500      0.0000    696.2984      6.5740    149.6900
   480.5000      0.0000    696.9144      6.5774    150.0084
   480.7500      0.0000    698.3544      6.5953    149.3334
   481.0000      0.0000    701.4091      6.6208    146.7151
   481.2500      0.0000    706.8254      6.6568    141.8570
   481.5000      0.0000    715.1604      6.7067    136.2705
   481.7500      0.0000    727.3055      6.7643    131.9952
   482.0000      0.0000    744.4616      6.8118    129.2510
   482.2500      0.0000    765.6651      6.8272    126.4859
   482.5000      0.0000    784.9715      6.7965    123.1011
   482.7500      0.0000    793.8186      6.7244    121.1432
   483.0000      0.0000    788.3018      6.6327    123.7237
   483.2500      0.0000    772.8597      6.5442    132.2607
   483.5000      0.0000    755.4801      6.4663    145.4100
   483.7500      0.0000    740.9918      6.3944    159.8848
   484.0000      0.0000    730.6324      6.3294    171.8900
   484.2500      0.0000    725.4812      6.2876    178.5742
   484.5000      0.0000    726.3830      6.2882    179.1217
   484.7500      0.0000    730.8752      6.3338    174.9363
   485.0000      0.0000    733.8903      6.4046    168.6918
   485.2500      0.0000    733.5295      6.4702    162.5341
   485.5000      0.0000    734.7708      6.5062    156.7463
   485.7500      0.0000    745.4461      6.5079    150.3119
   486.0000      0.0000    768.3605      6.4929    142.6205
   486.2500      0.0000    797.8186      6.4870    134.0883
   486.5000      0.0000    823.6935      6.5035    125.4783
   486.7500      0.0000    838.4080      6.5353    117.5892
   487.0000      0.0000    840.6317      6.5629    111.7680
   487.2500      0.0000    834.4047      6.5684    109.8204
   487.5000      0.0000    826.1897      6.5460    112.7670
   487.7500      0.0000    821.1288      6.4999    119.8114
   488.0000      0.0000    819.6997      6.4349    128.7482
   488.2500      0.0000    818.2671      6.3530    137.5064
   488.5000      0.0000    814.3507      6.2613    145.3342
   488.7500      0.0000    810.3407      6.1745    152.3611
   489.0000      0.0000    810.6760      6.1033    158.1534
   489.2500      0.0000    816.9076      6.0467    161.3245
   489.5000      0.0000    827.0494      5.9984    160.6766
   489.7500      0.0000    838.2603      5.9537    156.0690
   490.0000      0.0000    848.4947      5.9101    148.1897
   490.2500      0.0000    856.4618      5.8707    138.3213
   490.5000      0.0000    861.5807      5.8500    128.3583
   490.7500      0.0000    864.0845      5.8629    120.0769
   491.0000      0.0000    864.7216      5.9049    114.1199
   491.2500      0.0000    864.1829      5.9510    110.2100
   491.5000      0.0000    862.8505      5.9779    108.4813
   491.7500      0.0000    861.0248      5.9813    110.0353
   492.0000      0.0000    859.2024      5.9696    115.6113
   492.2500      0.0000    857.6810      5.9492    123.7332
   492.5000      0.0000    855.5044      5.9214    130.5746
   492.7500      0.0000    850.2083      5.8902    132.1455
   493.0000      0.0000    839.7753      5.8643    127.0470
   493.2500      0.0000    825.5856      5.8527    117.4306
   493.5000      0.0000    812.8384      5.8604    107.5686
   493.7500      0.0000    806.7502      5.8902    101.4071
   494.0000      0.0000    807.9023      5.9452    100.7903
   494.2500      0.0000    811.7599      6.0242    105.1228
   494.5000      0.0000    812.8632      6.1163    112.1663
   494.7500      0.0000    809.2162      6.2031    119.2895
   495.0000      0.0000    802.7471      6.2681    124.8100
   495.2500      0.0000    796.2273      6.3039    128.8984
