~Version Information
VERS.                      2.0: CWLS Log ASCII Standard - VERSION 2.0
WRAP.                       NO: One line per depth step
~Well Information Block
STRT.FT               575.0000: 
STOP.FT              1558.5000: 
STEP.FT                 0.2500: 
NULL.                -999.2500: 
COMP.          Pioneer Natural Resources: COMPANY
WELL.          McClaren 13-34 Tr: WELL
FLD.           Purgatoire River: FIELD
LOC.           1934' FSL & 826' FWL: LOCATION
PROV.                 Colorado: PROVINCE
CNTY.               Las Animas: COUNTRY
SRVC.                Patterson: SERVICE COMPANY
DATE.          Mon Jul 11 20:01:13 2005: LOG DATE
UWI.           05 071 08437 00: UNIQUE WELL ID
~Curve Information Block
DEPT.FT            0 000 00 00: Depth
SN.Ohm-m                      : IEL Short Normal
SP.mV                         : IEL Spontaneous Potential
DIR.Ohm-m                     : IEL Induction Resistivity
GR.GAPI                       : Gamma Ray
~Parameter Information Block
~A  Depth        SN          SP         DIR          GR     
# ...
  1379.0000     38.8002    144.5258     31.6496     56.9734
  1379.2500     38.7674    145.2280     31.9617     59.7096
  1379.5000     38.5523    145.8934     32.3767     63.7637
  1379.7500     38.2455    146.4827     32.9038     65.7756
  1380.0000     38.0237    146.9659     33.4792     66.6035
  1380.2500     38.0511    147.3260     33.9889     65.1720
  1380.5000     38.3569    147.5487     34.3226     60.1469
  1380.7500     38.9071    147.6205     34.4123     55.7269
  1381.0000     39.7241    147.5471     34.2250     49.6482
  1381.2500     40.7595    147.3833     33.7252     46.9582
  1381.5000     41.7953    147.2409     32.8621     45.5404
  1381.7500     42.5776    147.2546     31.6092     46.1510
  1382.0000     42.8888    147.5275     30.0179     48.9034
  1382.2500     42.5473    148.0944     28.2201     51.9253
  1382.5000     41.4514    148.9198     26.3688     58.7358
  1382.7500     39.5268    149.9149     24.5756     65.0746
  1383.0000     36.6716    150.9598     22.8925     76.8734
  1383.2500     32.8745    151.9245     21.3331     85.4545
  1383.5000     28.3455    152.6915     19.8962     97.9007
  1383.7500     23.5558    153.1820     18.5762    105.4768
  1384.0000     19.1683    153.3770     17.3652    115.8002
  1384.2500     15.7708    153.3216     16.2573    122.0997
  1384.5000     13.6061    153.1038     15.2556    130.3535
  1384.7500     12.5418    152.8203     14.3730    134.5153
  1385.0000     12.2221    152.5486     13.6225    137.7872
  1385.2500     12.2412    152.3314     13.0066    137.9692
  1385.5000     12.2925    152.1715     12.5126    136.6945
  1385.7500     12.2813    152.0353     12.1180    136.1442
  1386.0000     12.2512    151.8692     11.8001    137.4750
  1386.2500     12.2143    151.6254     11.5432    139.9997
  1386.5000     12.1633    151.2817     11.3395    145.2791
  1386.7500     12.1553    150.8464     11.1861    148.7842
  1387.0000     12.2250    150.3587     11.0818    152.2975
  1387.2500     12.3129    149.8900     11.0253    152.9130
  1387.5000     12.3707    149.5284     11.0144    151.5961
  1387.7500     12.4339    149.3390     11.0466    150.1413
  1388.0000     12.5562    149.3282     11.1182    148.9225
  1388.2500     12.7331    149.4434     11.2229    149.2579
  1388.5000     12.9214    149.6093     11.3507    150.7996
  1388.7500     13.0860    149.7698     11.4893    151.5699
  1389.0000     13.1987    149.9107     11.6276    151.1344
  1389.2500     13.2365    150.0567     11.7578    149.8982
  1389.5000     13.2042    150.2547     11.8760    147.9705
  1389.7500     13.1668    150.5531     11.9818    147.3223
  1390.0000     13.2147    150.9813     12.0802    147.3453
  1390.2500     13.3631    151.5330     12.1841    147.7003
  1390.5000     13.5519    152.1651     12.3125    148.6756
  1390.7500     13.7202    152.8159     12.4832    149.8643
  1391.0000     13.8393    153.4309     12.7038    152.5922
  1391.2500     13.9133    153.9765     12.9691    154.7506
  1391.5000     13.9668    154.4363     13.2661    157.5776
  1391.7500     14.0318    154.8012     13.5842    158.6182
  1392.0000     14.1436    155.0708     13.9206    158.3207
  1392.2500     14.3530    155.2635     14.2793    156.9289
  1392.5000     14.7084    155.4148     14.6656    153.6806
  1392.7500     15.1892    155.5553     15.0828    151.1425
  1393.0000     15.7205    155.6912     15.5359    146.9492
  1393.2500     16.2769    155.8143     16.0337    143.6357
  1393.5000     16.9251    155.9268     16.5885    137.4671
  1393.7500     17.7734    156.0483     17.2118    132.8320
  1394.0000     18.9045    156.2004     17.9114    126.6072
  1394.2500     20.3247    156.3878     18.6881    123.8867
  1394.5000     21.9519    156.5857     19.5320    122.4996
  1394.7500     23.6490    156.7428     20.4125    122.8726
  1395.0000     25.2475    156.8037     21.2656    123.5982
  1395.2500     26.6088    156.7381     21.9859    123.1144
  1395.5000     27.7117    156.5557     22.4366    119.8860
  1395.7500     28.6061    156.3049     22.4909    116.0505
  1396.0000     29.2836    156.0662     22.0939    108.5338
  1396.2500     29.6692    155.9381     21.3025    103.2230
  1396.5000     29.6597    155.9984     20.2629     97.0249
  1396.7500     29.0708    156.2442     19.1386     95.3565
  1397.0000     27.6935    156.5647     18.0467     97.6022
  1397.2500     25.5101    156.7878     17.0397    102.0458
  1397.5000     22.7941    156.7738     16.1255    111.9243
  1397.7500     20.0365    156.4816     15.2951    119.7768
  1398.0000     17.7409    155.9656     14.5404    131.8091
  1398.2500     16.1563    155.3194     13.8554    139.0553
  1398.5000     15.1717    154.6224     13.2316    147.7975
  1398.7500     14.4902    153.9232     12.6561    152.3491
  1399.0000     13.8628    153.2496     12.1170    158.4180
  1399.2500     13.1434    152.6150     11.6091    162.6436
  1399.5000     12.2540    152.0163     11.1363    169.9624
  1399.7500     11.2152    151.4353     10.7075    175.7718
  1400.0000     10.2026    150.8488     10.3307    186.0631
  1400.2500      9.4656    150.2425     10.0104    193.4627
  1400.5000      9.1407    149.6202      9.7481    202.7622
  1400.7500      9.1746    149.0046      9.5441    205.6453
  1401.0000      9.3263    148.4320      9.3984    202.6760
  1401.2500      9.2897    147.9454      9.3096    196.4734
  1401.5000      9.0074    147.5872      9.2728    185.1105
  1401.7500      8.7170    147.3850      9.2783    178.7712
  1402.0000      8.6378    147.3350      9.3120    172.4098
  1402.2500      8.8488    147.3968      9.3591    169.0082
  1402.5000      9.3709    147.5138      9.4072    162.2011
  1402.7500     10.0978    147.6443      9.4495    155.8271
  1403.0000     10.7668    147.7800      9.4850    144.7809
  1403.2500     11.1902    147.9417      9.5169    137.8775
  1403.5000     11.3545    148.1605      9.5494    129.9999
  1403.7500     11.2583    148.4554      9.5867    126.5349
  1404.0000     10.9323    148.8216      9.6334    123.2186
  1404.2500     10.6114    149.2333      9.6936    121.7339
  1404.5000     10.5869    149.6603      9.7694    120.0768
  1404.7500     10.8979    150.0847      9.8570    119.2663
  1405.0000     11.3457    150.5070      9.9464    118.5835
  1405.2500     11.7004    150.9380     10.0258    118.6072
  1405.5000     11.8243    151.3836     10.0891    119.5916
  1405.7500     11.7512    151.8369     10.1394    120.9466
  1406.0000     11.6111    152.2839     10.1860    123.8151
  1406.2500     11.4654    152.7142     10.2399    125.8981
  1406.5000     11.3300    153.1277     10.3093    128.2806
  1406.7500     11.2595    153.5287     10.3970    128.8481
  1407.0000     11.2844    153.9167     10.4979    128.0457
  1407.2500     11.3372    154.2836     10.5986    126.9284
  1407.5000     11.3144    154.6235     10.6820    125.6831
  1407.7500     11.2062    154.9447     10.7365    125.6564
  1408.0000     11.1020    155.2699     10.7635    126.9548
  1408.2500     11.0802    155.6246     10.7780    128.4301
  1408.5000     11.1666    156.0227     10.8036    130.6546
  1408.7500     11.3660    156.4578     10.8655    131.5596
  1409.0000     11.6639    156.9014     10.9868    131.5158
  1409.2500     12.0198    157.3116     11.1870    130.7428
  1409.5000     12.3759    157.6505     11.4822    129.4792
  1409.7500     12.6554    157.9015     11.8834    129.1472
  1410.0000     12.8335    158.0823     12.3916    129.5830
  1410.2500     13.0338    158.2465     12.9899    129.9530
  1410.5000     13.4188    158.4677     13.6406    129.0961
  1410.7500     14.0327    158.8043     14.2963    126.9309
  1411.0000     14.8808    159.2594     14.9234    121.5395
  1411.2500     15.9899    159.7564     15.5247    117.5261
  1411.5000     17.3510    160.1507     16.1435    113.1519
  1411.7500     19.0067    160.2895     16.8504    112.1970
  1412.0000     21.1024    160.0898     17.7249    113.5031
  1412.2500     23.7206    159.5789     18.8396    115.2546
