~Version Information
VERS.                      2.0: CWLS Log ASCII Standard - VERSION 2.0
WRAP.                       NO: One line per depth step
~Well Information Block
STRT.FT               245.0000: 
STOP.FT              1102.5000: 
STEP.FT                 0.1000: 
NULL.                -999.2500: 
COMP.          Pioneer Natural Resources: COMPANY
WELL.           Pavilion 44-25: WELL
FLD.           Purgatoire River: FIELD
LOC.           719' FSL & 650' FEL: LOCATION
PROV.                 Colorado: PROVINCE
CNTY.               Las Animas: COUNTRY
SRVC.                Patterson: SERVICE COMPANY
DATE.          Wed Dec 14 09:57:07 2005: LOG DATE
UWI.           05 071 08624 00: UNIQUE WELL ID
~Curve Information Block
DEPT.FT            0 000 00 00: Depth
DCAL.in                       : CDL Caliper
RHOB.g/cc                     : CDL Bulk Density
RHOC.g/cc                     : CDL Density Correction
DPOR.pu                       : CDL Density Porosity
GR.GAPI                       : Gamma Ray
NPOR.pu                       : Neutron Porosity
~Parameter Information Block
~A  Depth       DCAL        RHOB        RHOC        DPOR         GR         NPOR    
# ...
   360.2000      8.0018      2.6527     -0.0046     -0.1615     57.9610     21.9533
   360.3000      7.9970      2.6206     -0.0180      1.7846     55.7315     21.7513
   360.4000      7.9970      2.6164     -0.0130      2.0394     51.9608     21.0560
   360.5000      7.9886      2.6305      0.0406      1.1844     50.1775     19.8763
   360.6000      7.9886      2.6499      0.0285      0.0079     51.0411     18.7544
   360.7000      7.9886      2.6666      0.0913     -1.0089     52.0970     17.8226
   360.8000      7.9903      2.6718      0.1016     -1.3216     51.3698     17.1918
   360.9000      7.9903      2.6631      0.1393     -0.7915     53.1461     17.3368
   361.0000      7.9977      2.6479      0.0913      0.1301     59.6836     18.0672
   361.1000      7.9977      2.6359      0.1199      0.8520     65.7524     18.5838
   361.2000      7.9977      2.6307      0.0753      1.1703     67.6246     18.6612
   361.3000      8.0035      2.6303      0.0766      1.1952     69.4419     18.6882
   361.4000      8.0035      2.6314      0.0388      1.1297     75.2966     18.8206
   361.5000      8.0286      2.6255      0.1050      1.4861     83.0874     18.8636
   361.6000      8.0286      2.6082      0.0870      2.5346     90.2129     19.0352
   361.7000      8.0286      2.5883      0.0995      3.7391     95.2477     19.8462
   361.8000      8.0246      2.5718      0.0715      4.7368     97.8409     21.3793
   361.9000      8.0246      2.5559      0.0640      5.7035     98.4251     22.9594
   362.0000      8.0378      2.5373      0.0546      6.8278     96.6948     23.8223
   362.1000      8.0378      2.5206     -0.0142      7.8431     95.7239     23.8827
   362.2000      8.0378      2.5121      0.0157      8.3598     98.4492     23.4406
   362.3000      8.0420      2.5078     -0.0029      8.6196    103.0816     22.7958
   362.4000      8.0420      2.5060     -0.0220      8.7247    107.0256     22.2564
   362.5000      8.0427      2.5154     -0.0043      8.1581    110.6954     22.1760
   362.6000      8.0427      2.5378      0.0264      6.8027    114.3956     22.2951
   362.7000      8.0427      2.5630      0.0319      5.2723    116.9505     22.0352
   362.8000      8.0397      2.5773      0.0841      4.4051    118.1314     22.0337
   362.9000      8.0397      2.5744      0.0979      4.5818    118.9485     22.9235
   363.0000      8.0305      2.5681      0.0617      4.9666    120.0600     24.0787
   363.1000      8.0305      2.5712      0.0856      4.7784    122.8057     24.9650
   363.2000      8.0305      2.5770      0.0832      4.4253    128.9204     25.6357
   363.3000      8.0515      2.5809      0.0753      4.1856    137.9292     26.3156
   363.4000      8.0515      2.5820      0.1109      4.1240    146.6701     27.0138
   363.5000      8.0720      2.5740      0.0835      4.6065    153.9573     27.2356
   363.6000      8.0720      2.5558      0.0622      5.7092    161.5119     26.8965
   363.7000      8.0720      2.5354      0.0412      6.9472    166.9474     26.4328
   363.8000      8.0746      2.5228      0.0680      7.7092    166.6768     26.1347
   363.9000      8.0746      2.5187      0.0596      7.9572    162.8139     26.0384
   364.0000      8.0742      2.5212      0.0252      7.8059    157.9978     26.2829
   364.1000      8.0742      2.5335      0.0428      7.0622    156.7150     26.9280
   364.2000      8.0742      2.5502      0.0436      6.0478    162.7505     27.3622
   364.3000      8.0750      2.5590      0.0528      5.5172    170.2835     27.1188
   364.4000      8.0750      2.5526      0.0492      5.9007    170.7424     26.5212
   364.5000      8.0752      2.5370      0.0088      6.8499    162.8979     25.9550
   364.6000      8.0752      2.5291      0.0144      7.3263    152.8918     25.5547
   364.7000      8.0752      2.5358      0.0175      6.9196    146.3028     25.6745
   364.8000      8.0753      2.5444      0.0317      6.3978    144.4364     26.2591
   364.9000      8.0753      2.5445      0.0035      6.3915    146.7647     26.4116
   365.0000      8.0740      2.5396      0.0032      6.6909    151.6921     25.7082
   365.1000      8.0740      2.5359      0.0187      6.9174    153.7848     24.8165
   365.2000      8.0740      2.5402      0.0019      6.6561    146.0391     24.7774
   365.3000      8.0733      2.5587      0.0127      5.5313    133.0367     25.5846
   365.4000      8.0733      2.5852      0.0176      3.9288    123.9945     26.0597
   365.5000      8.0740      2.6010      0.0360      2.9691    121.4941     25.9280
   365.6000      8.0740      2.5946      0.0057      3.3587    124.7355     25.4056
   365.7000      8.0740      2.5762      0.0018      4.4706    129.1752     24.4742
   365.8000      8.0731      2.5642     -0.0149      5.1972    128.4489     23.6973
   365.9000      8.0731      2.5613      0.0219      5.3768    123.1365     23.3171
   366.0000      8.0742      2.5519      0.0422      5.9439    119.5847     23.1142
   366.1000      8.0742      2.5316     -0.0026      7.1780    120.6384     23.0484
   366.2000      8.0742      2.5189     -0.0469      7.9431    122.7646     23.1696
   366.3000      8.0741      2.5271     -0.0205      7.4499    123.0593     23.5479
   366.4000      8.0741      2.5534      0.0049      5.8551    125.9008     23.9242
   366.5000      8.0725      2.5901      0.0527      3.6331    135.9448     24.3512
   366.6000      8.0725      2.6203      0.0567      1.8011    146.4473     25.3070
   366.7000      8.0725      2.6263      0.0616      1.4391    149.4460     26.4683
   366.8000      8.0719      2.6091      0.0385      2.4801    146.9682     27.0213
   366.9000      8.0719      2.5872      0.0221      3.8063    143.8753     27.0412
   367.0000      8.0741      2.5693      0.0255      4.8894    143.2647     26.7567
   367.1000      8.0741      2.5496      0.0142      6.0823    144.7051     25.9086
   367.2000      8.0741      2.5293     -0.0086      7.3156    144.7104     24.9031
   367.3000      8.0747      2.5147      0.0028      8.1999    141.6360     24.3039
   367.4000      8.0747      2.5052     -0.0327      8.7777    134.8165     23.7789
   367.5000      8.0723      2.4978     -0.0333      9.2224    123.7983     22.8277
   367.6000      8.0723      2.4977     -0.0306      9.2332    112.0322     21.9966
   367.7000      8.0723      2.5144     -0.0164      8.2183    103.2658     21.8815
   367.8000      8.0741      2.5394      0.0529      6.7038     95.7274     21.8088
   367.9000      8.0741      2.5461      0.0463      6.2973     87.1526     20.9296
   368.0000      8.0716      2.5250      0.0016      7.5746     80.5436     19.7930
   368.1000      8.0716      2.4942     -0.0073      9.4446     79.8164     19.4074
   368.2000      8.0716      2.4780     -0.0058     10.4217     82.3414     19.6766
   368.3000      8.0698      2.4815      0.0163     10.2132     81.8193     19.7147
   368.4000      8.0698      2.4882      0.0337      9.8068     76.6869     18.9633
   368.5000      8.0727      2.4890     -0.0030      9.7578     70.9162     18.0519
   368.6000      8.0727      2.4917      0.0262      9.5934     68.6462     17.7336
   368.7000      8.0727      2.5079     -0.0106      8.6144     70.1729     17.8372
   368.8000      8.0732      2.5347      0.0334      6.9878     73.2620     17.9995
   368.9000      8.0732      2.5464      0.0783      6.2762     77.0586     18.3361
   369.0000      8.0739      2.5315      0.0214      7.1835     81.3102     19.0489
   369.1000      8.0739      2.5111      0.0156      8.4188     85.1449     19.7721
   369.2000      8.0739      2.5051      0.0152      8.7798     88.3068     19.9578
   369.3000      8.0748      2.5133      0.0193      8.2826     92.4911     19.6897
   369.4000      8.0748      2.5250      0.0493      7.5776     96.5015     19.1677
   369.5000      8.0760      2.5318      0.0662      7.1629     96.0252     18.7250
   369.6000      8.0760      2.5346      0.0572      6.9911     91.8133     19.0315
   369.7000      8.0760      2.5353      0.0444      6.9525     87.5771     19.7698
