~Version Information
VERS.                      2.0: CWLS Log ASCII Standard - VERSION 2.0
WRAP.                       NO: One line per depth step
~Well Information Block
STRT.FT               545.0000: 
STOP.FT              2200.7000: 
STEP.FT                 0.1000: 
NULL.                -999.2500: 
COMP.          Pioneer Natural Resources: COMPANY
WELL.               Erin 21-15: WELL
FLD.           Purgatoire River: FIELD
LOC.           1217' FNL & 2284' FWL--: LOCATION
CNTY.               Las Animas: COUNTY
SRVC.                Patterson: SERVICE COMPANY
DATE.          Thu Mar 02 09:55:43 2006: LOG DATE
UWI.           05 071 08713 00: UNIQUE WELL ID
STAT.                 Colorado: STATE
~Curve Information Block
DEPT.FT            0 000 00 00: Depth
DCAL.in                       : CDL Caliper
RHOB.g/cc                     : CDL Bulk Density
RHOC.g/cc                     : CDL Density Correction
DPOR.pu                       : CDL Density Porosity
NPOR.pu                       : Neutron Porosity
GR.GAPI                       : Gamma Ray
~Parameter Information Block
~A  Depth       DCAL        RHOB        RHOC        DPOR        NPOR         GR     
# ...
  1082.6000      8.0377      2.4403      0.0083     12.7070     27.5059    100.9928
  1082.7000      8.0377      2.4044      0.0293     14.8819     28.2305     97.3195
  1082.8000      8.0343      2.3718     -0.0419     16.8635     28.6448     94.8817
  1082.9000      8.0343      2.3481      0.0042     18.2964     28.8592     95.5750
  1083.0000      8.0318      2.3386     -0.0166     18.8741     29.3317     97.8788
  1083.1000      8.0318      2.3404      0.0125     18.7663     29.9687    100.3572
  1083.2000      8.0318      2.3420      0.0378     18.6639     30.4033    101.4678
  1083.3000      8.0326      2.3264      0.0592     19.6122     30.6679     98.7124
  1083.4000      8.0326      2.2788      0.0828     22.4980     31.0124     93.4720
  1083.5000      8.0344      2.2020      0.0817     27.1525     31.4357     91.1057
  1083.6000      8.0344      2.1171      0.0459     32.2952     31.9563     95.1020
  1083.7000      8.0344      2.0440      0.0100     36.7292     32.5517    102.8161
  1083.8000      8.0337      1.9872      0.0193     40.1686     32.8322    108.5298
  1083.9000      8.0337      1.9390      0.0003     43.0934     32.5892    110.5234
  1084.0000      8.0321      1.8897     -0.0032     46.0761     32.1256    109.6484
  1084.1000      8.0321      1.8430     -0.0276     48.9117     31.7455    106.1096
  1084.2000      8.0321      1.8207     -0.0214     50.2624     31.4075    100.9357
  1084.3000      8.0322      1.8453     -0.0028     48.7699     30.9666     94.4317
  1084.4000      8.0322      1.9129      0.0915     44.6743     30.3572     88.5776
  1084.5000      8.0315      1.9993      0.1112     39.4339     29.5657     86.0437
  1084.6000      8.0315      2.0909      0.1448     33.8869     28.4485     83.6825
  1084.7000      8.0315      2.1786      0.2076     28.5714     26.8586     79.3949
  1084.8000      8.0239      2.2489      0.1872     24.3094     25.4468     77.1090
  1084.9000      8.0239      2.3102      0.1391     20.5961     24.9683     79.8702
  1085.0000      8.0142      2.3845      0.1709     16.0881     24.8769     84.9373
  1085.1000      8.0142      2.4631      0.2071     11.3247     24.3653     86.2367
  1085.2000      8.0142      2.5117      0.1863      8.3831     23.7250     82.8079
  1085.3000      8.0119      2.5224      0.0944      7.7349     23.5247     79.3741
  1085.4000      8.0119      2.5198      0.0167      7.8906     23.7764     78.7917
  1085.5000      8.0133      2.5153      0.0359      8.1631     23.9690     81.5840
  1085.6000      8.0133      2.5058     -0.0188      8.7378     23.7164     86.4625
  1085.7000      8.0133      2.5015      0.0342      8.9976     23.3958     92.2778
  1085.8000      8.0116      2.5126      0.0148      8.3255     23.3066     99.0066
  1085.9000      8.0116      2.5270      0.0735      7.4564     23.1617    106.6082
  1086.0000      8.0069      2.5246      0.0416      7.5994     22.8445    114.4620
  1086.1000      8.0069      2.5123     -0.0032      8.3471     22.6694    118.8897
  1086.2000      8.0069      2.5133      0.0220      8.2865     22.9584    118.4558
  1086.3000      8.0009      2.5374      0.0026      6.8220     23.3431    116.1371
  1086.4000      8.0009      2.5718      0.0813      4.7373     23.3462    114.3993
  1086.5000      7.9941      2.5873      0.0666      3.7985     23.1608    114.7834
  1086.6000      7.9941      2.5763      0.0624      4.4673     22.7751    115.0852
  1086.7000      7.9941      2.5687     -0.0332      4.9289     21.9503    113.2160
  1086.8000      7.9931      2.5881      0.0825      3.7517     21.1507    111.7358
  1086.9000      7.9931      2.6136      0.0887      2.2070     20.9617    111.6440
  1087.0000      7.9998      2.6138      0.0988      2.1953     21.0581    112.6239
  1087.1000      7.9998      2.5886      0.0255      3.7201     21.0986    114.3574
  1087.2000      7.9998      2.5624      0.0036      5.3090     21.2619    114.5112
  1087.3000      8.0067      2.5551     -0.0238      5.7526     21.4097    109.6916
  1087.4000      8.0067      2.5685     -0.0004      4.9374     21.2391    100.5533
  1087.5000      8.0102      2.5887      0.0036      3.7156     20.8526     94.1628
  1087.6000      8.0102      2.6015      0.0199      2.9393     20.3923     93.1973
  1087.7000      8.0102      2.6048      0.0587      2.7384     20.0147     92.7484
  1087.8000      8.0111      2.5988      0.0733      3.1052     20.0099     89.2478
  1087.9000      8.0111      2.5860      0.0117      3.8772     20.4098     83.2638
  1088.0000      8.0103      2.5707      0.0010      4.8060     21.1367     79.8838
  1088.1000      8.0103      2.5483      0.0214      6.1648     22.1330     84.8839
  1088.2000      8.0103      2.5231     -0.0310      7.6897     23.0251     96.0207
  1088.3000      8.0098      2.5152     -0.0302      8.1717     23.5637    104.2471
  1088.4000      8.0098      2.5303      0.0025      7.2517     23.8825    105.7634
  1088.5000      8.0105      2.5464      0.0270      6.2783     24.1949    110.5979
  1088.6000      8.0105      2.5411      0.0168      6.6027     24.8417    122.7346
  1088.7000      8.0105      2.5197      0.0142      7.8957     25.7590    130.3351
  1088.8000      8.0104      2.5022     -0.0234      8.9553     26.3717    128.7721
  1088.9000      8.0104      2.4883      0.0063      9.7990     26.7603    125.8626
  1089.0000      8.0091      2.4644     -0.0052     11.2459     27.3808    129.9958
  1089.1000      8.0091      2.4376     -0.0173     12.8705     27.9652    142.9050
  1089.2000      8.0091      2.4259     -0.0579     13.5820     28.1068    157.6424
  1089.3000      8.0072      2.4340      0.0036     13.0888     28.0471    163.2446
  1089.4000      8.0072      2.4539      0.0203     11.8842     28.2026    155.2855
  1089.5000      8.0050      2.4801      0.0566     10.2997     28.5294    145.1941
  1089.6000      8.0050      2.5129      0.0728      8.3084     28.5527    144.2461
  1089.7000      8.0050      2.5454      0.1202      6.3418     28.0256    148.2524
  1089.8000      8.0043      2.5624      0.1397      5.3116     27.2614    149.3882
  1089.9000      8.0043      2.5552      0.1256      5.7449     26.8078    145.4025
  1090.0000      8.0055      2.5345      0.0518      7.0007     27.0054    141.2248
  1090.1000      8.0055      2.5167      0.1122      8.0761     27.5991    142.6179
  1090.2000      8.0055      2.5028      0.0594      8.9238     27.9921    146.9812
  1090.3000      8.0076      2.4895      0.0417      9.7271     28.0122    149.5294
  1090.4000      8.0076      2.4717      0.0680     10.8081     27.9367    149.7291
  1090.5000      8.0084      2.4457      0.0020     12.3816     27.9965    148.6537
  1090.6000      8.0084      2.4237     -0.0141     13.7159     27.9307    144.8286
  1090.7000      8.0084      2.4224     -0.0245     13.7966     27.4668    140.1682
  1090.8000      8.0083      2.4463      0.0071     12.3468     26.9512    143.5276
  1090.9000      8.0083      2.4818      0.0300     10.1937     26.8074    156.4394
  1091.0000      8.0087      2.5098      0.0643      8.4981     26.7190    166.2118
  1091.1000      8.0087      2.5221      0.0733      7.7493     26.3267    162.5241
  1091.2000      8.0087      2.5224      0.0795      7.7358     25.8158    151.7823
  1091.3000      8.0040      2.5186      0.0509      7.9663     25.3490    145.5109
  1091.4000      8.0040      2.5203      0.0445      7.8579     24.7354    143.4168
  1091.5000      7.9923      2.5268      0.0684      7.4680     23.7846    140.1319
  1091.6000      7.9923      2.5256      0.0807      7.5407     22.8229    135.3278
  1091.7000      7.9923      2.5214      0.0081      7.7928     22.0272    125.8372
  1091.8000      7.9833      2.5357      0.0405      6.9263     20.7483    109.2498
  1091.9000      7.9833      2.5750      0.0446      4.5474     19.0262     94.4155
  1092.0000      7.9823      2.6236      0.0898      1.5994     17.8878     90.1018
  1092.1000      7.9823      2.6648      0.0744     -0.8949     17.6598     91.7885
