~Version Information
 VERS.                                  2.0 : CWLS LAS VERSION
 WRAP.                                   NO : WRAPING MODE
 SWARE .                 MController 2.5.0J : SOFTWARE VERSION
~Well Information
 WELL.                     Surtees 23-34 Tr : WELL
 COMP.    Pioneer Natural Resources USA Inc : COMPANY
 FLD.                      Purgatoire River : FIELD
 LOC.                NE/SW Sec 34 T32S R66W : LOCATION
 DATE.                             07/26/05 : DATE(S) LOGGED
 SRVC.       BLANCO Geological Services LLC : SERVICE COMPANY
 STAT.                                   CO : STATE
 CNTY.                           Las Animas : COUNTY
 CTRY.                                  USA : COUNTRY
 API.                       05-071-08449-00 : API NUMBER
 STRT.FT                             479.00 : START DEPTH
 STOP.FT                            1500.00 : STOP DEPTH
 STEP.FT                               1.00 : DEPTH INCREMENT
 NULL.                                -9999 : NULL VALUE
~Curve information
 DEPTH.FT                                   :
 ROP.MIN/FT                                 :
 GAS.UNITS                                  :
~ASCII Log data
# ...
       879.0         0.17        597.1 
       880.0         0.17        585.7 
       881.0         0.17        575.2 
       882.0         0.17        564.1 
       883.0         0.20        554.0 
       884.0         0.23        551.1 
       885.0         0.23        545.4 
       886.0         0.17        541.6 
       887.0         0.27        537.5 
       888.0         0.17        532.7 
       889.0         0.17        531.1 
       890.0         0.20        531.8 
       891.0         0.10        534.3 
       892.0         0.27        536.8 
       893.0         0.20        536.2 
       894.0         0.10        533.4 
       895.0         0.23        532.7 
       896.0         1.25        567.3 
       897.0         0.17        620.6 
       898.0         0.33        760.9 
       899.0         0.27        825.3 
       900.0         0.20        839.3 
       901.0         0.23        823.1 
       902.0         0.20        786.0 
       903.0         0.17        740.3 
       904.0         0.20        672.1 
       905.0         0.23        636.8 
       906.0         0.18        614.0 
       907.0         0.17        594.6 
       908.0         0.20        578.4 
       909.0         0.20        565.7 
       910.0         0.17        552.7 
       911.0         0.20        544.5 
       912.0         0.20        541.0 
       913.0         0.20        535.3 
       914.0         0.27        533.4 
       915.0         0.17        532.1 
       916.0         0.20        532.7 
       917.0         0.20        532.1 
       918.0         0.17        529.5 
       919.0         0.17        527.6 
       920.0         0.17        529.5 
       921.0         0.20        527.0 
       922.0         0.17        525.4 
       923.0         0.17        526.4 
       924.0         0.22        525.1 
       925.0         0.20        521.9 
       926.0         1.80        776.2 
       927.0         0.27        881.2 
       928.0         0.23        892.0 
       929.0         0.20        880.3 
       930.0         0.20        833.9 
       931.0         0.23        781.2 
       932.0         0.25        690.1 
       933.0         0.13        634.3 
       934.0         0.10        612.7 
       935.0         0.10        605.7 
       936.0         0.17        558.7 
       937.0         0.20        555.3 
       938.0         0.17        540.3 
       939.0         0.17        542.6 
       940.0         0.13        540.0 
       941.0         0.13        538.8 
       942.0         0.13        535.3 
       943.0         0.13        530.2 
       944.0         0.10        525.1 
       945.0         0.13        517.8 
       946.0         0.13        515.9 
       947.0         0.10        508.9 
       948.0         0.13        508.0 
       949.0         0.20        508.0 
       950.0         0.17        511.1 
       951.0         0.17        518.1 
       952.0         0.20        521.0 
       953.0         0.13        521.0 
       954.0         0.15        517.5 
       955.0         0.33        512.1 
       956.0         1.33        764.1 
       957.0         0.30        822.2 
       958.0         0.20        837.7 
       959.0         0.27        833.3 
       960.0         0.33        793.6 
       961.0         0.23        704.4 
       962.0         0.35        652.1 
       963.0         0.20        598.7 
       964.0         0.17        576.2 
       965.0         0.17        573.3 
       966.0         0.17        545.4 
       967.0         0.17        534.6 
       968.0         0.20        532.1 
       969.0         0.23        528.3 
       970.0         0.27        527.6 
       971.0         0.27        528.3 
       972.0         0.20        524.5 
       973.0         0.17        520.7 
       974.0         0.13        516.5 
       975.0         0.13        510.2 
       976.0         0.13        499.1 
       977.0         0.13        494.3 
       978.0         0.17        504.8 
       979.0         0.17        509.9 
       980.0         0.18        516.9 
       981.0         0.13        523.2 
       982.0         0.20        526.1 
       983.0         0.20        527.6 
       984.0         0.13        524.2 
       985.0         0.17        520.7 
       986.0         1.63        789.2 
       987.0         0.37       1100.8 
       988.0         0.23       1145.9 
       989.0         0.22       1118.0 
       990.0         0.23       1015.5 
       991.0         0.27        886.6 
       992.0         0.27        769.5 
       993.0         0.20        693.3 
       994.0         0.20        635.2 
       995.0         0.20        611.7 
       996.0         0.20        585.7 
       997.0         0.23        569.9 
       998.0         0.20        549.9 
       999.0         0.27        535.6 
      1000.0         0.23        525.1 
      1001.0         0.23        519.4 
      1002.0         0.23        514.9 
      1003.0         0.23        511.5 
      1004.0         0.25        511.1 
      1005.0         0.17        511.1 
      1006.0         0.20        513.4 
      1007.0         0.23        519.7 
      1008.0         0.17        536.5 
      1009.0         0.17        544.8 
      1010.0         0.17        568.9 
      1011.0         0.13        578.1 
      1012.0         0.17        597.5 
      1013.0         0.13        596.5 
      1014.0         0.10        588.6 
      1015.0         0.10        580.0 
      1016.0         1.38        773.0 
      1017.0         0.27       1061.8 
      1018.0         0.33       1308.4 
      1019.0         0.20       1312.5 
      1020.0         0.13       1259.8 
      1021.0         0.17       1210.0 
      1022.0         0.10       1086.2 
      1023.0         0.17       1039.6 
      1024.0         0.20       1014.5 
      1025.0         0.17        911.4 
      1026.0         0.23        860.3 
      1027.0         0.20        816.8 
      1028.0         0.23        776.2 
      1029.0         0.20        756.5 
      1030.0         0.17        734.6 
      1031.0         0.23        723.2 
      1032.0         0.20        709.2 
      1033.0         0.18        701.3 
      1034.0         0.17        694.9 
      1035.0         0.20        691.7 
      1036.0         0.17        689.5 
      1037.0         0.20        687.3 
      1038.0         0.17        684.4 
      1039.0         0.20        684.1 
      1040.0         0.17        685.4 
      1041.0         0.13        684.1 
      1042.0         0.17        684.7 
      1043.0         0.17        682.2 
      1044.0         0.17        683.2 
      1045.0         0.20        680.6 
      1046.0         5.33       1230.3 
      1047.0         0.27        685.4 
      1048.0         0.27        713.0 
      1049.0         0.23        765.7 
      1050.0         0.27        803.8 
      1051.0         0.23        821.2 
      1052.0         0.27        841.9 
      1053.0         0.23        849.2 
      1054.0         0.20        847.9 
      1055.0         0.23        841.2 
      1056.0         0.28        825.0 
      1057.0         0.23        808.8 
      1058.0         0.23        789.2 
      1059.0         0.23        764.1 
      1060.0         0.20        743.8 
      1061.0         0.20        729.2 
      1062.0         0.23        717.8 
      1063.0         0.17        710.8 
      1064.0         0.13        707.0 
      1065.0         0.10        704.1 
      1066.0         0.10        687.0 
      1067.0         0.10        681.6 
      1068.0         0.10        670.5 
      1069.0         0.10        663.5 
      1070.0         0.10        657.1 
      1071.0         0.10        654.3 
      1072.0         0.10        646.3 
      1073.0         0.10        644.4 
      1074.0         0.07        645.7 
      1075.0         0.27        659.0 
      1076.0         3.52       1490.9 
      1077.0         0.42       1065.0 
      1078.0         0.13        959.0 
