~Version Information
VERS.                      2.0: CWLS Log ASCII Standard - VERSION 2.0
WRAP.                       NO: One line per depth step
~Well Information Block
STRT.FT               550.0000: 
STOP.FT              1500.5000: 
STEP.FT                 0.2500: 
NULL.                -999.2500: 
COMP.          Pioneer Natural Resources: COMPANY
WELL.          Surtees 23-34 Tr: WELL
FLD.           Purgatoire River: FIELD
LOC.           1559' FSL & 1997' FWL: LOCATION
PROV.                 Colorado: PROVINCE
CNTY.               Las Animas: COUNTRY
SRVC.                Patterson: SERVICE COMPANY
DATE.          Tue Jul 26 23:47:42 2005: LOG DATE
UWI.           05 071 08449 00: UNIQUE WELL ID
~Curve Information Block
DEPT.FT            0 000 00 00: Depth
SN.Ohm-m                      : IEL Short Normal
SP.mV                         : IEL Spontaneous Potential
DIR.Ohm-m                     : IEL Induction Resistivity
GR.GAPI                       : Gamma Ray
~Parameter Information Block
~A  Depth        SN          SP         DIR          GR     
# ...
   684.0000   2000.0000   2000.0000      8.2516    147.7807
   684.2500   2000.0000   2000.0000      8.4493    148.7452
   684.5000   2000.0000   2000.0000      8.6516    149.3773
   684.7500   2000.0000   2000.0000      8.8588    148.8709
   685.0000   2000.0000   2000.0000      9.0742    146.0552
   685.2500   2000.0000   2000.0000      9.3045    142.8909
   685.5000   2000.0000   2000.0000      9.5604    137.4006
   685.7500   2000.0000   2000.0000      9.8556    134.2372
   686.0000   2000.0000   2000.0000     10.2061    131.5872
   686.2500   2000.0000   2000.0000     10.6266    131.3355
   686.5000   2000.0000   2000.0000     11.1279    131.8706
   686.7500   2000.0000   2000.0000     11.7141    131.4731
   687.0000   2000.0000   2000.0000     12.3804    127.8836
   687.2500   2000.0000   2000.0000     13.1126    123.2882
   687.5000   2000.0000   2000.0000     13.8870    114.2035
   687.7500   2000.0000   2000.0000     14.6738    107.8107
   688.0000   2000.0000   2000.0000     15.4470     99.6789
   688.2500   2000.0000   2000.0000     16.2008     96.0107
   688.5000   2000.0000   2000.0000     16.9606     93.4518
   688.7500   2000.0000   2000.0000     17.7773     93.4732
   689.0000   2000.0000   2000.0000     18.7074     95.6230
   689.2500   2000.0000   2000.0000     19.7949     98.1543
   689.5000   2000.0000   2000.0000     21.0554    102.4752
   689.7500   2000.0000   2000.0000     22.4590    104.7776
   690.0000   2000.0000   2000.0000     23.9160    106.4493
   690.2500   2000.0000   2000.0000     25.2878    106.6865
   690.5000   2000.0000   2000.0000     26.4396    107.0001
   690.7500   2000.0000   2000.0000     27.3033    107.5829
   691.0000   2000.0000   2000.0000     27.8962    108.7015
   691.2500   2000.0000   2000.0000     28.2881    109.2452
   691.5000   2000.0000   2000.0000     28.5587    109.4720
   691.7500   2000.0000   2000.0000     28.7724    109.2373
   692.0000   2000.0000   2000.0000     28.9581    108.4540
   692.2500   2000.0000   2000.0000     29.0955    107.8679
   692.5000   2000.0000   2000.0000     29.1262    107.4079
   692.7500   2000.0000   2000.0000     29.0029    107.4666
   693.0000   2000.0000   2000.0000     28.7429    107.5345
   693.2500   2000.0000   2000.0000     28.4352    107.0444
   693.5000   2000.0000   2000.0000     28.1867    105.0737
   693.7500   2000.0000   2000.0000     28.0502    103.1569
   694.0000   2000.0000   2000.0000     27.9877    100.3401
   694.2500   2000.0000   2000.0000     27.8977     99.1359
   694.5000   2000.0000   2000.0000     27.6823     99.0964
   694.7500   2000.0000   2000.0000     27.3040    100.3784
   695.0000   2000.0000   2000.0000     26.7884    104.0442
   695.2500   2000.0000   2000.0000     26.1981    107.3521
   695.5000   2000.0000   2000.0000     25.6145    112.9367
   695.7500   2000.0000   2000.0000     25.1266    116.7751
   696.0000   2000.0000   2000.0000     24.8022    122.7611
   696.2500   2000.0000   2000.0000     24.6491    127.1274
   696.5000   2000.0000   2000.0000     24.5976    134.1457
   696.7500   2000.0000   2000.0000     24.5290    138.6040
   697.0000   2000.0000   2000.0000     24.3414    143.7272
   697.2500   2000.0000   2000.0000     24.0058    145.5475
   697.5000   2000.0000   2000.0000     23.5673    145.4233
   697.7500   2000.0000   2000.0000     23.0990    143.4342
   698.0000   2000.0000   2000.0000     22.6529    138.1947
   698.2500   2000.0000   2000.0000     22.2348    133.9991
   698.5000   2000.0000   2000.0000     21.8053    128.3452
   698.7500   2000.0000   2000.0000     21.3008    125.5676
   699.0000   2000.0000   2000.0000     20.6665    122.2599
   699.2500   2000.0000   2000.0000     19.8850    119.6027
   699.5000   2000.0000   2000.0000     18.9788    113.8108
   699.7500   2000.0000   2000.0000     17.9916    109.2184
   700.0000   2000.0000   2000.0000     16.9701    103.6776
   700.2500   2000.0000   2000.0000     15.9581    102.3847
   700.5000   2000.0000   2000.0000     14.9953    105.2483
   700.7500   2000.0000   2000.0000     14.1127    110.0457
   701.0000   2000.0000   2000.0000     13.3246    119.9242
   701.2500   2000.0000   2000.0000     12.6269    127.2443
   701.5000   2000.0000   2000.0000     12.0033    138.1093
   701.7500   2000.0000   2000.0000     11.4360    145.0018
   702.0000   2000.0000   2000.0000     10.9137    154.7070
   702.2500   2000.0000   2000.0000     10.4336    160.5618
   702.5000   2000.0000   2000.0000      9.9974    167.6859
   702.7500   2000.0000   2000.0000      9.6082    170.9624
   703.0000   2000.0000   2000.0000      9.2686    173.8149
   703.2500   2000.0000   2000.0000      8.9817    174.7797
   703.5000   2000.0000   2000.0000      8.7495    175.2533
   703.7500   2000.0000   2000.0000      8.5707    174.7083
   704.0000   2000.0000   2000.0000      8.4388    172.0547
   704.2500   2000.0000   2000.0000      8.3452    169.1203
   704.5000   2000.0000   2000.0000      8.2853    163.7186
   704.7500   2000.0000   2000.0000      8.2621    159.8538
   705.0000   2000.0000   2000.0000      8.2835    153.8706
   705.2500   2000.0000   2000.0000      8.3539    149.7492
   705.5000   2000.0000   2000.0000      8.4661    143.5616
   705.7500   2000.0000   2000.0000      8.5978    139.8042
   706.0000   2000.0000   2000.0000      8.7161    135.9186
   706.2500   2000.0000   2000.0000      8.7887    135.2854
   706.5000   2000.0000   2000.0000      8.7996    137.5394
   706.7500   2000.0000   2000.0000      8.7572    140.2547
   707.0000   2000.0000   2000.0000      8.6882    143.8013
   707.2500   2000.0000   2000.0000      8.6219    145.1548
   707.5000   2000.0000   2000.0000      8.5771    146.4232
   707.7500   2000.0000   2000.0000      8.5581    147.5492
   708.0000   2000.0000   2000.0000      8.5576    150.0889
   708.2500   2000.0000   2000.0000      8.5639    151.9924
   708.5000   2000.0000   2000.0000      8.5672    154.2511
   708.7500   2000.0000   2000.0000      8.5631    154.9751
   709.0000   2000.0000   2000.0000      8.5530    154.7203
   709.2500   2000.0000   2000.0000      8.5419    153.8529
   709.5000   2000.0000   2000.0000      8.5377    152.0931
   709.7500   2000.0000   2000.0000      8.5497    150.8671
   710.0000   2000.0000   2000.0000      8.5871    149.0231
   710.2500   2000.0000   2000.0000      8.6574    147.7901
   710.5000   2000.0000   2000.0000      8.7636    146.2063
   710.7500   2000.0000   2000.0000      8.9030    145.5676
   711.0000   2000.0000   2000.0000      9.0663    145.3155
   711.2500   2000.0000   2000.0000      9.2366    145.3887
   711.5000   2000.0000   2000.0000      9.3922    145.3521
   711.7500   2000.0000   2000.0000      9.5148    145.0927
   712.0000   2000.0000   2000.0000      9.5985    144.4416
   712.2500   2000.0000   2000.0000      9.6518    143.9355
   712.5000   2000.0000   2000.0000      9.6897    143.1486
   712.7500   2000.0000   2000.0000      9.7222    142.6610
   713.0000   2000.0000   2000.0000      9.7490    142.2923
   713.2500   2000.0000   2000.0000      9.7649    142.5639
   713.5000   2000.0000   2000.0000      9.7676    144.0775
   713.7500   2000.0000   2000.0000      9.7619    145.7646
   714.0000   2000.0000   2000.0000      9.7564    148.7827
   714.2500   2000.0000   2000.0000      9.7572    150.6885
   714.5000   2000.0000   2000.0000      9.7650    152.5815
   714.7500   2000.0000   2000.0000      9.7767    152.7585
   715.0000   2000.0000   2000.0000      9.7891    151.1541
   715.2500   2000.0000   2000.0000      9.7994    149.2268
   715.5000   2000.0000   2000.0000      9.8042    146.0825
   715.7500   2000.0000   2000.0000      9.7986    144.0679
   716.0000   2000.0000   2000.0000      9.7767    140.9786
   716.2500   2000.0000   2000.0000      9.7335    138.8922
   716.5000   2000.0000   2000.0000      9.6673    136.1506
   716.7500   2000.0000   2000.0000      9.5810    134.7085
   717.0000   2000.0000   2000.0000      9.4824    133.1333
   717.2500   2000.0000   2000.0000      9.3838    132.6565
