~Version Information
 VERS.                                  2.0 : CWLS LAS VERSION
 WRAP.                                   NO : WRAPING MODE
 SWARE .                 MController 2.5.0N : SOFTWARE VERSION
~Well Information
 WELL.                     Irish Eyes 33-21 : WELL
 COMP.    Pioneer Natural Resources USA Inc : COMPANY
 FLD.                      Purgatoire River : FIELD
 LOC.                  NWSE Sec21 T34S R65W : LOCATION
 DATE.                             01/15/06 : DATE(S) LOGGED
 SRVC.       Blanco Geological Services LLC : SERVICE COMPANY
 STAT.                             Colorado : STATE
 CNTY.                           Las Animas : COUNTY
 CTRY.                                  USA : COUNTRY
 API.                       05-071-08658-00 : API NUMBER
 STRT.FT                             296.00 : START DEPTH
 STOP.FT                            1285.00 : STOP DEPTH
 STEP.FT                               1.00 : DEPTH INCREMENT
 NULL.                                -9999 : NULL VALUE
~Curve information
 DEPTH.FT                                   :
 ROP.MIN/FT                                 :
 GAS.UNITS                                  :
~ASCII Log data
# ...
       496.0         0.23          0.6 
       497.0         0.20          0.1 
       498.0         0.20          0.2 
       499.0         0.22          0.4 
       500.0         0.23          0.0 
       501.0         0.20          0.0 
       502.0         0.20          0.3 
       503.0         0.20          0.6 
       504.0         0.23          1.0 
       505.0         0.20          0.3 
       506.0         3.45         36.8 
       507.0         0.33          7.7 
       508.0         0.30          3.9 
       509.0         0.27          3.2 
       510.0         0.30          2.5 
       511.0         0.30          1.3 
       512.0         0.27          1.2 
       513.0         0.25          1.1 
       514.0         0.23          1.1 
       515.0         0.30          1.6 
       516.0         0.27          1.8 
       517.0         0.23          2.4 
       518.0         0.23          2.4 
       519.0         0.23          1.9 
       520.0         0.33          2.2 
       521.0         0.23          1.4 
       522.0         0.23          2.4 
       523.0         0.27          2.7 
       524.0         0.33          1.4 
       525.0         0.23          2.2 
       526.0         0.25          3.3 
       527.0         0.23          3.5 
       528.0         0.23          2.9 
       529.0         0.23          3.3 
       530.0         0.23          3.4 
       531.0         0.27          3.6 
       532.0         0.30          2.8 
       533.0         0.37          2.5 
       534.0         0.30          1.3 
       535.0         0.30          1.1 
       536.0         2.45         48.7 
       537.0         0.23         17.8 
       538.0         0.27         11.7 
       539.0         0.30          9.1 
       540.0         0.30          6.9 
       541.0         0.33         11.4 
       542.0         0.32         10.4 
       543.0         0.30          8.8 
       544.0         0.37          8.6 
       545.0         0.30          8.9 
       546.0         0.33          8.5 
       547.0         0.33          7.3 
       548.0         0.30          6.4 
       549.0         0.27          8.0 
       550.0         0.27         10.9 
       551.0         0.30         28.7 
       552.0         0.33         45.4 
       553.0         0.38         47.0 
       554.0         0.33         46.1 
       555.0         0.30         43.3 
       556.0         0.27         43.0 
       557.0         0.30         39.6 
       558.0         0.30         37.5 
       559.0         0.27         33.5 
       560.0         0.30         32.5 
       561.0         0.30         31.3 
       562.0         0.33         28.5 
       563.0         0.45         25.1 
       564.0         0.37         25.6 
       565.0         0.37         21.2 
       566.0         2.78         99.0 
       567.0         0.33         37.3 
       568.0         0.30         15.8 
       569.0         0.33         10.7 
       570.0         0.33          7.6 
       571.0         0.30          7.3 
       572.0         0.30          8.2 
       573.0         0.30          8.9 
       574.0         0.33          8.4 
       575.0         0.30          8.6 
       576.0         0.32          9.8 
       577.0         0.30         11.0 
       578.0         0.27         12.2 
       579.0         0.33         11.4 
       580.0         0.30          9.3 
       581.0         0.33          9.2 
       582.0         0.37          9.9 
       583.0         0.33          8.3 
       584.0         0.30          8.1 
       585.0         0.30          6.5 
       586.0         0.30          5.9 
       587.0         0.28          7.4 
       588.0         0.30          7.0 
       589.0         0.30          6.8 
       590.0         0.33          6.6 
       591.0         0.30          4.2 
       592.0         0.33          4.2 
       593.0         0.27          4.5 
       594.0         0.30          5.7 
       595.0         0.27          6.2 
       596.0         3.28         74.5 
       597.0         0.33         18.4 
       598.0         0.30          9.9 
       599.0         0.35          9.8 
       600.0         0.40          7.0 
       601.0         0.37          7.6 
       602.0         0.33          7.4 
       603.0         0.23          6.4 
       604.0         0.30          5.3 
       605.0         0.30          4.7 
       606.0         0.33          4.1 
       607.0         0.33          4.3 
       608.0         0.33          4.2 
       609.0         0.30          4.9 
       610.0         0.28          5.0 
       611.0         0.30          4.7 
       612.0         0.23          4.7 
       613.0         0.27          4.7 
       614.0         0.27          4.3 
       615.0         0.33          4.6 
       616.0         0.33          4.9 
       617.0         0.33          5.2 
       618.0         0.37          4.5 
       619.0         0.30          5.1 
       620.0         0.33          4.7 
       621.0         0.32          5.5 
       622.0         0.23          5.6 
       623.0         0.20          5.7 
       624.0         0.20          5.7 
       625.0         0.23          5.7 
       626.0         2.68         64.2 
       627.0         0.20         21.0 
       628.0         0.30         19.7 
       629.0         0.20         13.0 
       630.0         0.23         13.2 
       631.0         0.20         10.8 
       632.0         0.20         10.0 
       633.0         0.23          9.2 
       634.0         0.23          6.9 
       635.0         0.20          6.7 
       636.0         0.20          7.5 
       637.0         0.20          7.1 
       638.0         0.20          7.5 
       639.0         0.23          7.4 
       640.0         0.22          8.2 
       641.0         0.20          8.9 
       642.0         0.20          8.8 
       643.0         0.20          8.8 
       644.0         0.20          9.3 
       645.0         0.20          8.3 
       646.0         0.20          8.3 
       647.0         0.20          8.4 
       648.0         0.23          7.7 
       649.0         0.27          7.7 
       650.0         0.20          7.6 
       651.0         0.23          7.8 
       652.0         0.23          7.0 
       653.0         0.23          8.0 
       654.0         0.23          8.0 
       655.0         0.25          8.5 
       656.0         3.48         57.8 
       657.0         0.27         20.3 
       658.0         0.40         15.9 
       659.0         0.17         11.7 
       660.0         0.27         11.3 
       661.0         0.27          7.5 
       662.0         0.23          7.0 
       663.0         0.23          7.2 
       664.0         0.20          6.5 
       665.0         0.27          6.9 
       666.0         0.23          6.2 
       667.0         0.20          7.2 
       668.0         0.23          7.2 
       669.0         0.28          7.0 
       670.0         0.23          6.5 
       671.0         0.20          6.2 
       672.0         0.20          6.2 
       673.0         0.23          6.2 
       674.0         0.20          6.3 
       675.0         0.23          7.5 
       676.0         0.20          7.5 
       677.0         0.20          8.5 
       678.0         0.23          7.9 
       679.0         0.23          8.1 
       680.0         0.20          7.6 
       681.0         0.20          7.7 
       682.0         0.23          6.8 
       683.0         0.23          6.8 
       684.0         0.25          6.5 
       685.0         0.23          6.3 
       686.0         4.05         53.2 
       687.0         0.33         11.4 
       688.0         0.33          9.0 
       689.0         0.33          7.9 
       690.0         0.33          7.8 
       691.0         0.33          7.1 
       692.0         0.33          7.9 
       693.0         0.35          7.9 
       694.0         0.33          7.6 
       695.0         0.33          7.5 
