~Version Information
VERS.                      2.0: CWLS Log ASCII Standard - VERSION 2.0
WRAP.                       NO: One line per depth step
~Well Information Block
STRT.FT               340.0000: 
STOP.FT              2342.7500: 
STEP.FT                 0.2500: 
NULL.                -999.2500: 
COMP.          Pioneer Natural Resources: COMPANY
WELL.          Pinkerton 41-12: WELL
FLD.           Purgatoire River: FIELD
LOC.           1222' FNL & 670' FEL--: LOCATION
CNTY.               Las Animas: COUNTY
SRVC.                Patterson: SERVICE COMPANY
DATE.          Wed Mar 15 10:37:39 2006: LOG DATE
UWI.           05 071 08500 00: UNIQUE WELL ID
STAT.                 Colorado: STATE
~Curve Information Block
DEPT.FT            0 000 00 00: Depth
SN.Ohm-m                      : IEL Short Normal
SP.mV                         : IEL Spontaneous Potential
DIR.Ohm-m                     : IEL Induction Resistivity
GR.GAPI                       : Gamma Ray
~Parameter Information Block
~A  Depth        SN          SP         DIR          GR     
# ...
  1646.5000     20.9863     60.8606     15.7654     76.3573
  1646.7500     20.0944     60.9399     15.2336     81.0571
  1647.0000     19.1261     61.0225     14.5558     93.5219
  1647.2500     18.1903     61.1041     13.8573    104.3483
  1647.5000     17.3455     61.1781     13.2208    120.7988
  1647.7500     16.6139     61.2383     12.6770    129.9739
  1648.0000     15.9989     61.2821     12.2183    139.3639
  1648.2500     15.4972     61.3128     11.8235    142.5767
  1648.5000     15.1016     61.3400     11.4789    143.3350
  1648.7500     14.7985     61.3792     11.1882    141.7074
  1649.0000     14.5678     61.4485     10.9681    137.5124
  1649.2500     14.3916     61.5657     10.8370    134.4677
  1649.5000     14.2647     61.7433     10.8045    130.6790
  1649.7500     14.1905     61.9845     10.8663    128.9255
  1650.0000     14.1625     62.2806     11.0041    127.1312
  1650.2500     14.1505     62.6089     11.1907    125.9044
  1650.5000     14.1110     62.9348     11.3964    122.7647
  1650.7500     14.0206     63.2155     11.5967    119.4115
  1651.0000     13.9049     63.4072     11.7794    113.1506
  1651.2500     13.8428     63.4734     11.9485    109.2862
  1651.5000     13.9406     63.3932     12.1240    106.1500
  1651.7500     14.2858     63.1667     12.3366    106.4825
  1652.0000     14.8955     62.8172     12.6172    109.6309
  1652.2500     15.6811     62.3873     12.9825    111.8332
  1652.5000     16.4635     61.9323     13.4216    112.2072
  1652.7500     17.0510     61.5103     13.8880    109.6561
  1653.0000     17.3389     61.1727     14.3067    102.6317
  1653.2500     17.3567     60.9567     14.5990     97.4318
  1653.5000     17.2290     60.8817     14.7160     92.0026
  1653.7500     17.0847     60.9490     14.6545     91.4049
  1654.0000     16.9813     61.1448     14.4442     95.9199
  1654.2500     16.8894     61.4448     14.1197    101.8292
  1654.5000     16.7370     61.8185     13.7030    112.2374
  1654.7500     16.4695     62.2330     13.2047    118.5217
  1655.0000     16.0809     62.6560     12.6351    125.6098
  1655.2500     15.6027     63.0577     12.0133    129.0076
  1655.5000     15.0771     63.4120     11.3690    133.1049
  1655.7500     14.5423     63.6979     10.7379    135.4362
  1656.0000     14.0293     63.9004     10.1532    138.0370
  1656.2500     13.5611     64.0110      9.6395    138.8955
  1656.5000     13.1490     64.0280      9.2072    138.7826
  1656.7500     12.7885     63.9548      8.8534    137.9331
  1657.0000     12.4595     63.7995      8.5656    135.6981
  1657.2500     12.1338     63.5729      8.3282    133.6286
  1657.5000     11.7870     63.2879      8.1278    130.3413
  1657.7500     11.4061     62.9581      7.9573    128.8785
  1658.0000     10.9917     62.5981      7.8154    128.8676
  1658.2500     10.5618     62.2233      7.7045    130.1178
  1658.5000     10.1590     61.8493      7.6272    132.5620
  1658.7500      9.8531     61.4927      7.5862    134.0374
  1659.0000      9.7256     61.1695      7.5845    136.0708
  1659.2500      9.8315     60.8950      7.6256    137.5036
  1659.5000     10.1541     60.6816      7.7122    139.6781
  1659.7500     10.5852     60.5375      7.8413    140.8856
  1660.0000     10.9554     60.4647      8.0001    141.9546
  1660.2500     11.1072     60.4580      8.1661    141.9791
  1660.5000     10.9755     60.5055      8.3142    140.3980
  1660.7500     10.6304     60.5905      8.4303    137.9005
  1661.0000     10.2510     60.6951      8.5201    132.3457
  1661.2500     10.0419     60.8030      8.6087    128.6315
  1661.5000     10.1385     60.9027      8.7278    125.9313
  1661.7500     10.5525     60.9893      8.8997    126.9814
  1662.0000     11.1741     61.0639      9.1271    131.5100
  1662.2500     11.8248     61.1328      9.3896    134.4246
  1662.5000     12.3371     61.2060      9.6524    135.5170
  1662.7500     12.6274     61.2947      9.8822    133.6833
  1663.0000     12.7234     61.4096     10.0662    129.0709
  1663.2500     12.7331     61.5588     10.2192    126.5184
  1663.5000     12.7797     61.7464     10.3742    125.3641
  1663.7500     12.9380     61.9711     10.5631    126.1731
  1664.0000     13.2039     62.2274     10.7999    127.8516
  1664.2500     13.5081     62.5071     11.0754    128.3794
  1664.5000     13.7647     62.8034     11.3621    128.4542
  1664.7500     13.9220     63.1130     11.6255    128.7945
  1665.0000     13.9808     63.4372     11.8370    130.5089
  1665.2500     13.9747     63.7787     11.9816    132.1027
  1665.5000     13.9371     64.1360     12.0591    133.8767
  1665.7500     13.8835     64.4963     12.0806    134.1387
  1666.0000     13.8181     64.8316     12.0653    133.0954
  1666.2500     13.7475     65.0989     12.0378    131.6809
  1666.5000     13.6868     65.2482     12.0245    128.9266
  1666.7500     13.6544     65.2337     12.0492    126.8692
  1667.0000     13.6629     65.0272     12.1271    123.6870
  1667.2500     13.7127     64.6281     12.2608    121.6827
  1667.5000     13.7913     64.0664     12.4379    119.4034
  1667.7500     13.8763     63.3980     12.6327    118.5843
  1668.0000     13.9387     62.6936     12.8102    118.0461
  1668.2500     13.9507     62.0253     12.9343    117.7592
  1668.5000     13.8975     61.4538     12.9773    117.5268
  1668.7500     13.7865     61.0198     12.9277    118.0707
  1669.0000     13.6431     60.7412     12.7933    120.7936
  1669.2500     13.4928     60.6150     12.5960    123.9016
  1669.5000     13.3407     60.6226     12.3609    129.7115
  1669.7500     13.1644     60.7355     12.1071    133.5113
  1670.0000     12.9257     60.9215     11.8438    137.2944
  1670.2500     12.5955     61.1485     11.5726    137.6890
  1670.5000     12.1767     61.3871     11.2907    135.1599
  1670.7500     11.7136     61.6120     10.9943    132.5132
  1671.0000     11.2784     61.8029     10.6815    129.5622
  1671.2500     10.9370     61.9460     10.3562    129.0551
  1671.5000     10.7155     62.0358     10.0293    130.2498
  1671.7500     10.5877     62.0764      9.7166    131.7789
  1672.0000     10.4948     62.0824      9.4340    134.3030
  1672.2500     10.3805     62.0779      9.1925    135.9145
  1672.5000     10.2162     62.0927      8.9954    138.4215
  1672.7500     10.0027     62.1569      8.8388    140.3377
  1673.0000      9.7622     62.2932      8.7124    143.1809
  1673.2500      9.5267     62.5112      8.6035    144.4392
  1673.5000      9.3286     62.8023      8.5011    144.8293
  1673.7500      9.1911     63.1402      8.3993    144.4102
  1674.0000      9.1207     63.4846      8.2982    143.5612
  1674.2500      9.1103     63.7895      8.2023    142.9290
  1674.5000      9.1475     64.0117      8.1178    141.4383
  1674.7500      9.2232     64.1198      8.0515    139.8542
  1675.0000      9.3293     64.0991      8.0104    136.8180
  1675.2500      9.4565     63.9523      8.0019    134.9173
  1675.5000      9.5954     63.6972      8.0332    133.4642
  1675.7500      9.7406     63.3612      8.1105    133.7587
  1676.0000      9.8912     62.9757      8.2391    135.5140
  1676.2500     10.0488     62.5710      8.4224    136.7711
  1676.5000     10.2173     62.1735      8.6626    137.5072
  1676.7500     10.4065     61.8041      8.9614    136.8429
  1677.0000     10.6414     61.4781      9.3230    134.1287
  1677.2500     10.9677     61.2053      9.7546    131.4297
  1677.5000     11.4344     60.9908     10.2647    126.7466
  1677.7500     12.0570     60.8351     10.8564    123.7831
  1678.0000     12.7873     60.7347     11.5176    120.6458
  1678.2500     13.5194     60.6831     12.2121    119.6302
  1678.5000     14.1361     60.6719     12.8788    118.8235
  1678.7500     14.5658     60.6929     13.4435    118.0711
  1679.0000     14.8051     60.7398     13.8427    116.9011
  1679.2500     14.8898     60.8097     14.0450    117.2148
  1679.5000     14.8495     60.9037     14.0583    121.2036
  1679.7500     14.6930     61.0260     13.9192    126.4894
