~Version Information
VERS.                      2.0: CWLS Log ASCII Standard - VERSION 2.0
WRAP.                       NO: One line per depth step
~Well Information Block
STRT.FT                -8.2500: 
STOP.FT              1439.2500: 
STEP.FT                 0.2500: 
NULL.                -999.2500: 
COMP.          Pioneer Natural Resources: COMPANY
WELL.          Old Faithful 21-2: WELL
FLD.           Purgatorie River: FIELD
LOC.           806' FNL & 2509' FWL--: LOCATION
PROV.                       CO: PROVINCE
CNTY.               Las Animas: COUNTRY
SRVC.          Patterson Wireline: SERVICE COMPANY
DATE.          Mon Dec 12 11:21:25 2005: LOG DATE
UWI.           08 071 08617 00: UNIQUE WELL ID
~Curve Information Block
DEPT.FT            0 000 00 00: Depth
CCL.                          : Casing Collar Locator
TT3.usec                      : CBL 3' Travel Time
AMP3.mV                       : CBL 3' Amplitude
GR.GAPI                       : Gamma Ray
~Parameter Information Block
~A  Depth       CCL         TT3         AMP3         GR     
# ...
  1197.7500      0.0000    422.6075      8.7370     66.1183
  1198.0000      0.0000    457.2430      8.6637     63.1780
  1198.2500      0.0000    499.9376      8.5835     58.5359
  1198.5000      0.0000    542.5666      8.5041     53.2394
  1198.7500      0.0000    577.6392      8.4341     48.8932
  1199.0000      0.0000    604.1418      8.3795     46.2838
  1199.2500      0.0000    623.5934      8.3412     44.9522
  1199.5000      0.0000    632.0594      8.3192     43.9775
  1199.7500      0.0000    621.2285      8.3191     43.0825
  1200.0000      0.0000    588.4205      8.3476     42.9583
  1200.2500      0.0000    543.6216      8.3942     44.5826
  1200.5000      0.0000    505.5236      8.4084     48.2954
  1200.7500      0.0000    490.0037      8.2954     53.5036
  1201.0000      0.0000    501.3986      7.9476     59.0936
  1201.2500      0.0000    533.3524      7.3168     64.0112
  1201.5000      0.0000    575.5668      6.4934     67.5918
  1201.7500      0.0000    617.6428      5.7034     69.6464
  1202.0000      0.0000    649.1086      5.1822     70.3453
  1202.2500      0.0000    662.4178      5.0295     69.9698
  1202.5000      0.0000    658.9565      5.1858     68.8022
  1202.7500      0.0000    648.9814      5.5208     67.3010
  1203.0000      0.0000    642.9182      5.9133     66.1330
  1203.2500      0.0000    644.6575      6.2748     65.6940
  1203.5000     -2.0000    654.0794      6.5488     65.6148
  1203.7500      0.0000    671.1617      6.7077     65.0999
  1204.0000      0.0000    694.4743      6.7575     63.9603
  1204.2500      0.0000    719.4975      6.7505     63.2139
  1204.5000      0.0000    741.4946      6.7683     64.3858
  1204.7500      0.0000    758.2062      6.8428     68.0967
  1205.0000      0.0000    768.5301      6.9117     73.3391
  1205.2500      0.0000    770.9446      6.9110     78.1140
  1205.5000      0.0000    764.9820      6.8978     80.7867
  1205.7500      0.0000    753.3971      7.0129     80.9235
  1206.0000      0.0000    741.6533      7.3217     78.9637
  1206.2500      0.0000    734.2957      7.7383     75.4509
  1206.5000      0.0000    731.3588      8.1064     70.9332
  1206.7500      0.0000    728.8268      8.3214     66.3084
  1207.0000      0.0000    723.0389      8.3750     62.5477
  1207.2500      0.0000    714.1172      8.3196     60.0773
  1207.5000      0.0000    704.9885      8.2143     59.0055
  1207.7500      0.0000    698.1685      8.0966     59.7618
  1208.0000      0.0000    694.1792      7.9805     62.6001
  1208.2500      0.0000    692.2457      7.8662     66.3086
  1208.5000      0.0000    691.4683      7.7472     68.1754
  1208.7500      0.0000    691.2855      7.6166     65.9314
  1209.0000      0.0000    691.3908      7.4725     59.7828
  1209.2500      0.0000    691.5990      7.3232     52.3178
  1209.5000      0.0000    691.8019      7.1861     46.4045
  1209.7500      0.0000    691.9507      7.0838     43.2906
  1210.0000      0.0000    692.0364      7.0336     42.5355
  1210.2500      0.0000    692.0859      7.0353     43.2469
  1210.5000      0.0000    692.1603      7.0680     45.0455
  1210.7500      0.0000    692.3320      7.1018     47.9924
  1211.0000      0.0000    692.6900      7.1145     51.9935
  1211.2500      0.0000    693.4271      7.0979     56.4030
  1211.5000      0.0000    695.0049      7.0558     60.1415
  1211.7500      0.0000    698.2021      7.0013     62.3145
  1212.0000      0.0000    703.7305      6.9511     62.8539
  1212.2500      0.0000    711.4600      6.9185     62.5154
  1212.5000      0.0000    720.0110      6.9092     62.2510
  1212.7500      0.0000    727.4243      6.9208     62.5745
  1213.0000      0.0000    732.4142      6.9387     63.5125
  1213.2500      0.0000    734.9600      6.9363     65.0949
  1213.5000      0.0000    735.8535      6.8890     67.5225
  1213.7500      0.0000    735.9359      6.7925     70.4880
  1214.0000      0.0000    735.7184      6.6655     72.6897
  1214.2500      0.0000    735.3839      6.5354     72.7269
  1214.5000      0.0000    734.8849      6.4262     70.6306
  1214.7500      0.0000    733.9941      6.3538     68.0123
  1215.0000      0.0000    732.4363      6.3232     66.5017
  1215.2500      0.0000    730.2655      6.3235     66.3412
  1215.5000      0.0000    728.2126      6.3306     66.5971
  1215.7500      0.0000    727.3116      6.3185     66.4101
  1216.0000      0.0000    727.8344      6.2722     65.8315
  1216.2500      0.0000    728.8382      6.1943     65.5382
  1216.5000      0.0000    729.2123      6.1037     65.9046
  1216.7500      0.0000    728.8896      6.0239     66.5566
  1217.0000      0.0000    728.3337      5.9709     67.1055
  1217.2500      0.0000    726.9503      5.9481     68.0540
  1217.5000      0.0000    723.1205      5.9487     70.4354
  1217.7500      0.0000    716.3649      5.9632     74.6358
  1218.0000      0.0000    708.6461      5.9856     80.0459
  1218.2500      0.0000    702.9227      6.0162     85.8913
  1218.5000      0.0000    700.9299      6.0576     91.9885
  1218.7500      0.0000    702.5193      6.1088     98.4381
  1219.0000      0.0000    706.3735      6.1646    104.8344
  1219.2500      0.0000    710.9029      6.2195    110.1109
  1219.5000      0.0000    714.8392      6.2710    113.1928
  1219.7500      0.0000    717.5135      6.3159    113.6100
  1220.0000      0.0000    718.8611      6.3450    111.4153
  1220.2500      0.0000    719.1779      6.3450    106.9438
  1220.5000      0.0000    718.6921      6.3121    100.9966
  1220.7500      0.0000    717.3958      6.2573     94.8394
  1221.0000      0.0000    715.4551      6.1971     89.3987
  1221.2500      0.0000    713.6056      6.1422     84.5669
  1221.5000      0.0000    712.8038      6.1002     79.8673
  1221.7500      0.0000    713.2775      6.0811     75.8323
  1222.0000      0.0000    714.0245      6.0952     74.1411
  1222.2500      0.0000    713.6432      6.1473     76.1224
  1222.5000      0.0000    711.6243      6.2325     81.4288
  1222.7500      0.0000    708.2025      6.3355     88.4590
  1223.0000      0.0000    702.8098      6.4392     95.7497
  1223.2500      0.0000    692.9008      6.5427    102.4503
  1223.5000      0.0000    674.2322      6.6668    107.6449
  1223.7500      0.0000    643.0916      6.8311    110.0355
  1224.0000      0.0000    600.3559      7.0285    108.7463
  1224.2500      0.0000    554.2176      7.2279    104.2807
  1224.5000      0.0000    517.3141      7.3977     98.5787
  1224.7500      0.0000    499.9745      7.5216     94.2008
  1225.0000      0.0000    506.0552      7.5951     93.0736
  1225.2500      0.0000    533.5161      7.6156     95.4219
  1225.5000      0.0000    576.2131      7.5825     99.7884
  1225.7500      0.0000    625.1786      7.5101    104.2956
  1226.0000      0.0000    671.1588      7.4359    107.9301
  1226.2500      0.0000    708.0604      7.4000    110.6499
  1226.5000      0.0000    734.0560      7.4063    112.4336
  1226.7500      0.0000    749.6382      7.4110    112.5739
  1227.0000      0.0000    755.7731      7.3580    110.2311
  1227.2500      0.0000    754.1141      7.2178    105.6887
  1227.5000      0.0000    747.7299      6.9917    100.6299
  1227.7500      0.0000    740.3378      6.6966     96.7128
  1228.0000      0.0000    734.6198      6.3629     93.7466
  1228.2500      0.0000    731.5359      6.0464     89.5741
  1228.5000      0.0000    731.0505      5.8298     82.1216
  1228.7500      0.0000    733.0635      5.8010     71.5375
  1229.0000      0.0000    737.3651      6.0142     60.3400
  1229.2500      0.0000    742.8387      6.4671     51.8463
  1229.5000      0.0000    747.0201      7.1313     48.3306
  1229.7500      0.0000    746.5125      8.0109     49.9412
  1230.0000      0.0000    736.7661      9.1514     55.1387
  1230.2500      0.0000    710.8051     10.5764     62.4360
  1230.5000      0.0000    660.9647     12.2247     71.6181
  1230.7500      0.0000    586.6061     13.9432     82.9616
  1231.0000      0.0000    500.8967     15.5166     95.4252
