~Version Information
VERS.                      2.0: CWLS Log ASCII Standard - VERSION 2.0
WRAP.                       NO: One line per depth step
~Well Information Block
STRT.FT               240.0000: 
STOP.FT              1043.5000: 
STEP.FT                 0.2500: 
NULL.                -999.2500: 
COMP.          Pioneer Natural Resources: COMPANY
WELL.          Stags Leap 13-30: WELL
FLD.           Purgatorie River: FIELD
LOC.           1813' FSL & 117' FWL: LOCATION
PROV.                 Colorado: PROVINCE
CNTY.               Las Animas: COUNTRY
SRVC.                Patterson: SERVICE COMPANY
DATE.          Thu Dec 08 19:20:57 2005: LOG DATE
UWI.                          : UNIQUE WELL ID
~Curve Information Block
DEPT.FT            0 000 00 00: Depth
DIR.Ohm-m                     : IEL Induction Resistivity
GR.GAPI                       : Gamma Ray
~Parameter Information Block
~A  Depth       DIR          GR     
# ...
   518.7500     27.0019    126.5001
   519.0000     27.7214    124.3829
   519.2500     28.2551    123.0190
   519.5000     28.6579    121.9242
   519.7500     29.0086    122.0435
   520.0000     29.3869    123.0378
   520.2500     29.8522    123.7664
   520.5000     30.4324    124.5148
   520.7500     31.1232    124.8772
   521.0000     31.8974    125.6507
   521.2500     32.7201    126.4743
   521.5000     33.5603    127.9760
   521.7500     34.3924    128.7833
   522.0000     35.1884    129.0500
   522.2500     35.9123    128.5273
   522.5000     36.5252    127.3119
   522.7500     36.9996    126.7245
   523.0000     37.3294    126.4199
   523.2500     37.5226    126.1604
   523.5000     37.5801    124.5249
   523.7500     37.4785    122.2636
   524.0000     37.1865    117.5779
   524.2500     36.7158    114.2456
   524.5000     36.1651    110.0767
   524.7500     35.6966    108.3736
   525.0000     35.4449    107.9850
   525.2500     35.4215    109.1863
   525.5000     35.4854    112.5337
   525.7500     35.4087    115.1435
   526.0000     35.0043    118.5983
   526.2500     34.2198    120.2923
   526.5000     33.1279    121.8702
   526.7500     31.8480    122.3119
   527.0000     30.4848    122.0329
   527.2500     29.1186    121.2919
   527.5000     27.8246    119.8982
   527.7500     26.6836    119.2804
   528.0000     25.7695    119.6640
   528.2500     25.1239    121.1843
   528.5000     24.7330    125.7195
   528.7500     24.5258    130.1459
   529.0000     24.3947    138.0968
   529.2500     24.2338    143.5988
   529.5000     23.9773    151.2328
   529.7500     23.6182    155.7394
   530.0000     23.1994    161.6186
   530.2500     22.7828    164.6136
   530.5000     22.4156    166.3025
   530.7500     22.1184    164.7593
   531.0000     21.9031    158.2871
   531.2500     21.8031    151.9661
   531.5000     21.8823    141.5362
   531.7500     22.2050    135.0226
   532.0000     22.7861    126.9527
   532.2500     23.5564    123.0321
   532.5000     24.3688    120.0845
   532.7500     25.0535    120.5654
   533.0000     25.4956    125.0060
   533.2500     25.6777    129.6861
   533.5000     25.6589    136.9576
   533.7500     25.5252    140.4703
   534.0000     25.3573    141.7930
   534.2500     25.2287    139.7194
   534.5000     25.2113    133.4276
   534.7500     25.3667    128.6699
   535.0000     25.7255    123.6443
   535.2500     26.2674    122.9515
   535.5000     26.9178    126.4778
   535.7500     27.5624    131.1709
   536.0000     28.0769    139.0822
   536.2500     28.3594    143.0926
   536.5000     28.3548    144.8210
   536.7500     28.0636    142.6823
   537.0000     27.5327    135.5826
   537.2500     26.8320    129.5669
   537.5000     26.0268    121.0552
   537.7500     25.1596    116.7170
   538.0000     24.2516    112.6406
   538.2500     23.3172    111.1848
   538.5000     22.3767    110.2406
   538.7500     21.4548    110.5739
   539.0000     20.5693    113.6759
   539.2500     19.7207    118.1220
   539.5000     18.8951    128.3438
   539.7500     18.0822    136.7938
   540.0000     17.2930    150.0166
   540.2500     16.5618    158.0271
   540.5000     15.9269    167.2071
   540.7500     15.4071    171.0284
   541.0000     14.9925    173.8689
   541.2500     14.6529    174.6050
   541.5000     14.3555    174.9328
   541.7500     14.0782    174.6674
   542.0000     13.8126    173.3959
   542.2500     13.5607    172.3440
   542.5000     13.3299    171.7383
   542.7500     13.1309    172.3388
   543.0000     12.9764    173.9554
   543.2500     12.8785    174.7504
   543.5000     12.8462    174.9217
   543.7500     12.8809    174.4576
   544.0000     12.9729    173.3532
   544.2500     13.1006    172.7822
   544.5000     13.2334    173.2485
   544.7500     13.3388    174.8377
   545.0000     13.3914    178.5418
   545.2500     13.3799    180.9357
   545.5000     13.3097    182.8865
   545.7500     13.2004    182.6744
   546.0000     13.0800    180.0222
   546.2500     12.9790    176.8513
   546.5000     12.9257    170.6389
   546.7500     12.9428    166.2152
   547.0000     13.0465    160.6405
   547.2500     13.2436    158.3579
   547.5000     13.5288    157.6585
   547.7500     13.8801    158.9180
   548.0000     14.2556    162.6865
   548.2500     14.5964    165.8863
   548.5000     14.8392    170.8691
   548.7500     14.9341    173.9484
   549.0000     14.8603    177.5147
   549.2500     14.6321    178.6336
   549.5000     14.2948    177.4568
   549.7500     13.9116    174.4187
   550.0000     13.5475    166.5134
   550.2500     13.2543    159.5058
   550.5000     13.0638    147.9260
   550.7500     12.9855    140.4019
   551.0000     13.0078    130.3901
   551.2500     13.0987    125.0258
   551.5000     13.2088    120.2887
   551.7500     13.2794    120.3109
   552.0000     13.2590    125.9772
   552.2500     13.1236    133.0764
   552.5000     12.8882    146.3434
   552.7500     12.6017    154.9723
   553.0000     12.3289    164.4213
   553.2500     12.1302    167.3875
   553.5000     12.0504    167.2083
   553.7500     12.1147    165.1528
   554.0000     12.3307    161.5594
   554.2500     12.6902    159.9762
   554.5000     13.1711    159.8890
   554.7500     13.7379    161.3203
   555.0000     14.3449    164.6705
   555.2500     14.9440    166.8778
   555.5000     15.4932    168.8490
   555.7500     15.9638    168.6323
   556.0000     16.3414    165.2814
   556.2500     16.6237    161.1062
   556.5000     16.8174    153.2301
   556.7500     16.9338    148.0537
   557.0000     16.9843    141.9997
   557.2500     16.9796    139.4455
   557.5000     16.9335    137.4600
   557.7500     16.8696    136.8698
   558.0000     16.8216    136.4437
   558.2500     16.8255    136.4555
   558.5000     16.9072    137.4670
   558.7500     17.0736    139.2310
   559.0000     17.3118    144.0139
   559.2500     17.5960    148.6025
   559.5000     17.8977    156.8062
   559.7500     18.1959    162.3233
   560.0000     18.4864    168.9171
   560.2500     18.7871    171.1709
   560.5000     19.1399    169.9770
   560.7500     19.6040    165.7480
   561.0000     20.2437    154.5186
   561.2500     21.1160    144.5374
   561.5000     22.2605    128.1117
   561.7500     23.6933    117.8040
   562.0000     25.4041    105.5065
   562.2500     27.3539     99.8858
   562.5000     29.4714     94.6326
   562.7500     31.6504     92.3621
   563.0000     33.7550     89.3712
   563.2500     35.6478     87.1807
   563.5000     37.2283     83.5130
   563.7500     38.4493     81.0900
   564.0000     39.2868     78.2640
   564.2500     39.6966     77.3632
   564.5000     39.6069     77.8418
   564.7500     38.9628     79.2411
   565.0000     37.7828     82.2541
   565.2500     36.1763     84.3579
   565.5000     34.3153     86.9766
   565.7500     32.3841     88.2578
   566.0000     30.5393     89.8160
   566.2500     28.8938     90.9099
   566.5000     27.5169     92.9992
   566.7500     26.4403     94.8776
   567.0000     25.6629     99.0132
   567.2500     25.1542    103.1485
   567.5000     24.8574    112.1134
   567.7500     24.6940    119.9507
   568.0000     24.5746    133.6075
   568.2500     24.4171    142.9764
   568.5000     24.1703    155.1953
   568.7500     23.8299    160.7551
   569.0000     23.4371    163.3849
   569.2500     23.0609    160.9433
   569.5000     22.7751    151.9095
   569.7500     22.6397    143.6623
   570.0000     22.6864    130.8309
   570.2500     22.9082    123.3929
   570.5000     23.2554    115.2844
   570.7500     23.6416    112.1584
   571.0000     23.9600    110.9003
   571.2500     24.1073    112.3468
   571.5000     24.0053    117.8858
   571.7500     23.6170    123.5117
   572.0000     22.9511    133.4240
   572.2500     22.0587    139.7616
   572.5000     21.0208    146.8253
   572.7500     19.9301    149.2677
   573.0000     18.8705    149.6911
   573.2500     17.9027    148.4651
   573.5000     17.0595    145.8234
   573.7500     16.3494    144.2584
   574.0000     15.7646    142.9156
   574.2500     15.2876    142.8657
