~Version Information
VERS.                      2.0: CWLS Log ASCII Standard - VERSION 2.0
WRAP.                       NO: One line per depth step
~Well Information Block
STRT.FT               485.0000: 
STOP.FT              1030.5000: 
STEP.FT                 0.1000: 
NULL.                -999.2500: 
COMP.          Pioneer Natural Resources: COMPANY
WELL.          Red Raider 22-15: WELL
FLD.           Purgatoire River: FIELD
LOC.           1809' FNL & 2107' FWL: LOCATION
CNTY.               Las Animas: COUNTY
SRVC.                Patterson: SERVICE COMPANY
DATE.          Tue Apr 11 10:06:17 2006: LOG DATE
UWI.           05 071 08718 00: UNIQUE WELL ID
STAT.                 Colorado: STATE
~Curve Information Block
DEPT.FT            0 000 00 00: Depth
DCAL.in                       : CDL Caliper
RHOB.g/cc                     : CDL Bulk Density
RHOC.g/cc                     : CDL Density Correction
DPOR.pu                       : CDL Density Porosity
GR.GAPI                       : Gamma Ray
NPOR.pu                       : Neutron Porosity
~Parameter Information Block
~A  Depth       DCAL        RHOB        RHOC        DPOR         GR         NPOR    
# ...
   955.4000      7.9049      2.4162      0.0703     14.1686     80.2708     20.7982
   955.5000      7.9068      2.4408      0.0706     12.6792     83.1805     19.3131
   955.6000      7.9068      2.4721      0.0689     10.7800     82.9054     18.3148
   955.7000      7.9068      2.5029      0.0876      8.9178     79.7046     17.9693
   955.8000      7.9093      2.5223      0.0916      7.7410     80.8604     17.7116
   955.9000      7.9093      2.5365      0.0902      6.8803     87.4463     17.6451
   956.0000      7.9075      2.5513      0.0897      5.9809     90.5007     17.8496
   956.1000      7.9075      2.5509      0.1104      6.0051     84.1605     17.5129
   956.2000      7.9075      2.5282      0.0467      7.3832     73.7250     16.6081
   956.3000      7.9040      2.5075      0.0259      8.6384     67.1111     16.2971
   956.4000      7.9040      2.5021      0.0683      8.9651     65.7088     16.9645
   956.5000      7.9028      2.5039      0.0275      8.8576     67.9795     17.8145
   956.6000      7.9028      2.5137      0.0279      8.2622     70.8451     18.0690
   956.7000      7.9028      2.5259      0.0383      7.5193     70.5897     18.2509
   956.8000      7.9027      2.5239      0.0464      7.6438     70.0258     19.0593
   956.9000      7.9027      2.5106      0.0142      8.4479     73.3884     19.9047
   957.0000      7.9029      2.5045      0.0190      8.8211     78.5194     20.2438
   957.1000      7.9029      2.5012      0.0758      9.0169     83.3077     20.4688
   957.2000      7.9029      2.4856      0.0378      9.9611     86.0227     20.7220
   957.3000      7.9036      2.4689      0.0282     10.9783     83.3242     20.6346
   957.4000      7.9036      2.4619      0.0524     11.3985     78.7323     20.3913
   957.5000      7.9045      2.4492      0.0797     12.1721     77.8009     20.4672
   957.6000      7.9045      2.4257      0.0153     13.5912     80.5873     20.7001
   957.7000      7.9045      2.4085      0.0434     14.6382     83.7520     20.4454
   957.8000      7.9055      2.4010     -0.0015     15.0880     84.7260     19.7593
   957.9000      7.9055      2.3999      0.0564     15.1582     87.2288     19.4663
   958.0000      7.9058      2.4104      0.0150     14.5194     92.5361     19.8368
   958.1000      7.9058      2.4380      0.0521     12.8465     94.6979     20.4318
   958.2000      7.9058      2.4746      0.0469     10.6315     92.2798     20.8290
   958.3000      7.9059      2.5039      0.0809      8.8522     88.8054     21.2001
   958.4000      7.9059      2.5141      0.0828      8.2388     89.1078     21.8868
   958.5000      7.9056      2.5070      0.0780      8.6642     97.1057     22.4038
   958.6000      7.9056      2.4995      0.0287      9.1218    106.3931     22.0684
   958.7000      7.9056      2.4982      0.0545      9.1972    109.7712     21.3423
   958.8000      7.9036      2.4928      0.0370      9.5246    111.0670     21.3771
   958.9000      7.9036      2.4860     -0.0245      9.9407    111.8925     22.1526
   959.0000      7.9021      2.4889      0.0465      9.7656    108.6564     22.5450
   959.1000      7.9021      2.4957      0.0285      9.3490    102.9605     22.1400
   959.2000      7.9021      2.4919      0.0259      9.5795    101.1918     21.5679
   959.3000      7.8960      2.4746      0.0016     10.6322    104.8028     21.1860
   959.4000      7.8960      2.4602      0.0054     11.5046    109.1822     20.6889
   959.5000      7.8787      2.4591      0.0153     11.5711    110.6040     20.3017
   959.6000      7.8787      2.4655      0.0196     11.1824    108.6852     20.5682
   959.7000      7.8787      2.4777      0.0075     10.4430    103.1282     21.4084
   959.8000      7.8664      2.4937      0.0569      9.4748     98.1874     22.2342
   959.9000      7.8664      2.4985      0.0643      9.1846     99.7720     22.5247
   960.0000      7.8635      2.4883      0.0100      9.8004    103.6369     22.2743
   960.1000      7.8635      2.4758      0.0320     10.5546    101.9150     21.7274
   960.2000      7.8635      2.4676     -0.0014     11.0521     93.9290     21.2089
   960.3000      7.8629      2.4712     -0.0154     10.8352     87.5027     21.1827
   960.4000      7.8629      2.4882      0.0551      9.8042     90.0491     21.8819
   960.5000      7.8623      2.5081      0.0129      8.5992     97.1784     22.7180
   960.6000      7.8623      2.5256      0.0673      7.5398    102.9844     22.8573
   960.7000      7.8623      2.5327      0.0780      7.1090    108.9919     22.2433
   960.8000      7.8618      2.5206      0.0265      7.8446    111.1379     21.7126
   960.9000      7.8618      2.4977      0.0203      9.2279    102.8239     21.9149
   961.0000      7.8610      2.4761      0.0078     10.5409     90.7848     22.1806
   961.1000      7.8610      2.4562     -0.0061     11.7435     85.1371     21.8507
   961.2000      7.8610      2.4410     -0.0305     12.6651     88.3069     20.8356
   961.3000      7.8605      2.4316     -0.0051     13.2356     97.0944     19.6466
   961.4000      7.8605      2.4229     -0.0332     13.7627    103.2819     19.5740
   961.5000      7.8615      2.4169     -0.0081     14.1300    102.5684     20.8556
   961.6000      7.8615      2.4232     -0.0224     13.7459     99.9154     22.1632
   961.7000      7.8615      2.4504      0.0030     12.1000    100.3944     22.1978
   961.8000      7.8641      2.4832      0.0658     10.1070    103.9612     21.4107
   961.9000      7.8641      2.4954      0.0333      9.3684    105.8630     20.7813
   962.0000      7.8657      2.4861      0.0885      9.9351    103.4140     20.1003
   962.1000      7.8657      2.4706      0.0532     10.8708     98.7112     19.7262
   962.2000      7.8657      2.4636      0.0082     11.2996     96.9441     20.6639
   962.3000      7.8638      2.4667      0.0636     11.1078    102.3002     22.0049
   962.4000      7.8638      2.4680      0.0731     11.0293    108.9169     22.1154
   962.5000      7.8623      2.4603      0.0620     11.4941    110.0272     21.0150
   962.6000      7.8623      2.4477      0.0432     12.2610    107.1823     19.6193
   962.7000      7.8623      2.4349      0.0222     13.0339    104.0157     18.6418
   962.8000      7.8625      2.4302     -0.0016     13.3191    101.0742     18.3129
   962.9000      7.8625      2.4430      0.0411     12.5459     98.0456     18.7967
   963.0000      7.8622      2.4644      0.0496     11.2465     96.7074     19.6739
   963.1000      7.8622      2.4727      0.0489     10.7442     96.9042     20.0811
   963.2000      7.8622      2.4618      0.0122     11.4088     95.8236     20.1867
   963.3000      7.8621      2.4516     -0.0042     12.0243     93.7807     20.5176
   963.4000      7.8621      2.4593      0.0193     11.5586     90.5471     20.7733
   963.5000      7.8625      2.4700      0.0116     10.9082     83.9326     20.5800
   963.6000      7.8625      2.4624     -0.0206     11.3695     76.2777     20.4300
   963.7000      7.8625      2.4436     -0.0159     12.5121     70.1602     20.6301
   963.8000      7.8626      2.4333      0.0299     13.1346     66.7660     20.9867
   963.9000      7.8626      2.4357      0.0044     12.9866     66.7015     21.2570
   964.0000      7.8624      2.4396      0.0596     12.7521     68.1158     21.1617
   964.1000      7.8624      2.4302      0.0442     13.3188     70.5006     20.7965
   964.2000      7.8624      2.4074     -0.0043     14.7033     75.6369     20.6032
   964.3000      7.8622      2.3859     -0.0187     16.0058     82.0799     21.0505
   964.4000      7.8622      2.3844     -0.0261     16.0999     85.1019     21.9322
   964.5000      7.8624      2.4095      0.0435     14.5737     81.3355     22.1459
   964.6000      7.8624      2.4432      0.0634     12.5350     74.3598     21.0747
   964.7000      7.8624      2.4615      0.0222     11.4261     72.9669     19.6782
   964.8000      7.8617      2.4634      0.0326     11.3095     80.9447     19.4412
   964.9000      7.8617      2.4649      0.0471     11.2187     91.8781     20.4863
