~Version Information
 VERS.                                  2.0 : CWLS LAS VERSION
 WRAP.                                   NO : WRAPING MODE
 SWARE .                  MController 2.5.1 : SOFTWARE VERSION
~Well Information
 WELL.                   Touchstone 11-32Tr : WELL
 COMP.  Pioneer Natural Resources USA, Inc. : COMPANY
 FLD.                      Purgatoire River : FIELD
 LOC.             NW/NW Sec. 32, T32S, R67W : LOCATION
 DATE.                02/24/2006-02/25/2006 : DATE(S) LOGGED
 SRVC.                  Entrada GeoSciences : SERVICE COMPANY
 STAT.                             Colorado : STATE
 CNTY.                           Las Animas : COUNTY
 CTRY.                        United States : COUNTRY
 API.                          05-071-08626 : API NUMBER
 STRT.FT                             393.00 : START DEPTH
 STOP.FT                            1800.00 : STOP DEPTH
 STEP.FT                               1.00 : DEPTH INCREMENT
 NULL.                                -9999 : NULL VALUE
~Curve information
 DEPTH.FT                                   :
 ROP.MIN/FT                                 :
 GAS.UNITS                                  :
~ASCII Log data
# ...
     1593.00         0.23         21.3 
     1594.00         0.33         21.0 
     1595.00         0.27         17.3 
     1596.00         0.28         15.8 
     1597.00         0.33         15.4 
     1598.00         0.33         12.7 
     1599.00         0.30         12.0 
     1600.00         0.47         11.8 
     1601.00         0.67         10.6 
     1602.00         0.50          8.8 
     1603.00         0.37          7.6 
     1604.00         0.48          6.7 
     1605.00         0.37          7.4 
     1606.00         0.33          6.6 
     1607.00         0.30         58.7 
     1608.00         0.27         58.7 
     1609.00         0.27         86.8 
     1610.00         0.27         99.6 
     1611.00         0.27         90.6 
     1612.00         0.43         63.8 
     1613.00         0.27         27.9 
     1614.00         0.27         26.0 
     1615.00         0.22         19.5 
     1616.00         0.30         15.3 
     1617.00         0.27         12.0 
     1618.00         0.27          9.7 
     1619.00         0.33          7.4 
     1620.00         0.37          7.5 
     1621.00         0.30         14.3 
     1622.00         0.33         26.6 
     1623.00         0.27         34.2 
     1624.00         0.32         45.7 
     1625.00         0.20         49.6 
     1626.00         0.17         58.8 
     1627.00         0.13         58.8 
     1628.00         0.17         64.3 
     1629.00         0.13         69.7 
     1630.00         0.17         69.7 
     1631.00         0.13         69.4 
     1632.00         0.13         66.2 
     1633.00         0.17         66.2 
     1634.00         0.17         63.8 
     1635.00         0.13         59.6 
     1636.00         0.20         54.4 
     1637.00         0.27         53.6 
     1638.00         0.37         47.4 
     1639.00         0.37         39.4 
     1640.00         0.58        169.2 
     1641.00         0.50        165.6 
     1642.00         0.40         90.7 
     1643.00         0.47         53.5 
     1644.00         0.33         21.4 
     1645.00         0.47         17.3 
     1646.00         0.33         13.7 
     1647.00         0.27         15.5 
     1648.00         0.27         16.2 
     1649.00         0.20         17.5 
     1650.00         0.27         19.3 
     1651.00         0.27         19.3 
     1652.00         0.20         18.7 
     1653.00         0.43         17.2 
     1654.00         0.48         20.2 
     1655.00         0.27         25.2 
     1656.00         0.27         29.4 
     1657.00         0.20         30.7 
     1658.00         0.27         29.9 
     1659.00         0.17         27.7 
     1660.00         0.17         27.5 
     1661.00         0.13         26.4 
     1662.00         0.20         23.5 
     1663.00         0.20         22.4 
     1664.00         0.27         18.1 
     1665.00         0.30         17.7 
     1666.00         0.33         15.1 
     1667.00         0.42         14.4 
     1668.00         0.37         12.7 
     1669.00         0.33        119.5 
     1670.00         0.33        146.8 
     1671.00         0.40        124.4 
     1672.00         0.53         84.0 
     1673.00         0.43         36.2 
     1674.00         0.40         36.1 
     1675.00         0.52         35.6 
     1676.00         0.33         23.6 
     1677.00         0.23         19.8 
     1678.00         0.27         17.9 
     1679.00         0.37         18.7 
     1680.00         0.33         18.6 
     1681.00         0.30         18.1 
     1682.00         0.32         17.6 
     1683.00         0.30         14.3 
     1684.00         0.23         13.7 
     1685.00         0.27         13.7 
     1686.00         0.27         13.2 
     1687.00         0.27         12.0 
     1688.00         0.30         11.7 
     1689.00         0.23         10.3 
     1690.00         0.27          9.4 
     1691.00         0.25          9.7 
     1692.00         0.30          7.8 
     1693.00         0.23          9.2 
     1694.00         0.30          8.0 
     1695.00         0.37          9.0 
     1696.00         0.30         10.2 
     1697.00         0.33        128.0 
     1698.00         0.37         72.9 
     1699.00         0.42         39.1 
     1700.00         0.30         19.4 
     1701.00         0.27         16.8 
     1702.00         0.30         14.4 
     1703.00         0.27         13.5 
     1704.00         0.30         11.6 
     1705.00         0.23         10.2 
     1706.00         0.20         10.1 
     1707.00         0.37         10.0 
     1708.00         0.33         10.4 
     1709.00         0.38          9.8 
     1710.00         0.50          8.0 
     1711.00         0.30          7.2 
     1712.00         0.30         11.9 
     1713.00         0.33         23.0 
     1714.00         0.27         28.9 
     1715.00         0.27         32.0 
     1716.00         0.27         32.5 
     1717.00         0.20         31.2 
     1718.00         0.10         30.0 
     1719.00         0.23         28.1 
     1720.00         0.17        153.8 
     1721.00         0.10        153.8 
     1722.00         0.12        160.0 
     1723.00         0.17        169.2 
     1724.00         0.17        173.9 
     1725.00         0.17        187.0 
     1726.00         0.23        251.7 
     1727.00         0.27        278.3 
     1728.00         0.27        263.1 
     1729.00         0.23        176.2 
     1730.00         0.20        118.1 
     1731.00         0.17        106.9 
     1732.00         0.20         92.5 
     1733.00         0.17         77.6 
     1734.00         0.20         71.1 
     1735.00         0.20         58.9 
     1736.00         0.25         56.4 
     1737.00         0.30         48.3 
     1738.00         0.20         41.2 
     1739.00         0.27         36.0 
     1740.00         0.33         40.9 
     1741.00         0.30         42.7 
     1742.00         0.30         47.4 
     1743.00         0.30         47.8 
     1744.00         0.27         48.2 
     1745.00         0.23         47.2 
     1746.00         0.20         46.0 
     1747.00         0.27         44.0 
     1748.00         0.30         42.4 
     1749.00         0.32         41.0 
     1750.00         0.30         40.8 
     1751.00         0.30         40.3 
     1752.00         0.33         39.8 
     1753.00         0.27         39.6 
     1754.00         0.30         39.7 
     1755.00         0.30         39.1 
     1756.00         0.33         38.2 
     1757.00         0.30        273.7 
     1758.00         0.37        273.7 
     1759.00         0.42        296.4 
     1760.00         0.37        257.6 
     1761.00         0.40        164.1 
     1762.00         0.37         78.6 
     1763.00         0.33         59.0 
     1764.00         0.30         53.6 
     1765.00         0.27         49.4 
     1766.00         0.48         46.6 
     1767.00         0.43         41.9 
     1768.00         0.33         38.9 
     1769.00         0.30         40.2 
     1770.00         0.27         41.4 
     1771.00         0.27         41.5 
     1772.00         0.30         42.8 
     1773.00         0.27         42.5 
     1774.00         0.30         39.2 
     1775.00         0.23         39.2 
     1776.00         0.23         38.7 
     1777.00         0.23         39.0 
     1778.00         0.25         35.0 
     1779.00         0.23         34.0 
     1780.00         0.27         34.0 
     1781.00         0.23         32.9 
     1782.00         0.23         32.3 
     1783.00         0.23         31.6 
     1784.00         0.27         30.2 
     1785.00         0.27         31.1 
     1786.00         0.20         29.0 
     1787.00         0.27         28.7 
     1788.00         0.33        227.6 
     1789.00         0.30        227.6 
     1790.00         0.35        317.7 
     1791.00         0.40        278.2 
     1792.00         0.37        267.7 
