~Version Information
VERS.                      2.0: CWLS Log ASCII Standard - VERSION 2.0
WRAP.                       NO: One line per depth step
~Well Information Block
STRT.FT               625.0000: 
STOP.FT              2053.7500: 
STEP.FT                 0.2500: 
NULL.                -999.2500: 
COMP.          Pioneer Natural Resources: COMPANY
WELL.            Zink 44-10 Tr: WELL
FLD.           Purgatoire River: FIELD
LOC.           486' FSL & 554' FEL--: LOCATION
PROV.                 Colorado: PROVINCE
CNTY.               Las Animas: COUNTRY
SRVC.                Patterson: SERVICE COMPANY
DATE.          Sun Jul 24 06:18:01 2005: LOG DATE
UWI.           05 071 08446 00: UNIQUE WELL ID
~Curve Information Block
DEPT.FT            0 000 00 00: Depth
SN.Ohm-m                      : IEL Short Normal
SP.mV                         : IEL Spontaneous Potential
DIR.Ohm-m                     : IEL Induction Resistivity
GR.GAPI                       : Gamma Ray
~Parameter Information Block
~A  Depth        SN          SP         DIR          GR     
# ...
  1094.0000   2000.0000   1979.0000      7.3545    112.4060
  1094.2500   2000.0000   1979.0000      7.3483    114.1069
  1094.5000   2000.0000   1979.0000      7.3652    117.2174
  1094.7500   2000.0000   1979.0000      7.3997    119.4443
  1095.0000   2000.0000   1979.0000      7.4444    122.5932
  1095.2500   2000.0000   1979.0000      7.4931    124.1847
  1095.5000   2000.0000   1979.0000      7.5441    125.1908
  1095.7500   2000.0000   1979.0000      7.6016    124.8677
  1096.0000   2000.0000   1979.0000      7.6743    123.4391
  1096.2500   2000.0000   1979.0000      7.7715    122.4175
  1096.5000   2000.0000   1979.0000      7.9000    121.6411
  1096.7500   2000.0000   1979.0000      8.0631    121.8001
  1097.0000   2000.0000   1979.0000      8.2616    122.6709
  1097.2500   2000.0000   1979.0000      8.4959    123.2902
  1097.5000   2000.0000   1979.0000      8.7666    123.8342
  1097.7500   2000.0000   1979.0000      9.0736    123.8678
  1098.0000   2000.0000   1979.0000      9.4150    123.4535
  1098.2500   2000.0000   1979.0000      9.7853    122.8734
  1098.5000   2000.0000   1979.0000     10.1760    121.5952
  1098.7500   2000.0000   1979.0000     10.5759    120.6614
  1099.0000   2000.0000   1979.0000     10.9723    119.6088
  1099.2500   2000.0000   1979.0000     11.3523    119.1995
  1099.5000   2000.0000   1979.0000     11.7036    118.6335
  1099.7500   2000.0000   1979.0000     12.0166    118.0130
  1100.0000   2000.0000   1979.0000     12.2871    116.4880
  1100.2500   2000.0000   1979.0000     12.5174    115.1148
  1100.5000   2000.0000   1979.0000     12.7159    112.9063
  1100.7500   2000.0000   1979.0000     12.8937    111.5894
  1101.0000   2000.0000   1979.0000     13.0624    109.9080
  1101.2500   2000.0000   1979.0000     13.2328    108.9178
  1101.5000   2000.0000   1979.0000     13.4155    107.9590
  1101.7500   2000.0000   1979.0000     13.6202    108.0328
  1102.0000   2000.0000   1979.0000     13.8515    109.1728
  1102.2500   2000.0000   1979.0000     14.1053    110.0198
  1102.5000   2000.0000   1979.0000     14.3689    110.2781
  1102.7500   2000.0000   1979.0000     14.6280    109.5953
  1103.0000   2000.0000   1979.0000     14.8752    107.8845
  1103.2500   2000.0000   1979.0000     15.1137    106.7845
  1103.5000   2000.0000   1979.0000     15.3541    105.7504
  1103.7500   2000.0000   1979.0000     15.6075    105.5671
  1104.0000   2000.0000   1979.0000     15.8825    105.9535
  1104.2500   2000.0000   1979.0000     16.1877    106.4484
  1104.5000   2000.0000   1979.0000     16.5370    106.9993
  1104.7500   2000.0000   1979.0000     16.9508    107.0021
  1105.0000   2000.0000   1979.0000     17.4513    106.5443
  1105.2500   2000.0000   1979.0000     18.0556    106.1094
  1105.5000   2000.0000   1979.0000     18.7714    105.1364
  1105.7500   2000.0000   1979.0000     19.5986    103.8969
  1106.0000   2000.0000   1979.0000     20.5326    100.6561
  1106.2500   2000.0000   1979.0000     21.5678     97.7189
  1106.5000   2000.0000   1979.0000     22.6973     92.9609
  1106.7500   2000.0000   1979.0000     23.9090     89.9671
  1107.0000   2000.0000   1979.0000     25.1765     86.0502
  1107.2500   2000.0000   1979.0000     26.4505     83.9808
  1107.5000   2000.0000   1979.0000     27.6560     82.2385
  1107.7500   2000.0000   1979.0000     28.7003     82.2910
  1108.0000   2000.0000   1979.0000     29.4927     84.1279
  1108.2500   2000.0000   1979.0000     29.9754     86.0973
  1108.5000   2000.0000   1979.0000     30.1493     89.3116
  1108.7500   2000.0000   1979.0000     30.0759     91.3733
  1109.0000   2000.0000   1979.0000     29.8460     94.2836
  1109.2500   2000.0000   1979.0000     29.5395     96.0241
  1109.5000   2000.0000   1979.0000     29.1991     97.9841
  1109.7500   2000.0000   1979.0000     28.8277     98.6774
  1110.0000   2000.0000   1979.0000     28.3972     98.6662
  1110.2500   2000.0000   1979.0000     27.8645     97.9411
  1110.5000   2000.0000   1979.0000     27.1889     95.9534
  1110.7500   2000.0000   1979.0000     26.3517     94.3916
  1111.0000   2000.0000   1979.0000     25.3699     92.8526
  1111.2500   2000.0000   1979.0000     24.2969     93.1806
  1111.5000   2000.0000   1979.0000     23.2042     96.7166
  1111.7500   2000.0000   1979.0000     22.1535    101.1567
  1112.0000   2000.0000   1979.0000     21.1760    110.0051
  1112.2500   2000.0000   1979.0000     20.2704    116.3790
  1112.5000   2000.0000   1979.0000     19.4231    124.6637
  1112.7500   2000.0000   1979.0000     18.6332    128.3182
  1113.0000   2000.0000   1979.0000     17.9218    130.1978
  1113.2500   2000.0000   1979.0000     17.3233    129.3250
  1113.5000   2000.0000   1979.0000     16.8694    126.1219
  1113.7500   2000.0000   1979.0000     16.5797    123.4591
  1114.0000   2000.0000   1979.0000     16.4605    119.2503
  1114.2500   2000.0000   1979.0000     16.5069    116.2367
  1114.5000   2000.0000   1979.0000     16.7027    111.0969
  1114.7500   2000.0000   1979.0000     17.0215    107.3158
  1115.0000   2000.0000   1979.0000     17.4277    101.9030
  1115.2500   2000.0000   1979.0000     17.8805     99.1390
  1115.5000   2000.0000   1979.0000     18.3397     97.1681
  1115.7500   2000.0000   1979.0000     18.7730     97.4870
  1116.0000   2000.0000   1979.0000     19.1607     99.9580
  1116.2500   2000.0000   1979.0000     19.4955    102.1490
  1116.5000   2000.0000   1979.0000     19.7750    104.2675
  1116.7500   2000.0000   1979.0000     19.9961    103.8952
  1117.0000   2000.0000   1979.0000     20.1539    100.3279
  1117.2500   2000.0000   1979.0000     20.2480     96.6718
  1117.5000   2000.0000   1979.0000     20.2893     91.1624
  1117.7500   2000.0000   1979.0000     20.3000     88.3547
  1118.0000   2000.0000   1979.0000     20.3040     86.2242
  1118.2500   2000.0000   1979.0000     20.3121     86.3586
  1118.5000   2000.0000   1979.0000     20.3112     88.8439
  1118.7500   2000.0000   1979.0000     20.2664     91.7217
  1119.0000   2000.0000   1979.0000     20.1344     96.9389
  1119.2500   2000.0000   1979.0000     19.8808    100.5120
  1119.5000   2000.0000   1979.0000     19.4907    105.6618
  1119.7500   2000.0000   1979.0000     18.9677    108.9137
  1120.0000   2000.0000   1979.0000     18.3275    113.1189
  1120.2500   2000.0000   1979.0000     17.5925    114.9909
  1120.5000   2000.0000   1979.0000     16.7919    115.7430
  1120.7500   2000.0000   1979.0000     15.9622    114.9585
  1121.0000   2000.0000   1979.0000     15.1413    113.0452
  1121.2500   2000.0000   1979.0000     14.3599    112.3387
  1121.5000   2000.0000   1979.0000     13.6378    113.4422
  1121.7500   2000.0000   1979.0000     12.9866    115.5478
  1122.0000   2000.0000   1979.0000     12.4154    119.5472
  1122.2500   2000.0000   1979.0000     11.9319    122.1941
  1122.5000   2000.0000   1979.0000     11.5411    126.0682
  1122.7500   2000.0000   1979.0000     11.2432    128.6526
  1123.0000   2000.0000   1979.0000     11.0354    131.8725
  1123.2500   2000.0000   1979.0000     10.9171    132.9376
  1123.5000   2000.0000   1979.0000     10.8937    132.4617
  1123.7500   2000.0000   1979.0000     10.9765    130.9895
  1124.0000   2000.0000   1979.0000     11.1794    127.3267
  1124.2500   2000.0000   1979.0000     11.5131    123.6373
  1124.5000   2000.0000   1979.0000     11.9806    115.5664
  1124.7500   2000.0000   1979.0000     12.5756    108.6639
  1125.0000   2000.0000   1979.0000     13.2848     97.8368
  1125.2500   2000.0000   1979.0000     14.0932     91.8652
  1125.5000   2000.0000   1979.0000     14.9873     86.7920
  1125.7500   2000.0000   1979.0000     15.9517     86.1692
  1126.0000   2000.0000   1979.0000     16.9568     88.1638
  1126.2500   2000.0000   1979.0000     17.9485     90.5572
  1126.5000   2000.0000   1979.0000     18.8515     94.9662
  1126.7500   2000.0000   1979.0000     19.5905     98.4766
  1127.0000   2000.0000   1979.0000     20.1157    104.8220
  1127.2500   2000.0000   1979.0000     20.4190    109.6062
