~Version Information
VERS.                      2.0: CWLS Log ASCII Standard - VERSION 2.0
WRAP.                       NO: One line per depth step
~Well Information Block
STRT.FT               650.0000: 
STOP.FT              2053.7000: 
STEP.FT                 0.1000: 
NULL.                -999.2500: 
COMP.          Pioneer Natural Resources: COMPANY
WELL.           Alabaster 11-8: WELL
FLD.           Purgatoire River: FIELD
LOC.           1249' FNL & 215' FWL--: LOCATION
PROV.                 Colorado: PROVINCE
CNTY.               Las Animas: COUNTRY
SRVC.                Patterson: SERVICE COMPANY
DATE.          Thu Jan 19 09:16:54 2006: LOG DATE
UWI.           05 071 08642 00: UNIQUE WELL ID
~Curve Information Block
DEPT.FT            0 000 00 00: Depth
DCAL.in                       : CDL Caliper
RHOB.g/cc                     : CDL Bulk Density
RHOC.g/cc                     : CDL Density Correction
DPOR.pu                       : CDL Density Porosity
NPOR.pu                       : Neutron Porosity
GR.GAPI                       : Gamma Ray
~Parameter Information Block
~A  Depth       DCAL        RHOB        RHOC        DPOR        NPOR         GR     
# ...
   832.4000      8.1657      2.6337      0.1189      0.9891     23.1168    107.9439
   832.5000      8.1683      2.6458      0.1223      0.2549     22.8642    104.6286
   832.6000      8.1683      2.6564      0.0961     -0.3902     22.8956    102.6085
   832.7000      8.1683      2.6751      0.1450     -1.5237     22.8680    102.5136
   832.8000      8.1764      2.6844      0.0953     -2.0858     22.9186    100.2883
   832.9000      8.1764      2.6668      0.0662     -1.0156     23.0882     94.4986
   833.0000      8.2158      2.6167      0.0547      2.0194     23.5039     91.3481
   833.1000      8.2158      2.5309     -0.0136      7.2199     24.3277     93.1264
   833.2000      8.2158      2.4155     -0.0569     14.2091     25.3671     96.2943
   833.3000      8.3248      2.2912     -0.0827     21.7444     26.3239     95.5680
   833.4000      8.3248      2.1838     -0.0515     28.2516     27.0413     90.4179
   833.5000      8.4818      2.1057     -0.0732     32.9851     27.6276     87.4311
   833.6000      8.4818      2.0509     -0.1451     36.3062     28.0429     87.4832
   833.7000      8.4818      2.0045     -0.1934     39.1210     28.1087     87.4602
   833.8000      8.6014      1.9546     -0.1890     42.1439     27.7634     88.9172
   833.9000      8.6014      1.9188     -0.1771     44.3171     27.1048     91.5424
   834.0000      8.5636      1.9449     -0.0957     42.7319     26.3150     92.3177
   834.1000      8.5636      2.0591      0.1095     35.8095     25.3079     92.7895
   834.2000      8.5636      2.2338      0.3309     25.2239     24.3572     95.1900
   834.3000      8.3514      2.4104      0.4263     14.5240     23.9037     96.4489
   834.4000      8.3514      2.5394      0.4564      6.7017     23.7315     94.7626
   834.5000      8.2244      2.6169      0.3789      2.0036     23.4073     93.7160
   834.6000      8.2244      2.6778      0.3763     -1.6875     22.7536     95.9318
   834.7000      8.2244      2.7364      0.4671     -5.2351     21.9911    100.6950
   834.8000      8.2332      2.7724      0.4419     -7.4172     21.5389    103.8965
   834.9000      8.2332      2.7791      0.3681     -7.8251     21.5272    101.1280
   835.0000      8.2514      2.7682      0.3296     -7.1639     21.8599     96.9043
   835.1000      8.2514      2.7405      0.2987     -5.4841     22.3317     98.1537
   835.2000      8.2514      2.6905      0.2136     -2.4536     22.7162    102.1422
   835.3000      8.2509      2.6327      0.0336      1.0469     22.9620    103.4599
   835.4000      8.2509      2.5966      0.0176      3.2364     23.0913    103.8348
   835.5000      8.2499      2.5944      0.0009      3.3707     23.3647    104.8063
   835.6000      8.2499      2.6172      0.0163      1.9849     24.1114    106.5555
   835.7000      8.2499      2.6468      0.0614      0.1941     25.2660    110.9509
   835.8000      8.2532      2.6674      0.0910     -1.0540     26.4218    113.6025
   835.9000      8.2532      2.6735      0.0967     -1.4246     27.0795    112.2461
   836.0000      8.2571      2.6620      0.0829     -0.7254     27.0381    112.1790
   836.1000      8.2571      2.6379      0.0474      0.7353     26.8610    113.9011
   836.2000      8.2571      2.6210     -0.0036      1.7557     27.1243    113.3411
   836.3000      8.2637      2.6175      0.0392      1.9689     27.3398    109.9103
   836.4000      8.2637      2.6001      0.0891      3.0266     26.9766    106.1933
   836.5000      8.2725      2.5294      0.0775      7.3070     26.2832    104.2498
   836.6000      8.2725      2.3961     -0.0383     15.3874     25.4371    104.9611
   836.7000      8.2725      2.2382     -0.1448     24.9604     24.2899    105.4519
   836.8000      8.2843      2.0950     -0.1003     33.6361     22.9715    102.4309
   836.9000      8.2843      1.9644     -0.1329     41.5502     21.2477     96.6073
   837.0000      8.3082      1.8274     -0.1828     49.8556     18.3689     91.4156
   837.1000      8.3082      1.6877     -0.2033     58.3182     14.8527     88.2278
   837.2000      8.3082      1.5707     -0.2096     65.4108     11.7665     83.9408
   837.3000      8.3442      1.4897     -0.1494     70.3192      9.2564     78.4025
   837.4000      8.3442      1.4365     -0.0958     73.5482      7.2580     76.5874
   837.5000      8.3795      1.4037     -0.0553     75.5325      5.7578     79.2040
   837.6000      8.3795      1.3902      0.0250     76.3523      4.7313     80.2926
   837.7000      8.3795      1.3872      0.0469     76.5345      4.1198     75.8054
   837.8000      8.4218      1.3824      0.0628     76.8244      3.8075     67.5093
   837.9000      8.4218      1.3743      0.0274     77.3153      3.7732     59.6042
   838.0000      8.4735      1.3723      0.0371     77.4382      3.9912     54.5609
   838.1000      8.4735      1.3792      0.0741     77.0178      4.3058     51.5297
   838.2000      8.4735      1.3852      0.0850     76.6572      4.4571     48.9090
   838.3000      8.4919      1.3772      0.0860     77.1373      4.3523     46.4750
   838.4000      8.4919      1.3527      0.0565     78.6240      4.2043     44.8794
   838.5000      8.4836      1.3292     -0.0139     80.0509      4.1234     44.3452
   838.6000      8.4836      1.3277     -0.0040     80.1407      3.9663     43.8664
   838.7000      8.4836      1.3430      0.0329     79.2109      3.7392     42.3835
   838.8000      8.4977      1.3565      0.0504     78.3939      3.5714     41.9846
   838.9000      8.4977      1.3639      0.0550     77.9471      3.4795     44.8070
   839.0000      8.5408      1.3684      0.0830     77.6734      3.4655     48.8366
   839.1000      8.5408      1.3678      0.0764     77.7106      3.4860     51.6313
   839.2000      8.5408      1.3640      0.0599     77.9402      3.4293     53.9878
   839.3000      8.5745      1.3671      0.0464     77.7544      3.3748     55.7161
   839.4000      8.5745      1.3773      0.0791     77.1316      3.5378     54.2552
   839.5000      8.5763      1.3809      0.0703     76.9178      3.8107     51.1998
   839.6000      8.5763      1.3649      0.0508     77.8875      3.9457     50.1437
   839.7000      8.5763      1.3302      0.0057     79.9888      3.9111     49.6774
   839.8000      8.5534      1.2961     -0.0276     82.0519      3.7656     48.3511
   839.9000      8.5534      1.2805      0.0134     83.0014      3.5644     48.5691
   840.0000      8.4940      1.2795      0.0499     83.0626      3.2939     50.1297
   840.1000      8.4940      1.2874      0.0311     82.5840      2.9901     49.0440
   840.2000      8.4940      1.3125      0.0655     81.0576      2.8627     45.8630
   840.3000      8.3908      1.3619      0.0695     78.0655      3.0468     45.5493
   840.4000      8.3908      1.4318      0.0997     73.8318      3.4675     47.1438
   840.5000      8.2912      1.5156      0.1441     68.7535      3.9962     46.5654
   840.6000      8.2912      1.6115      0.1553     62.9382      4.4638     46.3304
   840.7000      8.2912      1.7201      0.2122     56.3558      4.9375     52.3804
   840.8000      8.2432      1.8401      0.2342     49.0876      5.6781     64.0603
   840.9000      8.2432      1.9652      0.3145     41.5055      6.6519     74.5958
   841.0000      8.2215      2.0837      0.3164     34.3186      7.6516     82.4416
   841.1000      8.2215      2.1847      0.3458     28.1990      8.7474     89.1244
   841.2000      8.2215      2.2548      0.3396     23.9545     10.0931     95.3256
   841.3000      8.1932      2.2860      0.2545     22.0592     11.6240    103.2358
   841.4000      8.1932      2.2899      0.1476     21.8242     13.2238    112.1297
   841.5000      8.1734      2.2860      0.0838     22.0612     14.8631    119.5450
   841.6000      8.1734      2.2854      0.0285     22.0970     16.5254    123.9755
   841.7000      8.1734      2.2947     -0.0066     21.5316     17.9480    123.7095
   841.8000      8.1676      2.3242     -0.0318     19.7484     18.7720    120.6486
   841.9000      8.1676      2.3735      0.0423     16.7577     19.4121    117.6539
