~Version Information
VERS.                      2.0: CWLS Log ASCII Standard - VERSION 2.0
WRAP.                       NO: One line per depth step
~Well Information Block
STRT.FT               555.0000: 
STOP.FT              1159.0000: 
STEP.FT                 0.2500: 
NULL.                -999.2500: 
COMP.          Pioneer Natural Resources: COMPANY
WELL.              Draco 31-21: WELL
FLD.           Purgatoire River: FIELD
LOC.           491' FNL & 2446' FEL: LOCATION
CNTY.               Las Animas: COUNTY
SRVC.                Patterson: SERVICE COMPANY
DATE.          Tue Jan 31 17:48:38 2006: LOG DATE
UWI.           05 071 08672 00: UNIQUE WELL ID
STAT.                 Colorado: STATE
~Curve Information Block
DEPT.FT            0 000 00 00: Depth
SN.Ohm-m                      : IEL Short Normal
SP.mV                         : IEL Spontaneous Potential
DIR.Ohm-m                     : IEL Induction Resistivity
GR.GAPI                       : Gamma Ray
~Parameter Information Block
~A  Depth        SN          SP         DIR          GR     
# ...
   789.5000     16.2787    -12.5380     14.3168     91.3390
   789.7500     16.7914    -12.6261     14.5415     87.0398
   790.0000     17.1952    -12.7151     14.7304     79.1192
   790.2500     17.4604    -12.8127     14.8806     74.1275
   790.5000     17.6396    -12.9283     15.0020     70.2946
   790.7500     17.8076    -13.0671     15.1172     71.4140
   791.0000     18.0637    -13.2246     15.2563     77.9393
   791.2500     18.4464    -13.3879     15.4463     83.8771
   791.5000     18.9040    -13.5406     15.6971     92.2502
   791.7500     19.3354    -13.6690     15.9928     96.4644
   792.0000     19.6070    -13.7682     16.2959    100.1781
   792.2500     19.6464    -13.8437     16.5639    100.9373
   792.5000     19.5407    -13.9079     16.7695     99.8394
   792.7500     19.4600    -13.9737     16.9106     98.0174
   793.0000     19.4700    -14.0524     17.0066     94.5230
   793.2500     19.5024    -14.1553     17.0886     92.0109
   793.5000     19.5775    -14.2906     17.1895     87.7890
   793.7500     19.8267    -14.4563     17.3371     84.3060
   794.0000     20.2422    -14.6347     17.5479     78.0704
   794.2500     20.6803    -14.7976     17.8227     74.0911
   794.5000     21.0629    -14.9182     18.1437     70.7169
   794.7500     21.4094    -14.9819     18.4763     70.9195
   795.0000     21.7384    -14.9923     18.7726     73.5265
   795.2500     22.0062    -14.9711     18.9775     74.9291
   795.5000     22.1600    -14.9548     19.0380     74.0295
   795.7500     22.2095    -14.9835     18.9198     71.3562
   796.0000     22.1824    -15.0848     18.6211     66.1843
   796.2500     22.0766    -15.2563     18.1712     63.4712
   796.5000     21.8652    -15.4581     17.6137     62.4896
   796.7500     21.4611    -15.6214     16.9890     64.4370
   797.0000     20.7415    -15.6706     16.3267     71.1622
   797.2500     19.6705    -15.5527     15.6446     77.7068
   797.5000     18.3622    -15.2588     14.9496     89.4077
   797.7500     17.0265    -14.8298     14.2433     97.5373
   798.0000     15.8570    -14.3416     13.5329    108.3414
   798.2500     14.9615    -13.8768     12.8385    113.7499
   798.5000     14.3667    -13.4949     12.1882    118.9644
   798.7500     13.9950    -13.2194     11.6044    121.0886
   799.0000     13.6818    -13.0470     11.0954    123.3777
   799.2500     13.3651    -12.9623     10.6574    124.5379
   799.5000     13.1698    -12.9445     10.2837    125.3408
   799.7500     13.1931    -12.9701      9.9717    124.9961
   800.0000     13.3487    -13.0162      9.7239    123.5475
   800.2500     13.5206    -13.0632      9.5433    122.6532
   800.5000     13.6851    -13.0906      9.4297    122.3834
   800.7500     13.8117    -13.0737      9.3791    122.9443
   801.0000     13.8105    -12.9882      9.3874    124.4541
   801.2500     13.6113    -12.8196      9.4539    125.7684
   801.5000     13.2735    -12.5703      9.5837    127.9533
   801.7500     13.0164    -12.2588      9.7867    128.9984
   802.0000     13.0197    -11.9109     10.0733    128.6182
   802.2500     13.2462    -11.5490     10.4500    126.7898
   802.5000     13.5584    -11.1814     10.9168    122.5401
   802.7500     13.8548    -10.8005     11.4673    119.4174
   803.0000     14.0474    -10.3866     12.0923    114.9262
   803.2500     14.1213     -9.9172     12.7859    112.1394
   803.5000     14.2217     -9.3762     13.5496    108.3308
   803.7500     14.5620     -8.7628     14.3908    106.0031
   804.0000     15.2740     -8.0989     15.3129    102.4660
   804.2500     16.3424     -7.4258     16.3025     99.7450
   804.5000     17.6044     -6.7882     17.3203     94.5868
   804.7500     18.8257     -6.2178     18.3018     90.2523
   805.0000     19.8791     -5.7257     19.1703     82.5657
   805.2500     20.7752     -5.3055     19.8586     77.2013
   805.5000     21.4813     -4.9389     20.3308     70.4614
   805.7500     21.9320     -4.6005     20.5925     67.7974
   806.0000     22.1917     -4.2633     20.6770     67.2673
   806.2500     22.3434     -3.9076     20.6144     69.0541
   806.5000     22.2862     -3.5287     20.4022     74.2848
   806.7500     21.8640     -3.1358     20.0059     79.1467
   807.0000     21.1038     -2.7456     19.3990     87.9811
   807.2500     20.2036     -2.3748     18.6092     94.4475
   807.5000     19.3433     -2.0375     17.7238    103.7682
   807.7500     18.5709     -1.7464     16.8483    108.7506
   808.0000     17.8645     -1.5130     16.0599    112.7333
   808.2500     17.2382     -1.3440     15.3929    112.6118
   808.5000     16.7509     -1.2394     14.8494    109.1344
   808.7500     16.4173     -1.1956     14.4170    106.0673
   809.0000     16.1861     -1.2127     14.0808    103.3626
   809.2500     16.0057     -1.2922     13.8304    103.9437
   809.5000     15.8598     -1.4252     13.6622    108.0414
   809.7500     15.7534     -1.5849     13.5803    111.7373
   810.0000     15.6703     -1.7363     13.5927    116.7193
   810.2500     15.6061     -1.8571     13.7062    118.9436
   810.5000     15.6340     -1.9525     13.9203    119.6833
   810.7500     15.8462     -2.0534     14.2231    117.9218
   811.0000     16.2889     -2.2014     14.5896    111.6970
   811.2500     16.9569     -2.4292     14.9867    105.8113
   811.5000     17.7370     -2.7474     15.3849     96.8056
   811.7500     18.4005     -3.1442     15.7690     92.4095
   812.0000     18.8006     -3.5931     16.1362     90.1643
   812.2500     19.0357     -4.0595     16.4798     91.3079
   812.5000     19.2631     -4.5053     16.7717     94.2330
   812.7500     19.4634     -4.8964     16.9624     95.0853
   813.0000     19.5550     -5.2122     17.0030     93.2362
   813.2500     19.5497     -5.4524     16.8720     90.5528
   813.5000     19.4672     -5.6373     16.5851     86.8926
   813.7500     19.2938     -5.8001     16.1819     85.9743
   814.0000     19.0458     -5.9723     15.7069     87.4081
   814.2500     18.7290     -6.1704     15.1992     89.5888
   814.5000     18.2621     -6.3906     14.6919     93.1986
   814.7500     17.5847     -6.6126     14.2148     95.5684
   815.0000     16.8293     -6.8115     13.7908    100.0854
   815.2500     16.1897     -6.9711     13.4305    104.4587
   815.5000     15.6895     -7.0912     13.1268    112.6280
   815.7500     15.2750     -7.1827     12.8544    117.7276
   816.0000     14.9585     -7.2577     12.5781    122.1679
   816.2500     14.7695     -7.3229     12.2663    122.4070
   816.5000     14.6744     -7.3767     11.9058    119.9004
   816.7500     14.5458     -7.4088     11.5066    117.7136
   817.0000     14.2596     -7.4044     11.0968    115.6111
   817.2500     13.7859     -7.3538     10.7090    115.2611
   817.5000     13.1083     -7.2596     10.3696    115.3474
   817.7500     12.2793     -7.1377     10.0935    115.1317
   818.0000     11.5803     -7.0077      9.8854    114.2915
   818.2500     11.3354     -6.8831      9.7429    113.9842
   818.5000     11.5907     -6.7649      9.6607    115.1503
   818.7500     12.1076     -6.6421      9.6316    117.3423
   819.0000     12.5961     -6.5006      9.6473    122.1692
   819.2500     12.8694     -6.3340      9.6988    125.4855
   819.5000     12.8376     -6.1522      9.7769    128.9010
   819.7500     12.5286     -5.9805      9.8739    129.7265
   820.0000     12.1487     -5.8532      9.9844    129.4784
   820.2500     11.9755     -5.8037     10.1068    129.0812
   820.5000     12.1007     -5.8541     10.2451    128.8645
   820.7500     12.3614     -6.0051     10.4083    128.8302
   821.0000     12.5789     -6.2325     10.6075    127.9804
   821.2500     12.7405     -6.4951     10.8533    126.2036
   821.5000     12.9418     -6.7526     11.1543    120.9751
   821.7500     13.2750     -6.9807     11.5157    115.8333
   822.0000     13.7435     -7.1755     11.9381    106.7388
   822.2500     14.2545     -7.3481     12.4162    100.8904
   822.5000     14.7079     -7.5153     12.9387     94.5233
   822.7500     15.0778     -7.6941     13.4892     92.5654
