~Version Information
VERS.                      2.0: CWLS Log ASCII Standard - VERSION 2.0
WRAP.                       NO: One line per depth step
~Well Information Block
STRT.FT               -16.0000: 
STOP.FT              2827.7500: 
STEP.FT                 0.2500: 
NULL.                -999.2500: 
COMP.          Pioneer Natural Resources: COMPANY
WELL.          Touchstone 11-32: WELL
FLD.           Purgatorie River: FIELD
LOC.           853' FNL & 407' FWL--: LOCATION
CNTY.               Las Animas: COUNTY
SRVC.          Patterson Wireline: SERVICE COMPANY
DATE.          Wed Mar 15 10:09:19 2006: LOG DATE
UWI.           05 071 08564 00: UNIQUE WELL ID
STAT.                       CO: STATE
~Curve Information Block
DEPT.FT            0 000 00 00: Depth
CCL.                          : Casing Collar Locator
TT3.usec                      : CBL 3' Travel Time
AMP3.mV                       : CBL 3' Amplitude
GR.GAPI                       : Gamma Ray
~Parameter Information Block
~A  Depth       CCL         TT3         AMP3         GR     
# ...
   352.5000      0.0000    775.2316      9.7890     69.3436
   352.7500      0.0000    772.7164      9.7837     65.2128
   353.0000      0.0000    768.3588      9.7778     59.7103
   353.2500      0.0000    762.1688      9.7595     53.5981
   353.5000      0.0000    755.1738      9.7291     48.1237
   353.7500      0.0000    748.9304      9.6995     44.2535
   354.0000      0.0000    744.5182      9.6858     42.3760
   354.2500      0.0000    742.0049      9.6972     42.6958
   354.5000      0.0000    740.6916      9.7355     45.3561
   354.7500      0.0000    739.5416      9.7975     49.8086
   355.0000      0.0000    737.3916      9.8747     54.5003
   355.2500      0.0000    733.3173      9.9538     57.7368
   355.5000      0.0000    727.4525     10.0207     58.7969
   355.7500      0.0000    721.6425     10.0665     57.9800
   356.0000      0.0000    718.8292     10.0914     55.8801
   356.2500      0.0000    721.1248     10.1031     52.9361
   356.5000      0.0000    728.1044     10.1101     49.4591
   356.7500      0.0000    737.1108     10.1112     45.7804
   357.0000      0.0000    745.5127     10.0946     42.4285
   357.2500      0.0000    752.5828     10.0501     40.1553
   357.5000      0.0000    759.0263      9.9814     39.5711
   357.7500      0.0000    765.2077      9.9048     40.6826
   358.0000      0.0000    770.5042      9.8363     42.8914
   358.2500      0.0000    774.1706      9.7815     45.4153
   358.5000      0.0000    776.1776      9.7369     47.5472
   358.7500      0.0000    777.1071      9.6989     48.6175
   359.0000      0.0000    777.6049      9.6696     48.1215
   359.2500      0.0000    778.0612      9.6565     46.1422
   359.5000      0.0000    778.6045      9.6651     43.5722
   359.7500      0.0000    779.2165      9.6905     41.7000
   360.0000      0.0000    779.8174      9.7173     41.3532
   360.2500      0.0000    780.3113      9.7295     42.3056
   360.5000      0.0000    780.6156      9.7238     43.6593
   360.7500      0.0000    780.7036      9.7099     44.8870
   361.0000      0.0000    780.6328      9.7001     46.1811
   361.2500      0.0000    780.5161      9.6994     47.7091
   361.5000      0.0000    780.4515      9.7061     49.0927
   361.7500      0.0000    780.4722      9.7169     49.9112
   362.0000      0.0000    780.6165      9.7317     50.2039
   362.2500      0.0000    781.1084      9.7548     50.1754
   362.5000      0.0000    782.5069      9.7916     49.8749
   362.7500      0.0000    785.4328      9.8425     49.5055
   363.0000      0.0000    789.5376      9.8988     49.6802
   363.2500      0.0000    792.5005      9.9392     50.9782
   363.5000      0.0000    790.6011      9.9232     53.3775
   363.7500      0.0000    780.9393      9.7966     56.2852
   364.0000      0.0000    762.9755      9.5453     58.9347
   364.2500      0.0000    739.1011      9.2625     60.6534
   364.5000      0.0000    716.9351      9.1086     60.9664
   364.7500      0.0000    710.7319      9.1410     59.6741
   365.0000      0.0000    733.6122      9.2231     56.9955
   365.2500      0.0000    783.1164      9.1783     53.7677
   365.5000      0.0000    838.9186      8.9887     51.3143
   365.7500      0.0000    880.6722      8.7719     50.7022
   366.0000      0.0000    905.4537      8.6211     51.9331
   366.2500     -2.0000    923.4177      8.5410     54.0161
   366.5000      2.0000    939.7102      8.5083     55.9148
   366.7500      0.0000    945.1406      8.5471     57.2964
   367.0000      0.0000    924.2980      8.7423     58.3486
   367.2500      0.0000    872.4177      9.1570     59.1345
   367.5000      0.0000    805.3444      9.7159     59.3554
   367.7500      0.0000    750.6345     10.2120     58.6619
   368.0000      0.0000    725.8331     10.4791     57.0026
   368.2500      0.0000    727.0264     10.5204     54.6154
   368.5000      0.0000    738.8293     10.4429     51.8035
   368.7500      0.0000    750.2375     10.3293     48.9227
   369.0000      0.0000    758.8174     10.2084     46.5704
   369.2500      0.0000    765.4112     10.0930     45.3848
   369.5000      0.0000    770.2610     10.0001     45.4512
   369.7500      0.0000    773.2324      9.9437     46.1388
   370.0000      0.0000    774.7111      9.9278     46.6119
   370.2500      0.0000    775.3896      9.9473     46.3076
   370.5000      0.0000    775.8038      9.9901     45.0543
   370.7500      0.0000    776.1835     10.0398     43.2216
   371.0000      0.0000    776.5822     10.0787     41.9465
   371.2500      0.0000    776.9774     10.0946     42.7740
   371.5000      0.0000    777.3260     10.0869     46.5238
   371.7500      0.0000    777.5764     10.0659     52.4338
   372.0000      0.0000    777.6812     10.0465     58.6214
   372.2500      0.0000    777.6167     10.0403     63.3027
   372.5000      0.0000    777.4086     10.0513     65.5167
   372.7500      0.0000    777.1296     10.0784     65.1690
   373.0000      0.0000    776.8639     10.1197     62.8538
   373.2500      0.0000    776.6716     10.1746     59.5589
   373.5000      0.0000    776.5753     10.2410     56.3464
   373.7500      0.0000    776.5656     10.3129     54.2131
   374.0000      0.0000    776.6202     10.3830     53.9037
   374.2500      0.0000    776.7307     10.4481     55.4244
   374.5000      0.0000    776.9139     10.5088     57.7604
   374.7500      0.0000    777.1858     10.5652     59.4086
   375.0000      0.0000    777.5146     10.6137     59.4386
   375.2500      0.0000    777.8126     10.6479     58.1684
   375.5000      0.0000    777.9498     10.6616     56.7949
   375.7500      0.0000    777.7112     10.6514     56.2284
   376.0000      0.0000    776.6577     10.6190     56.3032
   376.2500      0.0000    774.0610     10.5703     56.1835
   376.5000      0.0000    769.2321     10.5135     55.2906
   376.7500      0.0000    762.2765     10.4585     53.6058
   377.0000      0.0000    754.6089     10.4177     51.4381
   377.2500      0.0000    748.4951     10.4023     49.4576
   377.5000      0.0000    745.8345     10.4159     48.7557
   377.7500      0.0000    747.0694     10.4504     50.1956
   378.0000      0.0000    750.6336     10.4920     53.4875
   378.2500      0.0000    753.1925     10.5308     57.2711
   378.5000      0.0000    751.2438     10.5668     60.2213
   378.7500      0.0000    743.6661     10.6080     61.7450
   379.0000      0.0000    732.9083     10.6629     61.7377
   379.2500      0.0000    723.0666     10.7309     60.3851
   379.5000      0.0000    716.5336     10.8012     58.3187
   379.7500      0.0000    712.7566     10.8601     56.3491
   380.0000      0.0000    710.0217     10.9024     54.9234
   380.2500      0.0000    707.6675     10.9350     54.1028
   380.5000      0.0000    706.4391     10.9704     53.8377
   380.7500      0.0000    707.4676     11.0168     54.0036
   381.0000      0.0000    711.3169     11.0732     54.4403
   381.2500      0.0000    717.5362     11.1315     55.1224
   381.5000      0.0000    724.6906     11.1802     56.1846
   381.7500      0.0000    731.0474     11.2069     57.7516
   382.0000      0.0000    735.5737     11.2041     59.6411
   382.2500      0.0000    738.4096     11.1793     61.2086
   382.5000      0.0000    740.5791     11.1563     61.8859
   382.7500      0.0000    743.4531     11.1579     62.0102
   383.0000      0.0000    748.1555     11.1887     62.5220
   383.2500      0.0000    754.7914     11.2364     63.4768
   383.5000      0.0000    761.9557     11.2872     63.6525
   383.7500      0.0000    767.3898     11.3341     62.3633
   384.0000      0.0000    769.5929     11.3796     61.1898
   384.2500      0.0000    768.8067     11.4390     63.1864
   384.5000      0.0000    766.2706     11.5311     70.3258
   384.7500      0.0000    762.7567     11.6585     81.6644
   385.0000      0.0000    758.3837     11.7980     93.8459
   385.2500      0.0000    753.8514     11.9179    103.6599
   385.5000      0.0000    751.0388     12.0030    110.2608
   385.7500      0.0000    751.8098     12.0567    114.7232
