~Version Information
VERS.                      2.0: CWLS Log ASCII Standard - VERSION 2.0
WRAP.                       NO: One line per depth step
~Well Information Block
STRT.FT               440.0000: 
STOP.FT              1702.7500: 
STEP.FT                 0.2500: 
NULL.                -999.2500: 
COMP.          Pioneer Natural Resources: COMPANY
WELL.          Culver 14-12 Tr: WELL
FLD.           Purgatoire River: FIELD
LOC.           915' FSL & 1048' FWL--: LOCATION
STAT.                 Colorado: State
CNTY.               Las Animas: COUNTY
CTRY. USA : Country
SECT. 12 : Section
TOWN. 32S : Township
RANG. 66W : Range
SRVC.                Patterson: SERVICE COMPANY
DATE.          Tue Sep 27 23:38:23 2005: LOG DATE
API.           05 071 08520 00: UNIQUE WELL ID
~Curve Information Block
DEPT.FT            0 000 00 00: Depth
SN.Ohm-m                      : IEL Short Normal
SP.mV                         : IEL Spontaneous Potential
DIR.Ohm-m                     : IEL Induction Resistivity
GR.GAPI                       : Gamma Ray
~Parameter Information Block
~A  Depth        SN          SP         DIR          GR     
# ...
  1512.0000     14.3595     82.7042     14.8034    103.7464
  1512.2500     14.5649     82.6247     15.2106    101.1975
  1512.5000     14.6301     82.7024     15.4547     99.2526
  1512.7500     14.5889     82.9752     15.5123     99.3501
  1513.0000     14.4521     83.4564     15.3965    101.7389
  1513.2500     14.2110     84.1254     15.1385    105.1074
  1513.5000     13.8593     84.9260     14.7685    113.2043
  1513.7500     13.4060     85.7741     14.3071    120.0816
  1514.0000     12.8727     86.5741     13.7703    129.9214
  1514.2500     12.2894     87.2393     13.1783    134.3573
  1514.5000     11.6930     87.7102     12.5626    136.3787
  1514.7500     11.1232     87.9646     11.9623    135.2329
  1515.0000     10.6151     88.0180     11.4134    132.5378
  1515.2500     10.1923     87.9141     10.9393    131.7726
  1515.5000      9.8627     87.7106     10.5473    133.4624
  1515.7500      9.6182     87.4647     10.2326    135.9928
  1516.0000      9.4381     87.2231      9.9836    139.8381
  1516.2500      9.2972     87.0172      9.7861    141.4092
  1516.5000      9.1735     86.8631      9.6249    141.8083
  1516.7500      9.0540     86.7658      9.4861    141.1129
  1517.0000      8.9349     86.7234      9.3593    139.3928
  1517.2500      8.8176     86.7312      9.2398    138.0256
  1517.5000      8.7008     86.7846      9.1267    135.7473
  1517.7500      8.5739     86.8792      9.0188    134.1562
  1518.0000      8.4204     87.0111      8.9110    132.0674
  1518.2500      8.2290     87.1758      8.7951    131.2579
  1518.5000      8.0041     87.3679      8.6649    131.5323
  1518.7500      7.7655     87.5800      8.5215    132.8290
  1519.0000      7.5387     87.8038      8.3745    136.0735
  1519.2500      7.3463     88.0316      8.2398    138.5958
  1519.5000      7.2082     88.2592      8.1343    141.8336
  1519.7500      7.1468     88.4878      8.0705    143.0840
  1520.0000      7.1869     88.7258      8.0537    143.0360
  1520.2500      7.3459     88.9864      8.0814    141.4985
  1520.5000      7.6176     89.2831      8.1452    136.6558
  1520.7500      7.9619     89.6229      8.2348    131.8920
  1521.0000      8.3125     89.9988      8.3411    123.6551
  1521.2500      8.6076     90.3874      8.4574    118.5601
  1521.5000      8.8223     90.7503      8.5780    113.3218
  1521.7500      8.9773     91.0428      8.6974    111.9141
  1522.0000      9.1128     91.2245      8.8098    112.3953
  1522.2500      9.2514     91.2694      8.9103    113.7451
  1522.5000      9.3817     91.1717      8.9942    116.6227
  1522.7500      9.4695     90.9443      9.0552    119.1078
  1523.0000      9.4847     90.6133      9.0848    123.5429
  1523.2500      9.4204     90.2082      9.0757    126.5019
  1523.5000      9.2974     89.7554      9.0270    129.9922
  1523.7500      9.1546     89.2738      8.9488    131.5174
  1524.0000      9.0343     88.7746      8.8621    133.0911
  1524.2500      8.9721     88.2653      8.7949    134.0838
  1524.5000      8.9945     87.7541      8.7764    135.9211
  1524.7500      9.1165     87.2543      8.8303    137.3680
  1525.0000      9.3337     86.7870      8.9707    139.3341
  1525.2500      9.6147     86.3814      9.1996    139.9378
  1525.5000      9.9005     86.0727      9.5061    138.6202
  1525.7500     10.1203     85.8982      9.8684    135.5337
  1526.0000     10.2275     85.8932     10.2582    126.7558
  1526.2500     10.2466     86.0848     10.6474    118.6143
  1526.5000     10.2905     86.4871     11.0159    106.3444
  1526.7500     10.5132     87.0985     11.3548    100.8217
  1527.0000     11.0105     87.8991     11.6609     99.3473
  1527.2500     11.7396     88.8526     11.9243    102.4885
  1527.5000     12.5188     89.9101     12.1181    109.9739
  1527.7500     13.1154     91.0163     12.1995    114.6484
  1528.0000     13.3646     92.1168     12.1264    119.3204
  1528.2500     13.2384     93.1652     11.8806    121.0403
  1528.5000     12.8249     94.1277     11.4811    122.8666
  1528.7500     12.2563     94.9849     10.9771    124.3397
  1529.0000     11.6438     95.7306     10.4279    127.5166
  1529.2500     11.0501     96.3686      9.8829    130.0464
  1529.5000     10.4945     96.9081      9.3720    133.3966
  1529.7500      9.9757     97.3596      8.9075    134.8423
  1530.0000      9.4916     97.7320      8.4910    135.8499
  1530.2500      9.0479     98.0309      8.1207    136.1149
  1530.5000      8.6573     98.2588      7.7966    136.2733
  1530.7500      8.3380     98.4163      7.5234    135.9832
  1531.0000      8.1100     98.5039      7.3106    134.2712
  1531.2500      7.9877     98.5244      7.1709    132.3523
  1531.5000      7.9734     98.4848      7.1173    129.4688
  1531.7500      8.0551     98.3975      7.1602    128.0647
  1532.0000      8.2096     98.2804      7.3058    126.0962
  1532.2500      8.4172     98.1561      7.5561    123.9180
  1532.5000      8.6881     98.0487      7.9096    118.4731
  1532.7500      9.0921     97.9811      8.3645    113.7457
  1533.0000      9.7731     97.9718      8.9219    106.2843
  1533.2500     10.9200     98.0316      9.5915    101.7132
  1533.5000     12.6794     98.1631     10.3937     96.5200
  1533.7500     15.0402     98.3609     11.3557     94.7495
  1534.0000     17.7717     98.6136     12.4973     94.5604
  1534.2500     20.4825     98.9072     13.8091     95.0549
  1534.5000     22.7771     99.2283     15.2310     94.4903
  1534.7500     24.4105     99.5670     16.6475     92.7788
  1535.0000     25.3551     99.9176     17.9135     89.6868
  1535.2500     25.7602    100.2786     18.9056     88.8983
  1535.5000     25.8392    100.6499     19.5667     91.5999
  1535.7500     25.7521    101.0305     19.9146     95.8120
  1536.0000     25.5486    101.4151     20.0142    103.5392
  1536.2500     25.1936    101.7934     19.9399    108.3080
  1536.5000     24.6378    102.1501     19.7492    113.9612
  1536.7500     23.8733    102.4664     19.4743    116.7696
  1537.0000     22.9471    102.7238     19.1278    119.6005
  1537.2500     21.9403    102.9070     18.7160    120.4702
  1537.5000     20.9397    103.0069     18.2517    120.3860
  1537.7500     20.0140    103.0215     17.7578    119.8458
  1538.0000     19.2010    102.9559     17.2596    119.2718
  1538.2500     18.5056    102.8194     16.7741    119.3505
  1538.5000     17.9068    102.6232     16.3063    120.1755
  1538.7500     17.3738    102.3770     15.8568    121.1976
  1539.0000     16.8806    102.0870     15.4302    123.5807
  1539.2500     16.4112    101.7560     15.0339    125.6088
  1539.5000     15.9546    101.3847     14.6687    128.5213
  1539.7500     15.5013    100.9736     14.3207    129.9601
  1540.0000     15.0468    100.5254     13.9664    131.4527
  1540.2500     14.5977    100.0460     13.5873    132.4255
  1540.5000     14.1692     99.5443     13.1836    134.6803
  1540.7500     13.7729     99.0307     12.7735    137.1024
  1541.0000     13.4083     98.5153     12.3814    142.1734
  1541.2500     13.0652     98.0063     12.0254    145.9096
  1541.5000     12.7366     97.5095     11.7145    150.3582
  1541.7500     12.4315     97.0276     11.4551    151.9201
  1542.0000     12.1820     96.5607     11.2608    152.3672
  1542.2500     12.0455     96.1066     11.1560    151.8799
  1542.5000     12.1050     95.6605     11.1724    150.0686
  1542.7500     12.4698     95.2155     11.3420    147.3956
  1543.0000     13.2720     94.7632     11.6925    139.0251
  1543.2500     14.6454     94.2966     12.2462    129.6440
  1543.5000     16.6946     93.8125     13.0220    110.6794
  1543.7500     19.4882     93.3160     14.0392     96.6923
  1544.0000     23.0801     92.8237     15.3222     77.6046
  1544.2500     27.4944     92.3654     16.9035     67.6126
  1544.5000     32.6199     91.9844     18.8242     57.2170
  1544.7500     38.0877     91.7346     21.1229     52.9056
  1545.0000     43.2808     91.6768     23.8079     49.3551
  1545.2500     47.5447     91.8715     26.8100     48.4841
