~Version Information
VERS.                      2.0: CWLS Log ASCII Standard - VERSION 2.0
WRAP.                       NO: One line per depth step
~Well Information Block
STRT.FT               555.0000: 
STOP.FT              2286.5000: 
STEP.FT                 0.1000: 
NULL.                -999.2500: 
COMP.          Pioneer Natural Resources: COMPANY
WELL.          Roadster 41-33 Kv: WELL
FLD.           Purgatoire River: FIELD
LOC.           903' FNL & 248' FEL: LOCATION
PROV.                 Colorado: PROVINCE
CNTY.               Las Animas: COUNTRY
SRVC.                Patterson: SERVICE COMPANY
DATE.          Thu Dec 15 10:28:25 2005: LOG DATE
UWI.           05 071 08615 00: UNIQUE WELL ID
~Curve Information Block
DEPT.FT            0 000 00 00: Depth
DCAL.in                       : CDL Caliper
RHOB.g/cc                     : CDL Bulk Density
RHOC.g/cc                     : CDL Density Correction
DPOR.pu                       : CDL Density Porosity
GR.GAPI                       : Gamma Ray
NPOR.pu                       : Neutron Porosity
~Parameter Information Block
~A  Depth       DCAL        RHOB        RHOC        DPOR         GR         NPOR    
# ...
  1467.0000      8.1270      2.5524      0.0423      5.9123    147.4850     25.7376
  1467.1000      8.1270      2.5501      0.0121      6.0558    153.6497     26.8619
  1467.2000      8.1270      2.5508      0.0094      6.0130    155.9425     27.2894
  1467.3000      8.1431      2.5611      0.0322      5.3886    153.2168     26.2049
  1467.4000      8.1431      2.5821      0.0333      4.1144    150.2303     25.0207
  1467.5000      8.1780      2.6036      0.0772      2.8105    151.9110     24.8627
  1467.6000      8.1780      2.6131      0.0673      2.2341    155.3625     25.1686
  1467.7000      8.1780      2.6070      0.0404      2.6075    154.8191     25.0691
  1467.8000      8.1583      2.5939     -0.0034      3.4027    149.0582     24.6743
  1467.9000      8.1583      2.5871     -0.0243      3.8134    144.4314     24.5124
  1468.0000      8.1262      2.5865      0.0020      3.8479    146.2044     24.8018
  1468.1000      8.1262      2.5828     -0.0134      4.0751    149.1243     25.5212
  1468.2000      8.1262      2.5738      0.0478      4.6200    147.4418     26.1465
  1468.3000      8.1190      2.5655     -0.0166      5.1242    147.2012     26.2248
  1468.4000      8.1190      2.5588      0.0308      5.5296    154.1532     26.1238
  1468.5000      8.1279      2.5395      0.0386      6.6992    166.6432     26.0504
  1468.6000      8.1279      2.5056     -0.0167      8.7508    178.7686     26.0303
  1468.7000      8.1279      2.4845     -0.0634     10.0301    180.0952     26.1874
  1468.8000      8.1220      2.4959     -0.0062      9.3382    168.3841     25.9004
  1468.9000      8.1220      2.5272      0.0336      7.4414    156.5766     24.5662
  1469.0000      8.1095      2.5581      0.0517      5.5722    151.3400     23.0884
  1469.1000      8.1095      2.5772      0.0978      4.4135    147.0466     22.9506
  1469.2000      8.1095      2.5796      0.0894      4.2656    139.8355     23.8258
  1469.3000      8.1087      2.5749      0.0367      4.5505    131.6049     24.3134
  1469.4000      8.1087      2.5741      0.1141      4.5994    125.2579     23.9925
  1469.5000      8.0855      2.5688      0.0766      4.9222    121.7349     22.8351
  1469.6000      8.0855      2.5560      0.0517      5.6944    122.1153     21.1485
  1469.7000      8.0855      2.5489      0.0214      6.1285    122.5703     19.8953
  1469.8000      8.1049      2.5507      0.0311      6.0179    117.4185     19.6038
  1469.9000      8.1049      2.5548      0.0320      5.7726    111.0765     19.7208
  1470.0000      8.0877      2.5633      0.0208      5.2528    111.4258     19.4443
  1470.1000      8.0877      2.5805      0.0410      4.2116    115.4404     18.5495
  1470.2000      8.0877      2.5993      0.0845      3.0698    115.2731     17.3795
  1470.3000      8.0635      2.6175      0.0855      1.9706    111.7327     16.4930
  1470.4000      8.0635      2.6413      0.1026      0.5300    107.8415     16.1449
  1470.5000      8.0451      2.6559      0.1973     -0.3549    103.4451     16.3407
  1470.6000      8.0451      2.6386      0.1516      0.6915     98.4756     16.8213
  1470.7000      8.0451      2.6052      0.0679      2.7145     91.5217     17.1454
  1470.8000      8.0414      2.5884      0.0793      3.7338     83.6679     17.3379
  1470.9000      8.0414      2.5971      0.0543      3.2031     79.0809     17.9721
  1471.0000      8.0486      2.6202      0.1025      1.8069     77.0228     18.6872
  1471.1000      8.0486      2.6400      0.1067      0.6059     75.7743     18.1075
  1471.2000      8.0486      2.6490      0.1072      0.0580     77.8724     16.4034
  1471.3000      8.0563      2.6507      0.1197     -0.0413     83.1205     14.8420
  1471.4000      8.0563      2.6451      0.1249      0.2959     85.2300     13.9802
  1471.5000      8.0619      2.6337      0.0827      0.9888     82.3503     13.7461
  1471.6000      8.0619      2.6304      0.0552      1.1859     78.8283     14.2191
  1471.7000      8.0619      2.6364      0.0904      0.8252     76.0841     15.6365
  1471.8000      8.0821      2.6322      0.0480      1.0799     73.0690     17.1618
  1471.9000      8.0821      2.6165      0.0636      2.0290     70.0574     17.7282
  1472.0000      8.0810      2.6063      0.0332      2.6513     68.8070     17.9655
  1472.1000      8.0810      2.6060      0.0664      2.6643     70.3854     18.9109
  1472.2000      8.0810      2.6055      0.0490      2.6994     70.3486     20.0558
  1472.3000      8.0878      2.6000      0.0390      3.0289     65.1828     20.4722
  1472.4000      8.0878      2.5936      0.0003      3.4212     61.6245     20.9127
  1472.5000      8.1082      2.5879      0.0078      3.7619     65.1129     21.7302
  1472.6000      8.1082      2.5749      0.0194      4.5489     69.4487     21.9964
  1472.7000      8.1082      2.5473     -0.0179      6.2235     70.8768     21.8595
  1472.8000      8.1152      2.5183     -0.0502      7.9795     74.1856     21.8496
  1472.9000      8.1152      2.5025     -0.0319      8.9415     79.9440     21.5984
  1473.0000      8.1273      2.4895      0.0203      9.7259     86.5227     21.2177
  1473.1000      8.1273      2.4727     -0.0307     10.7434     93.5019     21.3190
  1473.2000      8.1273      2.4649     -0.0422     11.2207     96.6777     21.3508
  1473.3000      8.1129      2.4705     -0.0317     10.8778     94.9794     21.0618
  1473.4000      8.1129      2.4850      0.0006      9.9971     93.3319     21.2750
  1473.5000      8.0770      2.5025      0.0500      8.9414     93.9395     21.7065
  1473.6000      8.0770      2.5136      0.0815      8.2686     94.1805     21.8997
  1473.7000      8.0770      2.5210      0.0471      7.8153     90.5271     22.2489
  1473.8000      8.0452      2.5389      0.1122      6.7314     85.4347     22.6910
  1473.9000      8.0452      2.5605      0.1518      5.4233     85.5383     22.8950
  1474.0000      8.0445      2.5623      0.1525      5.3176     90.0621     22.9432
  1474.1000      8.0445      2.5417      0.1240      6.5607     91.4001     22.5188
  1474.2000      8.0445      2.5162      0.0842      8.1067     87.3165     21.6055
  1474.3000      8.0735      2.4920      0.0584      9.5749     82.6624     21.4545
  1474.4000      8.0735      2.4728      0.0237     10.7379     79.1210     22.0888
  1474.5000      8.0996      2.4669      0.0614     11.0971     76.0487     22.2834
  1474.6000      8.0996      2.4714      0.0538     10.8254     74.8654     22.1668
  1474.7000      8.0996      2.4792      0.0670     10.3545     77.3941     21.8606
  1474.8000      8.1033      2.4869      0.0621      9.8818     83.0317     20.6857
  1474.9000      8.1033      2.4927      0.0292      9.5360     86.2493     19.3329
  1475.0000      8.1084      2.4966      0.0314      9.2995     81.9346     19.1518
  1475.1000      8.1084      2.5061      0.0285      8.7212     73.2487     19.7412
  1475.2000      8.1084      2.5258      0.0584      7.5258     68.4698     19.6143
  1475.3000      8.1087      2.5482      0.0540      6.1713     66.5927     18.6292
  1475.4000      8.1087      2.5689      0.0740      4.9172     62.3603     17.7715
  1475.5000      8.1026      2.5886      0.1216      3.7213     58.8722     17.4291
  1475.6000      8.1026      2.6046      0.0508      2.7513     59.9100     17.2112
  1475.7000      8.1026      2.6148      0.0752      2.1326     62.0180     16.8895
  1475.8000      8.0906      2.6213      0.0471      1.7412     60.8262     16.6917
  1475.9000      8.0906      2.6236      0.0798      1.5996     57.2677     16.5660
  1476.0000      8.0830      2.6096      0.0763      2.4487     54.8054     16.8281
  1476.1000      8.0830      2.5752      0.0553      4.5314     55.2769     17.7159
  1476.2000      8.0830      2.5408      0.0118      6.6164     57.0908     18.0539
  1476.3000      8.0876      2.5228      0.0130      7.7121     58.4975     17.4917
  1476.4000      8.0876      2.5121      0.0292      8.3582     60.6279     17.1812
  1476.5000      8.0974      2.5033     -0.0080      8.8912     64.8774     17.6427
