~Version Information
VERS.                      2.0: CWLS Log ASCII Standard - VERSION 2.0
WRAP.                       NO: One line per depth step
~Well Information Block
STRT.FT                -8.0000: 
STOP.FT              1323.7500: 
STEP.FT                 0.2500: 
NULL.                -999.2500: 
COMP.          Pioneer Natural Resources: COMPANY
WELL.              Geyser 41-2: WELL
FLD.           Purgatorie River: FIELD
LOC.           506' FNL & 1127' FEL--: LOCATION
PROV.                       CO: PROVINCE
CNTY.               Las Animas: COUNTRY
SRVC.          Patterson Wireline: SERVICE COMPANY
DATE.          Tue Dec 06 09:28:14 2005: LOG DATE
UWI.           08 071 08598 00: UNIQUE WELL ID
~Curve Information Block
DEPT.FT            0 000 00 00: Depth
CCL.                          : Casing Collar Locator
TT3.usec                      : CBL 3' Travel Time
AMP3.mV                       : CBL 3' Amplitude
GR.GAPI                       : Gamma Ray
~Parameter Information Block
~A  Depth       CCL         TT3         AMP3         GR     
# ...
   963.5000      0.0000    759.9503     11.2252    150.2705
   963.7500      0.0000    759.0444     11.1526    148.7224
   964.0000      0.0000    757.4758     11.1449    147.8475
   964.2500      0.0000    754.4047     11.1723    148.0624
   964.5000      0.0000    749.9863     11.2162    149.0623
   964.7500      0.0000    745.3768     11.2906    149.8197
   965.0000      0.0000    741.7437     11.4168    148.8573
   965.2500      0.0000    739.4823     11.5793    144.7097
   965.5000      0.0000    738.2906     11.7184    136.6720
   965.7500      0.0000    737.7040     11.7713    125.3986
   966.0000      0.0000    737.4711     11.7175    112.4694
   966.2500      0.0000    737.6294     11.5849     99.3528
   966.5000      0.0000    738.5228     11.4219     87.0184
   966.7500      0.0000    740.8065     11.2715     76.1497
   967.0000      0.0000    745.2380     11.1636     67.1782
   967.2500      0.0000    752.2125     11.1152     60.2447
   967.5000      0.0000    761.3531     11.1250     55.3912
   967.7500      0.0000    771.5588     11.1695     52.7272
   968.0000      0.0000    781.5847     11.2157     52.1826
   968.2500      0.0000    790.7690     11.2463     53.0696
   968.5000      0.0000    799.1423     11.2709     54.0657
   968.7500      0.0000    806.6837     11.3112     53.9316
   969.0000      0.0000    812.7457     11.3782     52.3664
   969.2500      0.0000    816.4564     11.4648     50.0988
   969.5000      0.0000    817.4946     11.5554     48.1527
   969.7500      0.0000    816.4216     11.6354     47.1116
   970.0000      0.0000    814.5150     11.6926     47.0070
   970.2500      0.0000    813.0795     11.7186     47.7759
   970.5000      0.0000    812.6078     11.7148     49.6062
   970.7500      0.0000    812.8939     11.6995     52.5474
   971.0000      0.0000    814.4605     11.7058     55.8019
   971.2500      0.0000    819.3013     11.7613     57.8547
   971.5000      0.0000    829.3279     11.8636     57.6357
   971.7500      0.0000    844.2333     11.9737     55.5569
   972.0000      0.0000    861.5778     12.0404     53.2074
   972.2500      0.0000    878.6655     12.0325     51.8934
   972.5000      0.0000    893.4510     11.9522     51.7030
   972.7500      0.0000    903.9484     11.8267     52.1947
   973.0000      0.0000    908.0069     11.6909     53.5579
   973.2500      0.0000    904.1384     11.5692     56.4258
   973.5000      0.0000    892.5646     11.4649     60.5560
   973.7500      0.0000    875.7776     11.3653     64.3424
   974.0000      0.0000    857.9896     11.2557     66.0033
   974.2500      0.0000    843.1964     11.1253     65.0457
   974.5000      0.0000    833.1977     10.9633     62.2861
   974.7500      0.0000    827.2692     10.7626     58.7514
   975.0000      0.0000    823.5034     10.5310     55.1728
   975.2500      0.0000    820.4189     10.2931     52.4441
   975.5000      0.0000    817.7873     10.0763     51.6519
   975.7500      0.0000    816.2739      9.8996     53.2107
   976.0000      0.0000    816.2809      9.7725     56.2498
   976.2500      0.0000    817.1827      9.6978     59.0020
   976.5000      0.0000    817.7291      9.6723     59.7904
   976.7500      0.0000    816.9911      9.6816     58.0154
   977.0000      0.0000    814.9179      9.6977     54.6043
   977.2500      0.0000    812.2732      9.6880     51.3518
   977.5000      0.0000    810.0496      9.6361     49.4854
   977.7500      0.0000    808.7413      9.5542     48.8723
   978.0000      0.0000    808.1911      9.4792     48.6135
   978.2500      0.0000    808.0801      9.4568     48.1206
   978.5000      0.0000    808.3286      9.5256     47.6081
   978.7500      0.0000    809.1194      9.7138     47.8526
   979.0000      0.0000    810.6728     10.0404     49.4090
   979.2500      0.0000    812.6422     10.5082     51.7308
   979.5000      0.0000    813.6210     11.0940     53.1201
   979.7500      0.0000    811.7087     11.7655     51.8974
   980.0000      0.0000    805.5261     12.5205     47.7950
   980.2500      0.0000    793.8293     13.3972     42.2421
   980.5000      0.0000    773.1092     14.4360     37.2817
   980.7500      0.0000    736.0489     15.6432     34.1602
   981.0000      0.0000    675.2982     17.0084     32.8455
   981.2500      0.0000    592.0790     18.5435     32.6708
   981.5000      0.0000    500.7942     20.2772     33.1770
   981.7500      0.0000    421.8246     22.1954     34.4362
   982.0000      0.0000    368.1928     24.1808     37.0788
   982.2500      0.0000    339.5988     26.0251     42.2559
   982.5000      0.0000    327.5827     27.5198     51.1180
   982.7500      0.0000    323.5571     28.5494     63.8154
   983.0000      0.0000    322.4645     29.1045     78.8787
   983.2500      0.0000    322.2544     29.2332     93.6127
   983.5000      0.0000    322.3157     29.0117    105.2183
   983.7500      0.0000    322.4915     28.5416    111.9908
   984.0000      0.0000    322.7108     27.9150    113.9970
   984.2500      0.0000    322.9661     27.1627    112.7666
   984.5000      0.0000    323.3663     26.2593    110.2226
   984.7500      0.0000    324.4240     25.1815    107.6484
   985.0000      0.0000    327.8427     23.9308    105.4483
   985.2500      0.0000    337.6046     22.4884    103.7702
   985.5000      0.0000    359.9068     20.7825    103.2102
   985.7500      0.0000    399.5717     18.7624    104.6887
   986.0000      0.0000    454.4588     16.5363    108.6046
   986.2500      0.0000    515.3032     14.3979    114.2378
   986.5000      0.0000    574.3101     12.6640    119.9068
   986.7500      0.0000    632.0215     11.4895    123.5820
   987.0000      0.0000    692.3041     10.8429    123.5638
   987.2500      0.0000    753.9113     10.5809    119.2442
   987.5000      0.0000    811.6445     10.5034    111.6915
   987.7500     -2.0000    862.5954     10.4189    103.3722
   988.0000      0.0000    906.3310     10.2414     96.9548
   988.2500      2.0000    940.3312     10.0112     94.0893
   988.5000      0.0000    958.7989      9.8139     94.8308
   988.7500      0.0000    956.7244      9.7126     97.7298
   989.0000      0.0000    934.8629      9.7474    100.6526
   989.2500      0.0000    900.9557      9.9303    102.1014
   989.5000      0.0000    865.8161     10.2257    102.0832
   989.7500      0.0000    837.5970     10.5847    101.6121
   990.0000      0.0000    819.3232     10.9754    101.2812
   990.2500      0.0000    810.3522     11.3367    100.3761
   990.5000      0.0000    808.6458     11.5595     97.6005
   990.7500      0.0000    811.5203     11.5760     92.7142
   991.0000      0.0000    814.9772     11.4338     87.1270
   991.2500      0.0000    812.6711     11.2478     82.6529
   991.5000      0.0000    796.2747     11.1090     79.7788
   991.7500      0.0000    759.0273     11.0416     77.2405
   992.0000      0.0000    701.7477     11.0128     73.3496
   992.2500      0.0000    635.7285     10.9662     67.8206
   992.5000      0.0000    577.1886     10.8592     62.2382
   992.7500      0.0000    536.9940     10.6828     58.7690
   993.0000      0.0000    515.6628     10.4603     58.5563
   993.2500      0.0000    507.0130     10.2338     61.0685
   993.5000      0.0000    504.4200     10.0448     64.3766
   993.7500      0.0000    503.8316      9.9131     66.1142
   994.0000      0.0000    503.4222      9.8286     65.0295
   994.2500      0.0000    502.2592      9.7670     62.1353
   994.5000      0.0000    499.4721      9.7179     59.9880
   994.7500      0.0000    494.2817      9.6953     60.3779
   995.0000      0.0000    486.6898      9.7185     62.8286
   995.2500      0.0000    477.9414      9.7883     65.4944
   995.5000      0.0000    469.9908      9.8830     67.1898
   995.7500      0.0000    464.2940      9.9727     68.1364
   996.0000      0.0000    461.1190     10.0330     68.9825
   996.2500      0.0000    459.8633     10.0497     69.7434
   996.5000      0.0000    459.7791     10.0202     69.9354
   996.7500      0.0000    460.4778      9.9517     69.3872
