~Version Information
VERS.                      2.0: CWLS Log ASCII Standard - VERSION 2.0
WRAP.                       NO: One line per depth step
~Well Information Block
STRT.FT               845.0000: 
STOP.FT              2103.2000: 
STEP.FT                 0.1000: 
NULL.                -999.2500: 
COMP.          Petrogulf Corporation: COMPANY
WELL.               YWAM 7-32R: WELL
FLD.           Purgatorie River: FIELD
LOC.           2355' FNL & 2376' FEL: LOCATION
PROV.                 Colorado: PROVINCE
CNTY.               Las Animas: COUNTRY
SRVC.                Patterson: SERVICE COMPANY
DATE.          Thu Sep 29 23:12:08 2005: LOG DATE
UWI.                          : UNIQUE WELL ID
~Curve Information Block
DEPT.FT            0 000 00 00: Depth
SP.mV                         : DIL Spontaneous Potential
RILD.Ohm-m                    : DIL Deep Resistivity
RILM.Ohm-m                    : DIL Medium Resistivity
RLL3.Ohm-m                    : DIL Shallow Resistivity
GR.GAPI                       : Gamma Ray
~Parameter Information Block
~A  Depth        SP         RILD        RILM        RLL3         GR     
# ...
  1752.2000    194.1330     20.0799     31.0428     50.7383     88.4322
  1752.3000    194.6409     18.6044     28.7292     56.2805     85.8610
  1752.4000    194.6409     18.6044     28.7292     56.2805     83.3409
  1752.5000    195.5124     17.1579     25.8730     59.3091     80.9570
  1752.6000    195.5124     17.1579     25.8730     59.3091     78.7986
  1752.7000    195.5124     17.1579     25.8730     59.3091     76.9658
  1752.8000    196.6496     15.8058     22.8272     58.4644     75.5628
  1752.9000    196.6496     15.8058     22.8272     58.4644     74.6956
  1753.0000    197.9300     14.5854     19.9058     53.2994     74.4597
  1753.1000    197.9300     14.5854     19.9058     53.2994     74.9261
  1753.2000    197.9300     14.5854     19.9058     53.2994     76.1346
  1753.3000    199.2168     13.5091     17.3083     44.5828     78.0855
  1753.4000    199.2168     13.5091     17.3083     44.5828     80.7409
  1753.5000    200.3764     12.5726     15.1162     34.2350     84.0322
  1753.6000    200.3764     12.5726     15.1162     34.2350     87.8671
  1753.7000    200.3764     12.5726     15.1162     34.2350     92.1397
  1753.8000    201.3028     11.7607     13.3284     24.5662     96.7438
  1753.9000    201.3028     11.7607     13.3284     24.5662    101.5700
  1754.0000    201.9395     11.0538     11.9011     17.1984    106.5104
  1754.1000    201.9395     11.0538     11.9011     17.1984    111.4531
  1754.2000    201.9395     11.0538     11.9011     17.1984    116.2843
  1754.3000    202.2853     10.4324     10.7752     12.5342    120.8874
  1754.4000    202.2853     10.4324     10.7752     12.5342    125.1455
  1754.5000    202.3825      9.8809      9.8926     10.0575    128.9533
  1754.6000    202.3825      9.8809      9.8926     10.0575    132.2227
  1754.7000    202.3825      9.8809      9.8926     10.0575    134.8949
  1754.8000    202.2958      9.3896      9.2026      8.9681    136.9475
  1754.9000    202.2958      9.3896      9.2026      8.9681    138.3916
  1755.0000    202.0959      8.9554      8.6643      8.6082    139.2728
  1755.1000    202.0959      8.9554      8.6643      8.6082    139.6628
  1755.2000    202.0959      8.9554      8.6643      8.6082    139.6518
  1755.3000    201.8482      8.5801      8.2462      8.5690    139.3394
  1755.4000    201.8482      8.5801      8.2462      8.5690    138.8252
  1755.5000    201.6053      8.2690      7.9258      8.6354    138.2064
  1755.6000    201.6053      8.2690      7.9258      8.6354    137.5714
  1755.7000    201.6053      8.2690      7.9258      8.6354    136.9950
  1755.8000    201.4026      8.0280      7.6880      8.7114    136.5340
  1755.9000    201.4026      8.0280      7.6880      8.7114    136.2249
  1756.0000    201.2581      7.8621      7.5231      8.7746    136.0807
  1756.1000    201.2581      7.8621      7.5231      8.7746    136.0909
  1756.2000    201.2581      7.8621      7.5231      8.7746    136.2323
  1756.3000    201.1748      7.7739      7.4263      8.8497    136.4678
  1756.4000    201.1748      7.7739      7.4263      8.8497    136.7616
  1756.5000    201.1417      7.7635      7.3959      8.9816    137.0804
  1756.6000    201.1417      7.7635      7.3959      8.9816    137.3996
  1756.7000    201.1417      7.7635      7.3959      8.9816    137.7055
  1756.8000    201.1348      7.8291      7.4326      9.1989    137.9886
  1756.9000    201.1348      7.8291      7.4326      9.1989    138.2444
  1757.0000    201.1222      7.9674      7.5396      9.4857    138.4628
  1757.1000    201.1222      7.9674      7.5396      9.4857    138.6266
  1757.2000    201.1222      7.9674      7.5396      9.4857    138.7154
  1757.3000    201.0732      8.1743      7.7221      9.7972    138.7027
  1757.4000    201.0732      8.1743      7.7221      9.7972    138.5608
  1757.5000    200.9662      8.4439      7.9875     10.1278    138.2673
  1757.6000    200.9662      8.4439      7.9875     10.1278    137.8065
  1757.7000    200.9662      8.4439      7.9875     10.1278    137.1692
  1757.8000    200.7911      8.7676      8.3443     10.5887    136.3473
  1757.9000    200.7911      8.7676      8.3443     10.5887    135.3307
  1758.0000    200.5486      9.1316      8.8015     11.4806    134.1019
  1758.1000    200.5486      9.1316      8.8015     11.4806    132.6321
  1758.2000    200.5486      9.1316      8.8015     11.4806    130.8808
  1758.3000    200.2488      9.5173      9.3655     13.3942    128.8026
  1758.4000    200.2488      9.5173      9.3655     13.3942    126.3598
  1758.5000    199.9101      9.9022     10.0350     17.3065    123.5316
  1758.6000    199.9101      9.9022     10.0350     17.3065    120.3258
  1758.7000    199.9101      9.9022     10.0350     17.3065    116.7818
  1758.8000    199.5577     10.2643     10.7950     24.4337    112.9701
  1758.9000    199.5577     10.2643     10.7950     24.4337    108.9793
  1759.0000    199.2223     10.5867     11.6085     35.5379    104.9030
  1759.1000    199.2223     10.5867     11.6085     35.5379    100.8229
  1759.2000    199.2223     10.5867     11.6085     35.5379     96.7975
  1759.3000    198.9400     10.8606     12.4121     49.7664     92.8623
  1759.4000    198.9400     10.8606     12.4121     49.7664     89.0325
  1759.5000    198.7536     11.0844     13.1206     63.8656     85.3210
  1759.6000    198.7536     11.0844     13.1206     63.8656     81.7529
  1759.7000    198.7536     11.0844     13.1206     63.8656     78.3815
  1759.8000    198.7077     11.2586     13.6456     72.9618     75.2999
  1759.9000    198.7077     11.2586     13.6456     72.9618     72.6321
  1760.0000    198.8341     11.3804     13.9236     73.1282     70.5202
  1760.1000    198.8341     11.3804     13.9236     73.1282     69.1043
  1760.2000    198.8341     11.3804     13.9236     73.1282     68.4994
  1760.3000    199.1314     11.4407     13.9374     64.0511     68.7660
  1760.4000    199.1314     11.4407     13.9374     64.0511     69.9120
  1760.5000    199.5538     11.4256     13.7166     49.4346     71.8790
  1760.6000    199.5538     11.4256     13.7166     49.4346     74.5604
  1760.7000    199.5538     11.4256     13.7166     49.4346     77.8093
  1760.8000    200.0207     11.3198     13.3175     34.6377     81.4628
  1760.9000    200.0207     11.3198     13.3175     34.6377     85.3567
  1761.0000    200.4451     11.1121     12.7993     23.5848     89.3407
  1761.1000    200.4451     11.1121     12.7993     23.5848     93.2869
  1761.2000    200.4451     11.1121     12.7993     23.5848     97.0957
  1761.3000    200.7619     10.7997     12.2091     17.3171    100.6929
  1761.4000    200.7619     10.7997     12.2091     17.3171    104.0346
  1761.5000    200.9401     10.3943     11.5797     14.6448    107.0981
  1761.6000    200.9401     10.3943     11.5797     14.6448    109.8777
  1761.7000    200.9401     10.3943     11.5797     14.6448    112.3780
  1761.8000    200.9750      9.9232     10.9340     13.6931    114.6088
  1761.9000    200.9750      9.9232     10.9340     13.6931    116.5816
  1762.0000    200.8742      9.4252     10.2915     13.0832    118.3041
  1762.1000    200.8742      9.4252     10.2915     13.0832    119.7862
  1762.2000    200.8742      9.4252     10.2915     13.0832    121.0426
  1762.3000    200.6497      8.9401      9.6706     12.2883    122.0948
  1762.4000    200.6497      8.9401      9.6706     12.2883    122.9736
  1762.5000    200.3188      8.4987      9.0890     11.3567    123.7157
  1762.6000    200.3188      8.4987      9.0890     11.3567    124.3637
  1762.7000    200.3188      8.4987      9.0890     11.3567    124.9508
  1762.8000    199.9059      8.1173      8.5611     10.4736    125.5049
  1762.9000    199.9059      8.1173      8.5611     10.4736    126.0398
  1763.0000    199.4396      7.7980      8.0965      9.7325    126.5634
  1763.1000    199.4396      7.7980      8.0965      9.7325    127.0777
  1763.2000    199.4396      7.7980      8.0965      9.7325    127.5928
  1763.3000    198.9485      7.5336      7.6991      9.1494    128.1263
