~Version Information
VERS.                      2.0: CWLS Log ASCII Standard - VERSION 2.0
WRAP.                       NO: One line per depth step
~Well Information Block
STRT.FT                 0.0000: 
STOP.FT              3428.7500: 
STEP.FT                 0.2500: 
NULL.                -999.2500: 
COMP.          Pioneer Natural Resources: COMPANY
WELL.          Cordillera 34-7: WELL
FLD.           Purgatorie River: FIELD
LOC.           598' FSL & 1770' FEL: LOCATION
PROV.                 Colorado: PROVINCE
CNTY.               Las Animas: COUNTRY
SRVC.                Patterson: SERVICE COMPANY
DATE.          Fri Nov 18 07:55:32 2005: LOG DATE
UWI.                          : UNIQUE WELL ID
~Curve Information Block
DEPT.FT            0 000 00 00: Depth
AMP3.mV                       : CBL 3' Amplitude
CCL.                          : Casing Collar Locator
GR.GAPI                       : Gamma Ray
TT3.usec                      : CBL 3' Travel Time
~Parameter Information Block
~A  Depth       AMP3        CCL          GR         TT3     
# ...
  3383.5000      4.4118      0.0000     90.8075    381.8576
  3383.7500      4.3315      0.0000     85.6573    382.0236
  3384.0000      4.2585      0.0000     80.3490    383.7945
  3384.2500      4.1747      0.0000     75.7200    385.4698
  3384.5000      4.0566      0.0000     72.0368    386.6491
  3384.7500      3.9005      0.0000     69.0890    387.4010
  3385.0000      3.7250      0.0000     66.9096    388.0273
  3385.2500      3.5633      0.0000     66.1805    388.7793
  3385.5000      3.4504      0.0000     67.6732    389.6745
  3385.7500      3.3911      0.0000     71.3030    390.5755
  3386.0000      3.3597      0.0000     75.9275    391.3986
  3386.2500      3.3416      0.0000     80.1372    392.2113
  3386.5000      3.3460      0.0000     83.0791    393.1213
  3386.7500      3.3848      0.0000     84.4095    394.1160
  3387.0000      3.4571      0.0000     83.8607    395.1047
  3387.2500      3.5465      0.0000     81.5350    396.0692
  3387.5000      3.6226      0.0000     78.6210    397.0526
  3387.7500      3.6308      0.0000     77.0683    398.2867
  3388.0000      3.4942      0.0000     78.0396    401.3722
  3388.2500      3.1946      0.0000     80.8162    411.6279
  3388.5000      2.8878      0.0000     83.3533    437.6146
  3388.7500      2.8017      0.0000     83.7602    481.2204
  3389.0000      2.9276      0.0000     81.3803    526.3907
  3389.2500      3.0607      0.0000     76.9935    550.0933
  3389.5000      3.1269      0.0000     72.2870    551.8368
  3389.7500      3.1595      0.0000     68.8001    559.4795
  3390.0000      3.1523      0.0000     67.1231    591.1201
  3390.2500      3.1165      2.0000     67.2562    623.0739
  3390.5000      3.0933      0.0000     69.3842    619.8677
  3390.7500      3.0755      0.0000     73.4730    587.3697
  3391.0000      3.0468      0.0000     78.2290    569.7553
  3391.2500      3.1203      0.0000     81.4098    592.7175
  3391.5000      3.4190      0.0000     81.4885    636.1440
  3391.7500      3.7621      0.0000     78.6054    669.4650
  3392.0000      3.8614      0.0000     73.9977    682.5335
  3392.2500      3.7556      0.0000     69.1245    677.2684
  3392.5000      3.6542      0.0000     65.2940    658.3024
  3392.7500      3.6234      0.0000     63.3541    635.9451
  3393.0000      3.6135      0.0000     63.3057    622.8278
  3393.2500      3.5772      0.0000     64.4171    621.9320
  3393.5000      3.5046      0.0000     65.9228    623.4268
  3393.7500      3.4014      0.0000     67.5545    618.3824
  3394.0000      3.2784      0.0000     69.3619    609.4214
  3394.2500      3.1557      0.0000     71.1257    603.0396
  3394.5000      3.0457      0.0000     72.1155    600.5769
  3394.7500      2.9521      0.0000     71.6805    600.0165
  3395.0000      2.8820      0.0000     70.1082    599.8085
  3395.2500      2.8357      0.0000     68.5810    599.4585
  3395.5000      2.8039      0.0000     68.0699    598.9326
  3395.7500      2.7800      0.0000     68.3811    598.2827
  3396.0000      2.7527      0.0000     68.3899    597.5960
  3396.2500      2.7055      0.0000     67.2221    597.0143
  3396.5000      2.6425      0.0000     65.3331    596.6483
  3396.7500      2.6003      0.0000     64.4536    596.6362
  3397.0000      2.6272      0.0000     66.1378    597.5994
  3397.2500      2.7402      0.0000     70.1453    600.8882
  3397.5000      2.9043      0.0000     74.4575    607.3288
  3397.7500      3.0762      0.0000     77.1112    615.2156
  3398.0000      3.2493      0.0000     77.8145    621.2493
  3398.2500      3.4305      0.0000     77.4496    623.9883
  3398.5000      3.6107      0.0000     76.3318    624.5923
  3398.7500      3.7756      0.0000     73.9315    624.7396
  3399.0000      3.9138      0.0000     70.4072    625.2641
  3399.2500      4.0213      0.0000     67.3217    626.0497
  3399.5000      4.1220      0.0000     66.2640    626.4307
  3399.7500      4.2584      0.0000     67.3969    625.4651
  3400.0000      4.4495      0.0000     69.5904    620.6475
  3400.2500      4.6672      0.0000     71.3723    606.4036
  3400.5000      4.8514      0.0000     71.6715    579.6978
  3400.7500      4.9369      0.0000     70.3549    551.8921
  3401.0000      4.8779      0.0000     68.3944    546.3154
  3401.2500      4.6792      0.0000     67.1222    573.4456
  3401.5000      4.4017      0.0000     67.0214    614.7401
  3401.7500      4.1234      0.0000     67.4122    643.1146
  3402.0000      3.8925      0.0000     67.3850    652.1556
  3402.2500      3.7075      0.0000     66.8427    652.4143
  3402.5000      3.5379      0.0000     66.5494    651.6945
  3402.7500      3.3527      0.0000     67.2530    649.1561
  3403.0000      3.1305      0.0000     68.8204    640.5183
  3403.2500      2.8699      0.0000     70.3681    626.0800
  3403.5000      2.6023      0.0000     71.2330    612.4483
  3403.7500      2.3830      0.0000     71.5464    604.5898
  3404.0000      2.2548      0.0000     71.7623    601.6016
  3404.2500      2.2214      0.0000     71.9383    600.6817
  3404.5000      2.2564      0.0000     71.7322    600.3111
  3404.7500      2.3161      0.0000     70.9870    600.0615
  3405.0000      2.3448      0.0000     69.9407    599.8642
  3405.2500      2.3129      0.0000     68.7021    599.7164
  3405.5000      2.2593      0.0000     66.8829    599.6041
  3405.7500      2.2561      0.0000     64.1465    599.5032
  3406.0000      2.3221      0.0000     61.0091    599.3865
  3406.2500      2.4069      0.0000     58.8040    599.2116
  3406.5000      2.4652      0.0000     58.7612    598.9666
  3406.7500      2.5124      0.0000     61.0443    598.7753
  3407.0000      2.6009      0.0000     64.5572    599.1845
  3407.2500      2.7559      0.0000     67.6503    602.0175
  3407.5000      2.9468      0.0000     69.1821    610.9075
  3407.7500      3.1135      0.0000     69.2423    627.9200
  3408.0000      3.2171      0.0000     68.9770    646.5204
  3408.2500      3.2688      0.0000     69.5006    650.4758
  3408.5000      3.2949      0.0000     70.9093    623.3918
  3408.7500      3.2877      0.0000     72.4364    563.2833
  3409.0000      3.2397      0.0000     73.4714    491.1603
  3409.2500      3.1921      0.0000     74.2117    436.1208
  3409.5000      3.1944      0.0000     75.2824    408.9259
  3409.7500      3.2480      0.0000     76.8823    400.5070
  3410.0000      3.3140      0.0000     78.3872    400.7939
  3410.2500      3.3554      0.0000     78.7324    410.7247
  3410.5000      3.3665      0.0000     77.2242    441.5541
  3410.7500      3.3590      0.0000     74.2236    499.7844
  3411.0000      3.3352      0.0000     71.1183    566.8971
  3411.2500      3.2914      0.0000     69.3214    610.0685
  3411.5000      3.2344      0.0000     69.1343    619.2012
  3411.7500      3.1721      0.0000     69.7619    611.8386
  3412.0000      3.0963      0.0000     70.4358    604.9152
  3412.2500      3.0126      0.0000     71.1378    601.9709
  3412.5000      2.9641      0.0000     72.1303    601.0206
  3412.7500      2.9808      0.0000     73.1550    601.2581
  3413.0000      3.0413      0.0000     73.4099    604.1622
  3413.2500      3.1210      0.0000     72.3399    613.2229
  3413.5000      3.2305      0.0000     70.4063    630.7917
  3413.7500      3.3755      0.0000     68.9136    652.7258
  3414.0000      3.5385      0.0000     68.7826    670.4849
  3414.2500      3.7186      0.0000     69.4402    680.4938
  3414.5000      3.9307      0.0000     69.1988    687.1481
  3414.7500      4.1601      0.0000     66.6639    697.7253
  3415.0000      4.3646      0.0000     61.2945    715.5599
  3415.2500      4.5218      0.0000     52.8283    735.1813
  3415.5000      4.6460      0.0000     41.3324    747.7538
  3415.7500      4.7632      0.0000     28.2197    751.6694
  3416.0000      4.8914      0.0000     16.2303    749.6265
  3416.2500      5.0336      0.0000      7.6620    742.5800
  3416.5000      5.1741      0.0000      2.9178    736.3168
  3416.7500      5.2960      0.0000      0.8861    740.1823
