~Version Information
VERS.                      2.0: CWLS Log ASCII Standard - VERSION 2.0
WRAP.                       NO: One line per depth step
~Well Information Block
STRT.FT               545.0000: 
STOP.FT              2200.7000: 
STEP.FT                 0.1000: 
NULL.                -999.2500: 
COMP.          Pioneer Natural Resources: COMPANY
WELL.               Erin 21-15: WELL
FLD.           Purgatoire River: FIELD
LOC.           1217' FNL & 2284' FWL--: LOCATION
CNTY.               Las Animas: COUNTY
SRVC.                Patterson: SERVICE COMPANY
DATE.          Thu Mar 02 09:55:43 2006: LOG DATE
UWI.           05 071 08713 00: UNIQUE WELL ID
STAT.                 Colorado: STATE
~Curve Information Block
DEPT.FT            0 000 00 00: Depth
DCAL.in                       : CDL Caliper
RHOB.g/cc                     : CDL Bulk Density
RHOC.g/cc                     : CDL Density Correction
DPOR.pu                       : CDL Density Porosity
NPOR.pu                       : Neutron Porosity
GR.GAPI                       : Gamma Ray
~Parameter Information Block
~A  Depth       DCAL        RHOB        RHOC        DPOR        NPOR         GR     
# ...
  1629.8000      7.9589      2.4444      0.0814     12.4618     15.7049     38.6152
  1629.9000      7.9589      2.4388      0.0456     12.7995     15.4965     36.8227
  1630.0000      7.9580      2.4195      0.0173     13.9703     15.5531     36.4499
  1630.1000      7.9580      2.4058      0.0394     14.8027     16.1443     36.8594
  1630.2000      7.9580      2.4009      0.0431     15.0988     16.8430     36.5000
  1630.3000      7.9561      2.3984      0.0138     15.2491     16.7747     35.2900
  1630.4000      7.9561      2.4007     -0.0022     15.1086     16.2076     36.8108
  1630.5000      7.9575      2.4119      0.0186     14.4300     15.8868     42.2937
  1630.6000      7.9575      2.4253      0.0197     13.6160     15.5624     46.2814
  1630.7000      7.9575      2.4262      0.0707     13.5611     15.0871     46.1152
  1630.8000      7.9623      2.4100      0.0339     14.5454     14.9386     45.6705
  1630.9000      7.9623      2.3971     -0.0067     15.3244     15.0133     45.3881
  1631.0000      7.9651      2.4127     -0.0025     14.3837     14.9528     42.9665
  1631.1000      7.9651      2.4525      0.0549     11.9688     14.8765     41.0926
  1631.2000      7.9651      2.4843      0.0800     10.0421     15.0042     40.3426
  1631.3000      7.9641      2.4933      0.0580      9.4971     15.4367     39.9514
  1631.4000      7.9641      2.4933      0.0946      9.4946     15.9623     42.2541
  1631.5000      7.9667      2.4917      0.0815      9.5922     16.4396     46.1931
  1631.6000      7.9667      2.4836      0.0440     10.0842     17.1968     47.9958
  1631.7000      7.9667      2.4730      0.0306     10.7258     18.4677     49.5415
  1631.8000      7.9746      2.4734     -0.0017     10.7001     19.7099     56.0125
  1631.9000      7.9746      2.4847      0.0365     10.0160     20.3277     67.6182
  1632.0000      7.9784      2.4941      0.0500      9.4500     20.6996     79.2032
  1632.1000      7.9784      2.5010      0.0429      9.0294     21.6737     87.5584
  1632.2000      7.9784      2.5088      0.0509      8.5549     23.4350     96.6220
  1632.3000      7.9776      2.5109      0.0724      8.4276     25.1068    110.3813
  1632.4000      7.9776      2.5110      0.0168      8.4263     25.9501    127.3943
  1632.5000      7.9760      2.5207      0.0717      7.8393     26.1113    143.5476
  1632.6000      7.9760      2.5359      0.0478      6.9128     25.9785    152.3023
  1632.7000      7.9760      2.5461      0.0637      6.2968     25.7584    151.6722
  1632.8000      7.9748      2.5443      0.0524      6.4055     25.6194    149.8442
  1632.9000      7.9748      2.5339      0.0505      7.0359     25.5350    153.0280
  1633.0000      7.9756      2.5306      0.0329      7.2352     25.2551    160.8428
  1633.1000      7.9756      2.5430      0.0554      6.4858     24.8883    169.4735
  1633.2000      7.9756      2.5600      0.0521      5.4569     24.6090    172.7111
  1633.3000      7.9775      2.5642      0.0808      5.2003     24.2586    166.5538
  1633.4000      7.9775      2.5514      0.0778      5.9772     23.7276    151.1338
  1633.5000      7.9777      2.5343      0.0246      7.0133     23.1382    132.1581
  1633.6000      7.9777      2.5262      0.0565      7.5012     22.7089    117.9479
  1633.7000      7.9777      2.5303      0.0221      7.2528     22.4326    109.9482
  1633.8000      7.9771      2.5457      0.0382      6.3190     21.9782    103.4855
  1633.9000      7.9771      2.5652      0.0741      5.1385     21.3873     97.7116
  1634.0000      7.9797      2.5760      0.0720      4.4826     21.0463     97.4229
  1634.1000      7.9797      2.5689      0.0897      4.9181     20.7404    100.9061
  1634.2000      7.9797      2.5447      0.0461      6.3843     20.0550     99.1265
  1634.3000      7.9854      2.5182      0.0120      7.9858     19.2476     90.1394
  1634.4000      7.9854      2.5054     -0.0120      8.7641     18.9140     81.5575
  1634.5000      7.9873      2.5114      0.0328      8.4009     19.0536     77.0400
  1634.6000      7.9873      2.5288      0.0484      7.3479     19.0921     73.2977
  1634.7000      7.9873      2.5485      0.0244      6.1499     18.9135     68.1291
  1634.8000      7.9848      2.5663      0.0528      5.0747     18.7875     63.6269
  1634.9000      7.9848      2.5828      0.0175      4.0757     18.7130     62.4887
  1635.0000      7.9825      2.5993      0.0726      3.0704     18.5538     64.0242
  1635.1000      7.9825      2.6075      0.0451      2.5778     18.2896     66.1418
  1635.2000      7.9825      2.6019      0.0532      2.9144     18.2516     67.9176
  1635.3000      7.9811      2.5833      0.0745      4.0444     18.6966     68.0944
  1635.4000      7.9811      2.5557      0.0553      5.7177     19.3953     67.2362
  1635.5000      7.9802      2.5305      0.0350      7.2420     19.8864     68.3372
  1635.6000      7.9802      2.5213      0.0055      7.8018     20.1274     70.6256
  1635.7000      7.9802      2.5329      0.0210      7.0958     20.7002     72.1849
  1635.8000      7.9786      2.5488      0.0587      6.1354     21.7263     74.9275
  1635.9000      7.9786      2.5453      0.0414      6.3460     22.5006     80.2159
  1636.0000      7.9790      2.5278     -0.0078      7.4053     22.5969     85.9061
  1636.1000      7.9790      2.5156      0.0336      8.1446     22.3125     90.0505
  1636.2000      7.9790      2.5112      0.0227      8.4139     21.9100     93.0753
  1636.3000      7.9867      2.5143      0.0202      8.2227     21.3475     98.0911
  1636.4000      7.9867      2.5261      0.0366      7.5077     20.7791    102.4679
  1636.5000      7.9985      2.5387      0.0585      6.7474     20.3769     98.3125
  1636.6000      7.9985      2.5447      0.0610      6.3800     20.3988     89.2395
  1636.7000      7.9985      2.5410      0.0615      6.6064     21.0763     85.5196
  1636.8000      8.0058      2.5287      0.0026      7.3518     21.9062     87.8185
  1636.9000      8.0058      2.5180      0.0071      7.9971     22.4042     92.0556
  1637.0000      8.0111      2.5128      0.0060      8.3162     22.6311     99.0043
  1637.1000      8.0111      2.5053     -0.0022      8.7668     22.6020    108.3749
  1637.2000      8.0111      2.4899     -0.0136      9.7026     22.4595    113.9842
  1637.3000      8.0180      2.4725      0.0079     10.7588     22.4874    114.5009
  1637.4000      8.0180      2.4662     -0.0260     11.1407     22.7968    117.4211
  1637.5000      8.0249      2.4747      0.0277     10.6218     23.5370    126.6785
  1637.6000      8.0249      2.4838      0.0443     10.0755     24.5658    136.3400
  1637.7000      8.0249      2.4848     -0.0090     10.0131     25.1171    139.1304
  1637.8000      8.0299      2.4865      0.0017      9.9099     24.8687    134.3149
  1637.9000      8.0299      2.4941      0.0263      9.4477     24.3699    128.0356
  1638.0000      8.0307      2.5099      0.0056      8.4885     24.2016    127.6910
  1638.1000      8.0307      2.5336      0.0522      7.0536     24.3306    136.9597
  1638.2000      8.0307      2.5506      0.0385      6.0268     24.3508    149.7933
  1638.3000      8.0306      2.5473      0.0446      6.2253     24.1133    154.6662
  1638.4000      8.0306      2.5217      0.0495      7.7728     23.7341    150.0792
  1638.5000      8.0281      2.4889     -0.0212      9.7626     23.2104    144.4276
  1638.6000      8.0281      2.4720     -0.0060     10.7891     22.9421    144.3432
  1638.7000      8.0281      2.4772     -0.0034     10.4756     23.4180    149.6097
  1638.8000      8.0212      2.4923      0.0190      9.5600     24.3052    157.3699
  1638.9000      8.0212      2.4973      0.0394      9.2534     24.9228    163.8096
  1639.0000      8.0144      2.4898     -0.0306      9.7092     24.8386    163.4708
  1639.1000      8.0144      2.4869      0.0205      9.8851     24.0337    157.2719
  1639.2000      8.0144      2.4948      0.0300      9.4035     23.1370    152.7226
  1639.3000      8.0103      2.5106     -0.0065      8.4476     22.4866    150.6730
