~Version Information
VERS.                      2.0: CWLS Log ASCII Standard - VERSION 2.0
WRAP.                       NO: One line per depth step
~Well Information Block
STRT.FT               240.0000: 
STOP.FT              1159.2000: 
STEP.FT                 0.1000: 
NULL.                -999.2500: 
COMP.          Pioneer Natural Resources: COMPANY
WELL.               Ryan 41-17: WELL
FLD.           Purgatoire River: FIELD
LOC.           822' FNL & 532' FEL--: LOCATION
CNTY.               Las Animas: COUNTY
SRVC.                Patterson: SERVICE COMPANY
DATE.          Fri Mar 17 07:19:36 2006: LOG DATE
UWI.           05 071 08719 00: UNIQUE WELL ID
STAT.                 Colorado: STATE
~Curve Information Block
DEPT.FT            0 000 00 00: Depth
DCAL.in                       : CDL Caliper
RHOB.g/cc                     : CDL Bulk Density
RHOC.g/cc                     : CDL Density Correction
DPOR.pu                       : CDL Density Porosity
NPOR.pu                       : Neutron Porosity
GR.GAPI                       : Gamma Ray
~Parameter Information Block
~A  Depth       DCAL        RHOB        RHOC        DPOR        NPOR         GR     
# ...
   892.8000      7.8563      2.5531      0.0734      5.8756     25.6208    115.2654
   892.9000      7.8563      2.5622      0.1008      5.3214     25.4974    118.1989
   893.0000      7.8567      2.5742      0.0975      4.5911     25.6045    117.4687
   893.1000      7.8567      2.5815      0.1193      4.1532     25.3254    110.5928
   893.2000      7.8567      2.5755      0.0628      4.5176     24.7843    101.0484
   893.3000      7.8585      2.5532      0.0754      5.8695     24.5290     96.1817
   893.4000      7.8585      2.5234      0.0154      7.6740     24.6350     96.4838
   893.5000      7.8599      2.5102     -0.0203      8.4751     24.8328     95.9355
   893.6000      7.8599      2.5198      0.0553      7.8886     25.0358     96.7574
   893.7000      7.8599      2.5326      0.0557      7.1180     25.2823    105.2220
   893.8000      7.8614      2.5444      0.0398      6.4014     25.4136    119.2798
   893.9000      7.8614      2.5557      0.0717      5.7128     25.3445    128.4715
   894.0000      7.8612      2.5455      0.1026      6.3337     25.1365    129.6279
   894.1000      7.8612      2.5138     -0.0218      8.2569     25.1484    127.5159
   894.2000      7.8612      2.4919      0.0110      9.5823     25.5327    123.2546
   894.3000      7.8597      2.4896      0.0382      9.7196     25.7471    117.6162
   894.4000      7.8597      2.4886      0.0465      9.7833     25.7211    112.9536
   894.5000      7.8577      2.4777      0.0471     10.4414     25.8760    109.0915
   894.6000      7.8577      2.4693      0.0155     10.9540     26.0244    104.3732
   894.7000      7.8577      2.4830      0.0164     10.1201     25.6706     97.8082
   894.8000      7.8476      2.5202      0.0683      7.8690     25.0336     91.2238
   894.9000      7.8476      2.5560      0.1148      5.6971     24.6509     88.3015
   895.0000      7.8254      2.5664      0.0888      5.0671     24.5023     90.4381
   895.1000      7.8254      2.5585      0.0686      5.5481     24.4003     93.3489
   895.2000      7.8254      2.5510      0.0929      5.9990     24.2767     90.3507
   895.3000      7.7973      2.5487      0.0743      6.1368     24.2709     82.8332
   895.4000      7.7973      2.5511      0.0893      5.9969     24.4329     79.0419
   895.5000      7.7740      2.5577      0.0701      5.5969     24.3579     77.7997
   895.6000      7.7740      2.5704      0.0693      4.8254     24.1440     72.1311
   895.7000      7.7740      2.5833      0.0880      4.0417     24.2607     65.6067
   895.8000      7.7744      2.5820      0.0595      4.1220     24.4470     65.4900
   895.9000      7.7744      2.5656      0.0282      5.1123     24.3553     71.7639
   896.0000      7.7968      2.5516      0.0172      5.9655     24.1046     79.9773
   896.1000      7.7968      2.5508      0.0677      6.0096     23.9147     85.1859
   896.2000      7.7968      2.5484      0.0842      6.1589     23.9603     86.3337
   896.3000      7.8199      2.5267      0.0414      7.4708     24.2649     87.2735
   896.4000      7.8199      2.4958      0.0377      9.3429     24.6354     91.2338
   896.5000      7.8357      2.4780     -0.0417     10.4233     24.7078     98.6147
   896.6000      7.8357      2.4830      0.0050     10.1239     24.3312    108.2778
   896.7000      7.8357      2.5006     -0.0005      9.0524     23.7243    116.3738
   896.8000      7.8529      2.5182     -0.0207      7.9877     23.1625    118.3597
   896.9000      7.8529      2.5364     -0.0184      6.8837     22.8455    118.2160
   897.0000      7.8638      2.5629      0.0429      5.2785     22.7790    122.3689
   897.1000      7.8638      2.5912      0.1204      3.5625     22.7699    127.5135
   897.2000      7.8638      2.5991      0.1100      3.0876     22.7006    129.7762
   897.3000      7.8444      2.5811      0.0714      4.1731     22.6918    132.9707
   897.4000      7.8444      2.5573      0.0433      5.6175     22.7968    137.9557
   897.5000      7.8110      2.5420      0.0486      6.5485     22.8119    139.2755
   897.6000      7.8110      2.5355      0.0539      6.9394     22.6326    133.0968
   897.7000      7.8110      2.5369      0.0643      6.8519     22.4253    123.2644
   897.8000      7.7912      2.5449      0.0239      6.3711     22.4685    116.9812
   897.9000      7.7912      2.5479      0.1024      6.1884     23.0760    115.6103
   898.0000      7.7855      2.5318      0.0593      7.1644     23.9834    116.8082
   898.1000      7.7855      2.5080     -0.0113      8.6054     24.1712    118.3558
   898.2000      7.7855      2.4922      0.0537      9.5636     23.5492    118.0198
   898.3000      7.7859      2.4756      0.0355     10.5669     23.1383    115.6021
   898.4000      7.7859      2.4602      0.0129     11.5004     23.3966    110.8215
   898.5000      7.7906      2.4665     -0.0161     11.1198     24.0379    104.2002
   898.6000      7.7906      2.4908      0.0659      9.6504     24.6750    100.6886
   898.7000      7.7906      2.5031      0.0914      8.9028     25.0782    101.2699
   898.8000      7.7938      2.4986      0.0441      9.1750     25.3767    102.1629
   898.9000      7.7938      2.4930      0.0946      9.5160     25.9325    105.1163
   899.0000      7.7922      2.4755      0.0947     10.5729     26.7588    113.0012
   899.1000      7.7922      2.4221      0.0484     13.8092     27.6125    120.1593
   899.2000      7.7922      2.3305      0.0330     19.3648     28.5144    121.2017
   899.3000      7.7862      2.2180     -0.0258     26.1828     29.5093    118.6149
   899.4000      7.7862      2.1006     -0.0608     33.2944     30.4616    113.4376
   899.5000      7.7764      1.9841     -0.0668     40.3547     31.1104    102.6061
   899.6000      7.7764      1.8745     -0.1033     46.9993     31.3352     89.4814
   899.7000      7.7764      1.7769     -0.1189     52.9155     31.4858     82.1608
   899.8000      7.7713      1.6867     -0.1145     58.3839     31.9874     80.3242
   899.9000      7.7713      1.6021     -0.0917     63.5119     32.6583     81.9190
   900.0000      7.7883      1.5384     -0.1092     67.3716     33.0157     89.7985
   900.1000      7.7883      1.5104     -0.0173     69.0638     32.9657     97.1308
   900.2000      7.7883      1.5079      0.0525     69.2164     32.7657     93.7347
   900.3000      7.8399      1.5116      0.0820     68.9953     32.6586     83.7247
   900.4000      7.8399      1.5231      0.0529     68.2983     32.6909     76.6601
   900.5000      7.8887      1.5607      0.0400     66.0152     32.6318     74.5957
   900.6000      7.8887      1.6319      0.0772     61.7060     32.1676     73.1623
   900.7000      7.8887      1.7267      0.1206     55.9555     31.4402     70.0976
   900.8000      7.9021      1.8341      0.1589     49.4476     30.9557     68.6991
   900.9000      7.9021      1.9437      0.1899     42.8053     30.6063     71.4020
   901.0000      7.9076      2.0522      0.2073     36.2282     29.8487     77.1323
   901.1000      7.9076      2.1669      0.2213     29.2807     28.8891     82.5112
   901.2000      7.9076      2.2834      0.2651     22.2154     28.4470     84.3005
   901.3000      7.9092      2.3839      0.2985     16.1246     28.5207     86.5063
   901.4000      7.9092      2.4620      0.2638     11.3924     28.4088     93.1555
   901.5000      7.8974      2.5216      0.1859      7.7812     27.8269    102.1447
   901.6000      7.8974      2.5578      0.1784      5.5870     27.1367    111.9496
   901.7000      7.8974      2.5633      0.1237      5.2526     26.7687    120.1494
   901.8000      7.8886      2.5457      0.0841      6.3234     26.8317    122.0087
   901.9000      7.8886      2.5265      0.0313      7.4873     27.0405    119.1951
   902.0000      7.8858      2.5217      0.0780      7.7737     27.1183    120.0442
   902.1000      7.8858      2.5251      0.0699      7.5703     26.9803    126.6125
   902.2000      7.8858      2.5247      0.0426      7.5922     26.8013    132.9277
   902.3000      7.8864      2.5183      0.0568      7.9807     26.9575    134.6906
