~Version Information
VERS.                      2.0: CWLS Log ASCII Standard - VERSION 2.0
WRAP.                       NO: One line per depth step
~Well Information Block
STRT.FT               830.0000: 
STOP.FT              2368.5000: 
STEP.FT                 0.1000: 
NULL.                -999.2500: 
COMP.          Pioneer Natural Resources: COMPANY
WELL.              Rolls 14-14: WELL
FLD.           Purgatoire River: FIELD
LOC.           572' FSL & 856' FWL: LOCATION
PROV.                 Colorado: PROVINCE
CNTY.               Las Animas: COUNTRY
SRVC.                Patterson: SERVICE COMPANY
DATE.          Mon Aug 01 05:48:31 2005: LOG DATE
UWI.           05 071 08455 00: UNIQUE WELL ID
~Curve Information Block
DEPT.FT            0 000 00 00: Depth
DCAL.in                       : CDL Caliper
RHOB.g/cc                     : CDL Bulk Density
RHOC.g/cc                     : CDL Density Correction
DPOR.pu                       : CDL Density Porosity
GR.GAPI                       : Gamma Ray
NPOR.pu                       : Neutron Porosity
~Parameter Information Block
~A  Depth       DCAL        RHOB        RHOC        DPOR         GR         NPOR    
# ...
  2049.2000      7.9969      2.4410      0.0338     12.6641    123.7395     27.1239
  2049.3000      7.9916      2.4411     -0.0140     12.6608    126.4063     27.2211
  2049.4000      7.9916      2.4632     -0.0003     11.3222    127.9720     26.7283
  2049.5000      7.9920      2.4957      0.0476      9.3517    127.8934     25.9371
  2049.6000      7.9920      2.5139      0.0791      8.2485    129.3785     25.5120
  2049.7000      7.9920      2.5129      0.0473      8.3087    134.0172     25.6996
  2049.8000      7.9973      2.5187     -0.0248      7.9593    138.5139     26.0639
  2049.9000      7.9973      2.5456      0.0674      6.3247    138.6723     26.2106
  2050.0000      8.0029      2.5625      0.1219      5.3032    136.9752     26.3373
  2050.1000      8.0029      2.5483      0.0546      6.1621    136.5780     26.9750
  2050.2000      8.0029      2.5271      0.0539      7.4476    135.1279     28.0411
  2050.3000      8.0073      2.5150      0.0757      8.1801    131.5683     28.3568
  2050.4000      8.0073      2.5096      0.0446      8.5090    125.3651     27.5644
  2050.5000      7.9936      2.5123      0.0785      8.3442    116.0762     26.6865
  2050.6000      7.9936      2.5195      0.0683      7.9083    108.8289     26.2988
  2050.7000      7.9936      2.5294      0.0698      7.3100    106.6154     26.0905
  2050.8000      7.9841      2.5468      0.0789      6.2523    107.7087     25.2715
  2050.9000      7.9841      2.5699      0.0802      4.8537    110.7597     24.0847
  2051.0000      7.9725      2.5876      0.1227      3.7836    112.3119     23.8923
  2051.1000      7.9725      2.5960      0.0932      3.2727    109.3697     24.7346
  2051.2000      7.9725      2.6055      0.0614      2.6943    105.7454     25.7957
  2051.3000      7.9730      2.6203      0.0374      1.7979    104.5822     26.6446
  2051.4000      7.9730      2.6279      0.0628      1.3399    106.7760     26.7841
  2051.5000      7.9674      2.6163      0.0742      2.0439    111.4898     26.0235
  2051.6000      7.9674      2.5943      0.0272      3.3748    111.8608     25.3406
  2051.7000      7.9674      2.5737      0.0553      4.6253    108.4928     25.4722
  2051.8000      7.9894      2.5470      0.0391      6.2437    109.4066     25.5792
  2051.9000      7.9894      2.5220      0.0568      7.7560    113.3339     25.1140
  2052.0000      8.0077      2.5271      0.0200      7.4502    115.4797     24.6576
  2052.1000      8.0077      2.5603      0.0321      5.4390    115.8170     24.2546
  2052.2000      8.0077      2.5832      0.0560      4.0462    115.0170     23.3393
  2052.3000      8.0095      2.5815      0.0243      4.1523    113.3881     22.2852
  2052.4000      8.0095      2.5798      0.0072      4.2550    111.1602     22.1456
  2052.5000      8.0129      2.5879      0.0538      3.7628    106.9547     23.0892
  2052.6000      8.0129      2.5948      0.0383      3.3427    100.9340     24.3223
  2052.7000      8.0129      2.6025      0.0524      2.8805     95.7633     24.9688
  2052.8000      8.0003      2.6206      0.0440      1.7805     94.6785     24.8168
  2052.9000      8.0003      2.6405      0.1063      0.5781    100.3191     24.5550
  2053.0000      7.9926      2.6291      0.1083      1.2637    109.1094     24.8389
  2053.1000      7.9926      2.5805      0.0048      4.2119    113.6751     25.5981
  2053.2000      7.9926      2.5361     -0.0127      6.9001    113.2145     26.3018
  2053.3000      8.0100      2.5219     -0.0127      7.7641    112.9807     26.4027
  2053.4000      8.0100      2.5270     -0.0204      7.4526    113.9379     25.6855
  2053.5000      8.0187      2.5412     -0.0062      6.5930    111.9915     24.5384
  2053.6000      8.0187      2.5546      0.0276      5.7815    108.1823     23.5832
  2053.7000      8.0187      2.5534      0.0342      5.8551    106.8589     23.1314
  2053.8000      8.0289      2.5417      0.0119      6.5620    108.3518     23.3158
  2053.9000      8.0289      2.5346      0.0202      6.9962    111.4684     23.9426
  2054.0000      8.0333      2.5311      0.0214      7.2086    115.8191     24.5948
  2054.1000      8.0333      2.5271     -0.0278      7.4503    121.8511     24.8773
  2054.2000      8.0333      2.5245      0.0493      7.6086    125.9874     24.5189
  2054.3000      8.0257      2.5159      0.0230      8.1249    122.4357     23.9397
  2054.4000      8.0257      2.4996      0.0025      9.1149    117.1466     23.7693
  2054.5000      8.0241      2.4855      0.0297      9.9689    116.2656     24.0317
  2054.6000      8.0241      2.4782      0.0316     10.4147    116.5434     24.5411
  2054.7000      8.0241      2.4788     -0.0006     10.3776    116.4809     24.9055
  2054.8000      8.0280      2.4950     -0.0009      9.3925    116.2981     24.9851
  2054.9000      8.0280      2.5167      0.0891      8.0760    114.9901     25.0684
  2055.0000      8.0106      2.5176      0.1086      8.0267    112.1175     24.8791
  2055.1000      8.0106      2.5103      0.0051      8.4658    110.6301     24.3526
  2055.2000      8.0106      2.5260      0.0612      7.5152    112.4805     23.9603
  2055.3000      8.0065      2.5480      0.0987      6.1819    115.9615     23.7081
  2055.4000      8.0065      2.5521      0.0630      5.9342    116.7526     23.5494
  2055.5000      7.9935      2.5527      0.0617      5.8992    112.4715     23.3657
  2055.6000      7.9935      2.5696      0.0373      4.8734    106.2254     23.1425
  2055.7000      7.9935      2.5998      0.0777      3.0398    101.6901     23.0878
  2055.8000      8.0154      2.6167      0.0757      2.0156     99.9629     22.7457
  2055.9000      8.0154      2.6040      0.0671      2.7881    101.8946     22.1032
  2056.0000      8.0371      2.5861      0.0431      3.8751    108.8465     22.1608
  2056.1000      8.0371      2.5795      0.0924      4.2718    116.9441     23.1134
  2056.2000      8.0371      2.5666      0.0378      5.0542    120.5986     23.9866
  2056.3000      8.0419      2.5444      0.0099      6.4027    117.1604     24.2423
  2056.4000      8.0419      2.5298      0.0220      7.2821    105.7509     24.0690
  2056.5000      8.0357      2.5263      0.0330      7.4964     92.2996     23.5784
  2056.6000      8.0357      2.5244      0.0450      7.6120     85.0014     23.0781
  2056.7000      8.0357      2.5231      0.0291      7.6912     86.3019     23.0017
  2056.8000      8.0387      2.5244      0.0200      7.6111     90.4926     23.3449
  2056.9000      8.0387      2.5216      0.0502      7.7788     90.3970     23.6769
  2057.0000      8.0456      2.5088      0.0478      8.5590     86.6592     23.5895
  2057.1000      8.0456      2.4947      0.0004      9.4092     83.8844     23.2209
  2057.2000      8.0456      2.4958      0.0111      9.3476     83.4950     23.1374
  2057.3000      8.0621      2.5153      0.0071      8.1615     82.0315     22.8953
  2057.4000      8.0621      2.5408      0.0395      6.6188     75.5094     21.7624
  2057.5000      8.0555      2.5561      0.0615      5.6885     66.7144     20.4684
  2057.6000      8.0555      2.5671      0.0169      5.0229     60.3440     19.7074
  2057.7000      8.0555      2.5932      0.0387      3.4409     55.0191     19.3371
  2057.8000      8.0367      2.6271      0.1034      1.3870     49.3684     19.1064
  2057.9000      8.0367      2.6456      0.0872      0.2650     47.3028     18.5874
  2058.0000      8.0014      2.6482      0.0866      0.1118     51.7053     17.7397
  2058.1000      8.0014      2.6482      0.1057      0.1078     57.4028     17.4318
  2058.2000      8.0014      2.6499      0.1015      0.0070     57.5632     18.0690
  2058.3000      7.9826      2.6461      0.0873      0.2392     53.5020     18.8129
  2058.4000      7.9826      2.6358      0.0917      0.8577     50.4085     18.9491
  2058.5000      7.9866      2.6317      0.0783      1.1094     50.0696     18.5986
  2058.6000      7.9866      2.6331      0.1474      1.0269     51.4257     18.4446
  2058.7000      7.9866      2.6234      0.0471      1.6101     52.2801     18.9120
