~Version Information
VERS.                      2.0: CWLS Log ASCII Standard - VERSION 2.0
WRAP.                       NO: One line per depth step
~Well Information Block
STRT.FT                 0.0000: 
STOP.FT               712.5000: 
STEP.FT                 0.2500: 
NULL.                -999.2500: 
COMP.          Pioneer Natural Resources: COMPANY
WELL.                Mia 21-18: WELL
FLD.           Purgatorie River: FIELD
LOC.           1067' FNL & 1824' FWL: LOCATION
PROV.                 Colorado: PROVINCE
CNTY.               Las Animas: COUNTRY
SRVC.                Patterson: SERVICE COMPANY
DATE.          Mon Nov 28 13:12:22 2005: LOG DATE
UWI.           05-071-08559               : UNIQUE WELL ID
~Curve Information Block
DEPT.FT            0 000 00 00: Depth
CCL.                          : Casing Collar Locator
TT3.usec                      : CBL 3' Travel Time
AMP3.mV                       : CBL 3' Amplitude
GR.GAPI                       : Gamma Ray
~Parameter Information Block
~A  Depth       CCL         TT3         AMP3         GR     
# ...
   536.0000      0.0000    722.8405     14.9383     71.3630
   536.2500      0.0000    722.5562     15.3462     70.5528
   536.5000      0.0000    722.1493     15.7967     72.3057
   536.7500      0.0000    720.0167     16.1853     75.8427
   537.0000      0.0000    710.6241     16.4887     79.9117
   537.2500      0.0000    686.0053     16.7674     83.7286
   537.5000      0.0000    650.7753     17.0525     86.7730
   537.7500      0.0000    630.4799     17.2936     88.1647
   538.0000      0.0000    636.8868     17.4331     87.2418
   538.2500      0.0000    638.9625     17.4776     84.8122
   538.5000      0.0000    606.1860     17.4793     83.0459
   538.7500      0.0000    550.9164     17.4785     83.6622
   539.0000      0.0000    500.9271     17.4727     86.3350
   539.2500      0.0000    478.8459     17.3996     89.0347
   539.5000      0.0000    509.6586     17.1664     89.9346
   539.7500      0.0000    587.6527     16.7604     88.9111
   540.0000      0.0000    666.0177     16.2774     87.2548
   540.2500      0.0000    712.4143     15.7993     86.1822
   540.5000      0.0000    731.7059     15.3277     85.8299
   540.7500      0.0000    737.0634     14.8452     85.5413
   541.0000      0.0000    734.8033     14.3456     84.8364
   541.2500      0.0000    729.6827     13.8397     83.9102
   541.5000      0.0000    725.7404     13.4110     83.1097
   541.7500      0.0000    723.8587     13.1548     82.0845
   542.0000      0.0000    723.1852     13.0567     79.8220
   542.2500      0.0000    723.0589     13.0806     75.6656
   542.5000      0.0000    723.2007     13.2537     69.9851
   542.7500      0.0000    723.4686     13.5464     63.7138
   543.0000      0.0000    723.8336     13.8282     57.6850
   543.2500      0.0000    724.3007     14.0126     52.6680
   543.5000      0.0000    724.6921     14.1585     49.6479
   543.7500      0.0000    724.4858     14.3774     49.6048
   544.0000      0.0000    721.7182     14.6900     52.8354
   544.2500      0.0000    709.3430     15.0181     58.5279
   544.5000      0.0000    674.0496     15.2386     65.2456
   544.7500      0.0000    613.0067     15.2410     71.8326
   545.0000      0.0000    558.9873     15.0461     77.5188
   545.2500      0.0000    558.7166     14.8131     81.2780
   545.5000      0.0000    612.2123     14.6321     81.9345
   545.7500      0.0000    672.8053     14.4133     79.1957
   546.0000      0.0000    707.7865     14.0562     74.0039
   546.2500      0.0000    719.9675     13.6279     67.6573
   546.5000      0.0000    722.5867     13.2840     60.9463
   546.7500      0.0000    722.7394     13.0735     54.2900
   547.0000      0.0000    722.5270     12.9001     48.3855
   547.2500      0.0000    722.6930     12.6276     44.2508
   547.5000      0.0000    724.3790     12.1789     42.3784
   547.7500      0.0000    729.6959     11.5818     42.0064
   548.0000      0.0000    740.0088     10.9679     41.5238
   548.2500      0.0000    753.1019     10.5163     39.7509
   548.5000      0.0000    764.4218     10.3748     36.8365
   548.7500      0.0000    770.7783     10.6330     33.9416
   549.0000      0.0000    770.3929     11.3330     32.1579
   549.2500      0.0000    764.0793     12.4208     31.7522
   549.5000      0.0000    757.8598     13.7024     32.2894
   549.7500      0.0000    756.7618     14.9572     33.2697
   550.0000      0.0000    756.3376     16.1166     34.7040
   550.2500      0.0000    742.1223     17.2594     37.2928
   550.5000      0.0000    692.4312     18.4473     41.9525
   550.7500      0.0000    594.4844     19.6779     48.8148
   551.0000      0.0000    472.1530     21.0127     56.6860
   551.2500      0.0000    374.0209     22.5690     63.8170
   551.5000      0.0000    323.3146     24.2439     69.3238
   551.7500      0.0000    306.3700     25.6170     73.6632
   552.0000      0.0000    302.7369     26.2549     77.7488
   552.2500      0.0000    302.4260     25.9478     81.9263
   552.5000      0.0000    302.8215     24.7774     85.8666
   552.7500      0.0000    303.4268     23.1577     89.1111
   553.0000      0.0000    304.0302     21.6011     91.3875
   553.2500      0.0000    304.5088     20.3617     92.3756
   553.5000      0.0000    304.8514     19.4289     91.5468
   553.7500      0.0000    305.3110     18.7291     88.7718
   554.0000      0.0000    307.0243     18.1250     85.0217
   554.2500      0.0000    313.1955     17.2632     81.8051
   554.5000      0.0000    329.5287     15.6793     79.7397
   554.7500      0.0000    361.7444     13.3951     78.1734
   555.0000      0.0000    410.6422     11.4089     76.2664
   555.2500      0.0000    474.1910     10.7602     73.9707
   555.5000      0.0000    554.9689     10.9737     71.8626
   555.7500      0.0000    645.6808     10.8192     70.3436
   556.0000      0.0000    716.9343     10.1995     69.2044
   556.2500      0.0000    748.6038      9.7161     67.9942
   556.5000      0.0000    751.7692      9.4885     66.8064
   556.7500      2.0000    749.2902      9.3439     66.4591
   557.0000      0.0000    752.6672      9.2346     67.6265
   557.2500      0.0000    755.8409      9.2306     69.8884
   557.5000      0.0000    741.5688      9.5374     71.8704
   557.7500      0.0000    689.8709     10.6635     72.2059
   558.0000      0.0000    594.4116     13.0277     70.3030
   558.2500      0.0000    481.2432     15.9788     66.6641
   558.5000      0.0000    390.7376     18.3039     62.7468
   558.7500      0.0000    338.6342     19.8939     60.1535
   559.0000      0.0000    314.7769     21.5562     59.7092
   559.2500      0.0000    305.5338     23.6075     61.4159
   559.5000      0.0000    302.5678     25.5734     65.0375
   559.7500      0.0000    301.7352     26.9893     70.4397
   560.0000      0.0000    301.4080     27.9641     77.5341
   560.2500      0.0000    301.1360     28.8725     85.9081
   560.5000      0.0000    300.8651     29.8575     94.1013
   560.7500      0.0000    300.6271     30.7231     99.4144
   561.0000      0.0000    300.4771     31.1588     99.3719
   561.2500      0.0000    300.4566     31.0578     93.8952
   561.5000      0.0000    300.5584     30.5577     85.7974
   561.7500      0.0000    300.7457     29.7949     78.8339
   562.0000      0.0000    300.9906     28.8027     75.2075
   562.2500      0.0000    301.2688     27.6509     74.8180
   562.5000      0.0000    301.5482     26.5121     76.4617
   562.7500      0.0000    301.8100     25.5554     79.1707
   563.0000      0.0000    302.0427     24.8383     82.1930
   563.2500      0.0000    302.2043     24.3374     84.3046
   563.5000      0.0000    302.2476     24.0160     84.1552
   563.7500      0.0000    302.1915     23.8038     81.5738
   564.0000      0.0000    302.1088     23.6060     77.9845
   564.2500      0.0000    302.0442     23.3869     75.2740
   564.5000      0.0000    301.9977     23.1842     74.4727
   564.7500      0.0000    301.9777     23.0282     75.3541
   565.0000      0.0000    302.0153     22.8962     76.7891
   565.2500      0.0000    302.1176     22.7459     77.4964
   565.5000      0.0000    302.2373     22.5393     76.9241
   565.7500      0.0000    302.3153     22.2406     75.6630
   566.0000      0.0000    302.3467     21.8596     75.0214
   566.2500      0.0000    302.3730     21.4901     76.0508
   566.5000      0.0000    302.4166     21.2258     78.8028
   566.7500      0.0000    302.4715     21.0657     82.5791
   567.0000      0.0000    302.5449     20.9483     86.9408
   567.2500      0.0000    302.6771     20.8080     92.1603
   567.5000      0.0000    302.8998     20.5972     98.4826
   567.7500      0.0000    303.2248     20.3039    105.2176
   568.0000      0.0000    303.9525     19.9139    110.8406
   568.2500      0.0000    307.1413     19.3753    113.9222
   568.5000      0.0000    319.5986     18.6840    113.9911
   568.7500      0.0000    350.8985     17.9739    111.7205
   569.0000      0.0000    394.7348     17.4304    108.4230
   569.2500      0.0000    417.2618     17.1250    105.3082
