~Version Information
VERS.                      2.0: CWLS Log ASCII Standard - VERSION 2.0
WRAP.                       NO: One line per depth step
~Well Information Block
STRT.FT               645.0000: 
STOP.FT              2133.5000: 
STEP.FT                 0.2500: 
NULL.                -999.2500: 
COMP.          Pioneer Natural Resources: COMPANY
WELL.          Gunslinger 13-24: WELL
FLD.           Purgatoire River: FIELD
LOC.           1968' FSL & 633' FWL: LOCATION
PROV.                 Colorado: PROVINCE
CNTY.               Las Animas: COUNTRY
SRVC.                Patterson: SERVICE COMPANY
DATE.          Fri Jul 29 15:04:35 2005: LOG DATE
UWI.           05 071 08442 00: UNIQUE WELL ID
~Curve Information Block
DEPT.FT            0 000 00 00: Depth
SN.Ohm-m                      : IEL Short Normal
SP.mV                         : IEL Spontaneous Potential
DIR.Ohm-m                     : IEL Induction Resistivity
GR.GAPI                       : Gamma Ray
~Parameter Information Block
~A  Depth        SN          SP         DIR          GR     
# ...
  1415.5000     33.4253     93.3505     29.4254     63.9656
  1415.7500     33.2976     93.5726     29.5544     63.1529
  1416.0000     33.2668     93.7821     29.8005     62.8993
  1416.2500     33.4019     93.9591     30.1783     63.3946
  1416.5000     33.5242     94.0849     30.6220     65.1488
  1416.7500     33.4008     94.1576     31.0099     67.0998
  1417.0000     32.9977     94.1952     31.2136     71.4294
  1417.2500     32.4492     94.2186     31.1526     75.1267
  1417.5000     31.8711     94.2319     30.8369     80.7012
  1417.7500     31.3248     94.2123     30.3720     83.2923
  1418.0000     30.9555     94.1211     29.9090     83.9503
  1418.2500     30.9444     93.9279     29.5665     82.1904
  1418.5000     31.1824     93.6329     29.3789     77.5576
  1418.7500     31.3269     93.2684     29.3005     74.1991
  1419.0000     31.2705     92.8824     29.2460     70.3559
  1419.2500     31.1268     92.5167     29.1386     69.1948
  1419.5000     30.9179     92.1955     28.9408     69.8167
  1419.7500     30.6616     91.9270     28.6642     71.6522
  1420.0000     30.4330     91.7178     28.3579     76.4220
  1420.2500     30.1285     91.5838     28.0810     81.0416
  1420.5000     29.5010     91.5425     27.8712     89.8681
  1420.7500     28.5766     91.5916     27.7237     96.2878
  1421.0000     27.7103     91.6979     27.5951    104.9309
  1421.2500     27.1491     91.8127     27.4374    109.2586
  1421.5000     26.8589     91.9033     27.2383    113.1652
  1421.7500     26.6713     91.9693     27.0316    114.0370
  1422.0000     26.3898     92.0297     26.8630    112.5558
  1422.2500     26.0043     92.0923     26.7459    109.5745
  1422.5000     25.7942     92.1360     26.6518    102.3670
  1422.7500     25.9769     92.1232     26.5412     96.2511
  1423.0000     26.4421     92.0298     26.3983     86.3034
  1423.2500     26.9448     91.8649     26.2319     79.9044
  1423.5000     27.3612     91.6663     26.0529     71.9488
  1423.7500     27.7277     91.4774     25.8697     68.3395
  1424.0000     28.0169     91.3243     25.7114     65.6398
  1424.2500     28.0062     91.2042     25.6413     65.1713
  1424.5000     27.6603     91.0920     25.7258     65.3170
  1424.7500     27.3526     90.9615     25.9777     65.5280
  1425.0000     27.3848     90.8038     26.3256     65.6467
  1425.2500     27.6255     90.6310     26.6419     65.4441
  1425.5000     27.8046     90.4699     26.8141     64.5851
  1425.7500     27.7864     90.3553     26.8050     63.7198
  1426.0000     27.5400     90.3235     26.6547     62.3015
  1426.2500     27.1789     90.4033     26.4397     61.5621
  1426.5000     26.9539     90.6022     26.2266     61.4854
  1426.7500     26.9448     90.8923     26.0460     62.4284
  1427.0000     26.8971     91.2164     25.8897     64.8549
  1427.2500     26.5610     91.5209     25.7298     66.2973
  1427.5000     26.0183     91.7876     25.5483     67.0010
  1427.7500     25.5002     92.0312     25.3572     66.5680
  1428.0000     25.0687     92.2739     25.1910     65.7633
  1428.2500     24.7441     92.5296     25.0776     65.8062
  1428.5000     24.6350     92.8074     25.0169     67.0730
  1428.7500     24.7190     93.1166     24.9869     68.4314
  1429.0000     24.8050     93.4585     24.9661     70.3112
  1429.2500     24.7603     93.8147     24.9496     70.9398
  1429.5000     24.6347     94.1494     24.9433     70.7362
  1429.7500     24.5672     94.4290     24.9480     70.2826
  1430.0000     24.5993     94.6392     24.9503     70.2724
  1430.2500     24.6630     94.7841     24.9291     71.0206
  1430.5000     24.7381     94.8739     24.8700     72.7197
  1430.7500     24.8561     94.9149     24.7750     73.5769
  1431.0000     25.0034     94.9123     24.6622     73.7331
  1431.2500     25.1290     94.8787     24.5578     73.2531
  1431.5000     25.1873     94.8357     24.4879     72.8366
  1431.7500     25.1880     94.8065     24.4731     73.5939
  1432.0000     25.1792     94.8087     24.5266     77.1583
  1432.2500     25.1576     94.8495     24.6548     81.0802
  1432.5000     25.0807     94.9191     24.8634     88.2750
  1432.7500     24.9429     94.9852     25.1653     93.2258
  1433.0000     24.8495     95.0024     25.5811    100.1062
  1433.2500     25.0563     94.9401     26.1271    104.0851
  1433.5000     25.7374     94.8068     26.7964    108.3593
  1433.7500     26.7078     94.6429     27.5459    109.3031
  1434.0000     27.6200     94.4906     28.2970    106.9272
  1434.2500     28.3293     94.3710     28.9551    103.0972
  1434.5000     28.8978     94.2849     29.4503     95.6816
  1434.7500     29.3923     94.2222     29.7789     90.6200
  1435.0000     29.8561     94.1708     30.0056     83.7750
  1435.2500     30.3799     94.1230     30.2137     79.9902
  1435.5000     31.0124     94.0845     30.4426     75.9231
  1435.7500     31.6637     94.0744     30.6640     74.3626
  1436.0000     32.1844     94.1083     30.8119     73.3784
  1436.2500     32.4550     94.1788     30.8408     73.3973
  1436.5000     32.4146     94.2539     30.7715     74.5078
  1436.7500     32.1694     94.2953     30.6936     76.0999
  1437.0000     31.9665     94.2821     30.7209     79.3691
  1437.2500     31.9392     94.2223     30.9237     81.4218
  1437.5000     32.0687     94.1467     31.2812     83.0081
  1437.7500     32.2261     94.0842     31.6793     82.8528
  1438.0000     32.1604     94.0423     31.9613     81.6372
  1438.2500     31.7785     94.0135     32.0124     80.9746
  1438.5000     31.2395     94.0008     31.8225     81.4065
  1438.7500     30.6172     94.0286     31.4806     83.0391
  1439.0000     29.8746     94.1144     31.1033     87.0728
  1439.2500     29.1367     94.2344     30.7575     89.7350
  1439.5000     28.6162     94.3289     30.4365     91.5249
  1439.7500     28.3038     94.3489     30.0969     90.8410
  1440.0000     27.9754     94.2906     29.7154     88.1875
  1440.2500     27.5798     94.1904     29.3137     86.3366
  1440.5000     27.3864     94.0953     28.9390     84.3313
  1440.7500     27.5715     94.0432     28.6307     83.5715
  1441.0000     27.8812     94.0624     28.4013     83.2468
  1441.2500     27.9128     94.1697     28.2346     83.5254
  1441.5000     27.5422     94.3560     28.0967     84.3571
  1441.7500     26.9443     94.5695     27.9547     84.8191
  1442.0000     26.4041     94.7265     27.7853     84.6449
  1442.2500     26.1840     94.7543     27.5695     83.7198
  1442.5000     26.3490     94.6354     27.2772     81.5950
  1442.7500     26.5820     94.4155     26.8670     80.4121
  1443.0000     26.4828     94.1716     26.3138     79.9123
  1443.2500     26.0913     93.9714     25.6495     80.2537
  1443.5000     25.7526     93.8542     24.9814     80.6303
  1443.7500     25.6656     93.8273     24.4589     80.2931
  1444.0000     25.7659     93.8662     24.2068     78.9034
  1444.2500     25.8247     93.9202     24.2663     77.7252
  1444.5000     25.6675     93.9366     24.5775     76.3265
  1444.7500     25.3855     93.8918     25.0116     75.9688
  1445.0000     25.2676     93.8002     25.4384     76.2145
  1445.2500     25.4693     93.6939     25.7865     76.4483
  1445.5000     25.8188     93.5977     26.0555     76.0652
  1445.7500     26.1010     93.5218     26.2814     75.1920
  1446.0000     26.3764     93.4671     26.4970     73.5268
  1446.2500     26.7170     93.4293     26.7170     72.6630
  1446.5000     26.9271     93.3982     26.9421     72.0079
  1446.7500     26.9052     93.3621     27.1685     71.7107
  1447.0000     26.9042     93.3178     27.3925     70.8364
  1447.2500     27.1075     93.2770     27.6102     69.8913
  1447.5000     27.3580     93.2607     27.8157     68.3971
  1447.7500     27.5031     93.2899     28.0022     67.7897
  1448.0000     27.6613     93.3758     28.1620     68.1820
  1448.2500     27.9992     93.5153     28.2825     69.5070
  1448.5000     28.4015     93.6932     28.3478     72.6144
  1448.7500     28.5861     93.8946     28.3521     74.7298
