~Version Information
VERS.                      2.0: CWLS Log ASCII Standard - VERSION 2.0
WRAP.                       NO: One line per depth step
~Well Information Block
STRT.FT               694.2000: 
STOP.FT              1498.5000: 
STEP.FT                 0.1000: 
NULL.                -999.2500: 
COMP.          Pioneer Natural Resources: COMPANY
WELL.          Pallet Ranch 34-25 Tr: WELL
FLD.           Purgatoire River: FIELD
LOC.           465' FSL & 2138' FEL: LOCATION
PROV.                 Colorado: PROVINCE
CNTY.               Las Animas: COUNTRY
SRVC.                Patterson: SERVICE COMPANY
DATE.          Thu Jan 19 06:39:54 2006: LOG DATE
UWI.           05 071 08657 00: UNIQUE WELL ID
~Curve Information Block
DEPT.FT            0 000 00 00: Depth
DCAL.in                       : CDL Caliper
RHOB.g/cc                     : CDL Bulk Density
RHOC.g/cc                     : CDL Density Correction
DPOR.pu                       : CDL Density Porosity
GR.GAPI                       : Gamma Ray
~Parameter Information Block
~A  Depth       DCAL        RHOB        RHOC        DPOR         GR     
# ...
  1388.6000      7.8623      2.6243      0.0845      1.5586    165.0291
  1388.7000      7.8623      2.6053      0.0374      2.7121    161.6125
  1388.8000      7.8594      2.5826      0.0979      4.0843    153.6888
  1388.9000      7.8594      2.5599      0.0472      5.4623    152.8203
  1389.0000      7.8640      2.5477     -0.0124      6.2010    156.8705
  1389.1000      7.8640      2.5485      0.0518      6.1529    160.3583
  1389.2000      7.8640      2.5427      0.0572      6.5007    164.5641
  1389.3000      7.8875      2.5224      0.0158      7.7311    172.1801
  1389.4000      7.8875      2.5053     -0.0102      8.7714    178.8564
  1389.5000      7.9143      2.5045      0.0383      8.8165    176.7519
  1389.6000      7.9143      2.5136      0.0488      8.2682    165.4094
  1389.7000      7.9143      2.5310      0.0703      7.2132    156.4973
  1389.8000      7.8978      2.5590      0.0871      5.5143    156.1408
  1389.9000      7.8978      2.5834      0.0831      4.0334    159.8792
  1390.0000      7.8940      2.5912      0.0638      3.5636    166.5475
  1390.1000      7.8940      2.5835      0.0961      4.0287    175.0723
  1390.2000      7.8940      2.5675      0.0832      4.9977    178.3881
  1390.3000      7.8876      2.5541      0.0505      5.8130    171.7874
  1390.4000      7.8876      2.5532      0.0607      5.8658    160.7491
  1390.5000      7.9485      2.5644      0.0283      5.1861    151.1616
  1390.6000      7.9485      2.5785      0.0597      4.3318    146.0515
  1390.7000      7.9485      2.5892      0.0648      3.6819    149.2631
  1390.8000      7.9869      2.6027      0.0948      2.8683    154.6106
  1390.9000      7.9869      2.6221      0.0943      1.6921    152.9106
  1391.0000      7.8809      2.6271      0.1601      1.3878    147.9452
  1391.1000      7.8809      2.6057      0.0607      2.6844    144.6329
  1391.2000      7.8809      2.5871      0.0691      3.8112    142.8030
  1391.3000      7.8472      2.5916      0.0807      3.5413    141.9431
  1391.4000      7.8472      2.6009      0.1058      2.9755    139.3456
  1391.5000      7.8435      2.6042      0.0377      2.7768    136.3978
  1391.6000      7.8435      2.6165      0.0452      2.0311    136.7603
  1391.7000      7.8435      2.6438      0.0685      0.3784    139.9628
  1391.8000      7.8712      2.6676      0.1042     -1.0697    145.0755
  1391.9000      7.8712      2.6750      0.0565     -1.5176    149.4254
  1392.0000      7.8607      2.6751      0.0735     -1.5191    150.2003
  1392.1000      7.8607      2.6715      0.0529     -1.3033    145.1048
  1392.2000      7.8607      2.6587      0.0256     -0.5267    135.2787
  1392.3000      7.8656      2.6424      0.0517      0.4579    128.1635
  1392.4000      7.8656      2.6424      0.0137      0.4581    128.3510
  1392.5000      7.8682      2.6662      0.0330     -0.9819    133.9289
  1392.6000      7.8682      2.6881      0.0710     -2.3109    138.9559
  1392.7000      7.8682      2.6860      0.0465     -2.1802    141.7158
  1392.8000      7.8700      2.6758      0.0370     -1.5663    143.9608
  1392.9000      7.8700      2.6705      0.0942     -1.2420    144.6657
  1393.0000      7.9034      2.6505      0.0934     -0.0329    146.3029
  1393.1000      7.9034      2.6056      0.0221      2.6887    152.9104
  1393.2000      7.9034      2.5593     -0.0107      5.4954    160.4708
  1393.3000      7.8620      2.5396     -0.0223      6.6908    162.6073
  1393.4000      7.8620      2.5462      0.0560      6.2928    163.0031
  1393.5000      7.8811      2.5536      0.0637      5.8400    167.7172
  1393.6000      7.8811      2.5487      0.0647      6.1379    169.3869
  1393.7000      7.8811      2.5395      0.0635      6.6991    162.3819
  1393.8000      7.8840      2.5302      0.0744      7.2592    155.4999
  1393.9000      7.8840      2.5215      0.0885      7.7880    155.1170
  1394.0000      7.9083      2.5161      0.0951      8.1156    156.9277
  1394.1000      7.9083      2.5100      0.0553      8.4858    159.1660
  1394.2000      7.9083      2.4982      0.0335      9.2003    162.7317
  1394.3000      7.8638      2.4860      0.0100      9.9380    163.5760
  1394.4000      7.8638      2.4871      0.0133      9.8733    159.6175
  1394.5000      7.8552      2.5124     -0.0214      8.3379    153.9414
  1394.6000      7.8552      2.5519      0.0876      5.9449    148.6273
  1394.7000      7.8552      2.5724      0.0669      4.7046    144.7865
  1394.8000      7.8679      2.5607      0.0549      5.4101    146.5183
  1394.9000      7.8679      2.5463      0.0368      6.2820    151.3944
  1395.0000      7.8864      2.5599      0.0472      5.4577    152.8728
  1395.1000      7.8864      2.5910      0.1000      3.5728    154.6873
  1395.2000      7.8864      2.6152      0.0590      2.1074    157.9873
  1395.3000      7.8708      2.6338      0.0938      0.9804    156.2544
  1395.4000      7.8708      2.6463      0.1243      0.2239    152.4196
  1395.5000      7.8402      2.6435      0.0677      0.3938    149.6650
  1395.6000      7.8402      2.6375      0.0347      0.7602    146.4203
  1395.7000      7.8402      2.6330      0.0861      1.0303    145.1777
  1395.8000      7.8435      2.6137      0.0647      2.1983    148.8839
  1395.9000      7.8435      2.5906      0.0126      3.5989    155.0245
  1396.0000      7.8480      2.5917      0.0284      3.5334    158.3714
  1396.1000      7.8480      2.6068      0.1292      2.6209    157.3013
  1396.2000      7.8480      2.6041      0.0887      2.7838    156.8517
  1396.3000      7.8414      2.5798      0.0504      4.2549    161.2785
  1396.4000      7.8414      2.5462      0.0474      6.2898    165.5205
  1396.5000      7.8543      2.5150     -0.0268      8.1822    164.4147
  1396.6000      7.8543      2.4960     -0.0033      9.3312    164.0433
  1396.7000      7.8543      2.4906     -0.0114      9.6597    168.4249
  1396.8000      7.8490      2.4942      0.0378      9.4420    171.2625
  1396.9000      7.8490      2.4915      0.0805      9.6083    171.8065
  1397.0000      7.8667      2.4698      0.0273     10.9191    174.6299
  1397.1000      7.8667      2.4342      0.0341     13.0778    179.2638
  1397.2000      7.8667      2.3986     -0.0313     15.2350    180.9839
  1397.3000      7.8822      2.3883     -0.0742     15.8625    177.6793
  1397.4000      7.8822      2.4174      0.0195     14.0945    173.4660
  1397.5000      7.8916      2.4656      0.0634     11.1736    170.1286
  1397.6000      7.8916      2.5097      0.0862      8.5028    165.8335
  1397.7000      7.8916      2.5448      0.1504      6.3753    161.3507
  1397.8000      7.9050      2.5656      0.1337      5.1150    158.9378
  1397.9000      7.9050      2.5685      0.0968      4.9393    161.5914
  1398.0000      7.8933      2.5681      0.0174      4.9658    168.1049
  1398.1000      7.8933      2.5756      0.0480      4.5068    169.5667
  1398.2000      7.8933      2.5805      0.0975      4.2094    164.7727
  1398.3000      7.8967      2.5803      0.0502      4.2213    161.3435
  1398.4000      7.8967      2.5768      0.0974      4.4381    157.2192
  1398.5000      7.8809      2.5554      0.0626      5.7318    144.6980
  1398.6000      7.8809      2.5212      0.0164      7.8062    129.5574
  1398.7000      7.8809      2.4989      0.0575      9.1594    128.3057
  1398.8000      7.8474      2.4982     -0.0079      9.2026    142.8570
  1398.9000      7.8474      2.5179     -0.0042      8.0078    157.8185
  1399.0000      7.8247      2.5647     -0.0095      5.1723    161.7751
  1399.1000      7.8247      2.6361      0.0854      0.8427    155.4779
  1399.2000      7.8247      2.7019      0.0878     -3.1459    143.8074
  1399.3000      7.8443      2.7337      0.0891     -5.0743    128.3708
  1399.4000      7.8443      2.7343      0.0924     -5.1074    115.3722
  1399.5000      7.8364      2.7278      0.1090     -4.7155    110.2805
  1399.6000      7.8364      2.7287      0.1456     -4.7706    110.2840
  1399.7000      7.8364      2.7325      0.0818     -5.0026    111.5594
