~Version Information
VERS.                      2.0: CWLS Log ASCII Standard - VERSION 2.0
WRAP.                       NO: One line per depth step
~Well Information Block
STRT.FT               -10.2500: 
STOP.FT              2437.2500: 
STEP.FT                 0.2500: 
NULL.                -999.2500: 
COMP.          Pioneer Natural Resources: COMPANY
WELL.          Hellzonfire 32-31: WELL
FLD.           Purgatorie River: FIELD
LOC.           1993' FNL & 2265' FEL------: LOCATION
STAT.                       CO: State
CNTY.               Las Animas: COUNTY
CTRY. USA : Country
SECT. 31 : Section
TOWN. 32S : Township
RANG. 66W : Range
SRVC.          Patterson Wireline: SERVICE COMPANY
DATE.          Thu Sep 08 11:10:17 2005: LOG DATE
API.           05 071 08483 00: UNIQUE WELL ID
~Curve Information Block
DEPT.FT            0 000 00 00: Depth
CCL.                          : Casing Collar Locator
TT3.usec                      : CBL 3' Travel Time
AMP3.mV                       : CBL 3' Amplitude
GR.GAPI                       : Gamma Ray
~Parameter Information Block
~A  Depth       CCL         TT3         AMP3         GR     
# ...
   157.2500      0.0000   1142.2159     16.6616     71.4130
   157.5000      0.0000   1127.8755     16.7824     74.8863
   157.7500      0.0000   1097.2147     16.9166     78.4171
   158.0000      0.0000   1047.6233     17.0686     80.5643
   158.2500      0.0000    986.2968     17.2305     80.4687
   158.5000      0.0000    925.2650     17.3854     78.4498
   158.7500      0.0000    871.0414     17.5118     75.7888
   159.0000      0.0000    827.8064     17.5861     73.8947
   159.2500      0.0000    810.6625     17.5881     73.3447
   159.5000      0.0000    839.6497     17.5111     73.6160
   159.7500      0.0000    913.9617     17.3689     73.9651
   160.0000      0.0000   1004.5132     17.1924     74.4009
   160.2500      0.0000   1078.1270     17.0148     75.3894
   160.5000      0.0000   1121.4561     16.8574     76.8722
   160.7500      0.0000   1140.5579     16.7270     78.0017
   161.0000      0.0000   1146.9607     16.6217     77.6657
   161.2500      0.0000   1148.6130     16.5356     75.0633
   161.5000      0.0000   1148.9485     16.4640     70.1913
   161.7500      0.0000   1149.0000     16.4105     64.1444
   162.0000      0.0000   1149.0000     16.3894     58.8280
   162.2500      0.0000   1148.9459     16.4179     56.1321
   162.5000      0.0000   1148.5962     16.5039     57.0220
   162.7500      0.0000   1146.8751     16.6409     60.9411
   163.0000      0.0000   1140.1680     16.8147     65.9021
   163.2500      0.0000   1120.1294     17.0195     69.4912
   163.5000      0.0000   1074.2579     17.2657     70.2787
   163.7500      0.0000    994.8079     17.5625     68.6634
   164.0000      0.0000    893.1523     17.8894     66.4625
   164.2500      0.0000    802.9257     18.1915     65.4139
   164.5000      0.0000    760.6025     18.4118     65.8411
   164.7500      0.0000    780.4893     18.5254     66.8707
   165.0000      0.0000    848.7559     18.5405     67.9704
   165.2500      0.0000    935.0723     18.4771     69.8721
   165.5000      0.0000   1005.3105     18.3604     73.6900
   165.7500      0.0000   1031.7379     18.2336     79.2583
   166.0000      0.0000   1002.2980     18.1647     84.5760
   166.2500      0.0000    923.6545     18.2205     87.1647
   166.5000      0.0000    814.1668     18.4130     86.1846
   166.7500      0.0000    693.5219     18.6646     83.1006
   167.0000      0.0000    578.8750     18.8454     80.1323
   167.2500      0.0000    485.4341     18.8677     78.3206
   167.5000      0.0000    423.3901     18.7523     77.2202
   167.7500      0.0000    394.9222     18.5946     76.1354
   168.0000      0.0000    399.0144     18.4719     75.2001
   168.2500      0.0000    438.0593     18.3893     75.1223
   168.5000      0.0000    512.8109     18.3065     76.0796
   168.7500      0.0000    608.2151     18.1992     77.2311
   169.0000      0.0000    692.8831     18.0855     77.5702
   169.2500      0.0000    745.3020     17.9928     77.1418
   169.5000      0.0000    778.3417     17.9076     77.0980
   169.7500      0.0000    823.8589     17.7748     78.4848
   170.0000      0.0000    891.1656     17.5549     81.1619
   170.2500      0.0000    954.4459     17.2742     83.9606
   170.5000      0.0000    985.1721     17.0121     85.7937
   170.7500      0.0000    986.2352     16.8357     86.6197
   171.0000      0.0000    987.3157     16.7494     87.3123
   171.2500      0.0000   1011.7008     16.7022     88.4732
   171.5000      0.0000   1055.5343     16.6395     89.5504
   171.7500      0.0000   1098.5417     16.5511     89.4957
   172.0000      0.0000   1125.6729     16.4715     88.1659
   172.2500      0.0000   1134.2977     16.4387     86.5061
   172.5000      0.0000   1128.1809     16.4572     85.2442
   172.7500      0.0000   1112.9501     16.5033     83.9241
   173.0000      0.0000   1096.9840     16.5544     81.5527
   173.2500      0.0000   1090.1165     16.6027     78.0530
   173.5000      0.0000   1096.9814     16.6458     74.8177
   173.7500      0.0000   1112.9331     16.6735     73.6916
   174.0000      0.0000   1128.0435     16.6638     75.3705
   174.2500      0.0000   1133.5684     16.5858     78.7515
   174.5000      0.0000   1122.5702     16.4086     81.7275
   174.7500      0.0000   1087.5566     16.1091     82.6226
   175.0000      0.0000   1023.4084     15.6801     81.2503
   175.2500      0.0000    935.3636     15.1614     78.9343
   175.5000      0.0000    842.8063     14.6709     77.4632
   175.7500      0.0000    774.0946     14.3385     77.8215
   176.0000      0.0000    756.1505     14.1485     79.7704
   176.2500      0.0000    800.6707     13.9208     82.3459
   176.5000      0.0000    892.3298     13.5342     84.4967
   176.7500      0.0000    994.4011     13.0960     85.3844
   177.0000      0.0000   1072.8348     12.8111     84.6797
   177.2500      0.0000   1113.8857     12.7614     83.0037
   177.5000      2.0000   1118.5021     12.8905     81.8080
   177.7500      0.0000   1086.6776     13.1394     82.1638
   178.0000      0.0000   1013.1387     13.5434     83.6151
   178.2500      0.0000    899.2558     14.2102     84.7683
   178.5000      0.0000    766.1406     15.1941     84.9853
   178.7500      0.0000    649.1039     16.3665     84.8278
   179.0000      0.0000    572.4530     17.4696     84.8569
   179.2500      0.0000    530.7128     18.3562     84.8155
   179.5000      0.0000    499.5481     19.0916     84.2737
   179.7500      0.0000    464.0662     19.7623     83.4090
   180.0000      0.0000    432.5097     20.2987     82.7625
   180.2500      0.0000    425.3486     20.5566     82.7111
   180.5000      0.0000    456.7769     20.4853     83.4759
   180.7500      0.0000    524.0995     20.1651     85.2300
   181.0000      0.0000    608.5931     19.7369     87.8941
   181.2500      0.0000    685.2688     19.3269     91.0193
   181.5000      0.0000    733.4901     19.0064     93.9873
   181.7500      0.0000    742.2934     18.7835     96.2687
   182.0000      0.0000    716.4474     18.6243     97.7515
   182.2500      0.0000    684.1935     18.4807     99.0051
   182.5000      0.0000    688.3327     18.3097    100.7906
   182.7500      0.0000    754.5059     18.0834    102.9015
   183.0000      0.0000    867.5341     17.7952    103.8888
   183.2500      0.0000    984.8160     17.4663    102.4985
   183.5000      0.0000   1071.0868     17.1460     99.1786
   183.7500      0.0000   1117.0006     16.8994     95.6423
   184.0000      0.0000   1130.6366     16.7780     93.0589
   184.2500      0.0000   1121.1230     16.7884     91.2328
   184.5000      0.0000   1092.5828     16.8912     89.4844
   184.7500      0.0000   1048.8783     17.0310     87.6372
   185.0000      0.0000    998.8085     17.1681     86.0395
   185.2500      0.0000    953.7877     17.2884     85.3117
   185.5000      0.0000    920.3668     17.3987     86.1899
   185.7500      0.0000    896.1625     17.5169     88.9136
   186.0000      0.0000    873.1017     17.6623     92.6487
   186.2500      0.0000    844.5653     17.8455     96.0287
   186.5000      0.0000    811.7073     18.0625     98.3083
   186.7500      0.0000    784.5974     18.2920     99.6918
   187.0000      0.0000    774.1893     18.5003    100.6435
   187.2500      0.0000    778.2492     18.6600    101.2036
   187.5000      0.0000    776.0430     18.7728    101.1830
   187.7500      0.0000    742.6400     18.8695    100.9159
   188.0000      0.0000    671.9195     18.9804    101.1466
   188.2500      0.0000    584.8358     19.1089    101.6558
   188.5000      0.0000    513.7186     19.2378    100.6470
   188.7500      0.0000    479.2877     19.3495     96.4865
   189.0000      0.0000    483.3534     19.4291     89.8939
   189.2500      0.0000    516.7021     19.4580     83.6523
   189.5000      0.0000    563.6754     19.4257     80.1841
   189.7500      0.0000    601.0280     19.3519     79.7836
   190.0000      0.0000    606.2813     19.2859     80.8905
   190.2500      0.0000    574.9477     19.2741     81.5263
   190.5000      0.0000    526.5273     19.3228     80.5095
