~Version Information
 VERS.                                  2.0 : CWLS LAS VERSION
 WRAP.                                   NO : WRAPING MODE
 SWARE .                 MController 2.5.0J : SOFTWARE VERSION
~Well Information
 WELL.                     McDonald 33-31 R : WELL
 COMP.  Pioneer Natural Resources USA, Inc. : COMPANY
 FLD.                      Purgatoire River : FIELD
 LOC.                NW/SE Sec 31 T32S R66W : LOCATION
 DATE.                             09/22/05 : DATE(S) LOGGED
 SRVC.       BLANCO Geological Services LLC : SERVICE COMPANY
 STAT.                                   CO : STATE
 CNTY.                           Las Animas : COUNTY
 CTRY.                                  USA : COUNTRY
 API.                       05-071-08533-00 : API NUMBER
 STRT.FT                             377.00 : START DEPTH
 STOP.FT                            2310.00 : STOP DEPTH
 STEP.FT                               1.00 : DEPTH INCREMENT
 NULL.                                -9999 : NULL VALUE
~Curve information
 DEPTH.FT                                   :
 ROP.MIN/FT                                 :
 GAS.UNITS                                  :
~ASCII Log data
# ...
      2177.0         0.40        143.5 
      2178.0         0.43        143.8 
      2179.0         0.57        142.7 
      2180.0         0.45        138.7 
      2181.0         0.30        138.9 
      2182.0         0.33        140.2 
      2183.0         0.30        140.3 
      2184.0         0.43        138.2 
      2185.0         0.37        134.7 
      2186.0         0.27        136.0 
      2187.0         0.30        136.1 
      2188.0         0.27        132.2 
      2189.0         0.47        118.1 
      2190.0         3.93        415.4 
      2191.0         0.57        398.1 
      2192.0         0.43        360.3 
      2193.0         0.37        330.0 
      2194.0         0.33        293.8 
      2195.0         0.33        260.1 
      2196.0         0.33        232.6 
      2197.0         0.30        210.9 
      2198.0         0.32        195.2 
      2199.0         0.33        184.7 
      2200.0         0.30        179.6 
      2201.0         0.33        178.4 
      2202.0         0.43        176.1 
      2203.0         0.37        169.6 
      2204.0         0.37        162.7 
      2205.0         0.33        156.6 
      2206.0         0.33        154.1 
      2207.0         0.35        153.9 
      2208.0         0.33        153.7 
      2209.0         0.33        153.0 
      2210.0         0.40        151.1 
      2211.0         0.37        149.1 
      2212.0         0.40        147.5 
      2213.0         0.37        144.3 
      2214.0         0.37        143.2 
      2215.0         0.40        142.1 
      2216.0         0.42        137.8 
      2217.0         0.40        133.1 
      2218.0        43.78       1042.1 
      2219.0        13.20       6066.6 
      2220.0         0.42        222.3 
      2221.0         3.48        340.8 
      2222.0         0.60        336.3 
      2223.0         0.43        318.5 
      2224.0         0.33        299.9 
      2225.0         0.33        279.3 
      2226.0         0.33        257.4 
      2227.0         0.30        233.2 
      2228.0         0.33        212.5 
      2229.0         1.75        195.6 
      2230.0         0.57        159.3 
      2231.0         0.43        157.6 
      2232.0         0.57        158.8 
      2233.0         0.55        158.8 
      2234.0         0.50        150.6 
      2235.0         0.40        152.0 
      2236.0         0.40        151.8 
      2237.0         0.40        147.8 
      2238.0         0.50        143.9 
      2239.0         0.50        136.2 
      2240.0         0.42        129.5 
      2241.0         0.53        128.8 
      2242.0         0.53        125.4 
      2243.0         0.60        123.1 
      2244.0         0.37        122.9 
      2245.0         0.77        126.1 
      2246.0         0.52        123.9 
      2247.0         0.53        116.4 
      2248.0         0.57        124.1 
      2249.0         0.57        124.7 
      2250.0         0.43        121.9 
      2251.0         4.28        294.9 
      2252.0         0.52        263.8 
      2253.0         0.60        257.2 
      2254.0         0.40        241.6 
      2255.0         0.47        221.4 
      2256.0         0.50        197.4 
      2257.0         0.40        174.1 
      2258.0         0.62        160.9 
      2259.0         0.40        148.9 
      2260.0         0.40        141.3 
      2261.0         0.40        132.4 
      2262.0         0.47        132.9 
      2263.0         0.43        136.6 
      2264.0         0.37        137.7 
      2265.0         0.30        137.9 
      2266.0         0.38        137.1 
      2267.0         0.33        139.4 
      2268.0         0.27        142.3 
      2269.0         0.33        143.7 
      2270.0         0.27        146.1 
      2271.0         0.30        153.8 
      2272.0         0.37        166.6 
      2273.0         0.40        169.1 
      2274.0         0.33        167.5 
      2275.0         0.27        165.0 
      2276.0         0.32        164.5 
      2277.0         0.30        164.0 
      2278.0         0.33        163.3 
      2279.0         0.40        159.5 
      2280.0         0.53        137.5 
      2281.0         6.00        370.9 
      2282.0         0.43        362.4 
      2283.0         0.53        337.2 
      2284.0         0.60        311.9 
      2285.0         0.65        259.8 
      2286.0         0.57        206.3 
      2287.0         0.37        185.3 
      2288.0         0.67        183.5 
      2289.0         0.43        178.1 
      2290.0         0.37        190.4 
      2291.0         0.48        204.4 
      2292.0         0.50        203.7 
      2293.0         0.57        180.4 
      2294.0         0.43        157.9 
      2295.0         0.37        150.7 
      2296.0         0.37        146.0 
      2297.0         0.37        138.6 
      2298.0         0.38        131.1 
      2299.0         0.33        129.1 
      2300.0         0.37        129.2 
      2301.0         0.30        129.1 
      2302.0         0.30        128.5 
      2303.0         0.47        128.1 
      2304.0         0.27        126.2 
      2305.0         0.37        129.7 
      2306.0         0.35        131.3 
      2307.0         0.40        131.0 
      2308.0         0.40        126.3 
      2309.0         0.43        121.1 
      2310.0         0.53        122.9 
