~Version Information
VERS.                      2.0: CWLS Log ASCII Standard - VERSION 2.0
WRAP.                       NO: One line per depth step
~Well Information Block
STRT.FT                -8.5000: 
STOP.FT              1263.2500: 
STEP.FT                 0.2500: 
NULL.                -999.2500: 
COMP.          Pioneer Natural Resources: COMPANY
WELL.          Rockfish 11-30 Tr: WELL
FLD.           Purgatoire River: FIELD
LOC.           1063' FNL & 1068' FWL--: LOCATION
STAT.                       CO: State
CNTY.               Las Animas: COUNTY
CTRY. USA : country
SECT. 30 : Section
TOWN. 32S : Township
RANG. 65W : Range
SRVC.          Patterson Wireline: SERVICE COMPANY
DATE.          Tue Nov 22 16:08:49 2005: LOG DATE
API.           05 071 08585 00: UNIQUE WELL ID
~Curve Information Block
DEPT.FT            0 000 00 00: Depth
HVOLTA.V                      : Head Voltage Apparent
CCL.                          : Casing Collar Locator
TT3.usec                      : CBL 3' Travel Time
AMP3.mV                       : CBL 3' Amplitude
GR.GAPI                       : Gamma Ray
~Parameter Information Block
PPT.usec                0.0000: Predicted Pipe Time
~A  Depth      HVOLTA       CCL         TT3         AMP3         GR     
# ...
   411.5000     96.1973      0.0000    789.1651     14.9517     65.8774
   411.7500     96.2211      0.0000    788.7292     15.1270     65.5915
   412.0000     96.1356      0.0000    788.4489     15.2367     63.3627
   412.2500     96.2408      0.0000    788.2978     15.2753     59.3302
   412.5000     96.1973      0.0000    788.2259     15.2663     55.5874
   412.7500     96.2520      0.0000    788.1837     15.2538     54.2588
   413.0000     96.3881      0.0000    788.1277     15.2854     55.6884
   413.2500     96.1314      0.0000    788.0232     15.3823     58.3668
   413.5000     96.3095      0.0000    787.8235     15.5242     60.4512
   413.7500     96.1131      0.0000    787.4182     15.6724     61.6238
   414.0000     96.1847      0.0000    786.5665     15.8051     63.4792
   414.2500     96.2450      0.0000    784.9432     15.9241     67.7766
   414.5000     96.1356      0.0000    782.4104     16.0344     74.4017
   414.7500     96.2197      0.0000    779.2562     16.1294     81.1968
   415.0000     96.1959      0.0000    775.8849     16.1959     85.5466
   415.2500     96.2380      0.0000    772.1851     16.2271     86.1414
   415.5000     96.2506      0.0000    767.6701     16.2285     83.6764
   415.7500     96.2225      0.0000    762.2704     16.2165     80.0974
   416.0000     96.1889      0.0000    755.9012     16.2129     77.1325
   416.2500     96.2156      0.0000    746.0935     16.2380     75.4125
   416.5000     96.1973      0.0000    726.7941     16.3032     74.6236
   416.7500     96.3067      0.0000    693.0601     16.4046     74.2469
   417.0000     96.2267      0.0000    650.3683     16.5223     74.3571
   417.2500     96.2142      0.0000    617.3137     16.6298     75.8427
   417.5000     96.1622      0.0000    612.8375     16.7108     79.4533
   417.7500     96.0822      0.0000    638.8583     16.7673     84.4443
   418.0000     96.2464      0.0000    678.9142     16.8095     88.6679
   418.2500     96.1608      0.0000    713.9578     16.8413     90.4528
   418.5000     96.1917      0.0000    736.0352     16.8617     90.1167
   418.7500     96.1145      0.0000    748.0887     16.8746     89.4317
   419.0000     96.2731      0.0000    756.2468     16.8899     89.9616
   419.2500     96.1300      0.0000    764.2545     16.9130     92.0417
   419.5000     96.1678      0.0000    772.4564     16.9359     94.8280
   419.7500     96.3334      0.0000    779.3434     16.9370     96.8996
   420.0000     96.1678      0.0000    783.4599     16.8873     97.1581
   420.2500     96.2773      0.0000    784.3089     16.7647     95.7047
   420.5000     96.2450      0.0000    782.2195     16.5696     93.9190
   420.7500     96.1917      0.0000    777.9683     16.3311     93.4948
   421.0000     96.1692      0.0000    772.5056     16.0907     95.1242
   421.2500     96.1636      0.0000    766.7911     15.8778     97.7141
   421.5000     96.2759      0.0000    761.8306     15.7011     98.8350
   421.7500     96.3404      0.0000    758.6848     15.5634     96.5508
   422.0000     96.1384      0.0000    758.0011     15.4764     91.3279
   422.2500     96.1608      0.0000    759.4843     15.4574     86.0088
   422.5000     96.1622      0.0000    762.2416     15.5134     83.4940
   422.7500     96.2211      0.0000    765.6746     15.6308     84.3325
   423.0000     96.2156      0.0000    769.4648     15.7818     86.5094
   423.2500     96.1047      0.0000    772.5889     15.9354     87.2787
   423.5000     96.2183      0.0000    773.1821     16.0675     85.1542
   423.7500     96.2281      0.0000    770.0060     16.1653     80.7039
   424.0000     96.2562      0.0000    763.4359     16.2290     75.8660
   424.2500     96.1945      0.0000    753.9702     16.2666     72.3676
   424.5000     96.2422      0.0000    739.0618     16.2841     70.5917
   424.7500     96.4176      0.0000    711.7447     16.2809     69.9557
   425.0000     96.2253      0.0000    664.4155     16.2593     70.1110
   425.2500     96.3614      0.0000    596.7701     16.2368     71.3769
   425.5000     96.2211      0.0000    520.3866     16.2463     74.1918
   425.7500     96.3656      0.0000    452.9645     16.3160     78.4395
   426.0000     96.1973      0.0000    406.5490     16.4491     83.0412
   426.2500     96.2478      0.0000    381.6336     16.6195     86.1299
   426.5000     96.2787      0.0000    371.2011     16.7869     86.3420
   426.7500     96.2225      0.0000    367.7890     16.9169     84.3242
   427.0000     96.2815      0.0000    366.9152     16.9929     82.3128
   427.2500     96.2787      0.0000    366.7521     17.0190     81.6996
   427.5000     96.3642      0.0000    366.7606     17.0167     81.5155
   427.7500     96.2856      0.0000    366.7909     17.0162     79.6582
   428.0000     96.3039      0.0000    366.7146     17.0421     75.1624
   428.2500     96.2870      0.0000    366.3197     17.1007     69.0554
   428.5000     96.2239      0.0000    365.1760     17.1849     63.3843
   428.7500     96.2183      0.0000    362.5575     17.2964     59.5767
   429.0000     96.2211      0.0000    357.7307     17.4602     57.5177
   429.2500     96.3109      0.0000    350.6850     17.7063     56.0303
   429.5000     96.2590      0.0000    342.6158     18.0348     54.1780
   429.7500     96.2801      0.0000    335.3687     18.4081     52.0057
   430.0000     96.2912      0.0000    330.2250     18.7799     50.1920
   430.2500     96.3698      0.0000    327.3176     19.1278     49.3961
   430.5000     96.1650      0.0000    326.1465     19.4537     49.9630
   430.7500     96.2520      0.0000    326.8906     19.7476     51.6877
   431.0000     96.3165      0.0000    331.8289     19.9338     53.5349
   431.2500     96.3487      0.0000    346.2053     19.8490     54.0755
   431.5000     96.2815      0.0000    375.9702     19.3395     52.7811
   431.7500     96.2884      0.0000    420.8691     18.4612     50.8103
   432.0000     96.3179      0.0000    469.0843     17.5498     50.2045
   432.2500     96.2898      0.0000    505.3508     16.9684     52.2399
   432.5000     96.3376      0.0000    529.7390     16.7741     56.5430
   432.7500     96.2842      0.0000    562.5466     16.7285     61.5496
   433.0000     96.3460      0.0000    622.8487     16.6073     65.6629
   433.2500     96.4287      0.0000    704.5539     16.3893     68.2581
   433.5000     96.3151      0.0000    778.9532     16.1766     69.9497
   433.7500     96.4232      2.0000    817.8477     16.0624     71.8728
   434.0000     96.3109      0.0000    810.3380     16.0998     74.5803
   434.2500     96.4819      0.0000    761.8301     16.3338     77.7197
   434.5000     95.3209      0.0000    686.6599     16.7967     80.7235
   434.7500     97.3149      0.0000    604.9000     17.4353     83.5967
   435.0000     96.1202      0.0000    537.1280     18.0641     86.9293
   435.2500     96.3418      0.0000    491.9631     18.4846     91.1164
   435.5000     96.3221      0.0000    460.3055     18.6962     95.7356
   435.7500     96.2436      0.0000    428.1430     18.8948     99.9086
   436.0000     96.2337      0.0000    392.5454     19.2157    103.0199
   436.2500     96.2954      0.0000    361.3084     19.5754    104.7483
   436.5000     96.3390      0.0000    341.4629     19.7983    104.7667
   436.7500     96.1959      0.0000    333.2846     19.7992    103.0415
   437.0000     96.2815      0.0000    333.0522     19.6056    100.3123
   437.2500     96.3487      0.0000    337.0162     19.2886     97.7226
   437.5000     96.3432      0.0000    342.7912     18.9206     95.8551
   437.7500     96.3109      0.0000    349.0349     18.5687     94.2913
   438.0000     96.3501      0.0000    354.8908     18.2887     92.2347
   438.2500     96.2295      0.0000    359.5590     18.1140     89.5696
   438.5000     96.2015      0.0000    362.3817     18.0486     87.1216
   438.7500     96.2253      0.0000    363.4835     18.0762     85.8160
   439.0000     96.3193      0.0000    364.6902     18.1751     85.8284
   439.2500     96.3123      0.0000    370.1224     18.3254     86.7152
