~Version Information
VERS.                      2.0: CWLS Log ASCII Standard - VERSION 2.0
WRAP.                       NO: One line per depth step
~Well Information Block
STRT.FT                -6.0000: 
STOP.FT               783.7500: 
STEP.FT                 0.2500: 
NULL.                -999.2500: 
COMP.          Pioneer Natural Resources: COMPANY
WELL.           Weissach 32-32: WELL
FLD.           Purgatorie River: FIELD
LOC.           --2193' FNL & 2256' FEL--: LOCATION
STAT.                       CO: State
CNTY.               Las Animas: COUNTY
CTRY. USA : Country
SECT. 32 : Section
TOWN. 33S : Township
RANG. 65W : Range
SRVC.          Patterson Wireline: SERVICE COMPANY
DATE.          Thu Sep 29 12:52:09 2005: LOG DATE
API.           05 071 08523 00: UNIQUE WELL ID
~Curve Information Block
DEPT.FT            0 000 00 00: Depth
CCL.                          : Casing Collar Locator
TT3.usec                      : CBL 3' Travel Time
AMP3.mV                       : CBL 3' Amplitude
GR.GAPI                       : Gamma Ray
~Parameter Information Block
~A  Depth       CCL         TT3         AMP3         GR     
# ...
   697.5000      0.0000    707.6500      7.1376     69.1792
   697.7500      0.0000    704.6590      7.0451     66.0682
   698.0000      0.0000    699.5334      6.9603     63.5013
   698.2500      0.0000    694.7396      6.8933     63.1965
   698.5000      0.0000    692.1244      6.8465     65.3837
   698.7500      0.0000    691.7373      6.8185     68.7335
   699.0000      0.0000    692.4113      6.8102     71.7889
   699.2500      0.0000    693.0801      6.8261     73.9754
   699.5000      0.0000    693.3638      6.8707     75.3065
   699.7500      0.0000    693.3403      6.9448     75.7408
   700.0000      0.0000    693.1877      7.0409     75.1221
   700.2500      0.0000    693.0347      7.1417     73.6678
   700.5000      0.0000    692.9385      7.2257     72.2224
   700.7500      0.0000    692.9087      7.2765     71.8522
   701.0000      0.0000    692.9254      7.2879     73.2380
   701.2500      0.0000    692.9510      7.2609     76.3109
   701.5000      0.0000    692.9597      7.1974     80.0972
   701.7500      0.0000    692.9619      7.1015     83.0393
   702.0000      0.0000    692.9918      6.9874     83.9099
   702.2500      0.0000    693.0637      6.8825     82.5470
   702.5000      0.0000    693.0674      6.8160     79.7769
   702.7500      0.0000    692.5522      6.8001     76.9782
   703.0000      0.0000    690.2774      6.8244     75.5501
   703.2500      0.0000    683.7136      6.8700     75.9828
   703.5000      0.0000    669.0688      6.9276     77.0873
   703.7500      0.0000    642.8001      6.9989     76.7380
   704.0000      0.0000    604.9594      7.0756     73.9911
   704.2500      0.0000    562.9124      7.1195     70.4089
   704.5000      0.0000    531.4578      7.0742     68.8804
   704.7500      0.0000    525.7468      6.9069     71.1740
   705.0000      0.0000    549.9474      6.6399     76.6753
   705.2500      0.0000    592.2543      6.3227     83.0278
   705.5000      0.0000    633.5225      5.9690     87.6915
   705.7500      0.0000    662.3641      5.5480     89.4931
   706.0000      0.0000    681.2975      5.0711     89.3929
   706.2500      0.0000    698.7419      4.6637     89.5446
   706.5000      0.0000    717.5369      4.4966     90.8879
   706.7500      0.0000    732.5746      4.6284     91.7670
   707.0000      0.0000    737.9222      4.9428     89.5881
   707.2500      0.0000    734.0110      5.2407     83.7060
   707.5000      0.0000    727.5328      5.3765     76.1086
   707.7500      2.0000    725.4194      5.3293     69.6025
   708.0000      0.0000    729.1114      5.2001     66.0381
   708.2500      0.0000    733.6031      5.1508     65.9491
   708.5000      0.0000    730.8276      5.3043     68.9435
   708.7500      0.0000    715.2250      5.6743     74.1191
   709.0000      0.0000    689.2012      6.1940     80.2652
   709.2500      0.0000    664.2753      6.7915     85.8578
   709.5000      0.0000    653.8448      7.4075     89.2662
   709.7500      0.0000    661.7802      7.9662     89.4383
   710.0000      0.0000    678.8394      8.3882     86.5979
   710.2500      0.0000    691.4477      8.6370     82.2913
   710.5000      0.0000    692.1806      8.7313     78.6171
   710.7500      0.0000    680.7094      8.7196     77.1048
   711.0000      0.0000    657.5947      8.6593     77.9955
   711.2500      0.0000    621.3560      8.6052     80.3713
   711.5000      0.0000    573.1408      8.5920     82.9357
   711.7500      0.0000    522.3486      8.6219     84.7197
   712.0000      0.0000    483.5550      8.6777     85.1976
   712.2500      0.0000    465.2827      8.7495     84.1399
   712.5000      0.0000    462.5483      8.8469     81.6091
   712.7500      0.0000    462.8771      8.9793     77.9143
   713.0000      0.0000    460.7267      9.1285     73.5155
   713.2500      0.0000    464.4584      9.2459     69.0879
   713.5000      0.0000    487.2049      9.2815     65.3885
   713.7500      0.0000    531.0339      9.2210     62.7052
   714.0000      0.0000    581.8549      9.0975     60.7390
   714.2500      0.0000    621.3192      8.9674     59.4661
   714.5000      0.0000    643.3844      8.8718     59.8201
   714.7500      0.0000    657.1373      8.8212     63.0249
   715.0000      0.0000    673.6420      8.8068     69.3152
   715.2500      0.0000    693.8940      8.8142     77.4406
   715.5000      0.0000    710.7375      8.8223     85.2204
   715.7500      0.0000    718.1677      8.8062     90.6505
   716.0000      0.0000    715.7657      8.7492     93.0015
   716.2500      0.0000    706.6395      8.6491     93.1445
   716.5000      0.0000    694.1086      8.5097     92.6779
   716.7500      0.0000    680.2047      8.3341     92.5307
   717.0000      0.0000    665.6147      8.1303     92.2230
   717.2500      0.0000    649.8245      7.9200     90.4557
   717.5000      0.0000    631.6608      7.7344     86.6527
   717.7500      0.0000    610.8828      7.5987     81.8567
   718.0000      0.0000    589.8064      7.5182     77.6997
   718.2500      0.0000    572.7330      7.4828     74.6200
   718.5000      0.0000    563.6467      7.4824     71.7308
   718.7500      0.0000    564.8552      7.5170     68.4039
   719.0000      0.0000    577.0788      7.5934     65.2020
   719.2500      0.0000    599.0259      7.7163     63.0935
   719.5000      0.0000    626.3843      7.8822     62.3767
   719.7500      0.0000    652.7111      8.0794     62.7132
   720.0000      0.0000    672.7137      8.2918     63.8817
   720.2500      0.0000    684.8533      8.5068     66.1530
   720.5000      0.0000    690.8690      8.7178     69.7430
   720.7500      0.0000    693.4614      8.9211     73.9616
   721.0000      0.0000    694.5920      9.1085     77.3215
   721.2500      0.0000    695.1572      9.2657     78.8504
   721.5000      0.0000    695.2919      9.3772     79.1796
   721.7500      0.0000    694.5950      9.4291     80.1114
   722.0000      0.0000    692.2394      9.4090     83.0913
   722.2500      0.0000    687.3433      9.3109     87.9146
   722.5000      0.0000    679.5752      9.1453     92.6619
   722.7500      0.0000    669.3146      8.9424     95.0561
   723.0000      0.0000    656.7823      8.7406     94.2870
   723.2500      0.0000    641.2621      8.5685     91.5279
   723.5000      0.0000    622.2365      8.4370     88.6208
   723.7500      0.0000    601.3356      8.3450     86.5442
   724.0000      0.0000    581.4866      8.2910     85.1514
   724.2500      0.0000    564.1481      8.2810     83.7772
   724.5000      0.0000    550.3876      8.3266     81.9127
   724.7500      0.0000    544.9091      8.4347     79.9183
   725.0000      0.0000    554.0856      8.5956     79.0748
   725.2500      0.0000    577.9251      8.7849     80.2209
   725.5000      0.0000    607.7002      8.9780     82.4603
   725.7500      0.0000    633.1035      9.1647     84.1132
   726.0000      0.0000    649.2331      9.3494     84.8555
   726.2500      0.0000    656.7042      9.5383     86.0004
   726.5000      0.0000    658.4357      9.7256     88.5667
   726.7500      0.0000    657.6199      9.8942     91.8701
   727.0000      0.0000    656.8859     10.0290     94.3933
   727.2500      0.0000    657.7531     10.1278     95.5226
   727.5000      0.0000    660.4414     10.1972     95.8377
   727.7500      0.0000    664.2145     10.2426     95.7659
   728.0000      0.0000    668.1768     10.2665     94.6358
   728.2500      0.0000    672.0387     10.2738     91.4383
   728.5000      0.0000    675.8584     10.2781     86.2222
   728.7500      0.0000    678.9164     10.2986     80.4674
   729.0000      0.0000    679.3506     10.3487     76.2127
   729.2500      0.0000    675.1725     10.4227     74.7308
   729.5000      0.0000    665.0740     10.4961     75.7096
   729.7500      0.0000    648.2783     10.5423     77.6422
   730.0000      0.0000    625.5812     10.5483     79.0958
   730.2500      0.0000    602.4330     10.5116     79.7172
   730.5000      0.0000    589.3314     10.4282     80.2650
   730.7500      0.0000    595.0079     10.2927     81.8148
