~Version Information
VERS.                      2.0: CWLS Log ASCII Standard - VERSION 2.0
WRAP.                       NO: One line per depth step
~Well Information Block
STRT.FT                 0.0000: 
STOP.FT              1877.2500: 
STEP.FT                 0.2500: 
NULL.                -999.2500: 
COMP.          Pioneer Natural Resources: COMPANY
WELL.            Corazon 13-10: WELL
FLD.           Purgatoire River: FIELD
LOC.           2510' FSL & 439' FWL--------: LOCATION
PROV.                 Colorado: PROVINCE
CNTY.               Las Animas: COUNTRY
SRVC.                         : SERVICE COMPANY
DATE.          Mon Dec 19 14:34:49 2005: LOG DATE
UWI.                          : UNIQUE WELL ID
~Curve Information Block
DEPT.FT            0 000 00 00: Depth
CCL.                          : Casing Collar Locator
TT3.usec                      : CBL 3' Travel Time
AMP3.mV                       : CBL 3' Amplitude
AMP5.mV                       : CBL 5' Amplitude
GR.GAPI                       : Gamma Ray
~Parameter Information Block
~A  Depth       CCL         TT3         AMP3        AMP5         GR     
# ...
  1596.0000      0.0000    612.7975      4.6455      0.2541    103.2230
  1596.2500      0.0000    605.4623      4.5904      0.2428    104.7875
  1596.5000      0.0000    598.2596      4.5424      0.2264    103.7815
  1596.7500      0.0000    586.8589      4.5194      0.2174     99.7666
  1597.0000      0.0000    569.0251      4.5229      0.2274     93.3512
  1597.2500      0.0000    548.1801      4.5441      0.2642     86.1468
  1597.5000      0.0000    533.3287      4.5773      0.3254     80.2572
  1597.7500      0.0000    532.2686      4.6275      0.3954     77.3939
  1598.0000      0.0000    543.3698      4.7022      0.4507     78.0602
  1598.2500      0.0000    555.8057      4.7982      0.4756     81.3032
  1598.5000      0.0000    558.8361      4.8969      0.4708     85.2470
  1598.7500      0.0000    550.2150      4.9741      0.4479     88.1514
  1599.0000      0.0000    535.9431      5.0129      0.4207     89.3544
  1599.2500      0.0000    524.0284      5.0099      0.4021     89.4152
  1599.5000      0.0000    519.5824      4.9712      0.4024     89.3254
  1599.7500      0.0000    524.0608      4.9094      0.4251     89.5528
  1600.0000      0.0000    535.3572      4.8437      0.4641     89.9515
  1600.2500      0.0000    546.6440      4.8001      0.5071     90.3772
  1600.5000      0.0000    547.8860      4.7951      0.5409     90.8344
  1600.7500      0.0000    533.4527      4.8137      0.5556     90.9599
  1601.0000      0.0000    510.1411      4.8053      0.5463     89.9489
  1601.2500      0.0000    495.2747      4.7174      0.5132     87.2155
  1601.5000      0.0000    503.7169      4.5459      0.4615     82.8628
  1601.7500      0.0000    535.2217      4.3495      0.4012     77.6522
  1602.0000      0.0000    574.1414      4.2019      0.3442     72.7360
  1602.2500      0.0000    602.1764      4.1360      0.2988     69.0457
  1602.5000      0.0000    612.4587      4.1468      0.2680     66.5281
  1602.7500      0.0000    612.8882      4.2253      0.2529     64.1799
  1603.0000      0.0000    617.4310      4.3568      0.2526     61.2071
  1603.2500      0.0000    634.0498      4.5030      0.2606     58.0837
  1603.5000      0.0000    659.2076      4.6136      0.2640     56.2638
  1603.7500     -2.0000    682.5188      4.6526      0.2525     56.8857
  1604.0000      0.0000    695.3448      4.6117      0.2282     59.7935
  1604.2500      0.0000    694.8107      4.5240      0.2041     63.6829
  1604.5000      0.0000    681.8132      4.4600      0.1927     67.1217
  1604.7500      0.0000    657.4176      4.4788      0.1971     69.3765
  1605.0000      0.0000    621.7960      4.5719      0.2127     70.2643
  1605.2500      0.0000    577.2068      4.6804      0.2355     69.5650
  1605.5000      0.0000    531.8104      4.7606      0.2666     67.0504
  1605.7500      0.0000    498.4389      4.8112      0.3091     63.0645
  1606.0000      0.0000    488.1154      4.8494      0.3616     58.7550
  1606.2500      0.0000    504.2123      4.8903      0.4166     55.6030
  1606.5000      0.0000    540.2914      4.9431      0.4646     54.5612
  1606.7500      0.0000    581.1210      5.0088      0.4994     55.3698
  1607.0000      0.0000    607.8845      5.0829      0.5202     56.7659
  1607.2500      0.0000    607.1768      5.1649      0.5299     57.5688
  1607.5000      0.0000    578.4401      5.2594      0.5310     57.4854
  1607.7500      0.0000    533.9653      5.3654      0.5238     56.8095
  1608.0000      0.0000    491.1438      5.4712      0.5070     55.7646
  1608.2500      0.0000    463.0096      5.5622      0.4805     54.5052
  1608.5000      0.0000    454.3195      5.6315      0.4501     53.5421
  1608.7500      0.0000    464.2670      5.6796      0.4297     53.7775
  1609.0000      0.0000    489.6813      5.7076      0.4351     55.9691
  1609.2500      0.0000    524.5757      5.7140      0.4726     60.0769
  1609.5000      0.0000    559.8925      5.7006      0.5329     65.0243
  1609.7500      0.0000    587.8061      5.6774      0.5987     69.2799
  1610.0000      0.0000    605.6093      5.6554      0.6553     71.9144
  1610.2500      0.0000    612.8550      5.6347      0.6961     73.0359
  1610.5000      0.0000    607.5473      5.6054      0.7186     73.1019
  1610.7500      0.0000    589.5975      5.5590      0.7196     72.1175
  1611.0000      0.0000    565.8241      5.4943      0.6941     69.7297
  1611.2500      0.0000    546.8150      5.4090      0.6398     65.8817
  1611.5000      0.0000    540.0373      5.2932      0.5622     61.1358
  1611.7500      0.0000    548.4514      5.1329      0.4749     56.4159
  1612.0000      0.0000    571.9174      4.9203      0.3940     52.5490
  1612.2500      0.0000    605.5806      4.6612      0.3318     49.9028
  1612.5000      0.0000    639.7366      4.3815      0.2930     48.1638
  1612.7500      0.0000    665.5029      4.1247      0.2757     46.5394
  1613.0000      0.0000    680.2313      3.9321      0.2765     44.6045
  1613.2500      0.0000    686.7622      3.8158      0.2948     42.9913
  1613.5000      0.0000    689.1837      3.7545      0.3301     42.8716
  1613.7500      0.0000    690.1564      3.7149      0.3756     44.7914
  1614.0000      0.0000    690.7433      3.6777      0.4179     48.4037
  1614.2500      0.0000    691.1559      3.6476      0.4427     53.2721
  1614.5000      0.0000    691.3319      3.6488      0.4446     59.3971
  1614.7500      0.0000    691.0979      3.7095      0.4327     66.8208
  1615.0000      0.0000    690.0932      3.8461      0.4219     75.0232
  1615.2500      0.0000    687.7647      4.0526      0.4186     82.8550
  1615.5000      0.0000    683.7177      4.3029      0.4198     88.9387
  1615.7500      0.0000    678.4528      4.5611      0.4261     92.3169
  1616.0000      0.0000    673.7762      4.7957      0.4450     93.1168
  1616.2500      0.0000    671.9749      4.9882      0.4775     92.7187
  1616.5000      0.0000    674.0880      5.1365      0.5092     93.1307
  1616.7500      0.0000    678.9777      5.2517      0.5204     95.9355
  1617.0000      0.0000    684.2603      5.3483      0.5059    101.3804
  1617.2500      0.0000    688.0859      5.4293      0.4811    108.1122
  1617.5000      0.0000    690.0231      5.4824      0.4690    113.8617
  1617.7500      0.0000    690.6332      5.4945      0.4847    116.7920
  1618.0000      0.0000    690.6371      5.4670      0.5250    116.4420
  1618.2500      0.0000    690.4751      5.4164      0.5708    113.5810
  1618.5000      0.0000    690.3260      5.3614      0.5976    109.5734
  1618.7500      0.0000    690.2862      5.3138      0.5919    105.7726
  1619.0000      0.0000    690.4537      5.2792      0.5591    102.8706
  1619.2500      0.0000    690.8759      5.2595      0.5186    100.7327
  1619.5000      0.0000    691.4457      5.2522      0.4882     99.2085
  1619.7500      0.0000    691.8801      5.2524      0.4753     98.9915
  1620.0000      0.0000    691.7879      5.2586      0.4763    101.1343
  1620.2500      0.0000    690.8350      5.2733      0.4822    105.6603
  1620.5000      0.0000    689.0787      5.2966      0.4863    111.1053
  1620.7500      0.0000    687.2805      5.3225      0.4917    115.6310
  1621.0000      0.0000    686.6061      5.3432      0.5106    118.2860
  1621.2500      0.0000    687.6570      5.3512      0.5517    119.0171
  1621.5000      0.0000    689.8942      5.3385      0.6070    117.9412
  1621.7500      0.0000    692.2198      5.2987      0.6546    115.1882
  1622.0000      0.0000    693.9261      5.2318      0.6741    111.3068
  1622.2500      0.0000    694.9398      5.1451      0.6599    107.2343
  1622.5000      0.0000    695.4615      5.0499      0.6238    103.7239
  1622.7500      0.0000    695.6449      4.9597      0.5850    101.0128
  1623.0000      0.0000    695.5149      4.8887      0.5566     99.0536
  1623.2500      0.0000    695.0237      4.8454      0.5413     97.6302
  1623.5000      0.0000    694.1787      4.8215      0.5344     96.1301
  1623.7500      0.0000    693.1423      4.7974      0.5319     93.8309
