~Version Information
VERS.                      2.0: CWLS Log ASCII Standard - VERSION 2.0
WRAP.                       NO: One line per depth step
~Well Information Block
STRT.FT               410.0000: 
STOP.FT              1253.0000: 
STEP.FT                 0.1000: 
NULL.                -999.2500: 
COMP.          Petrogulf Corporation: COMPANY
WELL.           Parsons 15-23R: WELL
FLD.           Purgatorie River: FIELD
LOC.           2244' FSL & 1932' FWL: LOCATION
PROV.                 Colorado: PROVINCE
CNTY.               Las Animas: COUNTRY
SRVC.                Patterson: SERVICE COMPANY
DATE.          Mon Sep 12 10:28:25 2005: LOG DATE
UWI.                          : UNIQUE WELL ID
~Curve Information Block
DEPT.FT            0 000 00 00: Depth
DCAL.in                       : CDL Caliper
RHOB.g/cc                     : CDL Bulk Density
RHOC.g/cc                     : CDL Density Correction
DPOR.pu                       : CDL Density Porosity
GR.GAPI                       : Gamma Ray
NPOR.pu                       : Neutron Porosity
~Parameter Information Block
~A  Depth       DCAL        RHOB        RHOC        DPOR         GR         NPOR    
# ...
  1178.0000      7.8469      2.6609      0.1262     -0.6577    126.3442     27.4425
  1178.1000      7.8469      2.6639      0.0948     -0.8422    119.9704     27.1046
  1178.2000      7.8469      2.6620      0.1193     -0.7243    112.7649     26.0743
  1178.3000      7.8210      2.6472      0.0928      0.1707    106.4511     24.7789
  1178.4000      7.8210      2.6321      0.0447      1.0873    101.7205     23.7927
  1178.5000      7.8161      2.6371      0.0381      0.7797     98.3738     23.2334
  1178.6000      7.8161      2.6598      0.0638     -0.5968     95.2033     22.9359
  1178.7000      7.8161      2.6801      0.0849     -1.8238     92.5596     22.7252
  1178.8000      7.8101      2.6829      0.1258     -1.9932     93.0210     22.1731
  1178.9000      7.8101      2.6655      0.1250     -0.9372     96.4393     21.1844
  1179.0000      7.8102      2.6382      0.0596      0.7167     99.9051     20.4858
  1179.1000      7.8102      2.6156      0.0634      2.0876    102.8971     20.7547
  1179.2000      7.8102      2.6060      0.0187      2.6693    106.0137     21.8962
  1179.3000      7.8077      2.6057      0.0657      2.6848    109.1543     23.3863
  1179.4000      7.8077      2.6038      0.0636      2.7970    114.1062     24.6495
  1179.5000      7.8532      2.6010      0.0698      2.9695    122.3485     25.4248
  1179.6000      7.8532      2.6015      0.0954      2.9412    130.8686     26.0387
  1179.7000      7.8532      2.5992      0.0937      3.0815    137.7467     26.7268
  1179.8000      7.9055      2.5913      0.1078      3.5599    143.3070     27.4623
  1179.9000      7.9055      2.5867      0.1001      3.8342    147.8841     28.0643
  1180.0000      7.9153      2.5859      0.1418      3.8852    152.4167     28.3478
  1180.1000      7.9153      2.5682      0.1129      4.9550    155.6622     28.3115
  1180.2000      7.9153      2.5216      0.0446      7.7814    156.1881     28.2526
  1180.3000      7.9282      2.4555      0.0118     11.7866    155.8291     28.4418
  1180.4000      7.9282      2.3821     -0.0178     16.2387    155.5270     28.8116
  1180.5000      7.9462      2.3070     -0.0299     20.7882    155.8620     29.2746
  1180.6000      7.9462      2.2375     -0.0858     25.0029    157.2306     29.6592
  1180.7000      7.9462      2.1872     -0.0775     28.0482    160.3013     29.8111
  1180.8000      7.9506      2.1604     -0.0488     29.6727    166.1419     29.8686
  1180.9000      7.9506      2.1515     -0.0646     30.2131    169.6779     29.8625
  1181.0000      7.9589      2.1626     -0.0369     29.5399    164.6644     29.8513
  1181.1000      7.9589      2.1940      0.0758     27.6362    154.3673     30.0382
  1181.2000      7.9589      2.2335      0.1386     25.2435    145.9946     30.5896
  1181.3000      7.9684      2.2698      0.1923     23.0415    142.4654     31.3307
  1181.4000      7.9684      2.3004      0.1917     21.1896    144.5414     31.6815
  1181.5000      8.0450      2.3263      0.1542     19.6204    150.0473     31.5729
  1181.6000      8.0450      2.3490      0.0722     18.2453    154.3701     31.3520
  1181.7000      8.0450      2.3707      0.0601     16.9259    154.3133     31.0620
  1181.8000      8.1113      2.3935      0.0952     15.5467    151.0934     30.6946
  1181.9000      8.1113      2.4207      0.0676     13.8996    148.5181     30.3882
  1182.0000      8.1367      2.4499      0.1114     12.1277    148.4364     30.2817
  1182.1000      8.1367      2.4644      0.1214     11.2461    150.6683     30.2945
  1182.2000      8.1367      2.4537      0.0637     11.8979    153.8003     30.3010
  1182.3000      8.1571      2.4308      0.0273     13.2835    154.9549     30.3354
  1182.4000      8.1571      2.4164      0.0192     14.1563    152.1712     30.2626
  1182.5000      8.1659      2.4142      0.0467     14.2924    146.9953     30.0087
  1182.6000      8.1659      2.4122      0.0666     14.4143    145.2612     29.9990
  1182.7000      8.1659      2.4015      0.0447     15.0585    150.0107     30.5124
  1182.8000      8.1796      2.3807      0.0329     16.3192    155.8770     31.1416
  1182.9000      8.1796      2.3484      0.0365     18.2765    158.1243     31.3726
  1183.0000      8.2024      2.3150     -0.0181     20.3012    156.8256     31.3172
  1183.1000      8.2024      2.3062      0.0179     20.8361    154.1682     31.1894
  1183.2000      8.2024      2.3290      0.0414     19.4525    152.6371     31.0594
  1183.3000      8.1638      2.3632      0.0938     17.3795    150.8137     31.0684
  1183.4000      8.1638      2.3980      0.0769     15.2753    147.7730     31.1372
  1183.5000      8.1349      2.4441      0.0733     12.4779    147.0924     31.0813
  1183.6000      8.1349      2.4999      0.1661      9.0999    149.2807     30.9016
  1183.7000      8.1349      2.5396      0.1650      6.6918    149.5776     30.6433
  1183.8000      8.1067      2.5475      0.1580      6.2129    146.5036     30.2322
  1183.9000      8.1067      2.5357      0.1163      6.9282    142.6092     29.8502
  1184.0000      8.0135      2.5288      0.1046      7.3437    137.2986     29.6653
  1184.1000      8.0135      2.5343      0.1072      7.0143    132.0228     29.2978
  1184.2000      8.0135      2.5431      0.0487      6.4773    131.0370     28.6451
  1184.3000      7.9661      2.5544      0.0522      5.7914    134.1877     28.2408
  1184.4000      7.9661      2.5661      0.0715      5.0852    137.2897     28.3028
  1184.5000      7.9395      2.5661      0.0806      5.0820    136.5477     28.4561
  1184.6000      7.9395      2.5522      0.0628      5.9296    133.2701     28.2023
  1184.7000      7.9395      2.5373      0.0049      6.8279    130.7373     27.3378
  1184.8000      7.9119      2.5322      0.0371      7.1381    129.6302     26.2090
  1184.9000      7.9119      2.5360      0.0518      6.9065    129.8916     25.4690
  1185.0000      7.9145      2.5437      0.0735      6.4404    131.6268     25.4508
  1185.1000      7.9145      2.5490      0.0776      6.1225    133.2581     25.9460
  1185.2000      7.9145      2.5554      0.0195      5.7350    131.6950     26.5058
  1185.3000      7.9144      2.5695      0.0739      4.8774    128.4231     26.5908
  1185.4000      7.9144      2.5792      0.1093      4.2898    127.5931     25.9760
  1185.5000      7.9052      2.5766      0.0724      4.4514    129.2361     25.2387
  1185.6000      7.9052      2.5778      0.0586      4.3769    129.5807     25.1387
  1185.7000      7.9052      2.5901      0.1208      3.6324    127.7776     25.6333
  1185.8000      7.8305      2.5993      0.1229      3.0700    127.1740     25.9551
  1185.9000      7.8305      2.5948      0.0994      3.3433    128.4713     25.9122
  1186.0000      7.8228      2.5699      0.1061      4.8574    128.5177     26.0173
  1186.1000      7.8228      2.5235      0.0883      7.6638    125.7241     26.3294
  1186.2000      7.8228      2.4692      0.0667     10.9555    122.6758     26.5783
  1186.3000      7.8672      2.4196      0.0354     13.9645    122.7063     26.8016
  1186.4000      7.8672      2.3779      0.0167     16.4903    127.5233     27.1157
  1186.5000      7.9081      2.3465      0.0097     18.3963    136.2296     27.4821
  1186.6000      7.9081      2.3282      0.0310     19.5053    143.0620     27.8903
  1186.7000      7.9081      2.3214      0.0156     19.9142    144.1346     28.2602
  1186.8000      7.9307      2.3241      0.0417     19.7505    142.6316     28.4327
  1186.9000      7.9307      2.3409      0.0890     18.7338    143.2367     28.4573
  1187.0000      7.9426      2.3695      0.1858     17.0022    147.7428     28.5196
  1187.1000      7.9426      2.3924      0.1849     15.6095    154.7350     28.7103
  1187.2000      7.9426      2.4040      0.1592     14.9089    157.7679     29.0700
  1187.3000      7.9826      2.4174      0.1834     14.0992    153.4001     29.5946
  1187.4000      7.9826      2.4409      0.1670     12.6750    147.3409     30.1713
  1187.5000      7.9991      2.4675      0.1676     11.0599    144.8028     30.7692
