~Version Information
VERS.                      2.0: CWLS Log ASCII Standard - VERSION 2.0
WRAP.                       NO: One line per depth step
~Well Information Block
STRT.FT               460.0000: 
STOP.FT              3058.5000: 
STEP.FT                 0.1000: 
NULL.                -999.2500: 
COMP.          Pioneer Natural Resources: COMPANY
WELL.            Cleaver 24-12: WELL
FLD.           Purgatoire River: FIELD
LOC.           204' FSL & 2351' FWL: LOCATION
PROV.                 Colorado: PROVINCE
CNTY.               Las Animas: COUNTRY
SRVC.                Patterson: SERVICE COMPANY
DATE.          Mon Jan 09 13:49:27 2006: LOG DATE
UWI.           05 071 08634 00: UNIQUE WELL ID
~Curve Information Block
DEPT.FT            0 000 00 00: Depth
DCAL.in                       : CDL Caliper
RHOB.g/cc                     : CDL Bulk Density
RHOC.g/cc                     : CDL Density Correction
DPOR.pu                       : CDL Density Porosity
GR.GAPI                       : Gamma Ray
NPOR.pu                       : Neutron Porosity
~Parameter Information Block
~A  Depth       DCAL        RHOB        RHOC        DPOR         GR         NPOR    
# ...
   632.8000      7.9683      2.5647      0.0520      5.1718    132.7079     29.3892
   632.9000      7.9683      2.6046      0.0983      2.7510    135.6039     29.6776
   633.0000      7.9691      2.6316      0.1041      1.1145    132.1209     29.5421
   633.1000      7.9691      2.6532      0.0901     -0.1967    123.2158     29.2622
   633.2000      7.9691      2.6584      0.1325     -0.5098    114.2073     29.1863
   633.3000      7.9727      2.6307      0.1136      1.1672    111.8085     29.0500
   633.4000      7.9727      2.5873      0.0608      3.8007    116.4721     28.3764
   633.5000      7.9777      2.5582      0.0555      5.5613    121.6677     27.4960
   633.6000      7.9777      2.5475      0.0669      6.2098    119.9171     27.0431
   633.7000      7.9777      2.5442      0.0379      6.4132    110.3995     26.8795
   633.8000      8.0039      2.5408      0.0631      6.6208    100.9770     26.5929
   633.9000      8.0039      2.5339      0.0808      7.0379     96.0431     26.0497
   634.0000      8.0621      2.5309      0.0533      7.2154     93.0470     25.1367
   634.1000      8.0621      2.5448      0.0569      6.3734     92.2308     24.0508
   634.2000      8.0621      2.5703      0.1190      4.8328     94.5749     23.3316
   634.3000      8.0717      2.5787      0.1660      4.3190     97.4014     23.2315
   634.4000      8.0717      2.5573      0.1003      5.6191     98.8587     23.4682
   634.5000      8.0523      2.5352      0.0805      6.9589     99.9286     23.7170
   634.6000      8.0523      2.5380      0.0930      6.7906    103.5678     23.9264
   634.7000      8.0523      2.5475      0.1458      6.2097    108.6045     24.0223
   634.8000      8.0453      2.5455      0.0744      6.3304    110.3005     24.0596
   634.9000      8.0453      2.5446      0.0413      6.3868    110.6260     24.3693
   635.0000      8.0569      2.5484      0.1181      6.1594    113.6757     24.8751
   635.1000      8.0569      2.5516      0.0912      5.9642    116.0251     25.1090
   635.2000      8.0569      2.5648      0.0946      5.1626    114.8807     25.1280
   635.3000      8.0697      2.5770      0.1847      4.4222    114.6337     25.1853
   635.4000      8.0697      2.5644      0.1184      5.1891    117.8119     25.3454
   635.5000      8.0309      2.5445      0.0373      6.3958    121.1276     25.9408
   635.6000      8.0309      2.5359      0.0983      6.9145    122.1961     26.7783
   635.7000      8.0309      2.5205      0.0724      7.8473    123.5348     27.1662
   635.8000      8.0084      2.4983     -0.0027      9.1963    124.0054     27.2753
   635.9000      8.0084      2.4938     -0.0175      9.4696    119.8101     27.5099
   636.0000      7.9826      2.5083      0.0142      8.5881    114.6309     27.8547
   636.1000      7.9826      2.5241      0.0455      7.6330    113.9237     28.0054
   636.2000      7.9826      2.5350      0.0473      6.9669    117.4458     27.7831
   636.3000      7.9716      2.5480      0.0363      6.1844    120.4425     27.4742
   636.4000      7.9716      2.5688      0.0737      4.9224    118.2743     27.2593
   636.5000      7.9672      2.5894      0.1149      3.6744    111.5484     27.1712
   636.6000      7.9672      2.5891      0.1346      3.6880    106.1198     27.1182
   636.7000      7.9672      2.5573      0.0600      5.6204    107.7411     26.9297
   636.8000      7.9650      2.5075      0.0347      8.6360    117.7032     26.7023
   636.9000      7.9650      2.4730     -0.0386     10.7258    128.2176     26.6279
   637.0000      7.9690      2.4805     -0.0127     10.2709    128.9002     26.6424
   637.1000      7.9690      2.5139      0.0462      8.2494    122.0886     26.5299
   637.2000      7.9690      2.5330      0.0424      7.0916    119.2057     26.2337
   637.3000      7.9784      2.5260      0.0225      7.5138    121.2556     25.8600
   637.4000      7.9784      2.5044      0.0783      8.8242    120.6148     25.4137
   637.5000      7.9816      2.4797      0.0123     10.3230    121.9695     24.9981
   637.6000      7.9816      2.4632     -0.0132     11.3220    130.3282     24.7730
   637.7000      7.9816      2.4511      0.0223     12.0516    133.7999     24.5266
   637.8000      7.9863      2.4331     -0.0231     13.1483    126.6442     24.1391
   637.9000      7.9863      2.4168     -0.0230     14.1359    120.0423     23.7017
   638.0000      7.9823      2.4205     -0.0643     13.9117    118.1014     23.0275
   638.1000      7.9823      2.4491     -0.0330     12.1740    112.8084     22.1920
   638.2000      7.9823      2.4823      0.0188     10.1626    100.4314     21.7489
   638.3000      7.9869      2.4923      0.0827      9.5573     88.4687     21.5671
   638.4000      7.9869      2.4754      0.0238     10.5839     82.7939     21.0375
   638.5000      8.0004      2.4533      0.0203     11.9240     80.0899     20.2474
   638.6000      8.0004      2.4427      0.0658     12.5656     77.0334     19.6115
   638.7000      8.0004      2.4512      0.0382     12.0485     74.0584     19.2648
   638.8000      8.0044      2.4803      0.0626     10.2877     71.2239     19.1704
   638.9000      8.0044      2.5078      0.0989      8.6173     67.7860     19.1142
   639.0000      8.0353      2.5142      0.0982      8.2279     65.6140     18.8083
   639.1000      8.0353      2.5071      0.0485      8.6599     66.3042     18.3352
   639.2000      8.0353      2.4989      0.0584      9.1594     66.0204     17.9842
   639.3000      8.0796      2.4919      0.0416      9.5833     61.8616     17.9324
   639.4000      8.0796      2.4797      0.0380     10.3185     58.2715     18.1857
   639.5000      8.1045      2.4491      0.0438     12.1776     59.7416     18.4630
   639.6000      8.1045      2.4127     -0.0630     14.3801     63.3868     18.4182
   639.7000      8.1045      2.4050     -0.0081     14.8469     62.5914     18.0341
   639.8000      8.1214      2.4209      0.0354     13.8878     56.9222     17.6216
   639.9000      8.1214      2.4298      0.0391     13.3471     52.4057     17.2853
   640.0000      8.1349      2.4189      0.0592     14.0075     52.8446     16.9831
   640.1000      8.1349      2.3976      0.0252     15.2944     55.6549     16.9700
   640.2000      8.1349      2.3848     -0.0063     16.0735     57.2200     17.3733
   640.3000      8.1053      2.3852     -0.0196     16.0457     57.1937     17.8542
   640.4000      8.1053      2.3875     -0.0065     15.9075     56.4110     18.0061
   640.5000      8.0856      2.3892     -0.0418     15.8062     55.2272     17.8321
   640.6000      8.0856      2.3964      0.0473     15.3682     53.8717     17.5849
   640.7000      8.0856      2.4008      0.0217     15.1045     53.5056     17.3510
   640.8000      8.0906      2.3964      0.0412     15.3715     55.3625     17.2139
   640.9000      8.0906      2.3893     -0.0049     15.7982     55.9119     17.3142
   641.0000      8.0889      2.3843      0.0043     16.1002     52.1084     17.7159
   641.1000      8.0889      2.3832      0.0064     16.1672     47.5333     18.2496
   641.2000      8.0889      2.3848      0.0254     16.0751     46.1259     18.3865
   641.3000      8.0764      2.3854     -0.0040     16.0375     46.1421     17.9659
   641.4000      8.0764      2.3874     -0.0453     15.9155     45.1179     17.6755
   641.5000      8.0594      2.3953     -0.0077     15.4377     46.7603     17.8530
   641.6000      8.0594      2.4071     -0.0130     14.7196     54.1086     17.9346
   641.7000      8.0594      2.4170      0.0315     14.1220     63.3002     17.4116
   641.8000      8.0371      2.4128      0.0633     14.3730     68.8147     16.6333
   641.9000      8.0371      2.3912     -0.0129     15.6869     69.1768     16.5165
   642.0000      8.0098      2.3774     -0.0670     16.5224     65.4009     17.2215
   642.1000      8.0098      2.3929      0.0142     15.5791     58.8116     17.8847
   642.2000      8.0098      2.4255      0.0276     13.6037     52.3540     18.0657
   642.3000      8.0086      2.4478      0.0640     12.2519     49.0903     17.8884
