~Version Information
VERS.                      2.0: CWLS Log ASCII Standard - VERSION 2.0
WRAP.                       NO: One line per depth step
~Well Information Block
STRT.FT               -11.5000: 
STOP.FT              1961.7500: 
STEP.FT                 0.2500: 
NULL.                -999.2500: 
COMP.          Petrogulf Corporation: COMPANY
WELL.           State 16-23R-X: WELL
FLD.           Purgatorie River: FIELD
LOC.           2381' FSL & 2072' FWL--: LOCATION
PROV.                       CO: PROVINCE
CNTY.               Las Animas: COUNTRY
SRVC.          Patterson Wireline: SERVICE COMPANY
DATE.          Fri Sep 09 14:32:42 2005: LOG DATE
UWI.           05 071 08324 00: UNIQUE WELL ID
~Curve Information Block
DEPT.FT            0 000 00 00: Depth
CCL.                          : Casing Collar Locator
TT3.usec                      : CBL 3' Travel Time
AMP3.mV                       : CBL 3' Amplitude
GR.GAPI                       : Gamma Ray
~Parameter Information Block
~A  Depth       CCL         TT3         AMP3         GR     
# ...
   256.5000      0.0000    373.5944     12.0331     62.8244
   256.7500      0.0000    373.0921     11.8690     58.5684
   257.0000      0.0000    372.8111     11.6690     52.4917
   257.2500      0.0000    372.9425     11.4371     47.4631
   257.5000      0.0000    374.0733     11.1938     45.4168
   257.7500      0.0000    377.6777     10.9696     46.0785
   258.0000      0.0000    386.0505     10.7890     47.7399
   258.2500      0.0000    400.5726     10.6573     48.9820
   258.5000      0.0000    418.9054     10.5622     49.5298
   258.7500      0.0000    434.9721     10.4861     49.8031
   259.0000      0.0000    444.6426     10.4114     50.1618
   259.2500      0.0000    452.1087     10.3142     50.8147
   259.5000      0.0000    467.4262     10.1679     52.2495
   259.7500      0.0000    495.1395      9.9645     55.2699
   260.0000      0.0000    527.1265      9.7327     60.2592
   260.2500      0.0000    549.8003      9.5263     66.4341
   260.5000      0.0000    557.8652      9.3907     72.1280
   260.7500      0.0000    557.7804      9.3371     75.9278
   261.0000      0.0000    557.7544      9.3460     77.4907
   261.2500      0.0000    558.4683      9.3906     77.4308
   261.5000      0.0000    555.0829      9.4488     76.6726
   261.7500      0.0000    544.5425      9.4945     75.8795
   262.0000      0.0000    527.9603      9.4940     75.3195
   262.2500      0.0000    507.6570      9.4243     75.0071
   262.5000      0.0000    485.0468      9.2985     74.8574
   262.7500      0.0000    461.6055      9.1682     74.9763
   263.0000      0.0000    439.6154      9.1020     75.9635
   263.2500      0.0000    420.8313      9.1555     78.5143
   263.5000      0.0000    405.4771      9.3443     82.4937
   263.7500      0.0000    393.1732      9.6326     86.8248
   264.0000      0.0000    383.9726      9.9477     90.3506
   264.2500      0.0000    377.9807     10.2169     92.2027
   264.5000      0.0000    374.6161     10.4015     91.3790
   264.7500      0.0000    372.6729     10.5088     87.1159
   265.0000      0.0000    370.8014     10.5789     80.3531
   265.2500      0.0000    367.7679     10.6575     74.0821
   265.5000      0.0000    362.7058     10.7687     71.3393
   265.7500      0.0000    355.6384     10.9051     72.6865
   266.0000      0.0000    347.7863     11.0423     75.8299
   266.2500      0.0000    340.9381     11.1653     77.8696
   266.5000      0.0000    336.2613     11.2863     78.0930
   266.7500      0.0000    333.7322     11.4366     78.5331
   267.0000      0.0000    332.5913     11.6420     81.6290
   267.2500      0.0000    332.0911     11.9030     87.3306
   267.5000      0.0000    331.8323     12.1960     92.6775
   267.7500      0.0000    331.6877     12.4912     94.3285
   268.0000      0.0000    331.6337     12.7641     91.4105
   268.2500      0.0000    331.6614     12.9964     85.9400
   268.5000      0.0000    331.7513     13.1754     80.8642
   268.7500      0.0000    331.8714     13.2983     77.9980
   269.0000      0.0000    331.9898     13.3709     77.5957
   269.2500      0.0000    332.1013     13.4000     79.2237
   269.5000      0.0000    332.2378     13.3934     82.4014
   269.7500      0.0000    332.4329     13.3692     86.2347
   270.0000      0.0000    332.6678     13.3569     89.1041
   270.2500      0.0000    332.8546     13.3786     89.6671
   270.5000      0.0000    332.8885     13.4276     88.4136
   270.7500      0.0000    332.7303     13.4667     87.7384
   271.0000      0.0000    332.4410     13.4493     90.0069
   271.2500      0.0000    332.1324     13.3499     95.3806
   271.5000      0.0000    331.8857     13.1856    101.3796
   271.7500      0.0000    331.7159     13.0138    104.4902
   272.0000      0.0000    331.5969     12.9025    102.5685
   272.2500      0.0000    331.5380     12.8958     96.2610
   272.5000      0.0000    331.6768     12.9966     88.3380
   272.7500      0.0000    332.5456     13.1752     81.7030
   273.0000      0.0000    335.8268     13.3759     78.0280
   273.2500      0.0000    345.5320     13.5046     77.7921
   273.5000      0.0000    368.4563     13.4310     80.7075
   273.7500      0.0000    411.2896     13.0515     85.7066
   274.0000      0.0000    474.4399     12.3763     91.1086
   274.2500      0.0000    548.0105     11.5486     95.3885
   274.5000      0.0000    615.1239     10.7695     97.7165
   274.7500      0.0000    660.4479     10.1974     97.7885
   275.0000      0.0000    678.2628      9.8882     95.7002
   275.2500      0.0000    676.9375      9.7956     92.2809
   275.5000     -2.0000    674.9600      9.8283     89.2586
   275.7500      2.0000    686.1160      9.9270     88.5190
   276.0000      0.0000    705.5050     10.1053     90.6945
   276.2500      0.0000    713.0471     10.4345     94.2444
   276.5000      0.0000    692.9611     10.9709     96.2381
   276.7500      0.0000    648.1293     11.6414     94.7745
   277.0000      0.0000    594.6860     12.1951     90.8642
   277.2500      0.0000    546.7102     12.3520     87.5451
   277.5000      0.0000    509.6126     12.0487     87.0117
   277.7500      0.0000    484.2574     11.4886     88.9714
   278.0000      0.0000    470.9144     10.9335     91.8452
   278.2500      0.0000    467.8711     10.5077     94.7257
   278.5000      0.0000    469.2776     10.2056     97.4844
   278.7500      0.0000    466.9405      9.9984     99.6279
   279.0000      0.0000    455.4438      9.8820    100.2781
   279.2500      0.0000    436.3039      9.8499     99.4484
   279.5000      0.0000    417.2626      9.8586     98.6358
   279.7500      0.0000    407.9635      9.8339     99.5695
   280.0000      0.0000    415.6675      9.7174    102.2892
   280.2500      0.0000    441.7538      9.5107    104.6732
   280.5000      0.0000    478.6905      9.2738    104.1981
   280.7500      0.0000    511.4764      9.0801    100.2520
   281.0000      0.0000    526.5055      8.9710     94.5465
   281.2500      0.0000    520.3699      8.9451     89.4735
   281.5000      0.0000    499.0542      8.9790     86.4451
   281.7500      0.0000    470.5876      9.0501     85.5146
   282.0000      0.0000    440.9940      9.1382     86.0234
   282.2500      0.0000    414.8507      9.2147     87.4623
   282.5000      0.0000    395.4246      9.2460     89.6507
   282.7500      0.0000    383.4846      9.2179     92.0895
   283.0000      0.0000    377.3938      9.1573     93.7999
   283.2500      0.0000    374.8418      9.1255     94.1087
   283.5000      0.0000    374.3420      9.1841     93.0029
   283.7500      0.0000    375.6322      9.3580     90.6683
   284.0000      0.0000    379.0983      9.6221     87.5130
   284.2500      0.0000    384.5141      9.9251     84.6971
   284.5000      0.0000    389.9346     10.2326     83.7113
   284.7500      0.0000    392.2551     10.5485     84.9971
   285.0000      0.0000    389.4368     10.8992     87.4449
   285.2500      0.0000    381.9055     11.3042     89.6651
   285.5000      0.0000    371.5848     11.7619     91.5081
   285.7500      0.0000    360.3688     12.2593     93.9276
   286.0000      0.0000    349.8416     12.7971     97.4562
   286.2500      0.0000    341.4076     13.4032    101.1466
   286.5000      0.0000    335.8206     14.1117    103.1497
   286.7500      0.0000    332.8123     14.9273    102.3344
   287.0000      0.0000    331.4976     15.8190     99.3072
   287.2500      0.0000    331.0517     16.7497     95.7853
   287.5000      0.0000    330.9868     17.6945     93.2330
   287.7500      0.0000    331.0750     18.6290     92.4366
   288.0000      0.0000    331.1965     19.5065     93.8975
   288.2500      0.0000    331.2720     20.2503     97.5451
   288.5000      0.0000    331.2596     20.7728    101.9194
   288.7500      0.0000    331.1682     21.0236    104.6335
   289.0000      0.0000    331.0500     21.0242    104.2116
   289.2500      0.0000    330.9691     20.8434    101.0742
   289.5000      0.0000    330.9695     20.5349     96.6393
   289.7500      0.0000    331.0661     20.1131     92.0541
