~Version Information
VERS.                      2.0: CWLS Log ASCII Standard - VERSION 2.0
WRAP.                       NO: One line per depth step
~Well Information Block
STRT.FT                 0.0000: 
STOP.FT              2062.2500: 
STEP.FT                 0.2500: 
NULL.                -999.2500: 
COMP.          Petrogulf Corporation: COMPANY
WELL.           Montoya 12-44R: WELL
FLD.           Purgatorie River: FIELD
LOC.           713' FSL & 798' FEL: LOCATION
PROV.                 Colorado: PROVINCE
CNTY.               Las Animas: COUNTRY
SRVC.                Patterson: SERVICE COMPANY
DATE.          Wed Nov 09 13:30:24 2005: LOG DATE
UWI.           05-071-08538               : UNIQUE WELL ID
~Curve Information Block
DEPT.FT            0 000 00 00: Depth
CCL.                          : Casing Collar Locator
TT3.usec                      : CBL 3' Travel Time
AMP3.mV                       : CBL 3' Amplitude
GR.GAPI                       : Gamma Ray
~Parameter Information Block
~A  Depth       CCL         TT3         AMP3         GR     
# ...
   402.0000      0.0000    377.3002     16.0703     79.3903
   402.2500      0.0000    397.6074     16.3031     78.4138
   402.5000      0.0000    415.0742     16.2659     78.1709
   402.7500      0.0000    414.1301     16.0038     78.7788
   403.0000      0.0000    394.1884     15.7183     79.7859
   403.2500      0.0000    370.4580     15.5452     80.3193
   403.5000      0.0000    353.7059     15.5321     79.9337
   403.7500      0.0000    343.3156     15.6730     79.2707
   404.0000      0.0000    337.0555     15.9700     79.6458
   404.2500      0.0000    335.3621     16.4252     81.8515
   404.5000      0.0000    339.0715     16.9181     85.1876
   404.7500      0.0000    347.7785     17.2410     87.6614
   405.0000      0.0000    357.6859     17.3748     87.4930
   405.2500      0.0000    362.2751     17.5528     84.6898
   405.5000      0.0000    358.1612     17.9497     80.9985
   405.7500      0.0000    348.6973     18.5066     78.2906
   406.0000      0.0000    340.0972     19.1193     77.2446
   406.2500      0.0000    335.4134     19.7708     77.5907
   406.5000      0.0000    333.8257     20.4300     79.1090
   406.7500      0.0000    333.6913     21.0117     81.9099
   407.0000      0.0000    334.2063     21.4148     85.7450
   407.2500      0.0000    335.5593     21.5173     89.4394
   407.5000      0.0000    338.6907     21.2911     91.3665
   407.7500      0.0000    343.4574     20.9340     90.5399
   408.0000      0.0000    347.4176     20.7363     87.1683
   408.2500      0.0000    349.8909     20.7764     82.3378
   408.5000      0.0000    354.3665     20.8314     77.3865
   408.7500      0.0000    362.1453     20.6703     73.3816
   409.0000      0.0000    369.0340     20.3589     70.6451
   409.2500      0.0000    370.3604     20.1531     68.5734
   409.5000      0.0000    363.4507     20.2167     66.2918
   409.7500      0.0000    347.7837     20.5798     63.7949
   410.0000      0.0000    327.9715     21.2211     62.2189
   410.2500      0.0000    312.0020     22.1258     62.7328
   410.5000      0.0000    303.5527     23.3652     65.2792
   410.7500      0.0000    300.3932     25.0330     68.5326
   411.0000      0.0000    299.3375     27.0213     70.8906
   411.2500      0.0000    298.8900     28.9874     71.5852
   411.5000      0.0000    298.5990     30.6316     71.2246
   411.7500      0.0000    298.2888     31.9266     71.1741
   412.0000      0.0000    297.9316     32.9860     72.0883
   412.2500      0.0000    297.6312     33.7303     73.2606
   412.5000      0.0000    297.5117     33.8127     73.5306
   412.7500      0.0000    297.7214     32.9206     72.3669
   413.0000      0.0000    298.7975     31.0521     69.9221
   413.2500      0.0000    302.4236     28.4910     66.5656
   413.5000      0.0000    311.6812     25.6096     62.7331
   413.7500      0.0000    328.3383     22.6937     59.0501
   414.0000      0.0000    348.5836     19.9087     56.2361
   414.2500      0.0000    365.4606     17.3848     54.6376
   414.5000      0.0000    376.5359     15.2095     53.8695
   414.7500      0.0000    383.5436     13.3420     53.1564
   415.0000      0.0000    386.1911     11.7055     52.1295
   415.2500      0.0000    383.4224     10.3323     51.1765
   415.5000      0.0000    377.9707      9.2859     50.9285
   415.7500      0.0000    373.7335      8.5419     51.4499
   416.0000      0.0000    371.7304      8.0399     52.0291
   416.2500      0.0000    370.9467      7.7417     51.8720
   416.5000      0.0000    370.2830      7.6116     50.9771
   416.7500      0.0000    368.8745      7.6323     50.1917
   417.0000      0.0000    366.0019      7.8028     50.4467
   417.2500      0.0000    362.3325      8.0613     52.0024
   417.5000      0.0000    360.7691      8.2816     54.2663
   417.7500      0.0000    363.0764      8.3998     56.0893
   418.0000      0.0000    366.8806      8.4659     56.3323
   418.2500      0.0000    368.9081      8.5474     54.6416
   418.5000      0.0000    368.0152      8.6665     51.9148
   418.7500      0.0000    363.6825      8.8237     49.6965
   419.0000      0.0000    355.5092      9.0073     49.0242
   419.2500      0.0000    345.4340      9.1709     50.0934
   419.5000      0.0000    337.2501      9.2617     52.7321
   419.7500      0.0000    332.8987      9.2844     56.5136
   420.0000      0.0000    331.6806      9.2695     60.4292
   420.2500      0.0000    332.8704      9.2286     63.0898
   420.5000      0.0000    337.2171      9.2037     63.5279
   420.7500      0.0000    345.4186      9.2621     61.7151
   421.0000      0.0000    355.4882      9.4144     58.4713
   421.2500      0.0000    363.5879      9.6121     55.0423
   421.5000      0.0000    367.9030      9.8260     52.4072
   421.7500      0.0000    369.4739     10.0738     50.6658
   422.0000      0.0000    369.8464     10.3493     49.2766
   422.2500      0.0000    369.8279     10.5792     47.9939
   422.5000      0.0000    369.9128     10.6970     47.2058
   422.7500      0.0000    370.9966     10.7185     47.3264
   423.0000      0.0000    374.5472     10.7137     48.3602
   423.2500      0.0000    381.2779     10.7201     50.0975
   423.5000      0.0000    389.2406     10.7056     52.2313
   423.7500      0.0000    395.0191     10.6166     54.2494
   424.0000      0.0000    397.3182     10.4265     55.7130
   424.2500      0.0000    397.4395     10.1502     56.6576
   424.5000      0.0000    396.8729      9.8314     57.3276
   424.7500      0.0000    396.1730      9.5086     57.5578
   425.0000      0.0000    395.4362      9.2095     56.8598
   425.2500      0.0000    394.7489      8.9638     55.1946
   425.5000      0.0000    394.2406      8.7811     53.3331
   425.7500      0.0000    394.1926      8.6524     52.2448
   426.0000      0.0000    395.5623      8.5806     52.2310
   426.2500      0.0000    400.3188      8.5701     52.8035
   426.5000      0.0000    409.9147      8.6016     53.2522
   426.7500      0.0000    423.2102      8.6302     53.0903
   427.0000      0.0000    439.6334      8.6234     52.1501
   427.2500      0.0000    465.0356      8.5948     50.7093
   427.5000      0.0000    505.9380      8.5627     49.5669
   427.7500      0.0000    554.9178      8.5149     49.6838
   428.0000      0.0000    593.7421      8.4596     51.6166
   428.2500      0.0000    613.6700      8.4449     55.2065
   428.5000      0.0000    620.4334      8.4692     59.5528
   428.7500      0.0000    622.2188      8.4434     63.2704
   429.0000      0.0000    622.6884      8.3014     65.2230
   429.2500      0.0000    621.8794      8.0815     65.2666
   429.5000      0.0000    617.5662      7.8653     64.3013
   429.7500      0.0000    606.6116      7.7023     63.6763
   430.0000      0.0000    588.8449      7.6187     64.4065
   430.2500      0.0000    569.6340      7.6218     66.5544
   430.5000      0.0000    555.0291      7.6670     69.3176
   430.7500      0.0000    544.3920      7.6981     71.9074
   431.0000      0.0000    529.9964      7.7115     74.1952
   431.2500      0.0000    504.4077      7.7193     76.2928
   431.5000      0.0000    469.2142      7.7088     77.8938
   431.7500      0.0000    434.2343      7.6845     78.4571
   432.0000      0.0000    407.0715      7.6811     77.9066
   432.2500      0.0000    388.7567      7.7096     76.8999
   432.5000      0.0000    377.8569      7.7488     76.4182
   432.7500      0.0000    372.5308      7.7920     77.1107
   433.0000      0.0000    370.4325      7.8442     78.9868
   433.2500      0.0000    369.6697      7.8981     81.5749
   433.5000      0.0000    369.3037      7.9535     84.2345
   433.7500      0.0000    368.9496      8.0112     86.3584
   434.0000      0.0000    368.4979      8.0516     87.4640
   434.2500      0.0000    368.0529      8.0899     87.2408
   434.5000      0.0000    367.7582      8.2311     85.5989
   434.7500      0.0000    367.6532      8.6242     82.7869
   435.0000      0.0000    368.6224      9.3166     79.5665
   435.2500      0.0000    375.5770     10.0997     77.1065
