~Version Information
VERS.                      2.0: CWLS Log ASCII Standard - VERSION 2.0
WRAP.                       NO: One line per depth step
~Well Information Block
STRT.FT               875.0000: 
STOP.FT              2054.5000: 
STEP.FT                 0.2500: 
NULL.                -999.2500: 
COMP.          Pioneer Natural Resources: COMPANY
WELL.          Woodstock 43-19: WELL
FLD.           Purgatoire River: FIELD
LOC.           2195' FSL & 250' FEL: LOCATION
CNTY.               Las Animas: COUNTY
SRVC.                Patterson: SERVICE COMPANY
DATE.          Thu Feb 02 03:08:19 2006: LOG DATE
UWI.           05 071 08677 00: UNIQUE WELL ID
STAT.                 Colorado: STATE
~Curve Information Block
DEPT.FT            0 000 00 00: Depth
SN.Ohm-m                      : IEL Short Normal
SP.mV                         : IEL Spontaneous Potential
DIR.Ohm-m                     : IEL Induction Resistivity
GR.GAPI                       : Gamma Ray
~Parameter Information Block
~A  Depth        SN          SP         DIR          GR     
# ...
  1109.5000   2000.0000   2000.0000     10.4388    151.0142
  1109.7500   2000.0000   2000.0000     10.5711    150.4241
  1110.0000   2000.0000   2000.0000     10.7276    149.0133
  1110.2500   2000.0000   2000.0000     10.9105    146.8868
  1110.5000   2000.0000   2000.0000     11.1186    140.4680
  1110.7500   2000.0000   2000.0000     11.3548    133.5600
  1111.0000   2000.0000   2000.0000     11.6296    119.9851
  1111.2500   2000.0000   2000.0000     11.9587    110.4667
  1111.5000   2000.0000   2000.0000     12.3550     99.6995
  1111.7500   2000.0000   2000.0000     12.8229     96.9009
  1112.0000   2000.0000   2000.0000     13.3556    100.1105
  1112.2500   2000.0000   2000.0000     13.9375    106.0461
  1112.5000   2000.0000   2000.0000     14.5463    117.4296
  1112.7500   2000.0000   2000.0000     15.1539    125.1284
  1113.0000   2000.0000   2000.0000     15.7250    135.7562
  1113.2500   2000.0000   2000.0000     16.2207    142.2312
  1113.5000   2000.0000   2000.0000     16.6083    150.8417
  1113.7500   2000.0000   2000.0000     16.8747    155.2367
  1114.0000   2000.0000   2000.0000     17.0320    158.5209
  1114.2500   2000.0000   2000.0000     17.1120    158.2890
  1114.5000   2000.0000   2000.0000     17.1544    155.3077
  1114.7500   2000.0000   2000.0000     17.1961    152.3772
  1115.0000   2000.0000   2000.0000     17.2644    146.7898
  1115.2500   2000.0000   2000.0000     17.3780    141.5523
  1115.5000   2000.0000   2000.0000     17.5507    130.3766
  1115.7500   2000.0000   2000.0000     17.7917    121.3124
  1116.0000   2000.0000   2000.0000     18.0995    108.4817
  1116.2500   2000.0000   2000.0000     18.4539    102.3938
  1116.5000   2000.0000   2000.0000     18.8209     98.4426
  1116.7500   2000.0000   2000.0000     19.1707     98.9729
  1117.0000   2000.0000   2000.0000     19.4929    103.0830
  1117.2500   2000.0000   2000.0000     19.7926    106.9713
  1117.5000   2000.0000   2000.0000     20.0699    112.4350
  1117.7500   2000.0000   2000.0000     20.3061    114.7510
  1118.0000   2000.0000   2000.0000     20.4721    115.6679
  1118.2500   2000.0000   2000.0000     20.5494    115.2369
  1118.5000   2000.0000   2000.0000     20.5463    114.9638
  1118.7500   2000.0000   2000.0000     20.4945    115.8314
  1119.0000   2000.0000   2000.0000     20.4331    118.8087
  1119.2500   2000.0000   2000.0000     20.3928    121.4065
  1119.5000   2000.0000   2000.0000     20.3902    124.9962
  1119.7500   2000.0000   2000.0000     20.4290    126.5176
  1120.0000   2000.0000   2000.0000     20.5023    126.8508
  1120.2500   2000.0000   2000.0000     20.5944    125.7852
  1120.5000   2000.0000   2000.0000     20.6843    122.7726
  1120.7500   2000.0000   2000.0000     20.7540    120.2496
  1121.0000   2000.0000   2000.0000     20.7979    116.4161
  1121.2500   2000.0000   2000.0000     20.8263    114.1973
  1121.5000   2000.0000   2000.0000     20.8586    111.9138
  1121.7500   2000.0000   2000.0000     20.9101    111.2856
  1122.0000   2000.0000   2000.0000     20.9829    111.6660
  1122.2500   2000.0000   2000.0000     21.0684    112.6828
  1122.5000   2000.0000   2000.0000     21.1567    115.4743
  1122.7500   2000.0000   2000.0000     21.2399    118.4714
  1123.0000   2000.0000   2000.0000     21.3091    124.8657
  1123.2500   2000.0000   2000.0000     21.3515    130.0096
  1123.5000   2000.0000   2000.0000     21.3573    137.7391
  1123.7500   2000.0000   2000.0000     21.3290    142.0233
  1124.0000   2000.0000   2000.0000     21.2827    145.7612
  1124.2500   2000.0000   2000.0000     21.2391    146.0382
  1124.5000   2000.0000   2000.0000     21.2136    143.8153
  1124.7500   2000.0000   2000.0000     21.2147    141.6625
  1125.0000   2000.0000   2000.0000     21.2489    138.9182
  1125.2500   2000.0000   2000.0000     21.3254    137.3167
  1125.5000   2000.0000   2000.0000     21.4560    133.7408
  1125.7500   2000.0000   2000.0000     21.6493    129.8425
  1126.0000   2000.0000   2000.0000     21.9058    122.2213
  1126.2500   2000.0000   2000.0000     22.2178    117.1876
  1126.5000   2000.0000   2000.0000     22.5757    111.8440
  1126.7500   2000.0000   2000.0000     22.9729    110.2288
  1127.0000   2000.0000   2000.0000     23.4013    110.2447
  1127.2500   2000.0000   2000.0000     23.8368    111.3912
  1127.5000   2000.0000   2000.0000     24.2295    114.2069
  1127.7500   2000.0000   2000.0000     24.5112    116.4092
  1128.0000   2000.0000   2000.0000     24.6234    119.0041
  1128.2500   2000.0000   2000.0000     24.5518    119.5062
  1128.5000   2000.0000   2000.0000     24.3421    117.8749
  1128.7500   2000.0000   2000.0000     24.0846    115.4283
  1129.0000   2000.0000   2000.0000     23.8767    110.4658
  1129.2500   2000.0000   2000.0000     23.7857    106.6897
  1129.5000   2000.0000   2000.0000     23.8279    101.1198
  1129.7500   2000.0000   2000.0000     23.9710     98.1860
  1130.0000   2000.0000   2000.0000     24.1537     96.4175
  1130.2500   2000.0000   2000.0000     24.3179     97.5088
  1130.5000   2000.0000   2000.0000     24.4325    101.9334
  1130.7500   2000.0000   2000.0000     24.4937    105.5396
  1131.0000   2000.0000   2000.0000     24.5049    109.6072
  1131.2500   2000.0000   2000.0000     24.4634    110.5294
  1131.5000   2000.0000   2000.0000     24.3646    108.7965
  1131.7500   2000.0000   2000.0000     24.2138    105.9604
  1132.0000   2000.0000   2000.0000     24.0266    100.9745
  1132.2500   2000.0000   2000.0000     23.8220     98.5124
  1132.5000   2000.0000   2000.0000     23.6229     97.7437
  1132.7500   2000.0000   2000.0000     23.4577     99.3749
  1133.0000   2000.0000   2000.0000     23.3536    104.4421
  1133.2500   2000.0000   2000.0000     23.3191    109.0078
  1133.5000   2000.0000   2000.0000     23.3313    116.4923
  1133.7500   2000.0000   2000.0000     23.3464    121.1621
  1134.0000   2000.0000   2000.0000     23.3269    126.5991
  1134.2500   2000.0000   2000.0000     23.2668    128.8389
  1134.5000   2000.0000   2000.0000     23.1909    130.0952
  1134.7500   2000.0000   2000.0000     23.1313    129.7775
  1135.0000   2000.0000   2000.0000     23.1012    128.3168
  1135.2500   2000.0000   2000.0000     23.0882    127.1936
  1135.5000   2000.0000   2000.0000     23.0708    125.7230
  1135.7500   2000.0000   2000.0000     23.0384    124.5828
  1136.0000   2000.0000   2000.0000     22.9958    121.3520
  1136.2500   2000.0000   2000.0000     22.9501    117.6311
  1136.5000   2000.0000   2000.0000     22.8992    110.2859
  1136.7500   2000.0000   2000.0000     22.8361    105.3986
  1137.0000   2000.0000   2000.0000     22.7658    100.0104
  1137.2500   2000.0000   2000.0000     22.7140     97.9296
  1137.5000   2000.0000   2000.0000     22.7167     96.0690
  1137.7500   2000.0000   2000.0000     22.7959     95.1653
  1138.0000   2000.0000   2000.0000     22.9424     94.4943
  1138.2500   2000.0000   2000.0000     23.1161     94.7860
  1138.5000   2000.0000   2000.0000     23.2662     96.2272
  1138.7500   2000.0000   2000.0000     23.3559     97.6318
  1139.0000   2000.0000   2000.0000     23.3735    100.4106
  1139.2500   2000.0000   2000.0000     23.3271    102.8121
  1139.5000   2000.0000   2000.0000     23.2347    106.7824
  1139.7500   2000.0000   2000.0000     23.1193    108.9667
  1140.0000   2000.0000   2000.0000     23.0073    110.3892
  1140.2500   2000.0000   2000.0000     22.9213    109.9002
  1140.5000   2000.0000   2000.0000     22.8698    107.3101
  1140.7500   2000.0000   2000.0000     22.8445    104.4241
  1141.0000   2000.0000   2000.0000     22.8294     98.1363
  1141.2500   2000.0000   2000.0000     22.8143     92.7890
  1141.5000   2000.0000   2000.0000     22.8023     84.4899
  1141.7500   2000.0000   2000.0000     22.8058     79.9578
  1142.0000   2000.0000   2000.0000     22.8336     75.8496
  1142.2500   2000.0000   2000.0000     22.8785     74.7702
  1142.5000   2000.0000   2000.0000     22.9186     74.7396
  1142.7500   2000.0000   2000.0000     22.9326     75.4230
