~Version Information
VERS.                      2.0: CWLS Log ASCII Standard - VERSION 2.0
WRAP.                       NO: One line per depth step
~Well Information Block
STRT.FT                 0.0000: 
STOP.FT              1871.2500: 
STEP.FT                 0.2500: 
NULL.                -999.2500: 
COMP.          Petrogulf Corporation: COMPANY
WELL.             Norton 9-14R: WELL
FLD.           Purgatorie River: FIELD
LOC.           725' FSL & 1103' FWL: LOCATION
STAT.                 Colorado: State
CNTY.               Las Animas: COUNTY
CTRY. USA : Country
SECT. 9 : Section
TOWN. 33S : Township
RANG. 67W : Range
SRVC.                Patterson: SERVICE COMPANY
DATE.          Thu Nov 10 13:05:53 2005: LOG DATE
API. 05-071-08444                         : UNIQUE WELL ID
~Curve Information Block
DEPT.FT            0 000 00 00: Depth
CCL.                          : Casing Collar Locator
TT3.usec                      : CBL 3' Travel Time
AMP3.mV                       : CBL 3' Amplitude
GR.GAPI                       : Gamma Ray
~Parameter Information Block
~A  Depth       CCL         TT3         AMP3         GR     
# ...
  1105.5000      0.0000    640.8198     14.9662    134.8891
  1105.7500      0.0000    633.5623     15.5564    138.1446
  1106.0000      0.0000    621.3522     16.3757    140.6532
  1106.2500      0.0000    583.1715     17.5918    141.4754
  1106.5000      0.0000    507.6699     19.2079    139.6272
  1106.7500      0.0000    416.9144     21.0157    134.7939
  1107.0000      0.0000    347.3840     22.7602    127.6673
  1107.2500      0.0000    312.7727     24.2274    119.7013
  1107.5000      0.0000    301.5213     25.1774    112.6856
  1107.7500      0.0000    299.2508     25.3194    108.2544
  1108.0000      0.0000    299.3020     24.5066    107.1559
  1108.2500      0.0000    299.9346     22.9719    108.7154
  1108.5000      0.0000    300.9670     21.2229    111.4557
  1108.7500      0.0000    303.8311     19.6798    114.6162
  1109.0000      0.0000    314.9749     18.4283    118.7606
  1109.2500      0.0000    348.4409     17.2613    124.6364
  1109.5000      0.0000    415.0717     15.9341    131.7326
  1109.7500      0.0000    501.1725     14.4058    138.0886
  1110.0000      0.0000    573.8775     12.8832    141.3669
  1110.2500      0.0000    615.9464     11.6305    140.3581
  1110.5000      0.0000    634.1213     10.7409    135.8014
  1110.7500      0.0000    638.1007     10.1117    129.4245
  1111.0000      0.0000    634.6356      9.5991    121.8933
  1111.2500      0.0000    630.6162      9.1388    112.2424
  1111.5000      0.0000    628.3906      8.7311     99.7238
  1111.7500      0.0000    626.1671      8.3724     85.5784
  1112.0000      0.0000    621.7981      8.0062     72.4519
  1112.2500      0.0000    611.3303      7.5517     62.4240
  1112.5000      0.0000    590.5930      7.0353     55.9478
  1112.7500      0.0000    562.8137      6.6117     52.2416
  1113.0000      0.0000    539.5995      6.3820     50.1365
  1113.2500      0.0000    529.9849      6.3019     48.6507
  1113.5000      0.0000    534.9510      6.2921     47.3747
  1113.7500      0.0000    550.7661      6.2935     46.8375
  1114.0000      0.0000    569.6188      6.2119     48.5137
  1114.2500      0.0000    584.2410      5.9565     53.9606
  1114.5000      0.0000    596.5630      5.6154     63.5021
  1114.7500      0.0000    614.4894      5.4223     75.6862
  1115.0000      0.0000    642.6746      5.4134     87.9425
  1115.2500      0.0000    681.4036      5.4339     97.5509
  1115.5000      0.0000    724.0761      5.4814    102.4076
  1115.7500      0.0000    752.1556      5.6306    101.8546
  1116.0000      0.0000    749.4880      5.8271     97.1078
  1116.2500     -2.0000    721.7031      5.9943     90.4612
  1116.5000      2.0000    683.8309      6.1266     84.0243
  1116.7500      0.0000    640.9973      6.2302     79.3005
  1117.0000      0.0000    595.4717      6.3241     77.3917
  1117.2500      0.0000    551.9999      6.5198     78.8197
  1117.5000      0.0000    517.7267      6.8722     83.0267
  1117.7500      0.0000    508.8952      7.1283     88.3792
  1118.0000      0.0000    535.7576      7.0488     92.7818
  1118.2500      0.0000    582.9185      6.8188     94.3512
  1118.5000      0.0000    625.1014      6.6880     92.0953
  1118.7500      0.0000    650.3112      6.6432     86.7035
  1119.0000      0.0000    660.9097      6.6028     80.6309
  1119.2500      0.0000    663.9479      6.5358     76.6570
  1119.5000      0.0000    664.4306      6.4203     75.9282
  1119.7500      0.0000    664.2866      6.2805     77.4175
  1120.0000      0.0000    663.9673      6.1985     79.1638
  1120.2500      0.0000    663.2988      6.2062     79.9467
  1120.5000      0.0000    660.7839      6.2626     80.0501
  1120.7500      0.0000    653.1779      6.3428     80.6429
  1121.0000      0.0000    638.8184      6.4321     82.4035
  1121.2500      0.0000    621.7374      6.4701     84.7660
  1121.5000      0.0000    605.8212      6.4045     86.4794
  1121.7500      0.0000    586.7543      6.2707     86.6649
  1122.0000      0.0000    561.5563      6.1554     85.4197
  1122.2500      0.0000    538.3263      6.1028     83.8250
  1122.5000      0.0000    525.1772      6.0856     83.2370
  1122.7500      0.0000    520.9229      6.0504     83.9351
  1123.0000      0.0000    520.6818      5.9707     84.5357
  1123.2500      0.0000    521.6053      5.8577     83.2930
  1123.5000      0.0000    522.8103      5.7514     79.7935
  1123.7500      0.0000    523.9507      5.7083     74.8877
  1124.0000      0.0000    524.7180      5.7538     69.3812
  1124.2500      0.0000    525.0238      5.8408     63.4891
  1124.5000      0.0000    525.0870      5.8961     57.2952
  1124.7500      0.0000    525.1644      5.8981     51.0858
  1125.0000      0.0000    525.2532      5.8694     45.2734
  1125.2500      0.0000    525.0857      5.8107     40.3813
  1125.5000      0.0000    524.4272      5.6937     36.9896
  1125.7500      0.0000    523.3445      5.5293     35.3280
  1126.0000      0.0000    522.1374      5.3863     34.9114
  1126.2500      0.0000    521.0807      5.3244     34.7940
  1126.5000      0.0000    520.2804      5.3437     34.2211
  1126.7500      0.0000    519.7139      5.3899     33.0140
  1127.0000      0.0000    519.3188      5.4019     31.4657
  1127.2500      0.0000    519.0303      5.3688     29.9663
  1127.5000      0.0000    518.8042      5.3327     28.7391
  1127.7500      0.0000    518.6572      5.3415     27.9162
  1128.0000      0.0000    518.6520      5.4198     27.6861
  1128.2500      0.0000    518.8027      5.5556     28.1379
  1128.5000      0.0000    519.0231      5.6915     29.0769
  1128.7500      0.0000    519.1999      5.7601     30.2412
  1129.0000      0.0000    519.2915      5.7476     31.5546
  1129.2500      0.0000    519.3277      5.6990     32.8952
  1129.5000      0.0000    519.3386      5.6710     33.8007
  1129.7500      0.0000    519.3364      5.6971     33.8895
  1130.0000      0.0000    519.3190      5.7710     33.6875
  1130.2500      0.0000    519.2591      5.8460     34.6433
  1130.5000      0.0000    519.1345      5.8735     37.8976
  1130.7500      0.0000    518.9775      5.8393     42.9547
  1131.0000      0.0000    518.9024      5.7661     47.7706
  1131.2500      0.0000    519.0484      5.7099     50.3595
  1131.5000      0.0000    519.4092      5.7250     50.2829
  1131.7500      0.0000    519.7925      5.8102     48.5103
  1132.0000      0.0000    520.1434      5.9106     46.1307
  1132.2500      0.0000    521.2635      5.9519     43.6121
  1132.5000      0.0000    525.5924      5.8892     41.1597
  1132.7500      0.0000    536.2760      5.7624     39.2076
  1133.0000      0.0000    553.1725      5.6765     38.2472
  1133.2500      0.0000    568.9725      5.6996     38.3680
  1133.5000      0.0000    573.9040      5.7982     39.2003
  1133.7500      0.0000    571.0016      5.8794     40.3159
  1134.0000      0.0000    577.8578      5.8912     41.5214
  1134.2500      0.0000    602.4965      5.8805     42.7196
  1134.5000      0.0000    632.1121      5.9632     43.7542
  1134.7500      0.0000    651.4853      6.2319     44.6666
  1135.0000      0.0000    656.2675      6.6861     46.0172
  1135.2500      0.0000    648.3288      7.2720     48.6966
  1135.5000      0.0000    634.0676      7.9593     53.4315
  1135.7500      0.0000    626.6094      8.7318     60.6858
  1136.0000      0.0000    632.5594      9.5488     70.8590
  1136.2500      0.0000    637.3530     10.3593     83.8932
  1136.5000      0.0000    616.1277     11.1148     98.4348
  1136.7500      0.0000    558.2172     11.7572    111.8842
  1137.0000      0.0000    482.0270     12.2569    121.7957
  1137.2500      0.0000    420.9555     12.6697    127.4071
  1137.5000      0.0000    391.8322     13.0918    129.6895
  1137.7500      0.0000    392.1927     13.5311    129.8718
  1138.0000      0.0000    422.0733     13.8437    128.1348
  1138.2500      0.0000    483.8860     13.8247    123.9895
  1138.5000      0.0000    561.1021     13.3752    117.8572
  1138.7500      0.0000    622.7428     12.5819    111.9581
