~Version Information
VERS.                      2.0: CWLS Log ASCII Standard - VERSION 2.0
WRAP.                       NO: One line per depth step
~Well Information Block
STRT.FT                10.0000: 
STOP.FT              1044.5000: 
STEP.FT                 0.1000: 
NULL.                -999.2500: 
COMP.          Pioneer Natural Resources: COMPANY
WELL.          Stags Leap 13-30: WELL
FLD.           Purgatorie River: FIELD
LOC.           1813' FSL & 117' FWL: LOCATION
PROV.                 Colorado: PROVINCE
CNTY.               Las Animas: COUNTRY
SRVC.                Patterson: SERVICE COMPANY
DATE.          Fri Dec 09 09:46:17 2005: LOG DATE
UWI.                          : UNIQUE WELL ID
~Curve Information Block
DEPT.FT            0 000 00 00: Depth
DCAL.in                       : CDL Caliper
RHOB.g/cc                     : CDL Bulk Density
RHOC.g/cc                     : CDL Density Correction
DPOR.pu                       : CDL Density Porosity
GR.GAPI                       : Gamma Ray
NPOR.pu                       : Neutron Porosity
~Parameter Information Block
~A  Depth       DCAL        RHOB        RHOC        DPOR         GR         NPOR    
    10.0000     -3.1029      2.2477      2.3579     -0.0081    108.4178     31.5383
    10.1000     -3.1029      2.1848      2.3523     -0.0093    108.5385     31.1422
    10.2000     -3.1029      2.1510      2.3884     -0.0100    110.3574     30.8713
    10.3000     -3.1029      2.1283      2.3968     -0.0104    112.8949     30.6621
    10.4000     -3.1029      2.1096      2.3969     -0.0108    114.4736     30.5058
    10.5000     -3.1029      2.1040      2.3642     -0.0109    115.4577     30.2434
    10.6000     -3.1029      2.1177      2.3885     -0.0107    114.7509     29.7610
    10.7000     -3.1029      2.1423      2.4348     -0.0102    110.6260     29.2179
    10.8000     -3.1029      2.1647      2.4277     -0.0097    108.2029     29.0335
    10.9000     -3.1029      2.1793      2.4258     -0.0094    113.4947     29.2510
    11.0000     -3.1029      2.1840      2.4400     -0.0093    121.0684     29.3819
    11.1000     -3.1029      2.1811      2.4183     -0.0094    124.2910     29.2399
    11.2000     -3.1029      2.1773      2.4236     -0.0095    124.5100     29.1213
    11.3000     -3.1029      2.1649      2.4556     -0.0097    123.9559     29.2755
    11.4000     -3.1029      2.1299      2.4168     -0.0104    122.7964     29.6242
    11.5000     -3.1029      2.0838      2.3321     -0.0113    123.3774     29.7836
    11.6000     -3.1029      2.0543      2.3520     -0.0119    128.1432     29.6472
    11.7000     -3.1029      2.0433      2.3761     -0.0121    132.6748     29.5927
    11.8000     -3.1029      2.0333      2.3858     -0.0123    130.4216     29.4541
    11.9000     -3.1029      2.0248      2.3332     -0.0125    122.5536     28.8809
    12.0000     -3.1029      2.0358      2.3484     -0.0123    115.9187     28.3433
    12.1000     -3.1029      2.0732      2.3630     -0.0115    114.0324     28.1764
    12.2000     -3.1029      2.1276      2.3728     -0.0105    113.4058     28.1001
    12.3000     -3.1029      2.1809      2.4686     -0.0094    112.6071     27.9712
    12.4000     -3.1029      2.2173      2.4733     -0.0087    115.1975     28.0138
    12.5000     -3.1029      2.2315      2.4795     -0.0084    119.2638     28.3842
    12.6000     -3.1029      2.2204      2.4379     -0.0086    119.2205     28.8823
    12.7000     -3.1029      2.1824      2.4329     -0.0094    116.2715     29.0818
    12.8000     -3.1029      2.1251      2.3769     -0.0105    116.3204     28.9312
    12.9000     -3.1029      2.0626      2.3796     -0.0118    120.1761     28.7456
    13.0000     -3.1029      2.0105      2.2939     -0.0128    122.4804     28.4400
    13.1000     -3.1029      1.9828      2.2953     -0.0134    122.3145     27.9162
    13.2000     -3.1029      1.9833      2.2977     -0.0133    122.4704     27.6441
    13.3000     -3.1029      2.0133      2.2833     -0.0127    123.7196     27.8074
    13.4000     -3.1029      2.0718      2.3385     -0.0116    124.8793     28.0863
    13.5000     -3.1029      2.1392      2.4309     -0.0102    124.1556     28.6092
    13.6000     -3.1029      2.1907      2.4573     -0.0092    122.2560     29.4100
    13.7000     -3.1029      2.2185      2.4715     -0.0086    121.4374     29.8002
    13.8000     -3.1029      2.2223      2.4686     -0.0086    122.3714     29.4191
    13.9000     -3.1029      2.1987      2.4544     -0.0090    123.0713     28.9746
    14.0000     -3.1029      2.1539      2.4252     -0.0099    121.1352     29.0220
    14.1000     -3.1029      2.1083      2.3713     -0.0108    118.0987     29.1718
    14.2000     -3.1029      2.0833      2.3151     -0.0113    117.8723     29.0142
    14.3000     -3.1029      2.0819      2.3749     -0.0114    120.2879     28.6813
    14.4000     -3.1029      2.0884      2.3833     -0.0112    122.9670     28.5442
    14.5000     -3.1029      2.0941      2.3642     -0.0111    125.5788     28.7262
    14.6000     -3.1029      2.1038      2.3707     -0.0109    125.6648     28.8407
    14.7000     -3.1029      2.1170      2.3825     -0.0107    122.1639     28.8252
    14.8000     -3.1029      2.1236      2.4083     -0.0105    120.8837     29.1347
    14.9000     -3.1029      2.1164      2.3676     -0.0107    125.1500     29.9068
    15.0000     -3.1029      2.1039      2.3474     -0.0109    129.7309     30.6769
    15.1000     -3.1029      2.1001      2.3688     -0.0110    131.0790     30.8553
    15.2000     -3.1029      2.1076      2.3786     -0.0109    129.9917     30.6517
    15.3000     -3.1029      2.1195      2.4050     -0.0106    128.0717     30.7275
    15.4000     -3.1029      2.1230      2.4276     -0.0105    128.9417     30.8241
    15.5000     -3.1029      2.1146      2.3912     -0.0107    131.4303     30.4609
    15.6000     -3.1029      2.1107      2.3545     -0.0108    128.9163     29.9572
    15.7000     -3.1029      2.1191      2.3987     -0.0106    123.0567     29.7236
    15.8000     -3.1029      2.1195      2.3895     -0.0106    122.2723     29.7787
    15.9000     -3.1029      2.1000      2.3647     -0.0110    125.2879     29.7262
    16.0000     -3.1029      2.0808      2.3180     -0.0114    125.8009     29.3845
    16.1000     -3.1029      2.0812      2.3612     -0.0114    122.2019     29.1505
    16.2000     -3.1029      2.0934      2.3870     -0.0111    117.6787     29.4438
    16.3000     -3.1029      2.1038      2.3799     -0.0109    118.3654     30.2970
    16.4000     -3.1029      2.1103      2.3917     -0.0108    124.9323     31.1498
    16.5000     -3.1029      2.1151      2.3745     -0.0107    129.9456     31.4408
    16.6000     -3.1029      2.1172      2.3955     -0.0107    128.6317     31.4006
    16.7000     -3.1029      2.1097      2.3989     -0.0108    125.3773     31.4506
    16.8000     -3.1029      2.0905      2.3662     -0.0112    123.8197     31.3851
    16.9000     -3.1029      2.0691      2.3610     -0.0116    121.9697     31.0080
    17.0000     -3.1029      2.0574      2.3439     -0.0119    120.7147     30.7388
    17.1000     -3.1029      2.0589      2.3536     -0.0118    122.0755     30.7169
    17.2000     -3.1029      2.0674      2.3634     -0.0117    123.2963     30.6424
    17.3000     -3.1029      2.0819      2.3544     -0.0114    122.8603     30.3636
    17.4000     -3.1029      2.1092      2.3780     -0.0108    124.7560     30.0457
    17.5000     -3.1029      2.1458      2.4113     -0.0101    129.5734     30.0989
    17.6000     -3.1029      2.1711      2.4532     -0.0096    132.8463     30.4675
    17.7000     -3.1029      2.1695      2.4348     -0.0096    133.1016     30.7145
    17.8000     -3.1029      2.1548      2.3803     -0.0099    130.0552     31.0029
    17.9000     -3.1029      2.1459      2.3935     -0.0101    123.8758     31.4851
    18.0000     -3.1029      2.1390      2.3837     -0.0102    119.7553     31.5005
    18.1000     -3.1029      2.1284      2.3837     -0.0104    122.6109     30.8996
    18.2000     -3.1029      2.1211      2.3789     -0.0106    129.9418     30.4048
    18.3000     -3.1029      2.1231      2.3761     -0.0105    134.2976     30.2756
    18.4000     -3.1029      2.1303      2.4015     -0.0104    132.1573     30.2201
    18.5000     -3.1029      2.1315      2.3804     -0.0104    128.4910     30.1637
    18.6000     -3.1029      2.1212      2.3837     -0.0106    127.5349     30.2683
    18.7000     -3.1029      2.1092      2.3682     -0.0108    127.6421     30.4777
    18.8000     -3.1029      2.1097      2.3552     -0.0108    126.1089     30.4774
    18.9000     -3.1029      2.1182      2.4028     -0.0106    120.8762     30.3070
    19.0000     -3.1029      2.1185      2.3943     -0.0106    113.5828     30.2363
    19.1000     -3.1029      2.1146      2.3444     -0.0107    111.5016     30.2536
    19.2000     -3.1029      2.1191      2.3753     -0.0106    116.5930     30.1786
    19.3000     -3.1029      2.1245      2.3941     -0.0105    120.6711     29.8496
    19.4000     -3.1029      2.1217      2.3762     -0.0106    119.3852     29.6165
    19.5000     -3.1029      2.1138      2.3649     -0.0107    118.1814     29.8504
