~Version Information
VERS.                      2.0: CWLS Log ASCII Standard - VERSION 2.0
WRAP.                       NO: One line per depth step
~Well Information Block
STRT.FT                -8.7500: 
STOP.FT              1525.0000: 
STEP.FT                 0.2500: 
NULL.                -999.2500: 
COMP.          Pioneer Natural Resources: COMPANY
WELL.          Grand Prix 13-12 Tr: WELL
FLD.           Purgatorie River: FIELD
LOC.           2595' FSL & 1277' FWL--: LOCATION
CNTY.               Las Animas: COUNTY
SRVC.          Patterson Wireline: SERVICE COMPANY
DATE.          Thu Apr 13 10:28:30 2006: LOG DATE
UWI.           05 071 08711 00: UNIQUE WELL ID
STAT.                       CO: STATE
~Curve Information Block
DEPT.FT            0 000 00 00: Depth
CCL.                          : Casing Collar Locator
TT3.usec                      : CBL 3' Travel Time
AMP3.mV                       : CBL 3' Amplitude
GR.GAPI                       : Gamma Ray
~Parameter Information Block
~A  Depth       CCL         TT3         AMP3         GR     
# ...
   895.7500      0.0000    678.3821      4.4633    134.6831
   896.0000      0.0000    674.2288      4.4368    130.2778
   896.2500      0.0000    667.3271      4.4093    126.4479
   896.5000      0.0000    658.0175      4.3857    124.8230
   896.7500      0.0000    648.5945      4.3704    125.8351
   897.0000      0.0000    642.9838      4.3645    128.2355
   897.2500      0.0000    644.5748      4.3692    130.1910
   897.5000      0.0000    653.3547      4.3899    130.5611
   897.7500      0.0000    665.0181      4.4317    129.2286
   898.0000      0.0000    673.6795      4.4894    126.6526
   898.2500      0.0000    675.9193      4.5448    123.5393
   898.5000      0.0000    672.3576      4.5824    120.6977
   898.7500      0.0000    666.3437      4.6047    118.6622
   899.0000      0.0000    661.8517      4.6297    117.4056
   899.2500      0.0000    661.5055      4.6712    116.6903
   899.5000      0.0000    665.2563      4.7240    116.5558
   899.7500      0.0000    670.9310      4.7679    117.0932
   900.0000      0.0000    676.3790      4.7845    117.8240
   900.2500      0.0000    680.9528      4.7685    117.8155
   900.5000      0.0000    685.0613      4.7265    116.7952
   900.7500      0.0000    688.9042      4.6699    115.7672
   901.0000      0.0000    691.9059      4.6116    115.9179
   901.2500      0.0000    693.2325      4.5668    117.1993
   901.5000      0.0000    692.7687      4.5464    118.6643
   901.7500      0.0000    691.6599      4.5472    119.9733
   902.0000      0.0000    691.8533      4.5505    121.8874
   902.2500      0.0000    694.8600      4.5349    125.2250
   902.5000      0.0000    700.7503      4.4932    129.4815
   902.7500      0.0000    708.2177      4.4350    132.6005
   903.0000      0.0000    715.5536      4.3794    132.6520
   903.2500      0.0000    721.5502      4.3453    130.0438
   903.5000      0.0000    725.3833      4.3431    127.2721
   903.7500      0.0000    725.9573      4.3715    125.9920
   904.0000      0.0000    722.3604      4.4178    125.4192
   904.2500      0.0000    715.4132      4.4647    124.2455
   904.5000      0.0000    708.0053      4.4969    122.8590
   904.7500      0.0000    703.2574      4.5075    122.4825
   905.0000      0.0000    702.3436      4.4982    122.7993
   905.2500      0.0000    703.7079      4.4772    121.7729
   905.5000      0.0000    703.7897      4.4550    118.0013
   905.7500      0.0000    698.9548      4.4426    112.6047
   906.0000      0.0000    688.0457      4.4490    108.3682
   906.2500      0.0000    673.8572      4.4766    107.0467
   906.5000      0.0000    662.1140      4.5182    107.8267
   906.7500      0.0000    658.2759      4.5625    108.5165
   907.0000      0.0000    664.0730      4.6038    107.9132
   907.2500      0.0000    676.1575      4.6442    106.8070
   907.5000      0.0000    688.1866      4.6846    107.0186
   907.7500      0.0000    694.9214      4.7192    109.7219
   908.0000      0.0000    694.8902      4.7404    114.4113
   908.2500      0.0000    690.0378      4.7474    119.1512
   908.5000      0.0000    683.6512      4.7479    122.0404
   908.7500      0.0000    678.3126      4.7516    122.6946
   909.0000      0.0000    674.5640      4.7651    122.3253
   909.2500      0.0000    671.0264      4.7914    122.3973
   909.5000      0.0000    666.0206      4.8327    123.2978
   909.7500      0.0000    659.0243      4.8883    124.3267
   910.0000      0.0000    650.3572      4.9492    124.7678
   910.2500      0.0000    640.1191      4.9960    124.6979
   910.5000      0.0000    628.3784      5.0088    124.8551
   910.7500      0.0000    616.7137      4.9847    125.8676
   911.0000      0.0000    609.1450      4.9461    127.5024
   911.2500      0.0000    610.3146      4.9290    128.6851
   911.5000      0.0000    621.5643      4.9582    128.4970
   911.7500      0.0000    638.9174      5.0355    127.1138
   912.0000      0.0000    655.5881      5.1452    125.4991
   912.2500      0.0000    666.5917      5.2627    124.2592
   912.5000      0.0000    670.9584      5.3589    123.0625
   912.7500      0.0000    670.2887      5.4021    121.0649
   913.0000      0.0000    665.8251      5.3675    117.4956
   913.2500      0.0000    656.7247      5.2517    112.0311
   913.5000      0.0000    640.7322      5.0813    105.1683
   913.7500      0.0000    616.9911      4.9052     98.1816
   914.0000      0.0000    589.4435      4.7716     92.3662
   914.2500      0.0000    567.2130      4.7046     88.4295
   914.5000      0.0000    559.0192      4.6955     86.6375
   914.7500      0.0000    566.2169      4.7154     87.0056
   915.0000      0.0000    583.0324      4.7382     89.0795
   915.2500      0.0000    602.5928      4.7535     91.9557
   915.5000      0.0000    618.9276      4.7611     94.9156
   915.7500      0.0000    624.3985      4.7606     97.9449
   916.0000      0.0000    611.4316      4.7495    101.3705
   916.2500      0.0000    580.0033      4.7257    105.0007
   916.5000      0.0000    541.7441      4.6859    107.8633
   916.7500      0.0000    514.3955      4.6234    109.0108
   917.0000      0.0000    511.0375      4.5306    108.4730
   917.2500      0.0000    533.0732      4.4065    107.1330
   917.5000      0.0000    571.1170      4.2656    105.5954
   917.7500      0.0000    611.4825      4.1380    103.5284
   918.0000      0.0000    643.5397      4.0534    100.1770
   918.2500      0.0000    663.6952      4.0204     95.1368
   918.5000      0.0000    674.3898      4.0244     88.6501
   918.7500      0.0000    679.9510      4.0463     81.5669
   919.0000      0.0000    682.6581      4.0788     74.8357
   919.2500      0.0000    681.5486      4.1229     68.6902
   919.5000      0.0000    674.6945      4.1681     62.6807
   919.7500      0.0000    662.9091      4.1804     56.7601
   920.0000      0.0000    650.6752      4.1219     51.7525
   920.2500      0.0000    642.7527      3.9900     48.2947
   920.5000      0.0000    639.9722      3.8291     45.8559
   920.7500      0.0000    638.6165      3.6923     43.3784
   921.0000      0.0000    633.5643      3.5976     40.4722
   921.2500      2.0000    621.8056      3.5275     37.4544
   921.5000     -2.0000    604.2697      3.4599     34.6549
   921.7500      0.0000    586.8023      3.3891     32.2960
   922.0000      0.0000    579.5035      3.3289     30.7350
   922.2500      0.0000    590.8904      3.3048     30.2331
   922.5000      0.0000    619.4659      3.3367     30.6292
   922.7500      0.0000    652.9368      3.4135     31.6472
   923.0000      0.0000    677.9661      3.4963     33.4821
   923.2500      0.0000    689.7595      3.5589     36.9116
   923.5000      0.0000    692.0511      3.6120     42.9303
   923.7500      0.0000    690.5558      3.6736     52.1671
   924.0000      0.0000    688.3032      3.7346     64.2122
   924.2500      0.0000    685.8812      3.7676     77.3812
   924.5000      0.0000    683.4921      3.7594     89.5344
   924.7500      0.0000    681.6877      3.7232     99.4369
   925.0000      0.0000    680.8293      3.6865    107.1858
   925.2500      0.0000    680.7368      3.6721    113.4251
   925.5000      0.0000    680.9738      3.6861    118.6676
   925.7500      0.0000    681.1955      3.7190    123.2513
   926.0000      0.0000    681.2394      3.7548    127.2092
   926.2500      0.0000    681.0217      3.7785    130.1123
   926.5000      0.0000    680.4503      3.7781    131.6104
   926.7500      0.0000    679.4167      3.7470    132.0580
   927.0000      0.0000    677.9346      3.6881    132.1573
   927.2500      0.0000    676.3546      3.6165    132.1495
   927.5000      0.0000    675.2025      3.5535    131.7843
   927.7500      0.0000    674.2952      3.5156    130.7360
   928.0000      0.0000    672.2064      3.5082    128.4656
   928.2500      0.0000    667.3667      3.5263    123.9298
   928.5000      0.0000    659.7620      3.5580    116.2814
   928.7500      0.0000    651.0598      3.5926    106.0849
   929.0000      0.0000    643.3858      3.6323     95.3354
