~Version Information
VERS.                      2.0: CWLS Log ASCII Standard - VERSION 2.0
WRAP.                       NO: One line per depth step
~Well Information Block
STRT.FT               970.0000: 
STOP.FT              1881.0000: 
STEP.FT                 0.1000: 
NULL.                -999.2500: 
COMP.          Petrogulf Corporation: COMPANY
WELL.             Norton 9-14R: WELL
FLD.           Purgatorie River: FIELD
LOC.           725' FSL & 1103' FWL: LOCATION
PROV.                 Colorado: PROVINCE
CNTY.               Las Animas: COUNTRY
SRVC.                Patterson: SERVICE COMPANY
DATE.          Fri Oct 07 07:52:23 2005: LOG DATE
UWI.                          : UNIQUE WELL ID
~Curve Information Block
DEPT.FT            0 000 00 00: Depth
DCAL.in                       : CDL Caliper
RHOB.g/cc                     : CDL Bulk Density
RHOC.g/cc                     : CDL Density Correction
DPOR.pu                       : CDL Density Porosity
GR.GAPI                       : Gamma Ray
NPOR.pu                       : Neutron Porosity
~Parameter Information Block
~A  Depth       DCAL        RHOB        RHOC        DPOR         GR         NPOR    
# ...
  1622.8000      7.9291      2.5868      0.0331      3.8311    137.5995     23.8351
  1622.9000      7.9291      2.6093      0.0150      2.4651    135.8825     23.1163
  1623.0000      7.9283      2.6359      0.0724      0.8525    133.4314     22.4986
  1623.1000      7.9283      2.6458      0.1121      0.2566    132.5345     21.7322
  1623.2000      7.9283      2.6346      0.0742      0.9358    132.6890     20.8446
  1623.3000      7.9173      2.6202      0.0529      1.8051    132.7589     20.1331
  1623.4000      7.9173      2.6151      0.0783      2.1156    134.1253     19.7537
  1623.5000      7.9085      2.6140      0.0643      2.1791    135.8947     19.7128
  1623.6000      7.9085      2.6150      0.0262      2.1232    136.4779     19.9194
  1623.7000      7.9085      2.6219      0.0712      1.7018    136.9464     20.1646
  1623.8000      7.8988      2.6286      0.0963      1.2959    135.0639     20.2064
  1623.9000      7.8988      2.6313      0.0755      1.1304    127.9100     20.0429
  1624.0000      7.9023      2.6358      0.0776      0.8626    121.3229     19.9076
  1624.1000      7.9023      2.6388      0.0779      0.6779    118.9465     19.9986
  1624.2000      7.9023      2.6293      0.0796      1.2567    115.5371     20.3932
  1624.3000      7.9148      2.6079      0.0398      2.5513    110.2052     20.9112
  1624.4000      7.9148      2.5908      0.0190      3.5854    107.0350     21.2687
  1624.5000      7.9150      2.5931      0.0229      3.4500    105.8838     21.3249
  1624.6000      7.9150      2.6110      0.0673      2.3638    104.2615     20.8489
  1624.7000      7.9150      2.6259      0.0965      1.4598    102.9275     19.7930
  1624.8000      7.9200      2.6298      0.0365      1.2252    103.8853     18.7930
  1624.9000      7.9200      2.6267      0.0444      1.4100    105.8947     18.4358
  1625.0000      7.9298      2.6131      0.0458      2.2383    106.4687     18.6105
  1625.1000      7.9298      2.5891      0.0175      3.6929    104.5965     18.9728
  1625.2000      7.9298      2.5687     -0.0050      4.9253    101.1651     19.1503
  1625.3000      7.9393      2.5561      0.0023      5.6884     98.8050     18.9311
  1625.4000      7.9393      2.5474     -0.0009      6.2177     97.3349     18.6315
  1625.5000      7.9501      2.5488     -0.0111      6.1352     96.0432     18.6407
  1625.6000      7.9501      2.5583      0.0608      5.5558     98.7460     18.9200
  1625.7000      7.9501      2.5622      0.0617      5.3212    105.7927     19.2609
  1625.8000      7.9636      2.5600      0.0011      5.4544    110.4781     19.5556
  1625.9000      7.9636      2.5611      0.0152      5.3903    109.4383     19.6063
  1626.0000      7.9732      2.5610      0.0987      5.3964    107.7984     19.4780
  1626.1000      7.9732      2.5506      0.0398      6.0224    108.5383     19.6263
  1626.2000      7.9732      2.5395     -0.0151      6.6948    108.6829     20.1428
  1626.3000      7.9821      2.5459     -0.0171      6.3084    106.8129     20.7023
  1626.4000      7.9821      2.5674      0.0522      5.0048    105.3659     21.0606
  1626.5000      7.9973      2.5820      0.0681      4.1239    104.9513     21.0823
  1626.6000      7.9973      2.5760      0.0633      4.4874    103.3799     20.8866
  1626.7000      7.9973      2.5541      0.0472      5.8114    101.0024     20.7931
  1626.8000      8.0144      2.5330      0.0448      7.0933     99.5366     20.9536
  1626.9000      8.0144      2.5226      0.0629      7.7209     97.6827     21.2436
  1627.0000      8.0255      2.5146      0.0580      8.2049     95.0012     21.3701
  1627.1000      8.0255      2.5027      0.0331      8.9294     93.3181     21.2364
  1627.2000      8.0255      2.4967      0.0479      9.2886     92.3162     21.1428
  1627.3000      8.0400      2.4987      0.0687      9.1683     91.5687     21.3466
  1627.4000      8.0400      2.4944      0.0385      9.4275     92.3585     21.6214
  1627.5000      8.0388      2.4804      0.0257     10.2787     94.0251     21.6183
  1627.6000      8.0388      2.4663      0.0580     11.1315     94.3478     21.3848
  1627.7000      8.0388      2.4620      0.0188     11.3930     92.4484     21.2250
  1627.8000      8.0036      2.4751     -0.0216     10.5975     89.2598     21.3200
  1627.9000      8.0036      2.4986      0.0582      9.1774     87.8385     21.5929
  1628.0000      7.9596      2.5095      0.0719      8.5136     89.7583     21.8039
  1628.1000      7.9596      2.5049      0.0212      8.7916     91.8022     21.8796
  1628.2000      7.9596      2.5042      0.0202      8.8353     90.1072     21.9708
  1628.3000      7.9489      2.5179      0.0470      8.0090     84.4378     22.1969
  1628.4000      7.9489      2.5406      0.0557      6.6285     78.1305     22.3267
  1628.5000      7.9458      2.5554      0.0771      5.7312     75.4465     22.0301
  1628.6000      7.9458      2.5498      0.0569      6.0714     76.6055     21.4227
  1628.7000      7.9458      2.5351      0.0831      6.9641     78.8386     20.9389
  1628.8000      7.9337      2.5272      0.0374      7.4399     80.4957     20.7895
  1628.9000      7.9337      2.5233      0.0954      7.6803     81.8013     20.7881
  1629.0000      7.9203      2.5105      0.0497      8.4573     83.1113     20.7540
  1629.1000      7.9203      2.4897      0.0507      9.7168     84.5301     20.8038
  1629.2000      7.9203      2.4718      0.0086     10.7995     85.8928     21.0576
  1629.3000      7.9141      2.4674      0.0235     11.0693     87.0959     21.3362
  1629.4000      7.9141      2.4815      0.0293     10.2104     89.9643     21.5609
  1629.5000      7.9173      2.5060      0.0514      8.7273     93.0477     21.8859
  1629.6000      7.9173      2.5259      0.0510      7.5226     91.5305     22.0612
  1629.7000      7.9173      2.5353      0.0781      6.9509     87.5055     21.7321
  1629.8000      7.9159      2.5344      0.0895      7.0084     87.4679     21.2030
  1629.9000      7.9159      2.5214      0.0704      7.7947     91.6229     20.9022
  1630.0000      7.9165      2.4999      0.0524      9.0980     94.9929     20.8015
  1630.1000      7.9165      2.4803      0.0217     10.2845     95.1911     20.6981
  1630.2000      7.9165      2.4696      0.0421     10.9361     92.9046     20.4569
  1630.3000      7.9156      2.4647      0.0362     11.2311     89.7770     20.0577
  1630.4000      7.9156      2.4597      0.0359     11.5348     87.2826     19.7194
  1630.5000      7.9137      2.4555      0.0004     11.7890     86.1683     19.7031
  1630.6000      7.9137      2.4572      0.0347     11.6856     86.2634     19.9627
  1630.7000      7.9137      2.4667      0.0292     11.1111     86.0194     20.2290
  1630.8000      7.9008      2.4824      0.0812     10.1551     85.1630     20.4050
  1630.9000      7.9008      2.4981      0.0478      9.2033     83.9983     20.5181
  1631.0000      7.9035      2.5042      0.0687      8.8382     82.0722     20.5327
  1631.1000      7.9035      2.4942      0.0706      9.4441     79.9392     20.4068
  1631.2000      7.9035      2.4760      0.0388     10.5436     78.2345     20.1880
  1631.3000      7.9053      2.4673      0.0218     11.0711     76.6803     20.0101
  1631.4000      7.9053      2.4780      0.0418     10.4245     78.0241     19.8432
  1631.5000      7.8929      2.5005      0.0677      9.0577     83.3120     19.4868
  1631.6000      7.8929      2.5116      0.1029      8.3858     86.1292     18.9928
  1631.7000      7.8929      2.4948      0.0929      9.4047     83.2922     18.6973
  1631.8000      7.8935      2.4635      0.0671     11.3055     78.6082     18.6045
  1631.9000      7.8935      2.4464      0.0174     12.3406     74.6693     18.5383
  1632.0000      7.8828      2.4530      0.0756     11.9406     73.1507     18.8715
  1632.1000      7.8828      2.4666      0.0775     11.1172     76.5841     19.7182
  1632.2000      7.8828      2.4718      0.0825     10.7988     83.0510     20.4779
  1632.3000      7.8916      2.4683      0.0690     11.0124     85.8839     20.6397
