~Version Information
VERS.                      2.0: CWLS Log ASCII Standard - VERSION 2.0
WRAP.                       NO: One line per depth step
~Well Information Block
STRT.FT                 0.0000: 
STOP.FT               968.2500: 
STEP.FT                 0.2500: 
NULL.                -999.2500: 
COMP.          Pioneer Natural Resources: COMPANY
WELL.              Atlas 32-18: WELL
FLD.           Purgatorie River: FIELD
LOC.           1892' FNL & 1456' FEL: LOCATION
PROV.                 Colorado: PROVINCE
CNTY.               Las Animas: COUNTRY
SRVC.                Patterson: SERVICE COMPANY
DATE.          Fri Dec 02 11:37:22 2005: LOG DATE
UWI.                          : UNIQUE WELL ID
~Curve Information Block
DEPT.FT            0 000 00 00: Depth
CCL.                          : Casing Collar Locator
TT3.usec                      : CBL 3' Travel Time
AMP3.mV                       : CBL 3' Amplitude
GR.GAPI                       : Gamma Ray
~Parameter Information Block
~A  Depth       CCL         TT3         AMP3         GR     
# ...
   435.5000      0.0000    796.9896     10.0216    105.2595
   435.7500      0.0000    781.7140     10.0531    114.5265
   436.0000      0.0000    769.9794     10.0816    123.0963
   436.2500      0.0000    761.3862     10.0961    129.0123
   436.5000      0.0000    754.7679     10.0650    132.0160
   436.7500      0.0000    745.0488      9.9853    133.4425
   437.0000      0.0000    732.6937      9.8895    134.8342
   437.2500      0.0000    724.6440      9.8002    136.4037
   437.5000      0.0000    723.1086      9.7053    136.9844
   437.7500      0.0000    724.0240      9.5808    135.4677
   438.0000      0.0000    724.4023      9.4230    131.9225
   438.2500      0.0000    724.2761      9.2704    127.3138
   438.5000      0.0000    724.4162      9.1977    122.7365
   438.7500      0.0000    724.9841      9.2402    119.1934
   439.0000      0.0000    725.9935      9.3270    117.6343
   439.2500      0.0000    728.8036      9.3500    118.6783
   439.5000      0.0000    736.5662      9.2828    122.2201
   439.7500      0.0000    750.6594      9.1901    127.2770
   440.0000      0.0000    765.3000      9.1445    132.0282
   440.2500      0.0000    771.0770      9.1617    134.1915
   440.5000      0.0000    766.3173      9.2161    132.1167
   440.7500      0.0000    758.1765      9.2795    126.0205
   441.0000      0.0000    752.7291      9.3390    117.9764
   441.2500      0.0000    750.5721      9.4074    110.5669
   441.5000      0.0000    750.0618      9.5012    105.6871
   441.7500      0.0000    750.0483      9.5996    104.2864
   442.0000      0.0000    750.2352      9.6731    106.4211
   442.2500      0.0000    750.8209      9.7295    111.3058
   442.5000      0.0000    752.1918      9.7810    117.7763
   442.7500      0.0000    754.8090      9.7570    124.8795
   443.0000      0.0000    757.7278      9.5038    131.8439
   443.2500      0.0000    756.6414      8.9967    137.7997
   443.5000      0.0000    749.7467      8.4935    142.0709
   443.7500      0.0000    747.1707      8.1746    144.4614
   444.0000      0.0000    760.6724      7.8041    144.7622
   444.2500      0.0000    784.5688      7.2106    142.3791
   444.5000      0.0000    805.7786      6.6698    137.1533
   444.7500      0.0000    828.1406      6.4175    130.4579
   445.0000     -2.0000    863.2839      6.3645    124.8970
   445.2500      0.0000    895.8875      6.3791    122.7401
   445.5000      0.0000    891.1150      6.4363    124.5488
   445.7500      0.0000    844.6552      6.5562    128.7072
   446.0000      0.0000    785.5695      6.8438    132.0022
   446.2500      0.0000    733.7597      7.5791    131.4304
   446.5000      0.0000    694.8835      8.8893    126.2279
   446.7500      0.0000    678.7463     10.2082    118.2099
   447.0000      0.0000    690.2718     10.7743    110.2187
   447.2500      0.0000    716.1194     10.6352    104.4604
   447.5000      0.0000    737.5295     10.3619    101.8020
   447.7500      0.0000    747.7896     10.2445    101.5261
   448.0000      0.0000    750.6929     10.2413    101.4806
   448.2500      0.0000    750.8925     10.2447     99.4039
   448.5000      0.0000    750.4341     10.1989     94.8865
   448.7500      0.0000    749.9287     10.1090     89.7661
   449.0000      0.0000    749.6161     10.0138     86.2435
   449.2500      0.0000    749.5595      9.9625     84.9753
   449.5000      0.0000    749.7120      9.9871     85.1947
   449.7500      0.0000    750.0281     10.0681     86.1407
   450.0000      0.0000    750.3475     10.1443     87.8615
   450.2500      0.0000    749.9818     10.1711     90.6698
   450.5000      0.0000    747.5698     10.1617     94.2983
   450.7500      0.0000    742.1899     10.1652     98.1070
   451.0000      0.0000    735.1222     10.1952    102.0825
   451.2500      0.0000    729.2071     10.2079    107.0949
   451.5000      0.0000    725.9598     10.1621    113.9461
   451.7500      0.0000    724.7995     10.0760    122.2886
   452.0000      0.0000    724.6307      9.9982    130.3673
   452.2500      0.0000    724.7664      9.9258    135.7218
   452.5000      0.0000    724.8735      9.8193    136.4741
   452.7500      0.0000    724.8825      9.6936    132.3442
   453.0000      0.0000    724.9144      9.6012    124.7759
   453.2500      0.0000    725.0683      9.5500    116.1820
   453.5000      0.0000    725.2759      9.5201    108.8084
   453.7500      0.0000    725.4222      9.5149    104.0881
   454.0000      0.0000    725.5792      9.5276    102.7805
   454.2500      0.0000    726.3857      9.5211    104.8389
   454.5000      0.0000    729.5396      9.4896    108.7911
   454.7500      0.0000    737.2018      9.4679    112.1987
   455.0000      0.0000    750.1569      9.4761    113.3826
   455.2500      0.0000    767.0582      9.5103    112.3253
   455.5000      0.0000    785.5069      9.5647    109.9020
   455.7500      0.0000    803.6607      9.6413    106.8237
   456.0000      0.0000    819.0977      9.7420    103.4167
   456.2500      0.0000    825.9766      9.8508     99.9739
   456.5000      0.0000    820.6932      9.9474     96.9614
   456.7500      0.0000    808.0583     10.0217     94.9219
   457.0000      0.0000    793.0291     10.0441     94.4732
   457.2500      0.0000    774.8927      9.9844     96.5511
   457.5000      0.0000    754.9424      9.8611    102.2663
   457.7500      0.0000    739.0863      9.7166    111.9142
   458.0000      0.0000    730.4206      9.5780    124.0983
   458.2500      0.0000    726.8719      9.4605    136.1588
   458.5000      0.0000    725.5523      9.3786    145.5293
   458.7500      0.0000    724.9857      9.3451    150.7376
   459.0000      0.0000    724.3883      9.3398    151.6565
   459.2500      0.0000    722.6650      9.3214    149.2274
   459.5000      0.0000    717.9294      9.2853    144.7156
   459.7500      0.0000    709.1443      9.2557    138.9588
   460.0000      0.0000    699.3793      9.2343    132.4822
   460.2500      0.0000    694.8063      9.1920    126.2939
   460.5000      0.0000    697.8291      9.1170    122.0897
   460.7500      0.0000    702.9941      9.0491    121.1638
   461.0000      0.0000    702.7286      9.0340    123.0238
   461.2500      0.0000    696.7773      9.0673    125.5984
   461.5000      0.0000    691.8375      9.1139    127.1106
   461.7500      0.0000    691.6140      9.1411    127.4483
   462.0000      0.0000    692.3962      9.1327    127.6982
   462.2500      0.0000    690.0276      9.1075    128.9174
   462.5000      0.0000    685.8903      9.1096    131.3796
   462.7500      0.0000    683.1176      9.1536    134.2582
   463.0000      0.0000    682.1576      9.1987    135.8440
   463.2500      0.0000    681.9474      9.2090    134.6620
   463.5000      0.0000    681.8091      9.2132    130.8514
   463.7500      0.0000    681.6570      9.2559    126.5471
   464.0000      0.0000    681.7908      9.3237    124.5750
   464.2500      0.0000    683.0417      9.3637    126.1233
   464.5000      0.0000    687.1476      9.3599    129.4592
   464.7500      0.0000    695.1465      9.3398    131.2207
   465.0000      0.0000    704.5143      9.3087    129.0955
   465.2500      0.0000    711.8336      9.2541    123.1947
   465.5000      0.0000    717.8357      9.2001    115.1343
   465.7500      0.0000    723.7883      9.1649    106.4693
   466.0000      0.0000    727.4442      9.1256     98.3441
   466.2500      0.0000    727.7201      9.0782     92.0771
   466.5000      0.0000    726.6374      9.0345     89.0989
   466.7500      0.0000    725.5616      8.9679     89.9802
   467.0000      0.0000    723.6346      8.8529     93.9962
   467.2500      0.0000    718.8391      8.7082     99.7104
   467.5000      0.0000    710.6703      8.5687    105.4359
   467.7500      0.0000    703.1754      8.4659    109.3028
   468.0000      0.0000    701.7259      8.4210    109.9094
   468.2500      0.0000    705.1300      8.4282    107.3997
   468.5000      0.0000    707.1790      8.4647    103.5172
   468.7500      0.0000    705.8220      8.5192    100.3276
