~Version Information
VERS.                      2.0: CWLS Log ASCII Standard - VERSION 2.0
WRAP.                       NO: One line per depth step
~Well Information Block
STRT.FT               325.0000: 
STOP.FT              1014.5000: 
STEP.FT                 0.2500: 
NULL.                -999.2500: 
COMP.          Pioneer Natural Resources: COMPANY
WELL.                Doc 34-30: WELL
FLD.           Purgatoire River: FIELD
LOC.           454' FSL & 1386' FEL: LOCATION
CNTY.               Las Animas: COUNTY
SRVC.                Patterson: SERVICE COMPANY
DATE.          Wed Feb 15 20:26:19 2006: LOG DATE
UWI.           05 071 08694 00: UNIQUE WELL ID
STAT.                 Colorado: STATE
~Curve Information Block
DEPT.FT            0 000 00 00: Depth
SN.Ohm-m                      : IEL Short Normal
SP.mV                         : IEL Spontaneous Potential
DIR.Ohm-m                     : IEL Induction Resistivity
GR.GAPI                       : Gamma Ray
~Parameter Information Block
~A  Depth        SN          SP         DIR          GR     
# ...
   961.5000     19.5958     53.2407     20.5123     76.9694
   961.7500     19.5241     53.3329     20.4096     77.0580
   962.0000     19.3582     53.3766     20.3527     76.9158
   962.2500     19.2128     53.3706     20.3363     76.4292
   962.5000     19.1950     53.3314     20.3521     75.2399
   962.7500     19.2869     53.2781     20.3974     74.4366
   963.0000     19.3863     53.2212     20.4734     73.7945
   963.2500     19.4222     53.1642     20.5728     73.8110
   963.5000     19.4144     53.1138     20.6691     73.9759
   963.7500     19.4071     53.0897     20.7234     73.8239
   964.0000     19.3893     53.1199     20.7092     73.1303
   964.2500     19.3743     53.2233     20.6323     72.5924
   964.5000     19.4835     53.3931     20.5290     72.0991
   964.7500     19.7981     53.5960     20.4435     72.0858
   965.0000     20.1905     53.7900     20.4039     72.4973
   965.2500     20.3865     53.9436     20.4108     73.0417
   965.5000     20.2232     54.0466     20.4425     74.4794
   965.7500     19.8296     54.1068     20.4732     76.0075
   966.0000     19.4422     54.1420     20.4884     78.8618
   966.2500     19.1229     54.1724     20.4892     80.5119
   966.5000     18.8257     54.2179     20.4846     81.3767
   966.7500     18.5874     54.2970     20.4831     80.5908
   967.0000     18.4823     54.4201     20.4884     78.0194
   967.2500     18.4980     54.5805     20.4999     76.1828
   967.5000     18.5721     54.7527     20.5151     74.4364
   967.7500     18.6710     54.9016     20.5306     74.1302
   968.0000     18.7629     54.9993     20.5430     74.3767
   968.2500     18.8005     55.0401     20.5480     74.4837
   968.5000     18.7798     55.0428     20.5383     73.9353
   968.7500     18.7399     55.0359     20.5012     73.0026
   969.0000     18.6825     55.0352     20.4222     71.0656
   969.2500     18.5867     55.0335     20.2945     69.8836
   969.5000     18.4987     55.0102     20.1285     69.3785
   969.7500     18.4835     54.9514     19.9498     70.3719
   970.0000     18.5167     54.8603     19.7838     73.6383
   970.2500     18.5110     54.7528     19.6425     76.1627
   970.5000     18.4293     54.6451     19.5258     78.7970
   970.7500     18.3315     54.5451     19.4326     79.3829
   971.0000     18.3039     54.4508     19.3658     79.0758
   971.2500     18.3664     54.3524     19.3283     78.7369
   971.5000     18.4639     54.2347     19.3157     78.9649
   971.7500     18.5205     54.0813     19.3154     79.8675
   972.0000     18.4957     53.8830     19.3133     82.1741
   972.2500     18.3881     53.6485     19.2993     83.9362
   972.5000     18.2233     53.4042     19.2701     86.0642
   972.7500     18.0813     53.1821     19.2277     86.7509
   973.0000     18.0374     53.0015     19.1767     86.3804
   973.2500     18.0609     52.8614     19.1215     85.3124
   973.5000     18.0696     52.7467     19.0664     83.3210
   973.7500     18.0412     52.6406     19.0175     82.4699
   974.0000     18.0015     52.5322     18.9812     82.7715
   974.2500     17.9730     52.4163     18.9603     83.9155
   974.5000     17.9946     52.2927     18.9511     86.0211
   974.7500     18.1074     52.1685     18.9463     87.1289
   975.0000     18.2880     52.0577     18.9418     88.2384
   975.2500     18.4886     51.9763     18.9437     88.8996
   975.5000     18.6997     51.9368     18.9687     89.9216
   975.7500     18.8582     51.9452     19.0369     90.2653
   976.0000     18.8473     51.9970     19.1571     89.4896
   976.2500     18.6866     52.0747     19.3155     87.9711
   976.5000     18.5571     52.1506     19.4769     84.6713
   976.7500     18.6063     52.1942     19.6037     82.3631
   977.0000     18.8076     52.1780     19.6772     79.8348
   977.2500     19.0014     52.0866     19.7027     79.1648
   977.5000     19.0729     51.9269     19.6943     79.4575
   977.7500     19.0698     51.7287     19.6550     80.0001
   978.0000     19.1164     51.5286     19.5725     80.7337
   978.2500     19.2295     51.3533     19.4347     81.3575
   978.5000     19.3090     51.2156     19.2538     83.2393
   978.7500     19.3072     51.1229     19.0770     85.1358
   979.0000     19.2724     51.0784     18.9705     87.7478
   979.2500     19.2773     51.0779     18.9860     88.4192
   979.5000     19.4033     51.1060     19.1333     87.2398
   979.7500     19.6597     51.1400     19.3773     85.4727
   980.0000     19.9196     51.1553     19.6615     82.6560
   980.2500     20.0682     51.1334     19.9399     81.0093
   980.5000     20.1371     51.0655     20.1933     78.5040
   980.7500     20.2366     50.9514     20.4201     76.5346
   981.0000     20.4330     50.7955     20.6199     73.4398
   981.2500     20.7476     50.6088     20.7888     71.8707
   981.5000     21.1799     50.4138     20.9289     71.2025
   981.7500     21.6507     50.2434     21.0567     71.9678
   982.0000     22.0561     50.1288     21.1986     74.1393
   982.2500     22.3719     50.0843     21.3774     75.7206
   982.5000     22.5894     50.1019     21.5991     78.3436
   982.7500     22.6972     50.1588     21.8474     80.8518
   983.0000     22.7701     50.2296     22.0851     86.1160
   983.2500     22.8772     50.2941     22.2690     89.5859
   983.5000     22.9555     50.3414     22.3734     91.2985
   983.7500     22.9173     50.3751     22.4090     88.6484
   984.0000     22.7795     50.4129     22.4161     79.9042
   984.2500     22.6022     50.4745     22.4354     73.1852
   984.5000     22.3958     50.5675     22.4791     65.6927
   984.7500     22.1550     50.6847     22.5244     63.3718
   985.0000     21.9447     50.8115     22.5306     63.2588
   985.2500     21.8612     50.9320     22.4644     64.5288
   985.5000     21.8756     51.0299     22.3175     67.1998
   985.7500     21.8273     51.0911     22.1078     69.1798
   986.0000     21.6291     51.1122     21.8667     72.5431
   986.2500     21.3632     51.1052     21.6240     75.2503
   986.5000     21.1411     51.0901     21.4018     80.2079
   986.7500     20.9780     51.0808     21.2169     84.0573
   987.0000     20.8447     51.0801     21.0867     90.3969
   987.2500     20.7479     51.0853     21.0279     94.9077
   987.5000     20.6879     51.0949     21.0476    102.1146
   987.7500     20.6024     51.1067     21.1310    107.1732
   988.0000     20.4588     51.1147     21.2345    114.5086
   988.2500     20.3419     51.1108     21.2964    118.3714
   988.5000     20.3234     51.0853     21.2642    120.7514
   988.7500     20.3534     51.0264     21.1243    119.3817
   989.0000     20.3710     50.9210     20.9111    113.2863
   989.2500     20.3815     50.7588     20.6930    107.4570
   989.5000     20.3860     50.5375     20.5492     97.9076
   989.7500     20.3883     50.2674     20.5504     91.9443
   990.0000     20.4536     49.9756     20.7428     84.7781
   990.2500     20.6329     49.7040     21.1354     81.5020
   990.5000     20.9050     49.4967     21.6981     78.8081
   990.7500     21.2431     49.3796     22.3728     78.3749
   991.0000     21.6383     49.3444     23.0932     79.5611
   991.2500     22.0727     49.3519     23.8042     81.2480
   991.5000     22.5582     49.3534     24.4739     83.9401
   991.7500     23.1428     49.3162     25.0979     85.0650
   992.0000     23.7878     49.2378     25.6943     85.0724
   992.2500     24.3924     49.1424     26.2879     84.0554
   992.5000     24.9802     49.0668     26.8924     81.5588
   992.7500     25.6580     49.0432     27.5033     79.6935
   993.0000     26.4460     49.0891     28.1028     77.8546
   993.2500     27.2595     49.2066     28.6698     78.2691
   993.5000     27.9735     49.3863     29.1868     82.4981
   993.7500     28.4723     49.6119     29.6429     87.3038
   994.0000     28.6819     49.8622     30.0300     94.3855
   994.2500     28.5753     50.1127     30.3261     96.3718
   994.5000     28.2051     50.3413     30.4806     91.3235
   994.7500     27.7654     50.5365     30.4191     81.7430
