~Version Information
VERS.                      2.0: CWLS Log ASCII Standard - VERSION 2.0
WRAP.                       NO: One line per depth step
~Well Information Block
STRT.FT                -9.0000: 
STOP.FT              1841.0000: 
STEP.FT                 0.2500: 
NULL.                -999.2500: 
COMP.          Pioneer Natural Resources: COMPANY
WELL.          Cooper 11-13 Tr: WELL
FLD.           Purgatorie River: FIELD
LOC.           476' FNL & 738' FWL: LOCATION
STAT.                       CO: State
CNTY.               Las Animas: COUNTY
CTRY. USA : Country
SECT. 13 : Section
TOWN. 32S : Township
RANG. 67W : Range
SRVC.          Patterson Wireline: SERVICE COMPANY
DATE.          Thu Sep 29 08:59:13 2005: LOG DATE
API.           05 071 08525 00: UNIQUE WELL ID
~Curve Information Block
DEPT.FT            0 000 00 00: Depth
CCL.                          : Casing Collar Locator
TT3.usec                      : CBL 3' Travel Time
AMP3.mV                       : CBL 3' Amplitude
GR.GAPI                       : Gamma Ray
~Parameter Information Block
~A  Depth       CCL         TT3         AMP3         GR     
# ...
   728.0000      0.0000    696.7523     15.0173    111.7296
   728.2500      0.0000    612.8000     15.1497    108.7084
   728.5000      0.0000    517.5358     15.2975    105.7062
   728.7500      0.0000    433.4018     15.4284    103.4833
   729.0000      0.0000    375.5411     15.5235    103.0058
   729.2500      0.0000    344.5688     15.5844    105.6193
   729.5000      0.0000    331.8229     15.6204    112.0672
   729.7500      0.0000    328.6720     15.6362    121.0442
   730.0000      0.0000    331.8310     15.6359    129.1904
   730.2500      0.0000    344.5724     15.6284    133.2849
   730.5000      0.0000    375.4839     15.6163    132.8119
   730.7500      0.0000    433.1656     15.5830    129.9391
   731.0000      0.0000    516.8615     15.5001    126.8091
   731.2500      0.0000    610.8227     15.3534    123.5958
   731.5000      0.0000    690.9769     15.1576    119.4562
   731.7500      0.0000    739.8374     14.9400    114.3153
   732.0000      0.0000    755.7724     14.7180    108.9723
   732.2500      0.0000    750.0895     14.5023    104.1009
   732.5000      0.0000    737.6526     14.3199     99.8096
   732.7500      0.0000    728.9988     14.2137     96.0583
   733.0000      0.0000    727.3160     14.2073     93.1762
   733.2500      0.0000    729.7856     14.2753     91.8002
   733.5000      0.0000    731.5499     14.3572     92.2363
   733.7500      0.0000    730.0222     14.4021     94.0332
   734.0000      0.0000    726.6450     14.3988     96.2758
   734.2500      0.0000    724.8793     14.3651     98.0986
   734.5000      0.0000    726.6372     14.3199     98.9135
   734.7500      0.0000    730.7411     14.2695     98.5051
   735.0000      0.0000    734.8697     14.2180     97.2039
   735.2500      0.0000    738.9927     14.1815     95.8750
   735.5000      0.0000    745.9247     14.1848     95.4414
   735.7500      0.0000    757.2460     14.2425     96.3311
   736.0000      0.0000    768.9492     14.3469     98.3500
   736.2500      0.0000    773.1349     14.4761    100.8312
   736.5000      0.0000    765.7693     14.6070    102.7660
   736.7500      0.0000    752.5961     14.7216    103.1018
   737.0000      0.0000    745.4608     14.8109    101.3363
   737.2500      0.0000    751.5544     14.8814     97.9487
   737.5000      0.0000    767.3432     14.9486     94.1527
   737.7500      0.0000    783.3708     15.0182     91.1228
   738.0000      0.0000    792.5814     15.0746     89.2900
   738.2500      0.0000    793.1376     15.0917     87.9953
   738.5000      0.0000    786.6855     15.0577     85.7828
   738.7500      0.0000    777.1196     14.9879     81.5914
   739.0000      0.0000    769.8835     14.9123     75.9532
   739.2500      0.0000    769.1207     14.8487     70.5961
   739.5000      0.0000    774.0720     14.7932     66.7362
   739.7500      0.0000    779.0377     14.7360     64.1423
   740.0000      0.0000    777.1835     14.6842     61.8078
   740.2500      0.0000    763.8763     14.6561     59.1069
   740.5000      0.0000    737.3638     14.6502     56.1770
   740.7500      0.0000    699.7067     14.6108     53.4764
   741.0000      0.0000    658.7982     14.4471     51.3635
   741.2500      0.0000    626.8248     14.1211     50.2446
   741.5000      0.0000    614.1125     13.7166     50.7430
   741.7500      0.0000    625.3442     13.3743     53.0957
   742.0000      0.0000    660.0798     13.1660     56.2939
   742.2500      0.0000    711.6000     13.0845     58.3912
   742.5000      0.0000    766.1754     13.1237     57.9873
   742.7500      0.0000    809.8083     13.2920     55.2512
   743.0000      0.0000    836.9754     13.5622     51.6503
   743.2500     -2.0000    850.3636     13.8718     49.1708
   743.5000      0.0000    853.5599     14.1605     49.6118
   743.7500      0.0000    845.7413     14.4044     53.8571
   744.0000      0.0000    821.9767     14.6543     61.4265
   744.2500      0.0000    777.2331     15.0351     70.8037
   744.5000      0.0000    711.2723     15.6416     80.2458
   744.7500      0.0000    630.5100     16.4291     88.4333
   745.0000      0.0000    545.2633     17.2768     94.8453
   745.2500      0.0000    466.2903     18.1175     99.9954
   745.5000      0.0000    402.8564     18.9171    105.2023
   745.7500      0.0000    360.1324     19.5863    111.7395
   746.0000      0.0000    336.8212     20.0260    119.9604
   746.2500      0.0000    326.7621     20.2288    129.0329
   746.5000      0.0000    323.3757     20.2748    137.3286
   746.7500      0.0000    322.4897     20.2589    143.1823
   747.0000      0.0000    322.3151     20.2523    145.6360
   747.2500      0.0000    322.2759     20.3080    144.9823
   747.5000      0.0000    322.2432     20.4618    142.9182
   747.7500      0.0000    322.1668     20.7229    141.8531
   748.0000      0.0000    322.0452     21.0623    143.3398
   748.2500      0.0000    321.9063     21.4150    146.7182
   748.5000      0.0000    321.7979     21.7009    149.3817
   748.7500      0.0000    321.7606     21.8550    149.0057
   749.0000      0.0000    321.8101     21.8389    146.0788
   749.2500      0.0000    321.9457     21.6371    143.9716
   749.5000      0.0000    322.1649     21.2682    145.8038
   749.7500      0.0000    322.4571     20.8085    151.1920
   750.0000      0.0000    322.7781     20.3772    156.5172
   750.2500      0.0000    323.0417     20.0659    158.2823
   750.5000      0.0000    323.1587     19.8856    155.7667
   750.7500      0.0000    323.1041     19.7935    150.7036
   751.0000      0.0000    322.9385     19.7561    145.3191
   751.2500      0.0000    322.7517     19.7727    140.9599
   751.5000      0.0000    322.5972     19.8514    137.8972
   751.7500      0.0000    322.4861     19.9751    135.6746
   752.0000      0.0000    322.4185     20.0918    133.5654
   752.2500      0.0000    322.3971     20.1409    131.0543
   752.5000      0.0000    322.4174     20.0981    128.1401
   752.7500      0.0000    322.4636     19.9892    125.2276
   753.0000      0.0000    322.5235     19.8560    122.6151
   753.2500      0.0000    322.5987     19.7159    119.9870
   753.5000      0.0000    322.6963     19.5646    116.6031
   753.7500      0.0000    322.8095     19.4123    112.4189
   754.0000      0.0000    322.9100     19.3014    108.9109
   754.2500      0.0000    322.9624     19.2808    108.1230
   754.5000      0.0000    322.9473     19.3604    110.6038
   754.7500      0.0000    322.8745     19.4951    114.5247
   755.0000      0.0000    322.7747     19.6189    117.2455
   755.2500      0.0000    322.6764     19.6970    117.9405
   755.5000      0.0000    322.5885     19.7462    118.3654
   755.7500      0.0000    322.5045     19.8099    120.6881
   756.0000      0.0000    322.4203     19.9205    124.8893
   756.2500      0.0000    322.3416     20.0813    128.7483
   756.5000      0.0000    322.2770     20.2679    130.0755
   756.7500      0.0000    322.2324     20.4374    128.5463
   757.0000      0.0000    322.2167     20.5448    125.6657
   757.2500      0.0000    322.2406     20.5685    123.2936
   757.5000      0.0000    322.3028     20.5297    122.0168
   757.7500      0.0000    322.3816     20.4825    120.8149
   758.0000      0.0000    322.4447     20.4805    118.0938
   758.2500      0.0000    322.4661     20.5500    112.7711
   758.5000      0.0000    322.4358     20.6916    104.5992
   758.7500      0.0000    322.3663     20.8936     94.0508
   759.0000      0.0000    322.2922     21.1323     82.1975
   759.2500      0.0000    322.2542     21.3662     70.5070
   759.5000      0.0000    322.2723     21.5442     60.4055
   759.7500      0.0000    322.3369     21.6306     52.8117
   760.0000      0.0000    322.4229     21.6227     48.0379
   760.2500      0.0000    322.5078     21.5521     46.3658
   760.5000      0.0000    322.5721     21.4670     48.7504
   760.7500      0.0000    322.5953     21.4034     56.4040
   761.0000      0.0000    322.5650     21.3646     69.1326
   761.2500      0.0000    322.4905     21.3292     84.2221
