~Version Information
VERS.                      2.0: CWLS Log ASCII Standard - VERSION 2.0
WRAP.                       NO: One line per depth step
~Well Information Block
STRT.FT               570.0000: 
STOP.FT              2094.0000: 
STEP.FT                 0.2500: 
NULL.                -999.2500: 
COMP.          XTO Energy Inc.: COMPANY
WELL.          Golden Eagle 19-10: WELL
FLD.           Purgatoire River: FIELD
LOC.           2684' FSL & 1825' FEL: LOCATION
CNTY.               Las Animas: COUNTY
CTRY.                      USA: COUNTRY
API.               05 071 08697:  
SRVC.                Patterson: SERVICE COMPANY
DATE.          Sun Mar 05 02:13:24 2006: LOG DATE
UWI.           05 071 08697 00: UNIQUE WELL ID
STAT.                 Colorado: STATE
~Curve Information Block
DEPT.FT            0 000 00 00: Depth
SP.mV                         : DIL Spontaneous Potential
RILD.Ohm-m                    : DIL Deep Resistivity
RILM.Ohm-m                    : DIL Medium Resistivity
RLL3.Ohm-m                    : DIL Shallow Resistivity
GR.GAPI                       : Gamma Ray
~Parameter Information Block
~A  Depth        SP         RILD        RILM        RLL3         GR     
# ...
   878.0000   -999.2500     24.9091     26.1643   -999.2500     98.4109
   878.2500   -999.2500     24.7013     26.1024   -999.2500     98.6136
   878.5000   -999.2500     24.5553     25.9394   -999.2500    101.2611
   878.7500   -999.2500     24.5853     25.6999   -999.2500    104.7847
   879.0000   -999.2500     24.8395     25.4239   -999.2500    111.7234
   879.2500   -999.2500     25.2784     25.1613   -999.2500    116.1271
   879.5000   -999.2500     25.7947     24.9645   -999.2500    119.7086
   879.7500   -999.2500     26.2661     24.8805   -999.2500    119.0174
   880.0000   -999.2500     26.6131     24.9443   -999.2500    113.3044
   880.2500   -999.2500     26.8222     25.1749   -999.2500    107.1667
   880.5000   -999.2500     26.9256     25.5731   -999.2500     96.2717
   880.7500   -999.2500     26.9747     26.1215   -999.2500     88.9877
   881.0000   -999.2500     27.0274     26.7856   -999.2500     79.9726
   881.2500   -999.2500     27.1453     27.5182   -999.2500     76.0971
   881.5000   -999.2500     27.3830     28.2673   -999.2500     73.7115
   881.7500   -999.2500     27.7711     28.9862   -999.2500     73.8565
   882.0000   -999.2500     28.3107     29.6424   -999.2500     75.5115
   882.2500   -999.2500     28.9826     30.2221   -999.2500     77.1056
   882.5000   -999.2500     29.7598     30.7286   -999.2500     79.6835
   882.7500   -999.2500     30.6080     31.1759   -999.2500     81.2120
   883.0000   -999.2500     31.4772     31.5810   -999.2500     82.7086
   883.2500   -999.2500     32.3000     31.9568   -999.2500     82.9544
   883.5000   -999.2500     33.0090     32.3079   -999.2500     82.0467
   883.7500   -999.2500     33.5637     32.6302   -999.2500     80.7070
   884.0000   -999.2500     33.9648     32.9122   -999.2500     78.1702
   884.2500   -999.2500     34.2440     33.1405   -999.2500     76.6159
   884.5000   -999.2500     34.4359     33.3050   -999.2500     75.3452
   884.7500   -999.2500     34.5511     33.4046   -999.2500     75.5012
   885.0000   -999.2500     34.5655     33.4501   -999.2500     76.9706
   885.2500   -999.2500     34.4354     33.4646   -999.2500     78.1396
   885.5000   -999.2500     34.1330     33.4795   -999.2500     78.9745
   885.7500   -999.2500     33.6817     33.5288   -999.2500     78.6875
   886.0000   -999.2500     33.1601     33.6419   -999.2500     77.7109
   886.2500   -999.2500     32.6714     33.8369   -999.2500     77.3505
   886.5000   -999.2500     32.3022     34.1167   -999.2500     77.6841
   886.7500   -999.2500     32.0960     34.4680   -999.2500     78.1668
   887.0000   -999.2500     32.0432     34.8654   -999.2500     78.2352
   887.2500   -999.2500     32.0844     35.2768   -999.2500     77.2541
   887.5000   -999.2500     32.1303     35.6700   -999.2500     73.5753
   887.7500   -999.2500     32.0963     36.0154   -999.2500     69.6664
   888.0000   -999.2500     31.9278     36.2849   -999.2500     62.6004
   888.2500   -999.2500     31.5920     36.4446   -999.2500     57.9611
   888.5000   -999.2500     31.0457     36.4448   -999.2500     52.1778
   888.7500   -999.2500     30.2209     36.2129   -999.2500     49.2886
   889.0000   -999.2500     29.0607     35.6534   -999.2500     46.4437
   889.2500   -999.2500     27.5746     34.6654   -999.2500     45.7205
   889.5000   -999.2500     25.8591     33.1778   -999.2500     47.0905
   889.7500   -999.2500     24.0622     31.1933   -999.2500     50.1616
   890.0000   -999.2500     22.3258     28.8121   -999.2500     58.7805
   890.2500   -999.2500     20.7514     26.2156   -999.2500     67.4121
   890.5000   -999.2500     19.3950     23.6130   -999.2500     84.3634
   890.7500   -999.2500     18.2782     21.1837   -999.2500     97.6384
   891.0000   -999.2500     17.3964     19.0453   -999.2500    118.6276
   891.2500   -999.2500     16.7235     17.2515   -999.2500    132.1315
   891.5000   -999.2500     16.2195     15.8094   -999.2500    149.7133
   891.7500   -999.2500     15.8435     14.6991   -999.2500    158.5608
   892.0000   -999.2500     15.5672     13.8902   -999.2500    165.9734
   892.2500   -999.2500     15.3752     13.3501   -999.2500    166.7428
   892.5000   -999.2500     15.2544     13.0495   -999.2500    162.6667
   892.7500   -999.2500     15.1853     12.9625   -999.2500    157.5643
   893.0000   -999.2500     15.1478     13.0657   -999.2500    148.0711
   893.2500   -999.2500     15.1365     13.3364   -999.2500    141.2861
   893.5000   -999.2500     15.1672     13.7513   -999.2500    131.7278
   893.7500   -999.2500     15.2678     14.2855   -999.2500    126.5692
   894.0000   -999.2500     15.4613     14.9132   -999.2500    121.4413
   894.2500   -999.2500     15.7542     15.6086   -999.2500    119.5589
   894.5000   -999.2500     16.1367     16.3459   -999.2500    117.9508
   894.7500   -999.2500     16.5932     17.0979   -999.2500    117.2757
   895.0000   -999.2500     17.1116     17.8333   -999.2500    117.2582
   895.2500   -999.2500     17.6828     18.5152   -999.2500    118.4344
   895.5000   -999.2500     18.2855     19.1043   -999.2500    122.0415
   895.7500   -999.2500     18.8714     19.5647   -999.2500    124.9789
   896.0000   -999.2500     19.3633     19.8726   -999.2500    128.7137
   896.2500   -999.2500     19.6704     20.0208   -999.2500    130.4171
   896.5000   -999.2500     19.7162     20.0177   -999.2500    132.2884
   896.7500   -999.2500     19.4695     19.8806   -999.2500    133.4722
   897.0000   -999.2500     18.9610     19.6281   -999.2500    135.0307
   897.2500   -999.2500     18.2708     19.2729   -999.2500    135.4858
   897.5000   -999.2500     17.4911     18.8211   -999.2500    135.0128
   897.7500   -999.2500     16.6922     18.2736   -999.2500    134.4047
   898.0000   -999.2500     15.9106     17.6321   -999.2500    134.4930
   898.2500   -999.2500     15.1585     16.9047   -999.2500    135.8814
   898.5000   -999.2500     14.4388     16.1087   -999.2500    140.1576
   898.7500   -999.2500     13.7546     15.2700   -999.2500    144.0686
   899.0000   -999.2500     13.1119     14.4194   -999.2500    150.4784
   899.2500   -999.2500     12.5174     13.5873   -999.2500    154.6145
   899.5000   -999.2500     11.9764     12.8001   -999.2500    160.0889
   899.7500   -999.2500     11.4916     12.0776   -999.2500    163.0097
   900.0000   -999.2500     11.0637     11.4332   -999.2500    165.9449
   900.2500   -999.2500     10.6913     10.8739   -999.2500    166.9035
   900.5000   -999.2500     10.3700     10.4011   -999.2500    167.0504
   900.7500   -999.2500     10.0911     10.0109   -999.2500    166.3784
   901.0000   -999.2500      9.8421      9.6949   -999.2500    164.3953
   901.2500   -999.2500      9.6098      9.4418   -999.2500    162.8241
   901.5000   -999.2500      9.3858      9.2384   -999.2500    161.2086
   901.7500   -999.2500      9.1695      9.0720   -999.2500    161.0081
   902.0000   -999.2500      8.9686      8.9318   -999.2500    161.5909
   902.2500   -999.2500      8.7944      8.8110   -999.2500    162.0252
   902.5000   -999.2500      8.6570      8.7069   -999.2500    162.3826
   902.7500   -999.2500      8.5615      8.6205   -999.2500    162.6970
   903.0000   -999.2500      8.5085      8.5555   -999.2500    164.0299
   903.2500   -999.2500      8.4974      8.5169   -999.2500    165.7379
   903.5000   -999.2500      8.5279      8.5098   -999.2500    169.1220
   903.7500   -999.2500      8.5999      8.5383   -999.2500    171.0473
   904.0000   -999.2500      8.7097      8.6051   -999.2500    171.2536
   904.2500   -999.2500      8.8467      8.7108   -999.2500    168.6345
   904.5000   -999.2500      8.9928      8.8532   -999.2500    160.6926
   904.7500   -999.2500      9.1267      9.0266   -999.2500    153.9184
   905.0000   -999.2500      9.2317      9.2215   -999.2500    144.4519
   905.2500   -999.2500      9.3030      9.4248   -999.2500    139.9830
   905.5000   -999.2500      9.3498      9.6218   -999.2500    136.9255
   905.7500   -999.2500      9.3915      9.7985   -999.2500    137.0460
