~Version Information
VERS.                      2.0: CWLS Log ASCII Standard - VERSION 2.0
WRAP.                       NO: One line per depth step
~Well Information Block
STRT.FT               -12.2500: 
STOP.FT              1442.2500: 
STEP.FT                 0.2500: 
NULL.                -999.2500: 
COMP.          Pioneer Natural Resources: COMPANY
WELL.              Lucky 21-36: WELL
FLD.           Purgatorie River: FIELD
LOC.           799' FNL & 1578' FWL--: LOCATION
CDN. :
PROV. :
UWI. :
STAT. :
CNTY. :
CTRY. :
API. :
COMP. :
WELL. :
FLD. :
LOC. :
DATE. :
SRVC. :
CNTY.               Las Animas: COUNTY
SRVC.          Superior Well Services: SERVICE COMPANY
DATE.          Mon Jul 21 12-16-21 2008: LOG DATE
UWI.           05 071 08456 00: UNIQUE WELL ID
STAT.                       CO: STATE
~Curve Information Block
DEPT.FT            0 000 00 00: Depth
CCL.                          : Casing Collar Locator
TT3.usec                      : CBL 3' Travel Time
AMP3.mV                       : CBL 3' Amplitude
GR.GAPI                       : Gamma Ray
~Parameter Information Block
~A  Depth       CCL         TT3         AMP3         GR     
# ...
   557.2500      0.0000    835.6581      9.4966    126.0154
   557.5000      0.0000    835.2421     10.0722    126.1013
   557.7500      0.0000    824.6472     10.5914    125.9063
   558.0000      0.0000    807.4581     11.0470    126.9736
   558.2500      0.0000    790.4647     11.4277    129.5162
   558.5000      0.0000    778.6019     11.7297    133.0597
   558.7500      0.0000    773.1266     11.9753    136.8037
   559.0000      0.0000    772.8022     12.2269    139.4435
   559.2500      0.0000    774.4731     12.5762    139.2188
   559.5000      0.0000    771.2800     13.1219    134.6676
   559.7500      0.0000    751.7859     13.9557    125.7747
   560.0000      0.0000    704.7051     15.1575    114.2444
   560.2500      0.0000    628.2451     16.7759    102.2695
   560.5000      0.0000    535.2579     18.7791     91.3452
   560.7500      0.0000    446.9179     21.0079     82.6688
   561.0000      0.0000    379.7805     23.1850     77.8396
   561.2500      0.0000    338.2560     25.0044     78.0353
   561.5000      0.0000    317.0870     26.2565     82.6107
   561.7500      0.0000    308.1381     26.9082     89.3859
   562.0000      0.0000    305.0242     27.0802     96.3801
   562.2500      0.0000    304.1892     26.9458    102.4750
   562.5000      0.0000    304.1150     26.6396    106.4163
   562.7500      0.0000    304.3049     26.2366    106.5008
   563.0000      0.0000    304.6237     25.7792    102.1878
   563.2500      0.0000    305.0393     25.2910     95.3933
   563.5000      0.0000    305.5153     24.7801     89.3533
   563.7500      0.0000    305.9871     24.2609     86.4429
   564.0000      0.0000    306.3791     23.7708     87.4875
   564.2500      0.0000    306.6645     23.3477     92.4609
   564.5000      0.0000    306.8974     22.9951    100.7567
   564.7500      0.0000    307.1603     22.6868    110.7134
   565.0000      0.0000    307.4817     22.4001    119.7742
   565.2500      0.0000    307.8158     22.1386    125.8580
   565.5000      0.0000    308.0890     21.9269    128.7926
   565.7500      0.0000    308.2538     21.7922    130.4073
   566.0000      0.0000    308.3119     21.7463    133.1047
   566.2500      0.0000    308.3039     21.7793    137.9840
   566.5000      0.0000    308.2749     21.8702    144.0667
   566.7500      0.0000    308.2395     22.0008    149.2415
   567.0000      0.0000    308.1830     22.1527    151.8467
   567.2500      0.0000    308.0949     22.2975    151.4017
   567.5000      0.0000    307.9887     22.4056    148.2654
   567.7500      0.0000    307.8860     22.4719    142.9235
   568.0000      0.0000    307.7959     22.5234    135.6080
   568.2500      0.0000    307.7139     22.5953    126.7338
   568.5000      0.0000    307.6319     22.7029    117.8851
   568.7500      0.0000    307.5451     22.8372    112.0057
   569.0000      0.0000    307.4574     22.9784    111.8681
   569.2500      0.0000    307.3801     23.1080    117.8827
   569.5000      0.0000    307.3178     23.2156    127.4036
   569.7500      0.0000    307.2573     23.3011    136.3709
   570.0000      0.0000    307.1816     23.3674    141.9343
   570.2500      0.0000    307.0948     23.4058    143.8456
   570.5000      0.0000    307.0216     23.3945    143.5496
   570.7500      0.0000    306.9805     23.3186    142.1687
   571.0000      0.0000    306.9628     23.1935    139.6331
   571.2500      0.0000    306.9407     23.0627    135.6482
   571.5000      0.0000    306.8892     22.9674    130.7028
   571.7500      0.0000    306.8037     22.9159    125.4244
   572.0000      0.0000    306.7053     22.8802    119.4801
   572.2500      0.0000    306.6252     22.8243    112.3025
   572.5000      0.0000    306.5799     22.7356    104.8755
   572.7500      0.0000    306.5625     22.6258     99.6267
   573.0000      0.0000    306.5589     22.5055     98.0697
   573.2500      0.0000    306.5674     22.3658     99.2312
   573.5000      0.0000    306.5945     22.1887    100.8262
   573.7500      0.0000    306.6397     21.9723    101.3806
   574.0000      0.0000    306.6959     21.7365    100.7806
   574.2500      0.0000    306.7637     21.5070     99.5863
   574.5000      0.0000    306.8567     21.2982     98.6986
   574.7500      0.0000    306.9851     21.1144     99.2005
   575.0000      0.0000    307.1389     20.9602    101.4602
   575.2500      0.0000    307.2880     20.8452    104.3067
   575.5000      0.0000    307.4372     20.7848    105.7522
   575.7500      0.0000    307.7118     20.8007    104.8042
   576.0000      0.0000    308.8400     20.9097    102.4884
   576.2500      0.0000    313.1002     21.0927    101.0895
   576.5000      0.0000    325.2480     21.2499    102.3260
   576.7500      0.0000    350.9427     21.1876    105.9930
   577.0000      0.0000    390.4088     20.7028    110.1969
   577.2500      0.0000    432.0197     19.7644    112.9920
   577.5000      0.0000    456.9491     18.6200    113.8970
   577.7500      0.0000    455.8589     17.6559    113.8221
   578.0000      0.0000    438.7807     17.1096    113.6798
   578.2500      0.0000    424.0806     16.9408    113.6291
   578.5000     -2.0000    420.2319     16.9603    113.8671
   578.7500     -2.0000    423.2238     17.0219    115.3371
   579.0000      0.0000    428.7617     17.1038    118.7583
   579.2500      0.0000    439.4829     17.2863    123.1942
   579.5000      0.0000    457.8616     17.6822    126.4782
   579.7500      0.0000    476.9174     18.3445    127.2582
   580.0000      0.0000    482.4269     19.2047    126.1600
   580.2500      0.0000    464.3082     20.0999    124.7846
   580.5000      0.0000    425.5693     20.8550    123.9358
   580.7500      0.0000    380.4816     21.3515    123.0896
   581.0000      0.0000    343.8752     21.5653    121.4628
   581.2500      0.0000    321.9708     21.5603    119.4062
   581.5000      0.0000    312.4389     21.4262    118.6276
   581.7500      0.0000    310.4579     21.2142    120.7485
   582.0000      0.0000    313.4780     20.9255    125.5305
   582.2500      0.0000    322.5969     20.5255    131.0278
   582.5000      0.0000    342.3587     19.9500    135.7784
   582.7500      0.0000    379.6760     19.1218    140.2545
   583.0000      0.0000    439.8358     17.9990    145.7306
   583.2500      0.0000    519.9232     16.6202    152.1735
   583.5000      0.0000    605.7350     15.1023    157.6099
   583.7500      0.0000    678.5339     13.5894    159.2448
   584.0000      0.0000    727.0033     12.1945    155.0710
   584.2500      0.0000    752.5692     10.9733    144.8868
   584.5000      0.0000    764.3708      9.9300    130.4232
   584.7500      0.0000    771.1039      9.0369    114.7492
   585.0000      0.0000    776.6566      8.2569    101.1823
   585.2500      0.0000    780.3120      7.5629     92.2098
   585.5000      0.0000    779.4915      6.9481     88.9211
   585.7500      0.0000    772.9714      6.4261     90.9575
   586.0000      0.0000    762.7925      6.0287     96.7291
   586.2500      0.0000    753.5946      5.7981    103.7422
   586.5000      0.0000    749.9350      5.7685    109.1205
   586.7500      0.0000    753.6292      5.9470    110.4837
   587.0000      0.0000    763.1707      6.3067    106.8270
   587.2500      0.0000    774.9926      6.7946     98.7984
   587.5000      0.0000    785.0664      7.3466     88.4001
   587.7500      0.0000    790.3148      7.9065     78.2854
   588.0000      0.0000    789.1489      8.4476     70.6336
   588.2500      0.0000    779.2048      8.9852     66.2178
   588.5000      0.0000    754.1029      9.5695     64.5810
   588.7500      0.0000    705.7127     10.2580     64.9417
   589.0000      0.0000    633.1888     11.0836     66.6580
   589.2500      0.0000    549.0861     12.0339     69.3363
   589.5000      0.0000    473.2887     13.0516     73.3528
   589.7500      0.0000    419.8614     14.0576     80.0301
   590.0000      0.0000    390.2795     14.9891     90.2627
   590.2500      0.0000    377.2992     15.8351    102.6562
   590.5000      0.0000    372.3310     16.6396    113.7206
