~Version Information
VERS.                      2.0: CWLS Log ASCII Standard - VERSION 2.0
WRAP.                       NO: One line per depth step
~Well Information Block
STRT.FT                -6.2500: 
STOP.FT              1327.5000: 
STEP.FT                 0.2500: 
NULL.                -999.2500: 
COMP.          Pioneer Natural Resources: COMPANY
WELL.            Avant 14-3 Tr: WELL
FLD.           Purgatorie River: FIELD
LOC.           170' FSL & 1174' FWL--: LOCATION
STAT.                       CO: State
CNTY.               Las Animas: COUNTY
CTRY. USA : Country
SECT. 3 : Section
TOWN. 33S : Township
RANG. 67W : Range
SRVC.          Patterson Wireline: SERVICE COMPANY
DATE.          Tue Aug 23 16:44:25 2005: LOG DATE
API.           05 071 08463 00: UNIQUE WELL ID
~Curve Information Block
DEPT.FT            0 000 00 00: Depth
CCL.                          : Casing Collar Locator
TT3.usec                      : CBL 3' Travel Time
AMP3.mV                       : CBL 3' Amplitude
GR.GAPI                       : Gamma Ray
~Parameter Information Block
~A  Depth       CCL         TT3         AMP3         GR     
# ...
  1032.2500      0.0000    718.4066      9.3258    106.6591
  1032.5000      0.0000    718.0458      9.3206    112.2706
  1032.7500      0.0000    717.5696      9.3008    117.8611
  1033.0000      0.0000    717.0863      9.2661    122.8626
  1033.2500      0.0000    716.5942      9.2210    127.0967
  1033.5000      0.0000    715.9566      9.1786    130.6674
  1033.7500      0.0000    715.2129      9.1532    133.1343
  1034.0000      0.0000    715.3019      9.1451    133.3068
  1034.2500      0.0000    718.5320      9.1364    130.1832
  1034.5000      0.0000    727.5390      9.1082    124.0886
  1034.7500      0.0000    742.7661      9.0595    117.0617
  1035.0000      0.0000    761.0238      9.0063    111.9295
  1035.2500      0.0000    777.3416      8.9625    110.2151
  1035.5000      0.0000    788.4258      8.9278    110.6235
  1035.7500      0.0000    794.0838      8.8966    110.0163
  1036.0000      0.0000    795.7753      8.8719    106.0978
  1036.2500      0.0000    794.4445      8.8672     98.9918
  1036.5000      0.0000    789.6219      8.8928     90.4197
  1036.7500      0.0000    780.2515      8.9426     81.9333
  1037.0000      0.0000    766.5037      8.9959     74.1019
  1037.2500      0.0000    750.8607      9.0351     67.1212
  1037.5000      0.0000    737.0107      9.0594     61.7118
  1037.7500      0.0000    727.4420      9.0796     58.8668
  1038.0000      0.0000    722.2263      9.0995     58.7592
  1038.2500      0.0000    719.8817      9.1129     60.4935
  1038.5000      0.0000    718.8827      9.1176     62.9431
  1038.7500      0.0000    718.3795      9.1265     65.4284
  1039.0000      0.0000    718.0786      9.1563     67.7404
  1039.2500      0.0000    717.9131      9.2103     70.0300
  1039.5000      0.0000    717.8665      9.2749     72.4886
  1039.7500      0.0000    717.9270      9.3320     74.7052
  1040.0000      0.0000    718.0750      9.3672     75.7603
  1040.2500      0.0000    718.2678      9.3717     75.5956
  1040.5000      0.0000    718.4530      9.3424     75.9931
  1040.7500      0.0000    718.5930      9.2887     79.5707
  1041.0000      0.0000    718.6754      9.2355     87.8087
  1041.2500      0.0000    718.7133      9.2133    100.2502
  1041.5000      0.0000    718.7552      9.2382    115.2606
  1041.7500      0.0000    718.9545      9.2984    130.8708
  1042.0000      0.0000    719.6705      9.3644    144.6895
  1042.2500      0.0000    721.5912      9.4112    153.8694
  1042.5000      0.0000    725.6802      9.4308    156.5945
  1042.7500      0.0000    732.7041      9.4276    154.1308
  1043.0000      0.0000    742.5802      9.4085    150.4249
  1043.2500      0.0000    754.3068      9.3755    148.7178
  1043.5000      0.0000    766.5552      9.3265    148.9443
  1043.7500      0.0000    778.0322      9.2614    148.9785
  1044.0000      0.0000    787.4544      9.1878    147.6564
  1044.2500      0.0000    793.8414      9.1228    145.7095
  1044.5000      0.0000    796.8961      9.0878    144.3353
  1044.7500      0.0000    796.5811      9.0993    143.8495
  1045.0000      0.0000    792.3169      9.1591    143.4619
  1045.2500      0.0000    783.2057      9.2519    141.8139
  1045.5000      0.0000    769.5392      9.3536    138.1322
  1045.7500      0.0000    753.9639      9.4415    133.1757
  1046.0000      0.0000    740.6189      9.4979    128.6833
  1046.2500      0.0000    733.0236      9.5127    125.8941
  1046.5000      0.0000    732.8187      9.4884    124.8981
  1046.7500      0.0000    739.7445      9.4430    125.1912
  1047.0000      0.0000    751.5359      9.4027    126.5695
  1047.2500      0.0000    764.0304      9.3892    129.3653
  1047.5000      0.0000    773.0772      9.4103    133.6152
  1047.7500      0.0000    777.2989      9.4595    138.1067
  1048.0000      0.0000    778.1935      9.5222    140.7157
  1048.2500      0.0000    777.0292      9.5848    139.8656
  1048.5000      0.0000    772.8902      9.6418    135.6889
  1048.7500      0.0000    764.8196      9.6948    129.8941
  1049.0000      0.0000    754.9286      9.7439    124.2688
  1049.2500      0.0000    747.7330      9.7821    119.0161
  1049.5000      0.0000    746.1774      9.8015    112.9686
  1049.7500      0.0000    748.9516      9.7956    105.7206
  1050.0000      0.0000    751.6613      9.7431     98.8518
  1050.2500      0.0000    750.0367      9.5898     94.6058
  1050.5000      0.0000    742.1062      9.2770     93.8441
  1050.7500      0.0000    728.5483      8.8230     95.5556
  1051.0000      0.0000    712.0163      8.3618     97.8557
  1051.2500      0.0000    696.2100      8.0553     99.1216
  1051.5000      0.0000    684.6975      7.9591     98.5427
  1051.7500      0.0000    678.8336      8.0091     96.2215
  1052.0000      0.0000    675.5601      8.1172     93.1147
  1052.2500      0.0000    668.7031      8.2317     90.6891
  1052.5000      0.0000    655.4138      8.3250     90.1591
  1052.7500      2.0000    641.9265      8.3841     91.8654
  1053.0000      0.0000    640.4447      8.4259     95.3498
  1053.2500      0.0000    657.5006      8.5071     99.7282
  1053.5000      0.0000    684.2421      8.7043    103.8034
  1053.7500      0.0000    698.9930      9.0501    106.2985
  1054.0000      0.0000    681.4952      9.4634    106.7298
  1054.2500      0.0000    627.5842      9.7810    106.0908
  1054.5000      0.0000    552.4867      9.9057    106.2100
  1054.7500      0.0000    480.1410      9.8920    108.3636
  1055.0000      0.0000    427.7556      9.8563    112.5058
  1055.2500      0.0000    398.6011      9.8544    117.4021
  1055.5000      0.0000    386.3257      9.8818    121.1800
  1055.7500      0.0000    383.2942      9.9417    122.1700
  1056.0000      0.0000    385.7603     10.0633    119.8868
  1056.2500      0.0000    395.3145     10.2641    115.4904
  1056.5000      0.0000    418.1577     10.5175    111.1723
  1056.7500      0.0000    461.3797     10.7614    108.8734
  1057.0000      0.0000    526.1973     10.9377    109.3226
  1057.2500      0.0000    603.3848     11.0287    111.8195
  1057.5000      0.0000    676.9161     11.0528    114.4721
  1057.7500      0.0000    733.5229     11.0299    114.9333
  1058.0000      0.0000    769.0123     10.9567    111.7980
  1058.2500      0.0000    786.8985     10.8213    105.7293
  1058.5000      0.0000    793.1146     10.6314     99.1696
  1058.7500      0.0000    792.0897     10.4187     94.9925
  1059.0000      0.0000    785.9729     10.2155     95.1058
  1059.2500      0.0000    775.7650     10.0347     99.3121
  1059.5000      0.0000    762.4130      9.8736    104.9624
  1059.7500      0.0000    747.2235      9.7310    108.4881
  1060.0000      0.0000    732.0293      9.6141    108.0860
  1060.2500      0.0000    718.9935      9.5293    104.8505
  1060.5000      0.0000    709.7272      9.4760    101.2580
  1060.7500      0.0000    705.0067      9.4493     99.0341
  1061.0000      0.0000    705.4506      9.4461     98.5499
  1061.2500      0.0000    711.0977      9.4613     99.6022
  1061.5000      0.0000    719.6424      9.4806    102.1266
  1061.7500      0.0000    726.6528      9.4814    106.0717
  1062.0000      0.0000    728.8719      9.4455    110.8982
  1062.2500      0.0000    726.7007      9.3710    115.6320
  1062.5000      0.0000    722.8539      9.2744    119.5820
  1062.7500      0.0000    719.4066      9.1829    122.7528
  1063.0000      0.0000    716.5099      9.1237    125.3590
  1063.2500      0.0000    713.0198      9.1103    127.0967
  1063.5000      0.0000    707.7021      9.1336    127.0849
  1063.7500      0.0000    700.2891      9.1649    124.6502
  1064.0000      0.0000    691.9594      9.1747    120.1209
  1064.2500      0.0000    684.7632      9.1540    114.7314
  1064.5000      0.0000    680.4846      9.1168    109.8418
  1064.7500      0.0000    680.0473      9.0853    106.3332
  1065.0000      0.0000    683.7421      9.0732    104.5975
  1065.2500      0.0000    691.5021      9.0825    104.8222
  1065.5000      0.0000    702.8261      9.1070    106.9398
