~Version Information
VERS.                      2.0: CWLS Log ASCII Standard - VERSION 2.0
WRAP.                       NO: One line per depth step
~Well Information Block
STRT.FT               555.0000: 
STOP.FT              1159.0000: 
STEP.FT                 0.2500: 
NULL.                -999.2500: 
COMP.          Pioneer Natural Resources: COMPANY
WELL.              Draco 31-21: WELL
FLD.           Purgatoire River: FIELD
LOC.           491' FNL & 2446' FEL: LOCATION
CNTY.               Las Animas: COUNTY
SRVC.                Patterson: SERVICE COMPANY
DATE.          Tue Jan 31 17:48:38 2006: LOG DATE
UWI.           05 071 08672 00: UNIQUE WELL ID
STAT.                 Colorado: STATE
~Curve Information Block
DEPT.FT            0 000 00 00: Depth
SN.Ohm-m                      : IEL Short Normal
SP.mV                         : IEL Spontaneous Potential
DIR.Ohm-m                     : IEL Induction Resistivity
GR.GAPI                       : Gamma Ray
~Parameter Information Block
~A  Depth        SN          SP         DIR          GR     
# ...
  1024.0000     22.4391     42.0883     22.9377     73.7233
  1024.2500     22.8249     42.0303     23.2082     73.0132
  1024.5000     23.1793     41.9940     23.5148     71.8920
  1024.7500     23.4829     42.0067     23.8444     71.1497
  1025.0000     23.7219     42.0817     24.1967     69.7811
  1025.2500     23.8857     42.2161     24.5640     68.5697
  1025.5000     23.9739     42.3979     24.9089     66.6032
  1025.7500     24.0623     42.6111     25.1670     65.5905
  1026.0000     24.2563     42.8328     25.2771     65.1345
  1026.2500     24.5155     43.0316     25.2155     65.7590
  1026.5000     24.6415     43.1817     25.0019     68.1649
  1026.7500     24.4738     43.2821     24.6783     70.5083
  1027.0000     24.0314     43.3580     24.2863     74.3980
  1027.2500     23.4884     43.4416     23.8607     76.9370
  1027.5000     23.0119     43.5482     23.4314     80.6250
  1027.7500     22.6334     43.6714     23.0230     83.0461
  1028.0000     22.3049     43.7925     22.6485     86.4709
  1028.2500     21.9727     43.8943     22.3063     88.4593
  1028.5000     21.5657     43.9692     21.9850     90.8790
  1028.7500     21.0590     44.0185     21.6730     92.1764
  1029.0000     20.5698     44.0450     21.3631     93.8908
  1029.2500     20.2224     44.0448     21.0528     94.9603
  1029.5000     19.9641     44.0061     20.7447     96.1038
  1029.7500     19.6644     43.9152     20.4497     96.0584
  1030.0000     19.3325     43.7661     20.1889     94.2394
  1030.2500     19.1106     43.5672     19.9891     92.2768
  1030.5000     19.0814     43.3419     19.8716     90.1693
  1030.7500     19.1824     43.1221     19.8434     90.5620
  1031.0000     19.3224     42.9372     19.8946     94.8494
  1031.2500     19.4994     42.8023     20.0060     99.8658
  1031.5000     19.7278     42.7112     20.1580    109.1457
  1031.7500     19.9350     42.6392     20.3400    115.6430
  1032.0000     20.0637     42.5551     20.5519    124.8243
  1032.2500     20.1764     42.4376     20.7982    130.0220
  1032.5000     20.3570     42.2887     21.0761    135.3266
  1032.7500     20.6355     42.1346     21.3675    136.6999
  1033.0000     21.0025     42.0138     21.6427    135.3858
  1033.2500     21.3867     41.9606     21.8774    132.5008
  1033.5000     21.7078     41.9893     22.0677    125.6446
  1033.7500     21.9973     42.0893     22.2301    119.7248
  1034.0000     22.3467     42.2308     22.3870    109.8934
  1034.2500     22.7714     42.3795     22.5515    103.5463
  1034.5000     23.2167     42.5080     22.7242     95.2892
  1034.7500     23.6281     42.5961     22.8984     90.5587
  1035.0000     23.9935     42.6305     23.0658     84.1168
  1035.2500     24.3278     42.6096     23.2150     80.4846
  1035.5000     24.5702     42.5496     23.3253     77.5829
  1035.7500     24.5834     42.4805     23.3685     78.1523
  1036.0000     24.3584     42.4322     23.3237     82.3775
  1036.2500     24.0706     42.4231     23.1930     86.1224
  1036.5000     23.8552     42.4562     23.0028     90.2981
  1036.7500     23.6900     42.5249     22.7880     91.0028
  1037.0000     23.4681     42.6212     22.5726     88.7435
  1037.2500     23.1043     42.7378     22.3647     85.7178
  1037.5000     22.6572     42.8635     22.1630     80.6023
  1037.7500     22.3305     42.9779     21.9670     77.7936
  1038.0000     22.2377     43.0528     21.7822     75.8005
  1038.2500     22.2202     43.0644     21.6173     76.2363
  1038.5000     22.0316     43.0073     21.4809     78.9336
  1038.7500     21.6362     42.9001     21.3812     81.3390
  1039.0000     21.2191     42.7780     21.3263     84.5781
  1039.2500     20.9753     42.6764     21.3194     85.9533
  1039.5000     20.9578     42.6158     21.3530     86.2866
  1039.7500     21.0776     42.5981     21.4081     85.2714
  1040.0000     21.2275     42.6143     21.4641     82.5493
  1040.2500     21.3643     42.6543     21.5141     80.9314
  1040.5000     21.4604     42.7090     21.5724     80.6947
  1040.7500     21.5196     42.7676     21.6680     82.2598
  1041.0000     21.6003     42.8160     21.8271     85.4966
  1041.2500     21.7056     42.8410     22.0572     86.7597
  1041.5000     21.7900     42.8375     22.3439     85.9433
  1041.7500     21.8851     42.8126     22.6619     83.9494
  1042.0000     22.0555     42.7814     22.9901     80.7511
  1042.2500     22.2904     42.7589     23.3125     79.6212
  1042.5000     22.5237     42.7568     23.6036     80.0467
  1042.7500     22.6691     42.7852     23.8218     81.2025
  1043.0000     22.6514     42.8505     23.9247     82.7376
  1043.2500     22.4814     42.9445     23.8975     83.0077
  1043.5000     22.2482     43.0374     23.7659     82.1763
  1043.7500     22.0295     43.0902     23.5784     81.3530
  1044.0000     21.8619     43.0863     23.3757     81.3996
  1044.2500     21.7479     43.0473     23.1727     83.1360
  1044.5000     21.6653     43.0137     22.9643     88.2583
  1044.7500     21.6207     43.0130     22.7469     92.2693
  1045.0000     21.6359     43.0474     22.5324     96.6684
  1045.2500     21.6460     43.1083     22.3438     97.6562
  1045.5000     21.5349     43.1889     22.1998     96.6769
  1045.7500     21.3007     43.2845     22.1022     95.3796
  1046.0000     21.0668     43.3893     22.0339     93.7504
  1046.2500     20.9494     43.5002     21.9664     92.8327
  1046.5000     20.9765     43.6162     21.8735     90.7960
  1046.7500     21.0774     43.7285     21.7460     88.6744
  1047.0000     21.1480     43.8132     21.5984     84.8297
  1047.2500     21.1681     43.8383     21.4596     82.5688
  1047.5000     21.1959     43.7823     21.3542     81.0444
  1047.7500     21.2320     43.6494     21.2877     81.8534
  1048.0000     21.1891     43.4732     21.2456     85.8289
  1048.2500     21.0243     43.3058     21.2053     89.5822
  1048.5000     20.7892     43.1954     21.1497     94.7861
  1048.7500     20.5468     43.1684     21.0727     97.0408
  1049.0000     20.3964     43.2249     20.9748     98.5683
  1049.2500     20.4781     43.3433     20.8582     98.9911
  1049.5000     20.7796     43.4894     20.7304     99.5984
  1049.7500     21.0747     43.6277     20.6110     99.9956
  1050.0000     21.1551     43.7324     20.5325    100.2432
  1050.2500     21.0484     43.7945     20.5258    100.1736
  1050.5000     20.9616     43.8232     20.6008    100.2519
  1050.7500     21.0304     43.8399     20.7367    100.8097
  1051.0000     21.1668     43.8698     20.8881    102.4679
  1051.2500     21.1879     43.9301     21.0051    103.6957
  1051.5000     21.0374     44.0207     21.0558    104.8645
  1051.7500     20.8193     44.1225     21.0385    105.0935
  1052.0000     20.6657     44.2058     20.9780    105.1529
  1052.2500     20.6321     44.2451     20.9098    105.3178
  1052.5000     20.6842     44.2275     20.8638    105.6116
  1052.7500     20.7270     44.1551     20.8526    105.4062
  1053.0000     20.6985     44.0412     20.8691    103.7998
  1053.2500     20.6376     43.9040     20.8907    101.7593
  1053.5000     20.5842     43.7611     20.8905     97.6659
  1053.7500     20.4865     43.6262     20.8514     94.7779
  1054.0000     20.3239     43.5084     20.7773     91.3283
  1054.2500     20.2028     43.4137     20.6966     90.0232
  1054.5000     20.2240     43.3442     20.6564     89.0403
  1054.7500     20.3882     43.2964     20.7113     88.1272
  1055.0000     20.6475     43.2611     20.9037     85.3275
  1055.2500     20.9298     43.2251     21.2434     82.9528
  1055.5000     21.1551     43.1739     21.6977     80.5667
  1055.7500     21.3106     43.0953     22.2044     80.4019
  1056.0000     21.4582     42.9837     22.7013     81.4533
  1056.2500     21.6591     42.8453     23.1492     81.9884
  1056.5000     21.9516     42.6989     23.5291     81.5598
  1056.7500     22.3595     42.5711     23.8244     80.5988
  1057.0000     22.8666     42.4860     24.0155     78.9322
  1057.2500     23.3918     42.4560     24.0945     77.9779
