~Version Information
VERS.                      2.0: CWLS Log ASCII Standard - VERSION 2.0
WRAP.                       NO: One line per depth step
~Well Information Block
STRT.FT               660.0000: 
STOP.FT              2488.5000: 
STEP.FT                 0.1000: 
NULL.                -999.2500: 
COMP.          Petrogulf Corporation: COMPANY
WELL.          Montoya 18-11V-B: WELL
FLD.           Purgatorie River: FIELD
LOC.           848' FNL & 619' FWL: LOCATION
PROV.                 Colorado: PROVINCE
CNTY.               Las Animas: COUNTRY
SRVC.                Patterson: SERVICE COMPANY
DATE.          Wed Oct 05 07:28:13 2005: LOG DATE
UWI.                          : UNIQUE WELL ID
~Curve Information Block
DEPT.FT            0 000 00 00: Depth
DCAL.in                       : CDL Caliper
RHOB.g/cc                     : CDL Bulk Density
RHOC.g/cc                     : CDL Density Correction
DPOR.pu                       : CDL Density Porosity
GR.GAPI                       : Gamma Ray
NPOR.pu                       : Neutron Porosity
~Parameter Information Block
~A  Depth       DCAL        RHOB        RHOC        DPOR         GR         NPOR    
# ...
   784.8000      8.5438      2.5801     -0.0254      4.2389    155.5994     26.6271
   784.9000      8.5438      2.6070     -0.0135      2.6068    155.4880     26.5334
   785.0000      8.5457      2.6390      0.0791      0.6678    156.3496     26.3562
   785.1000      8.5457      2.6446      0.0674      0.3261    157.7798     26.2927
   785.2000      8.5457      2.6159      0.0322      2.0669    159.9323     26.3635
   785.3000      8.5342      2.5715      0.0159      4.7558    161.3815     26.3832
   785.4000      8.5342      2.5338     -0.0335      7.0439    162.5832     26.2910
   785.5000      8.5421      2.5133     -0.0551      8.2829    162.9071     26.1404
   785.6000      8.5421      2.5067     -0.0529      8.6831    161.2798     25.8888
   785.7000      8.5421      2.5011     -0.0229      9.0272    162.1757     25.6720
   785.8000      8.5390      2.4940     -0.0415      9.4558    165.7712     25.7869
   785.9000      8.5390      2.5028     -0.0338      8.9201    167.6230     26.1172
   786.0000      8.5367      2.5247      0.0429      7.5969    168.0942     26.2136
   786.1000      8.5367      2.5281      0.0486      7.3866    167.5692     25.9138
   786.2000      8.5367      2.5049      0.0313      8.7949    165.9500     25.5218
   786.3000      8.5464      2.4775     -0.0052     10.4535    167.0415     25.1909
   786.4000      8.5464      2.4651     -0.0038     11.2082    171.9062     24.8189
   786.5000      8.5447      2.4685      0.0017     11.0027    175.1824     24.4160
   786.6000      8.5447      2.4806      0.0091     10.2667    174.9609     23.9395
   786.7000      8.5447      2.4945      0.0132      9.4261    173.8876     23.1787
   786.8000      8.5446      2.5021      0.0373      8.9607    172.3163     22.1176
   786.9000      8.5446      2.4985      0.0251      9.1794    170.4480     21.1084
   787.0000      8.6289      2.4851      0.0209      9.9915    169.9135     20.4498
   787.1000      8.6289      2.4686      0.0424     10.9911    171.2855     20.2271
   787.2000      8.6289      2.4583      0.0410     11.6207    173.2871     20.3765
   787.3000      8.8291      2.4526      0.0783     11.9616    174.8892     20.6832
   787.4000      8.8291      2.4411      0.0408     12.6615    175.8879     21.0031
   787.5000      8.5504      2.4260      0.0355     13.5729    175.6227     21.3986
   787.6000      8.5504      2.4156      0.0429     14.2040    174.9691     22.0376
   787.7000      8.5504      2.4038      0.0529     14.9235    175.8053     22.8458
   787.8000      8.4479      2.3846      0.0458     16.0869    177.5531     23.4264
   787.9000      8.4479      2.3674      0.0558     17.1243    177.0867     23.5743
   788.0000      8.4342      2.3572      0.0141     17.7452    173.9072     23.5083
   788.1000      8.4342      2.3444      0.0154     18.5204    172.3380     23.4731
   788.2000      8.4342      2.3303     -0.0117     19.3731    174.3015     23.4424
   788.3000      8.4325      2.3293      0.0165     19.4339    174.6885     23.3174
   788.4000      8.4325      2.3424      0.0525     18.6415    169.3159     23.1408
   788.5000      8.4318      2.3603      0.0990     17.5551    162.6046     22.8889
   788.6000      8.4318      2.3845      0.0931     16.0933    161.6585     22.5031
   788.7000      8.4318      2.4155      0.1541     14.2144    166.5666     22.1523
   788.8000      8.4285      2.4434      0.1486     12.5208    172.4703     22.1493
   788.9000      8.4285      2.4626      0.1927     11.3573    176.1774     22.6405
   789.0000      8.4320      2.4659      0.2110     11.1604    178.5045     23.1900
   789.1000      8.4320      2.4444      0.1277     12.4598    180.0782     23.3239
   789.2000      8.4320      2.4123      0.0471     14.4069    179.9550     23.2583
   789.3000      8.4173      2.3932      0.0310     15.5613    179.9242     23.4587
   789.4000      8.4173      2.3833      0.0054     16.1629    179.8908     23.9740
   789.5000      8.4149      2.3581      0.0321     17.6885    178.0195     24.4495
   789.6000      8.4149      2.3093     -0.0297     20.6483    176.3845     24.5457
   789.7000      8.4149      2.2573     -0.0623     23.8000    176.9008     24.2900
   789.8000      8.4118      2.2242     -0.0475     25.8047    176.7184     24.0898
   789.9000      8.4118      2.2139     -0.0135     26.4299    174.2897     24.2287
   790.0000      8.4061      2.2250      0.0247     25.7549    172.6516     24.5074
   790.1000      8.4061      2.2624      0.0146     23.4889    173.8047     24.5486
   790.2000      8.4061      2.3230      0.0862     19.8186    176.1383     24.3039
   790.3000      8.4234      2.3794      0.1232     16.3979    177.3877     23.8972
   790.4000      8.4234      2.4074      0.1145     14.7008    176.9804     23.2937
   790.5000      8.3992      2.4211      0.1199     13.8697    175.6515     22.6041
   790.6000      8.3992      2.4467      0.1955     12.3219    175.2568     22.1526
   790.7000      8.3992      2.4859      0.2775      9.9472    177.4918     22.1437
   790.8000      8.3827      2.5295      0.2312      7.3055    182.2170     22.5121
   790.9000      8.3827      2.5728      0.2757      4.6764    186.7462     22.8960
   791.0000      8.3931      2.6078      0.2377      2.5569    187.6448     22.9790
   791.1000      8.3931      2.6256      0.2452      1.4762    183.2206     22.9574
   791.2000      8.3931      2.6304      0.2191      1.1875    177.1838     23.2855
   791.3000      8.3077      2.6367      0.2299      0.8060    177.1653     24.0273
   791.4000      8.3077      2.6446      0.2465      0.3301    184.8813     24.8216
   791.5000      8.3033      2.6413      0.1790      0.5249    193.0225     25.4783
   791.6000      8.3033      2.6277      0.1164      1.3503    194.8348     26.1252
   791.7000      8.3033      2.6154      0.0419      2.0958    193.9535     26.7700
   791.8000      8.2919      2.6186      0.0088      1.9051    193.4211     27.2107
   791.9000      8.2919      2.6492      0.0209      0.0496    187.4027     27.3944
   792.0000      8.2806      2.7040      0.0448     -3.2706    176.9007     27.5662
   792.1000      8.2806      2.7597      0.0331     -6.6485    169.7978     27.9867
   792.2000      8.2806      2.7939      0.0335     -8.7223    167.4680     28.5975
   792.3000      8.2760      2.8189      0.0057    -10.2386    166.2971     29.0824
   792.4000      8.2760      2.8709      0.0053    -13.3884    164.3723     29.5000
   792.5000      8.2733      2.9470      0.0743    -17.9998    162.6726     30.1760
   792.6000      8.2733      3.0052      0.0467    -21.5247    159.4155     30.9462
   792.7000      8.2733      3.0244     -0.0113    -22.6914    154.2343     31.3862
   792.8000      8.2715      3.0087     -0.0119    -21.7408    152.3975     31.5452
   792.9000      8.2715      2.9649     -0.0339    -19.0831    155.1605     31.6851
   793.0000      8.2663      2.9055     -0.0944    -15.4818    157.4814     31.6743
   793.1000      8.2663      2.8396     -0.0621    -11.4911    157.2880     31.2877
   793.2000      8.2663      2.7636     -0.0662     -6.8840    157.9933     30.5721
   793.3000      8.2591      2.6874     -0.1236     -2.2661    161.0692     29.6717
   793.4000      8.2591      2.6337     -0.1351      0.9871    163.8526     28.7564
   793.5000      8.2555      2.6043     -0.0628      2.7667    163.8227     27.9682
   793.6000      8.2555      2.5770     -0.0165      4.4241    162.1681     27.3780
   793.7000      8.2555      2.5435     -0.0676      6.4548    163.2954     26.9729
   793.8000      8.2571      2.5149      0.0134      8.1855    169.2852     26.6951
   793.9000      8.2571      2.4930     -0.0142      9.5176    176.8226     26.4091
   794.0000      8.2580      2.4796     -0.0001     10.3274    180.5202     26.0059
   794.1000      8.2580      2.4839     -0.0328     10.0638    179.1823     25.5281
   794.2000      8.2580      2.5020      0.0581      8.9703    175.2222     25.1695
   794.3000      8.2615      2.5184      0.0317      7.9760    170.4008     25.1333
