~Version Information
VERS.                      2.0: CWLS Log ASCII Standard - VERSION 2.0
WRAP.                       NO: One line per depth step
~Well Information Block
STRT.FT                -6.7500: 
STOP.FT              1121.2500: 
STEP.FT                 0.2500: 
NULL.                -999.2500: 
COMP.          Pioneer Natural Resources: COMPANY
WELL.              Draco 31-21: WELL
FLD.           Purgatorie River: FIELD
LOC.           491' FNL & 2446' FEL--: LOCATION
CNTY.               Las Animas: COUNTY
SRVC.          Patterson Wireline: SERVICE COMPANY
DATE.          Mon Feb 06 09:50:04 2006: LOG DATE
UWI.           05 071 08672 00: UNIQUE WELL ID
STAT.                       CO: STATE
~Curve Information Block
DEPT.FT            0 000 00 00: Depth
CCL.                          : Casing Collar Locator
TT3.usec                      : CBL 3' Travel Time
AMP3.mV                       : CBL 3' Amplitude
GR.GAPI                       : Gamma Ray
~Parameter Information Block
~A  Depth       CCL         TT3         AMP3         GR     
# ...
  1031.7500      0.0000    587.9473      4.9790    103.9577
  1032.0000      0.0000    588.1779      5.0332    106.6048
  1032.2500      0.0000    588.7363      5.0677    106.1976
  1032.5000      0.0000    590.2250      5.0710    104.0902
  1032.7500      0.0000    593.3175      5.0456    102.8212
  1033.0000      0.0000    597.9211      5.0028    103.8299
  1033.2500      0.0000    602.3761      4.9532    106.1068
  1033.5000      0.0000    603.7576      4.9015    106.8726
  1033.7500      0.0000    599.5013      4.8517    103.8693
  1034.0000      0.0000    589.5110      4.8130     97.4163
  1034.2500      0.0000    577.1241      4.7989     90.2511
  1034.5000      0.0000    567.5576      4.8165     85.1667
  1034.7500      0.0000    564.2504      4.8560     82.8028
  1035.0000      0.0000    566.1620      4.8922     81.6656
  1035.2500      0.0000    568.9325      4.9033     80.0674
  1035.5000      0.0000    569.2557      4.8890     77.8397
  1035.7500      0.0000    568.3897      4.8688     76.0533
  1036.0000      0.0000    570.5934      4.8628     75.2870
  1036.2500      0.0000    577.2186      4.8758     74.7466
  1036.5000      0.0000    583.5251      4.8985     73.2931
  1036.7500      0.0000    583.5309      4.9199     70.8556
  1037.0000      0.0000    577.6132      4.9353     68.4119
  1037.2500      0.0000    572.9301      4.9438     66.8340
  1037.5000      0.0000    575.9947      4.9423     66.2115
  1037.7500      0.0000    586.5547      4.9241     66.3096
  1038.0000      0.0000    598.9224      4.8841     67.3066
  1038.2500      0.0000    607.4300      4.8253     69.7355
  1038.5000      0.0000    610.0773      4.7620     73.6779
  1038.7500      0.0000    608.7287      4.7137     78.1487
  1039.0000      0.0000    607.4373      4.6938     81.4626
  1039.2500      0.0000    609.7756      4.7022     82.4671
  1039.5000      0.0000    615.9122      4.7257     81.4628
  1039.7500      0.0000    621.5938      4.7488     79.8234
  1040.0000      0.0000    620.7060      4.7636     78.8539
  1040.2500      0.0000    609.7418      4.7720     79.1409
  1040.5000      0.0000    590.3698      4.7759     80.6398
  1040.7500      0.0000    568.2067      4.7694     82.9733
  1041.0000      0.0000    549.1668      4.7411     85.5722
  1041.2500      0.0000    536.3171      4.6856     87.7299
  1041.5000      0.0000    529.2906      4.6134     88.7458
  1041.7500      0.0000    525.9280      4.5485     88.2382
  1042.0000      0.0000    524.1528      4.5165     86.4294
  1042.2500      0.0000    522.6882      4.5301     84.0492
  1042.5000      0.0000    520.8937      4.5817     81.7702
  1042.7500      0.0000    518.7183      4.6516     79.6814
  1043.0000      0.0000    516.9513      4.7223     77.5801
  1043.2500      0.0000    516.9942      4.7841     75.8559
  1043.5000      0.0000    519.7766      4.8285     75.6774
  1043.7500      0.0000    524.7758      4.8419     77.9184
  1044.0000      0.0000    530.3502      4.8101     81.9527
  1044.2500      0.0000    535.3376      4.7254     85.7902
  1044.5000      0.0000    540.5398      4.5908     87.5807
  1044.7500      0.0000    548.2412      4.4293     87.1065
  1045.0000      0.0000    559.7410      4.2853     85.8960
  1045.2500      0.0000    573.6382      4.1948     85.8661
  1045.5000      0.0000    587.3276      4.1444     87.5476
  1045.7500      0.0000    599.5040      4.0850     89.4183
  1046.0000      0.0000    609.5573      4.0023     89.1102
  1046.2500      0.0000    614.9152      3.9498     85.5543
  1046.5000      0.0000    611.7048      3.9872     80.0425
  1046.7500      0.0000    599.9056      4.1058     75.1728
  1047.0000      0.0000    586.5117      4.2313     72.8131
  1047.2500      0.0000    581.5815      4.2858     73.1392
  1047.5000      0.0000    590.6575      4.2441     75.3446
  1047.7500      0.0000    611.0466      4.1490     78.5979
  1048.0000      0.0000    634.7112      4.0732     82.0755
  1048.2500      0.0000    653.5447      4.0439     84.8558
  1048.5000      0.0000    661.8461      4.0164     86.6387
  1048.7500      0.0000    655.8516      3.9573     88.1886
  1049.0000      0.0000    633.6416      3.9248     90.2086
  1049.2500      0.0000    596.7612      4.0139     92.1177
  1049.5000      0.0000    552.1056      4.2389     92.7304
  1049.7500      0.0000    510.7590      4.5152     91.9011
  1050.0000      0.0000    482.0972      4.7452     90.8263
  1050.2500      0.0000    467.3830      4.8898     90.8647
  1050.5000      0.0000    460.0823      4.9655     92.5228
  1050.7500      0.0000    453.1449      5.0033     95.4541
  1051.0000      0.0000    444.7572      5.0201     98.9416
  1051.2500      0.0000    437.1862      5.0187    102.1417
  1051.5000      0.0000    432.4606      5.0010    104.0186
  1051.7500      0.0000    430.6075      4.9748    103.5415
  1052.0000      0.0000    430.8123      4.9496    100.4443
  1052.2500      0.0000    432.8810      4.9309     95.8508
  1052.5000      0.0000    437.4231      4.9182     91.8032
  1052.7500      0.0000    444.6884      4.9090     89.9834
  1053.0000      0.0000    452.9785      4.9001     90.9481
  1053.2500      0.0000    458.2903      4.8864     94.2712
  1053.5000      0.0000    456.3167      4.8610     98.8182
  1053.7500      0.0000    445.5730      4.8196    102.9663
  1054.0000      0.0000    428.9481      4.7654    105.1679
  1054.2500      0.0000    411.9905      4.7083    104.6021
  1054.5000      0.0000    399.2242      4.6580    101.3550
  1054.7500      0.0000    391.8205      4.6201     96.2767
  1055.0000      0.0000    388.3095      4.5946     90.8036
  1055.2500      0.0000    386.7220      4.5804     86.6234
  1055.5000      0.0000    386.0735      4.5792     85.0710
  1055.7500      0.0000    386.9948      4.5963     86.4270
  1056.0000      0.0000    392.2936      4.6360     89.5777
  1056.2500      0.0000    407.1852      4.6929     92.5892
  1056.5000      0.0000    437.3537      4.7476     93.8976
  1056.7500      0.0000    484.2165      4.7761     92.9353
  1057.0000      0.0000    540.9340      4.7660     89.9008
  1057.2500      0.0000    594.3593      4.7248     85.5787
  1057.5000      0.0000    632.6029      4.6739     81.3523
  1057.7500      0.0000    651.7177      4.6340     78.6468
  1058.0000      0.0000    656.2852      4.6158     78.1653
  1058.2500      0.0000    654.4388      4.6201     79.9970
  1058.5000      0.0000    651.5302      4.6427     84.1008
  1058.7500      0.0000    647.2343      4.6764     89.8363
  1059.0000      0.0000    638.1163      4.7109     95.1552
  1059.2500      0.0000    622.7187      4.7351     97.5084
  1059.5000      0.0000    604.0582      4.7418     96.1546
  1059.7500      0.0000    587.4611      4.7323     93.0015
  1060.0000      0.0000    576.5438      4.7139     90.8200
  1060.2500      0.0000    571.4250      4.6944     91.0447
  1060.5000      0.0000    570.0432      4.6770     93.2603
  1060.7500      0.0000    570.2773      4.6599     96.0357
  1061.0000      0.0000    570.9162      4.6400     97.9291
  1061.2500      0.0000    571.5112      4.6167     98.2415
  1061.5000      0.0000    571.9780      4.5930     97.4607
  1061.7500      0.0000    572.3641      4.5726     96.9505
  1062.0000      0.0000    572.7608      4.5569     97.7838
  1062.2500      0.0000    573.2559      4.5431     99.7456
  1062.5000      0.0000    573.8862      4.5279    101.6251
  1062.7500      0.0000    574.6305      4.5114    102.3326
  1063.0000      0.0000    575.4485      4.4980    101.5281
  1063.2500      0.0000    576.3164      4.4923     99.6359
  1063.5000      0.0000    577.2036      4.4948     97.7708
  1063.7500      0.0000    578.0170      4.5015     97.2114
  1064.0000      0.0000    578.6043      4.5079     98.3640
  1064.2500      0.0000    578.8506      4.5115    100.4892
  1064.5000      0.0000    578.7734      4.5122    102.5420
  1064.7500      0.0000    578.5132      4.5111    103.8731
  1065.0000      0.0000    578.2432      4.5103    104.2079
