~Version Information
VERS.                      2.0: CWLS Log ASCII Standard - VERSION 2.0
WRAP.                       NO: One line per depth step
~Well Information Block
STRT.FT               580.0000: 
STOP.FT              1029.0000: 
STEP.FT                 0.1000: 
NULL.                -999.2500: 
COMP.          Pioneer Natural Resources: COMPANY
WELL.             Quartz 13-22: WELL
FLD.           Purgatoire River: FIELD
LOC.           1933' FSL & 675' FWL: LOCATION
PROV.                 Colorado: PROVINCE
CNTY.               Las Animas: COUNTRY
SRVC.                Patterson: SERVICE COMPANY
DATE.          Fri Dec 16 10:30:09 2005: LOG DATE
UWI.           05 071 08638 00: UNIQUE WELL ID
~Curve Information Block
DEPT.FT            0 000 00 00: Depth
DCAL.in                       : CDL Caliper
RHOB.g/cc                     : CDL Bulk Density
RHOC.g/cc                     : CDL Density Correction
DPOR.pu                       : CDL Density Porosity
GR.GAPI                       : Gamma Ray
NPOR.pu                       : Neutron Porosity
~Parameter Information Block
~A  Depth       DCAL        RHOB        RHOC        DPOR         GR         NPOR    
# ...
   608.8000     10.9376      2.5267      0.1966      7.4716    116.6490     19.2949
   608.9000     10.9376      2.5936      0.3058      3.4195    122.5934     20.9547
   609.0000     10.7273      2.6144      0.3305      2.1605    123.7094     22.5834
   609.1000     10.7273      2.5952      0.2809      3.3211    121.2513     23.9814
   609.2000     10.7273      2.5695      0.2588      4.8814    118.7506     25.0611
   609.3000     10.5999      2.5612      0.2015      5.3846    118.2859     25.6189
   609.4000     10.5999      2.5766      0.1743      4.4461    118.8524     25.8602
   609.5000     10.2774      2.6049      0.1502      2.7360    120.8350     26.2303
   609.6000     10.2774      2.6229      0.1649      1.6394    125.6813     26.7085
   609.7000     10.2774      2.6141      0.1489      2.1736    132.7239     27.0363
   609.8000      8.5294      2.5788      0.1383      4.3164    139.0144     27.0991
   609.9000      8.5294      2.5260      0.0873      7.5158    138.8831     26.8283
   610.0000      8.0635      2.4718     -0.0018     10.7981    130.5978     26.1247
   610.1000      8.0635      2.4362      0.0295     12.9584    120.8009     25.1055
   610.2000      8.0635      2.4210      0.0584     13.8812    115.9650     24.2265
   610.3000      8.0607      2.4162      0.0285     14.1687    116.0561     23.6950
   610.4000      8.0607      2.4152      0.0362     14.2326    118.0071     23.1988
   610.5000      8.0987      2.4177      0.0323     14.0784    115.0592     22.7044
   610.6000      8.0987      2.4313      0.0424     13.2559    107.2264     22.4858
   610.7000      8.0987      2.4544      0.0624     11.8536    104.4345     22.5941
   610.8000      8.1608      2.4702      0.1109     10.8980    107.3232     22.9054
   610.9000      8.1608      2.4719      0.0718     10.7949    109.8573     23.2614
   611.0000      8.0682      2.4709      0.0866     10.8560    112.6113     23.4697
   611.1000      8.0682      2.4763      0.0866     10.5273    118.9184     23.3659
   611.2000      8.0682      2.4874      0.1107      9.8532    127.4396     22.8726
   611.3000      8.0280      2.4980      0.0605      9.2126    132.7269     22.1551
   611.4000      8.0280      2.4990      0.1376      9.1494    132.3130     21.4932
   611.5000      8.0747      2.4865      0.1104      9.9110    129.0890     21.0945
   611.6000      8.0747      2.4663      0.1390     11.1315    125.0475     20.8299
   611.7000      8.0747      2.4383      0.0936     12.8308    120.7171     20.1638
   611.8000      8.0667      2.3980      0.0738     15.2731    117.5233     18.9466
   611.9000      8.0667      2.3455      0.0807     18.4517    115.6894     18.0361
   612.0000      8.0828      2.2828      0.0662     22.2522    114.8020     18.2019
   612.1000      8.0828      2.2220      0.0317     25.9406    116.6223     19.1475
   612.2000      8.0828      2.1845      0.0187     28.2122    122.0939     20.0951
   612.3000      8.0772      2.1733      0.0944     28.8881    127.0722     20.7418
   612.4000      8.0772      2.1682      0.1358     29.2021    126.5816     21.3248
   612.5000      8.1538      2.1600      0.1343     29.6949    121.4250     22.0054
   612.6000      8.1538      2.1640      0.1344     29.4522    115.2690     22.7149
   612.7000      8.1538      2.1951      0.1822     27.5727    113.3533     23.4773
   612.8000      8.1928      2.2512      0.2122     24.1672    117.8961     24.1686
   612.9000      8.1928      2.3194      0.1910     20.0354    122.5358     24.4724
   613.0000      8.1912      2.3758      0.1929     16.6166    121.6419     24.3860
   613.1000      8.1912      2.4047      0.0567     14.8669    119.1474     24.3328
   613.2000      8.1912      2.4164      0.0963     14.1603    120.5600     24.6566
   613.3000      8.0824      2.4251      0.0527     13.6308    122.9933     25.1939
   613.4000      8.0824      2.4412      0.0682     12.6533    123.0366     25.4904
   613.5000      8.0647      2.4613      0.0940     11.4376    123.9300     25.5223
   613.6000      8.0647      2.4687      0.0535     10.9859    126.7606     25.5061
   613.7000      8.0647      2.4636      0.0313     11.2988    128.2961     25.3644
   613.8000      8.0520      2.4580      0.0590     11.6361    129.5960     25.2473
   613.9000      8.0520      2.4548      0.0679     11.8285    132.7548     25.5404
   614.0000      8.0813      2.4616      0.0344     11.4175    133.1745     26.2051
   614.1000      8.0813      2.4887      0.0929      9.7750    127.1668     26.8119
   614.2000      8.0813      2.5212      0.1111      7.8086    119.5141     27.1180
   614.3000      8.0668      2.5360      0.1000      6.9092    118.0929     26.9168
   614.4000      8.0668      2.5325      0.1116      7.1223    122.2856     26.3745
   614.5000      8.0176      2.5301      0.0180      7.2688    124.0901     26.1379
   614.6000      8.0176      2.5423      0.0600      6.5251    122.6174     26.3628
   614.7000      8.0176      2.5512      0.0945      5.9867    124.2531     26.4821
   614.8000      8.0221      2.5394      0.0479      6.7017    127.7286     26.1890
   614.9000      8.0221      2.5223      0.0155      7.7396    126.4432     25.8349
   615.0000      8.0160      2.5187      0.0031      7.9568    121.5944     25.5862
   615.1000      8.0160      2.5296      0.0235      7.2973    118.8977     25.4285
   615.2000      8.0160      2.5513      0.0076      5.9788    115.5340     25.3641
   615.3000      8.0033      2.5866      0.0196      3.8423    104.7746     25.1695
   615.4000      8.0033      2.6224      0.0893      1.6732     91.5213     24.6911
   615.5000      7.9920      2.6331      0.0552      1.0244     86.0677     24.3383
   615.6000      7.9920      2.6252      0.0221      1.5028     90.0468     24.4788
   615.7000      7.9920      2.6205      0.0628      1.7860     96.7625     24.7214
   615.8000      7.9952      2.6170      0.0452      1.9993     98.8446     24.5816
   615.9000      7.9952      2.6080      0.0362      2.5477     95.1175     24.2765
   616.0000      7.9941      2.5994      0.0270      3.0649     91.5959     24.0124
   616.1000      7.9941      2.5917      0.0281      3.5303     92.6806     23.5219
   616.2000      7.9941      2.5750      0.0547      4.5479     95.5968     22.9486
   616.3000      7.9623      2.5548     -0.0201      5.7696     96.7382     22.7590
   616.4000      7.9623      2.5531     -0.0206      5.8752     98.5789     22.8819
   616.5000      7.9412      2.5686      0.0744      4.9325    104.2547     22.9325
   616.6000      7.9412      2.5777      0.0617      4.3809    108.9236     22.9259
   616.7000      7.9412      2.5755      0.0356      4.5161    107.6054     23.1066
   616.8000      7.9583      2.5751      0.0546      4.5369    102.7774     23.6367
   616.9000      7.9583      2.5827      0.0555      4.0807     98.6217     24.5652
   617.0000      7.9719      2.5914      0.0463      3.5528     96.0724     25.5430
   617.1000      7.9719      2.5945      0.0508      3.3618     93.2946     26.1133
   617.2000      7.9719      2.5985      0.0482      3.1211     90.2258     26.3270
   617.3000      7.9594      2.6168      0.0740      2.0144     87.7790     26.4384
   617.4000      7.9594      2.6481      0.0849      0.1177     86.6179     26.4471
   617.5000      7.9245      2.6745      0.0860     -1.4833     84.3888     26.3266
   617.6000      7.9245      2.6953     -0.0266     -2.7443     78.1315     26.0638
   617.7000      7.9245      2.7195      0.0738     -4.2127     72.1417     25.4561
   617.8000      7.9525      2.7292      0.0512     -4.7991     70.5722     24.7177
   617.9000      7.9525      2.7091      0.0475     -3.5823     69.9840     24.3500
   618.0000      7.9592      2.6693      0.0044     -1.1693     69.6940     24.3051
   618.1000      7.9592      2.6265     -0.0434      1.4251     70.6777     24.2846
   618.2000      7.9592      2.5911     -0.0653      3.5698     70.0567     24.2009
   618.3000      7.9580      2.5668     -0.0799      5.0419     66.5664     24.0331
