~Version Information
VERS.                      2.0: CWLS Log ASCII Standard - VERSION 2.0
WRAP.                       NO: One line per depth step
~Well Information Block
STRT.FT                -8.2500: 
STOP.FT              1729.7500: 
STEP.FT                 0.2500: 
NULL.                -999.2500: 
COMP.          Pioneer Natural Resources: COMPANY
WELL.            Dude 43-34 Tr: WELL
FLD.           Purgatorie River: FIELD
LOC.           2083' FSL & 1042' FEL--: LOCATION
PROV.                       CO: PROVINCE
CNTY.               Las Animas: COUNTRY
SRVC.          Patterson Wireline: SERVICE COMPANY
DATE.          Tue Jan 31 09:23:54 2006: LOG DATE
UWI.           05 071 08676 00: UNIQUE WELL ID
~Curve Information Block
DEPT.FT            0 000 00 00: Depth
CCL.                          : Casing Collar Locator
TT3.usec                      : CBL 3' Travel Time
AMP3.mV                       : CBL 3' Amplitude
GR.GAPI                       : Gamma Ray
~Parameter Information Block
~A  Depth       CCL         TT3         AMP3         GR     
# ...
   896.2500      0.0000    693.3907      5.9248    107.0247
   896.5000      0.0000    692.5929      6.0710    100.9247
   896.7500      0.0000    686.7942      6.2094     96.7340
   897.0000      0.0000    674.2783      6.3360     95.2465
   897.2500      0.0000    656.3918      6.4452     95.1174
   897.5000      0.0000    639.6018      6.5322     94.2618
   897.7500      0.0000    633.3445      6.6003     91.3192
   898.0000      0.0000    644.2571      6.6588     86.2954
   898.2500      0.0000    671.3977      6.7051     80.5518
   898.5000      0.0000    706.2590      6.7140     76.1243
   898.7500      0.0000    737.2429      6.6518     74.5631
   899.0000      0.0000    755.0282      6.5067     76.3795
   899.2500      0.0000    756.0048      6.3019     81.4221
   899.5000      0.0000    743.1011      6.0790     89.1773
   899.7500      0.0000    723.7457      5.8720     98.6097
   900.0000      0.0000    705.6202      5.6975    108.3051
   900.2500      0.0000    693.0289      5.5641    117.1370
   900.5000      0.0000    686.2665      5.4845    124.7327
   900.7500      0.0000    683.5185      5.4730    131.1097
   901.0000      0.0000    682.8253      5.5312    135.8262
   901.2500      0.0000    682.8987      5.6414    137.8087
   901.5000      0.0000    683.0861      5.7751    136.4344
   901.7500      0.0000    683.1441      5.9091    132.5987
   902.0000      0.0000    683.0758      6.0310    128.3049
   902.2500      0.0000    682.9653      6.1312    125.3992
   902.5000      0.0000    682.8606      6.1936    124.8830
   902.7500      0.0000    682.7597      6.2003    126.8083
   903.0000      0.0000    682.6821      6.1463    130.3567
   903.2500      0.0000    682.6947      6.0470    134.3234
   903.5000      0.0000    682.8364      5.9308    137.8484
   903.7500      0.0000    683.0392      5.8247    140.5786
   904.0000      0.0000    683.1568      5.7435    142.2503
   904.2500      0.0000    683.0758      5.6876    142.5726
   904.5000      0.0000    682.7958      5.6489    141.6889
   904.7500      0.0000    682.4226      5.6181    140.5149
   905.0000      0.0000    682.1067      5.5892    140.3502
   905.2500      0.0000    681.9682      5.5596    141.9178
   905.5000      0.0000    682.0345      5.5286    144.4821
   905.7500      0.0000    682.2296      5.4960    145.8865
   906.0000      0.0000    682.4308      5.4620    143.9959
   906.2500      0.0000    682.5427      5.4298    138.5571
   906.5000      0.0000    682.5259      5.4047    131.5424
   906.7500      0.0000    682.3859      5.3911    125.7124
   907.0000      0.0000    682.1561      5.3903    122.9750
   907.2500      0.0000    681.8794      5.3996    123.5323
   907.5000      0.0000    681.5840      5.4147    125.8464
   907.7500      0.0000    681.2815      5.4343    127.6894
   908.0000      0.0000    680.9908      5.4620    127.8885
   908.2500      0.0000    680.7493      5.5050    126.9974
   908.5000      0.0000    680.5830      5.5688    126.0108
   908.7500      0.0000    680.4794      5.6512    124.8375
   909.0000      0.0000    680.4205      5.7392    122.4578
   909.2500      0.0000    680.4458      5.8153    118.4379
   909.5000      0.0000    680.6689      5.8692    113.9338
   909.7500      0.0000    681.1915      5.8993    110.9875
   910.0000      0.0000    681.9547      5.8997    110.5797
   910.2500      0.0000    682.3282      5.8466    111.2917
   910.5000      0.0000    680.4316      5.7019    110.3263
   910.7500      0.0000    673.0516      5.4511    106.3151
   911.0000      0.0000    657.9486      5.1543    100.7885
   911.2500      0.0000    638.2397      4.9357     96.4704
   911.5000      0.0000    623.8387      4.8739     94.4340
   911.7500      0.0000    625.2153      4.9139     93.3897
   912.0000      0.0000    643.9275      4.9417     91.5723
   912.2500      0.0000    670.6152      4.9224     88.7390
   912.5000      0.0000    692.8528      4.9088     86.0644
   912.7500      0.0000    703.7596      4.9437     84.4501
   913.0000      2.0000    703.9757      5.0195     83.4440
   913.2500      0.0000    698.2746      5.1217     81.8546
   913.5000      0.0000    691.2388      5.2782     79.0031
   913.7500      0.0000    685.1187      5.5553     75.1733
   914.0000      0.0000    680.5941      5.9933     71.1259
   914.2500      0.0000    678.3868      6.5244     67.5378
   914.5000      0.0000    679.4296      6.9756     64.8966
   914.7500      0.0000    683.6772      7.2012     63.6478
   915.0000      0.0000    689.6115      7.2004     64.1647
   915.2500      0.0000    695.4712      7.0838     66.4504
   915.5000      0.0000    700.8124      6.9581     69.7918
   915.7500      0.0000    706.3462      6.8701     72.7840
   916.0000      0.0000    712.3394      6.8239     74.0090
   916.2500      0.0000    717.8553      6.8117     73.0291
   916.5000      0.0000    721.7097      6.8271     70.7853
   916.7500      0.0000    723.6183      6.8617     68.9065
   917.0000      0.0000    724.2383      6.8977     68.5268
   917.2500      0.0000    724.4770      6.9078     69.7720
   917.5000      0.0000    725.0065      6.8670     72.5185
   917.7500      0.0000    726.3504      6.7674     77.2803
   918.0000      0.0000    729.1031      6.6237     84.6271
   918.2500      0.0000    733.5685      6.4624     93.7929
   918.5000      0.0000    738.8391      6.3075    102.6600
   918.7500      0.0000    742.6171      6.1743    109.3321
   919.0000      0.0000    742.7770      6.0750    113.1597
   919.2500      0.0000    739.3171      6.0191    114.1340
   919.5000      0.0000    734.3062      6.0071    112.2815
   919.7500      0.0000    729.8231      6.0262    108.2156
   920.0000      0.0000    726.2471      6.0557    103.4934
   920.2500      0.0000    722.4160      6.0754     99.6190
   920.5000      0.0000    717.0789      6.0725     96.9897
   920.7500      0.0000    710.3983      6.0465     95.2524
   921.0000      0.0000    704.4182      6.0082     94.2575
   921.2500      0.0000    701.8561      5.9703     94.0798
   921.5000      0.0000    703.9276      5.9399     94.2769
   921.7500      0.0000    709.2171      5.9177     93.6831
   922.0000      0.0000    714.7701      5.8987     91.2778
   922.2500      0.0000    718.1446      5.8753     87.3938
   922.5000      0.0000    718.4323      5.8433     84.0379
   922.7500      0.0000    715.9491      5.8063     83.6636
   923.0000      0.0000    711.6752      5.7696     87.1694
   923.2500      0.0000    707.0060      5.7303     92.8947
   923.5000      0.0000    703.5502      5.6790     97.5915
   923.7500      0.0000    702.7189      5.6117     98.5833
   924.0000      0.0000    705.0188      5.5378     95.4530
   924.2500      0.0000    709.4456      5.4733     89.9381
   924.5000      0.0000    713.8490      5.4291     84.2630
   924.7500      0.0000    716.4234      5.4031     79.7173
   925.0000      0.0000    717.1036      5.3831     76.8632
   925.2500      0.0000    717.7241      5.3547     76.6409
   925.5000      0.0000    720.6762      5.3105     80.6019
   925.7500      0.0000    726.7321      5.2567     89.6741
   926.0000      0.0000    733.8494      5.2097    102.6235
   926.2500      0.0000    738.6549      5.1817    115.9493
   926.5000      0.0000    739.4545      5.1671    125.7693
   926.7500      0.0000    737.2664      5.1448    130.4319
   927.0000      0.0000    733.7521      5.0970    131.4787
   927.2500      0.0000    729.1141      5.0273    131.6650
   927.5000      0.0000    722.7722      4.9600    131.9095
   927.7500      0.0000    715.5081      4.9239    130.5297
   928.0000      0.0000    709.9188      4.9348    125.2710
   928.2500      0.0000    708.4506      4.9904    115.4747
   928.5000      0.0000    711.3419      5.0761    102.3747
   928.7500      0.0000    716.7831      5.1739     88.0846
   929.0000      0.0000    722.8439      5.2655     74.7756
   929.2500      0.0000    728.7255      5.3359     64.5462
   929.5000      0.0000    733.9920      5.3798     59.2264
