~Version Information
VERS.                      2.0: CWLS Log ASCII Standard - VERSION 2.0
WRAP.                       NO: One line per depth step
~Well Information Block
STRT.FT               245.0000: 
STOP.FT              1208.2000: 
STEP.FT                 0.1000: 
NULL.                -999.2500: 
COMP.          Pioneer Natural Resources: COMPANY
WELL.              Davida 34-8: WELL
FLD.           Purgatoire River: FIELD
LOC.           418' FSL & 1923' FEL--: LOCATION
CNTY.               Las Animas: COUNTY
SRVC.                Patterson: SERVICE COMPANY
DATE.          Mon Mar 20 08:22:01 2006: LOG DATE
UWI.           05 071 08722 00: UNIQUE WELL ID
STAT.                 Colorado: STATE
~Curve Information Block
DEPT.FT            0 000 00 00: Depth
DCAL.in                       : CDL Caliper
RHOB.g/cc                     : CDL Bulk Density
RHOC.g/cc                     : CDL Density Correction
DPOR.pu                       : CDL Density Porosity
NPOR.pu                       : Neutron Porosity
GR.GAPI                       : Gamma Ray
~Parameter Information Block
~A  Depth       DCAL        RHOB        RHOC        DPOR        NPOR         GR     
# ...
  1051.4000      7.8652      2.5203      0.0175      7.8617     16.5429     86.9986
  1051.5000      7.8632      2.5230      0.0452      7.6958     16.8741     92.7017
  1051.6000      7.8632      2.5178      0.0305      8.0118     16.9270     90.7033
  1051.7000      7.8632      2.5047     -0.0103      8.8087     17.0235     86.2763
  1051.8000      7.8606      2.4929     -0.0021      9.5229     17.2938     86.2403
  1051.9000      7.8606      2.4864      0.0025      9.9125     17.3886     87.7998
  1052.0000      7.8610      2.4840      0.0069     10.0625     17.1621     83.6747
  1052.1000      7.8610      2.4848     -0.0202     10.0092     17.0356     75.0240
  1052.2000      7.8610      2.4903     -0.0239      9.6764     17.2810     68.6811
  1052.3000      7.8709      2.4970      0.0209      9.2749     17.5565     67.3198
  1052.4000      7.8709      2.5018      0.0163      8.9836     17.3370     69.3413
  1052.5000      7.8869      2.5081      0.0221      8.6026     16.7258     71.9128
  1052.6000      7.8869      2.5181     -0.0106      7.9947     16.2945     73.3941
  1052.7000      7.8869      2.5314      0.0107      7.1861     16.2356     75.3302
  1052.8000      7.8950      2.5435      0.0407      6.4552     16.3135     77.6906
  1052.9000      7.8950      2.5459      0.0721      6.3085     16.3652     77.5872
  1053.0000      7.8962      2.5411      0.0127      6.6009     16.4945     75.4639
  1053.1000      7.8962      2.5431      0.0418      6.4810     16.6933     74.2312
  1053.2000      7.8962      2.5527      0.0613      5.8977     16.7343     75.3761
  1053.3000      7.8950      2.5626      0.0754      5.2985     16.6368     78.8871
  1053.4000      7.8950      2.5790      0.0217      4.3020     16.8032     84.2927
  1053.5000      7.8917      2.6060      0.1065      2.6637     17.3363     88.0296
  1053.6000      7.8917      2.6248      0.0765      1.5274     17.7357     83.8105
  1053.7000      7.8917      2.6179      0.0891      1.9460     17.7271     73.9565
  1053.8000      7.8919      2.5908      0.0461      3.5895     17.6241     68.1157
  1053.9000      7.8919      2.5689      0.0044      4.9141     17.6177     67.9322
  1054.0000      7.9018      2.5745      0.0360      4.5775     17.7491     67.0073
  1054.1000      7.9018      2.5964      0.0579      3.2508     18.0015     63.2477
  1054.2000      7.9018      2.6096      0.0949      2.4510     18.2380     61.7213
  1054.3000      7.9114      2.6138     -0.0292      2.1932     18.2786     64.8196
  1054.4000      7.9114      2.6128      0.0479      2.2568     18.1111     68.1367
  1054.5000      7.9090      2.5938      0.0240      3.4057     17.9559     68.4381
  1054.6000      7.9090      2.5672     -0.0014      5.0208     17.8121     67.5079
  1054.7000      7.9090      2.5551     -0.0166      5.7499     17.5951     66.8291
  1054.8000      7.9025      2.5521      0.0322      5.9327     17.4341     66.7253
  1054.9000      7.9025      2.5414      0.0291      6.5838     17.2763     66.5790
  1055.0000      7.8984      2.5271      0.0023      7.4495     17.0388     64.9258
  1055.1000      7.8984      2.5243      0.0117      7.6207     16.9426     63.4986
  1055.2000      7.8984      2.5371      0.0275      6.8418     17.0075     66.0545
  1055.3000      7.8946      2.5609      0.0312      5.4021     16.8773     71.4804
  1055.4000      7.8946      2.5836      0.0519      4.0220     16.4463     74.8324
  1055.5000      7.8890      2.5900      0.0426      3.6370     16.0344     74.7209
  1055.6000      7.8890      2.5808     -0.0178      4.1933     15.8997     72.4028
  1055.7000      7.8890      2.5723      0.0167      4.7112     15.9326     67.1075
  1055.8000      7.8798      2.5706      0.0048      4.8102     15.9206     61.1149
  1055.9000      7.8798      2.5679      0.0183      4.9754     15.8692     59.4489
  1056.0000      7.8684      2.5544      0.0427      5.7965     15.8437     60.8004
  1056.1000      7.8684      2.5380      0.0239      6.7855     15.8624     61.1676
  1056.2000      7.8684      2.5435     -0.0228      6.4515     16.0751     61.3775
  1056.3000      7.8576      2.5716      0.0560      4.7505     16.6868     61.7745
  1056.4000      7.8576      2.5907      0.0604      3.5914     17.4260     60.4329
  1056.5000      7.8508      2.5834      0.0378      4.0352     17.6924     58.8294
  1056.6000      7.8508      2.5645      0.0319      5.1828     17.4907     59.5370
  1056.7000      7.8508      2.5560     -0.0151      5.6997     17.3842     62.8127
  1056.8000      7.8528      2.5614      0.0270      5.3698     17.5288     67.3034
  1056.9000      7.8528      2.5713      0.0069      4.7712     17.7196     70.6536
  1057.0000      7.8730      2.5808      0.0304      4.1916     18.0129     72.4165
  1057.1000      7.8730      2.5884      0.0294      3.7346     18.4213     77.5531
  1057.2000      7.8730      2.5958      0.0344      3.2834     18.6809     86.4892
  1057.3000      7.9038      2.6037      0.0372      2.8072     18.6356     90.6650
  1057.4000      7.9038      2.6083      0.0311      2.5249     18.5134     88.0453
  1057.5000      7.9093      2.6023      0.0940      2.8936     18.5521     87.0919
  1057.6000      7.9093      2.5763      0.0886      4.4697     18.6539     91.1465
  1057.7000      7.9093      2.5349      0.0298      6.9748     18.4275     94.3537
  1057.8000      7.8898      2.5031     -0.0252      8.9029     17.9304     95.1967
  1057.9000      7.8898      2.5013      0.0068      9.0151     17.6232     97.7810
  1058.0000      7.8701      2.5199      0.0333      7.8839     17.3935    101.8711
  1058.1000      7.8701      2.5293      0.0721      7.3170     17.1000    104.0284
  1058.2000      7.8701      2.5178      0.0064      8.0119     17.0569    104.9467
  1058.3000      7.8550      2.5054      0.0307      8.7612     17.3178    106.9262
  1058.4000      7.8550      2.5090      0.0213      8.5447     17.6278    105.6843
  1058.5000      7.8447      2.5260      0.0534      7.5134     17.7388     96.4092
  1058.6000      7.8447      2.5438      0.0580      6.4353     17.7688     84.6441
  1058.7000      7.8447      2.5571      0.0417      5.6301     18.0432     79.8885
  1058.8000      7.8385      2.5718      0.0702      4.7375     18.5275     84.4086
  1058.9000      7.8385      2.5921      0.0613      3.5092     18.8790     90.7223
  1059.0000      7.8387      2.6076      0.1005      2.5722     18.9515     90.6845
  1059.1000      7.8387      2.6012      0.1042      2.9550     19.0662     86.6642
  1059.2000      7.8387      2.5814      0.0732      4.1553     19.4436     83.8370
  1059.3000      7.8448      2.5717      0.0546      4.7436     19.7403     82.9182
  1059.4000      7.8448      2.5714      0.0700      4.7641     19.7105     82.1556
  1059.5000      7.8485      2.5607      0.0987      5.4148     19.5429     81.8387
  1059.6000      7.8485      2.5329      0.0410      7.0944     19.5839     86.0759
  1059.7000      7.8485      2.4981      0.0397      9.2086     19.9260     91.4073
  1059.8000      7.8475      2.4664     -0.0238     11.1251     20.3118     93.1155
  1059.9000      7.8475      2.4486     -0.0228     12.2069     20.4871     96.0284
  1060.0000      7.8403      2.4456      0.0304     12.3866     20.4316    101.4511
  1060.1000      7.8403      2.4544     -0.0142     11.8550     20.2543    105.5572
  1060.2000      7.8403      2.4773      0.0287     10.4687     20.0531    106.9630
  1060.3000      7.8307      2.5059      0.1004      8.7360     19.9473    108.0541
  1060.4000      7.8307      2.5314      0.0984      7.1902     20.1519    111.2973
  1060.5000      7.8312      2.5555      0.1008      5.7255     20.6147    112.2365
  1060.6000      7.8312      2.5760      0.1002      4.4873     20.8482    108.5536
  1060.7000      7.8312      2.5882      0.0971      3.7436     20.7422    105.7752
  1060.8000      7.8469      2.5896      0.1106      3.6600     20.5763    104.2900
  1060.9000      7.8469      2.5794      0.0986      4.2813     20.4047    102.4577
