~Version Information
VERS.                      2.0: CWLS Log ASCII Standard - VERSION 2.0
WRAP.                       NO: One line per depth step
~Well Information Block
STRT.FT               390.0000: 
STOP.FT              1434.5000: 
STEP.FT                 0.1000: 
NULL.                -999.2500: 
COMP.          Pioneer Natural Resources: COMPANY
WELL.             John K 12-28: WELL
FLD.           Purgatoire River: FIELD
LOC.           1476' FNL & 465' FWL: LOCATION
CNTY.               Las Animas: COUNTY
SRVC.                Patterson: SERVICE COMPANY
DATE.          Mon Apr 10 06:53:47 2006: LOG DATE
UWI.           05 071 08723 00: UNIQUE WELL ID
STAT.                 Colorado: STATE
~Curve Information Block
DEPT.FT            0 000 00 00: Depth
DCAL.in                       : CDL Caliper
RHOB.g/cc                     : CDL Bulk Density
RHOC.g/cc                     : CDL Density Correction
DPOR.pu                       : CDL Density Porosity
GR.GAPI                       : Gamma Ray
NPOR.pu                       : Neutron Porosity
~Parameter Information Block
~A  Depth       DCAL        RHOB        RHOC        DPOR         GR         NPOR    
# ...
   601.2000      7.9583      2.5719      0.1630      4.7326    120.6816     30.9693
   601.3000      7.9577      2.5575      0.1229      5.6068    121.0492     30.9057
   601.4000      7.9577      2.5405      0.1175      6.6338    124.1558     30.5983
   601.5000      7.9567      2.5223      0.0916      7.7421    123.1914     30.5538
   601.6000      7.9567      2.5135      0.0534      8.2724    118.3971     30.8068
   601.7000      7.9567      2.5212      0.0592      7.8074    116.9339     31.0948
   601.8000      7.9557      2.5404      0.0497      6.6405    121.2287     31.4195
   601.9000      7.9557      2.5656      0.0996      5.1180    127.4498     31.7899
   602.0000      7.9547      2.5837      0.1321      4.0180    131.3767     31.8235
   602.1000      7.9547      2.5857      0.1172      3.8964    133.0852     31.3325
   602.2000      7.9547      2.5877      0.0881      3.7787    134.0529     30.7140
   602.3000      7.9541      2.6154      0.0878      2.0941    133.2376     30.4818
   602.4000      7.9541      2.6693      0.1985     -1.1675    128.1241     30.7648
   602.5000      7.9526      2.7248      0.2314     -4.5346    118.9632     31.3150
   602.6000      7.9526      2.7763      0.1753     -7.6519    111.1909     32.2251
   602.7000      7.9526      2.8375      0.1405    -11.3645    106.4102     33.6216
   602.8000      7.9503      2.9081      0.2527    -15.6411    100.8320     34.7413
   602.9000      7.9503      2.9744      0.2253    -19.6579     94.3078     34.9427
   603.0000      7.9481      3.0265      0.2585    -22.8175     90.9014     34.7258
   603.1000      7.9481      3.0481      0.3204    -24.1276     91.5971     34.7050
   603.2000      7.9481      3.0305      0.2745    -23.0603     94.0258     34.9886
   603.3000      7.9415      3.0019      0.1393    -21.3301     93.9842     35.0627
   603.4000      7.9415      2.9909      0.1456    -20.6621     88.2671     34.3134
   603.5000      7.9254      2.9819      0.1348    -20.1174     79.1725     33.2693
   603.6000      7.9254      2.9490      0.0904    -18.1230     70.7418     32.9121
   603.7000      7.9254      2.8994      0.0559    -15.1160     65.5153     33.0456
   603.8000      7.9063      2.8637      0.0098    -12.9491     64.4287     32.8197
   603.9000      7.9063      2.8538      0.0359    -12.3540     64.7977     32.1033
   604.0000      7.9020      2.8536      0.0001    -12.3395     66.0912     30.9387
   604.1000      7.9020      2.8496      0.0187    -12.0951     68.7645     29.4141
   604.2000      7.9020      2.8389      0.0376    -11.4476     71.0367     28.4670
   604.3000      7.9157      2.8245      0.0002    -10.5754     72.7490     28.4414
   604.4000      7.9157      2.8169     -0.0167    -10.1132     73.7243     28.5842
   604.5000      7.9334      2.8106      0.0204     -9.7326     73.4994     28.5048
   604.6000      7.9334      2.7845     -0.0149     -8.1492     75.4370     27.9561
   604.7000      7.9334      2.7395     -0.0814     -5.4252     82.0461     27.1259
   604.8000      7.9487      2.6969     -0.0504     -2.8425     90.9276     26.7472
   604.9000      7.9487      2.6711     -0.0496     -1.2772     98.3092     27.1564
   605.0000      7.9653      2.6548     -0.0125     -0.2926    102.8567     28.2818
   605.1000      7.9653      2.6379     -0.0746      0.7331    104.6734     29.9048
   605.2000      7.9653      2.6333     -0.0898      1.0106    105.1014     31.5570
   605.3000      7.9823      2.6560     -0.0765     -0.3639    108.1655     32.5879
   605.4000      7.9823      2.7024     -0.0483     -3.1785    110.6538     32.7225
   605.5000      7.9897      2.7616     -0.0049     -6.7641    107.9795     32.2520
   605.6000      7.9897      2.8229      0.0600    -10.4764    104.5442     31.5819
   605.7000      7.9897      2.8646      0.0905    -13.0074    103.5700     31.1369
   605.8000      7.9853      2.8656      0.0482    -13.0688    105.9133     31.2189
   605.9000      7.9853      2.8384      0.0073    -11.4154    111.7817     31.5294
   606.0000      7.9818      2.8185     -0.0783    -10.2122    114.8053     31.6424
   606.1000      7.9818      2.8200     -0.0340    -10.3046    110.7984     31.8698
   606.2000      7.9818      2.8210     -0.0479    -10.3632    106.5330     32.5489
   606.3000      7.9898      2.8092     -0.0797     -9.6473    106.0461     33.1123
   606.4000      7.9898      2.7989     -0.0857     -9.0230    106.5753     33.1396
   606.5000      7.9990      2.7894      0.0121     -8.4493    109.6250     32.9303
   606.6000      7.9990      2.7617      0.0066     -6.7703    114.9743     32.7826
   606.7000      7.9990      2.7202     -0.0481     -4.2529    118.1488     32.6134
   606.8000      8.0020      2.6866     -0.0235     -2.2152    119.7712     32.3112
   606.9000      8.0020      2.6679     -0.0197     -1.0861    121.2784     32.0812
   607.0000      8.0013      2.6612      0.0097     -0.6759    120.5271     32.1425
   607.1000      8.0013      2.6533     -0.0093     -0.1981    116.2054     32.3373
   607.2000      8.0013      2.6296     -0.0701      1.2390    109.3993     32.3236
   607.3000      7.9973      2.5950     -0.0576      3.3322    106.0930     32.0870
   607.4000      7.9973      2.5722     -0.0787      4.7130    112.1826     31.8977
   607.5000      7.9897      2.5784     -0.0539      4.3396    122.7126     31.9590
   607.6000      7.9897      2.5984     -0.0081      3.1277    127.1823     32.0508
   607.7000      7.9897      2.6037      0.0157      2.8042    122.5349     31.6532
   607.8000      7.9839      2.5943      0.0233      3.3747    114.8894     30.8249
   607.9000      7.9839      2.5878      0.0190      3.7722    113.8164     30.2655
   608.0000      7.9860      2.5915      0.0768      3.5483    120.6410     29.9631
   608.1000      7.9860      2.6040      0.0703      2.7894    129.7573     29.3017
   608.2000      7.9860      2.6181      0.0859      1.9329    137.8949     28.5380
   608.3000      7.9909      2.6252      0.0922      1.5027    141.5219     28.4081
   608.4000      7.9909      2.6252      0.1064      1.5053    139.8580     28.9239
   608.5000      7.9914      2.6216      0.1295      1.7193    136.7148     29.6411
   608.6000      7.9914      2.6189      0.0392      1.8855    133.2000     30.3861
   608.7000      7.9914      2.6198      0.0332      1.8310    129.2066     30.8889
   608.8000      7.9971      2.6116      0.1005      2.3243    126.1232     30.8344
   608.9000      7.9971      2.5842      0.0465      3.9891    124.8935     30.3175
   609.0000      8.0102      2.5500      0.0315      6.0588    123.1232     29.8338
   609.1000      8.0102      2.5195      0.0172      7.9065    118.3043     29.7383
   609.2000      8.0102      2.4984      0.0004      9.1893    114.1462     30.1260
   609.3000      8.0181      2.5005     -0.0169      9.0612    114.7847     30.8740
   609.4000      8.0181      2.5293      0.0519      7.3154    116.5678     31.5407
   609.5000      8.0169      2.5627      0.0615      5.2930    114.5419     31.3914
   609.6000      8.0169      2.5755      0.0321      4.5126    111.0154     30.1983
   609.7000      8.0169      2.5695      0.0174      4.8796    110.1948     28.7915
   609.8000      8.0138      2.5646      0.0112      5.1749    111.3834     28.0993
   609.9000      8.0138      2.5711      0.0255      4.7835    111.8261     28.4382
   610.0000      8.0150      2.5829      0.0157      4.0679    112.2856     29.3993
   610.1000      8.0150      2.5926     -0.0060      3.4764    112.1255     30.0106
   610.2000      8.0150      2.5966      0.0059      3.2389    106.4515     29.8985
   610.3000      8.0154      2.5916      0.0067      3.5407     97.9640     29.1506
   610.4000      8.0154      2.5811     -0.0020      4.1747     95.7178     27.8904
   610.5000      8.0151      2.5738      0.0004      4.6185     98.8449     26.7914
   610.6000      8.0151      2.5746     -0.0241      4.5680    100.9902     26.3258
   610.7000      8.0151      2.5755     -0.0100      4.5146    104.6821     26.3825
