~Version Information
VERS.                      2.0: CWLS Log ASCII Standard - VERSION 2.0
WRAP.                       NO: One line per depth step
~Well Information Block
STRT.FT               410.0000: 
STOP.FT              1252.0000: 
STEP.FT                 0.2500: 
NULL.                -999.2500: 
COMP.          Petrogulf Corporation: COMPANY
WELL.           Parsons 15-23R: WELL
FLD.           Purgatorie River: FIELD
LOC.           2244' FSL & 1932' FWL: LOCATION
PROV.                 Colorado: PROVINCE
CNTY.               Las Animas: COUNTRY
SRVC.                Patterson: SERVICE COMPANY
DATE.          Mon Sep 12 10:30:11 2005: LOG DATE
UWI.                          : UNIQUE WELL ID
~Curve Information Block
DEPT.FT            0 000 00 00: Depth
SP.mV                         : DIL Spontaneous Potential
RILD.Ohm-m                    : DIL Deep Resistivity
RILM.Ohm-m                    : DIL Medium Resistivity
RLL3.Ohm-m                    : DIL Shallow Resistivity
GR.GAPI                       : Gamma Ray
~Parameter Information Block
~A  Depth        SP         RILD        RILM        RLL3         GR     
# ...
   578.0000    219.7149     17.0424     20.5555     21.9536    117.5981
   578.2500    219.5778     17.7068     21.6257     24.4627    119.7191
   578.5000    218.9956     18.3783     22.3559     28.6206    139.9044
   578.7500    218.0960     19.1346     23.3394     36.4349    149.8865
   579.0000    218.0320     19.3504     23.5586     45.1206    128.8939
   579.2500    217.7382     19.6381     24.4062     49.3111    113.1479
   579.5000    217.2689     19.8309     23.9843     47.1468    129.0186
   579.7500    216.4322     20.6898     23.5648     41.8021    121.6272
   580.0000    215.5919     21.2022     23.7396     27.9335    124.9692
   580.2500    214.5381     21.2987     24.7161     26.4733    129.9517
   580.5000    213.7065     20.6140     26.0765     35.6561    124.3885
   580.7500    213.5878     20.3319     26.4748     58.6408    122.2686
   581.0000    212.9916     20.6522     27.1997     75.5536     84.5347
   581.2500    212.3213     20.6539     25.1791     78.9235     85.1659
   581.5000    211.9897     20.1684     23.5641     66.3272    114.3052
   581.7500    211.7141     20.6392     22.4345     40.4422    132.3687
   582.0000    211.5435     20.3331     21.2449     23.5015    141.4147
   582.2500    211.2260     20.3770     20.5863     16.9255    152.7472
   582.5000    210.5824     20.6995     20.2409     16.8860    158.8716
   582.7500    210.0818     20.8661     20.8475     23.2278    152.1597
   583.0000    211.3023     20.7911     21.5926     26.2001    149.0881
   583.2500    212.2278     20.2849     21.5057     26.6892    146.3868
   583.5000    212.1544     21.0261     21.2838     26.8731    136.1984
   583.7500    211.4822     20.8344     21.5406     27.0984    154.2368
   584.0000    210.8116     20.8749     21.8151     27.9452    162.0792
   584.2500    210.8785     21.0686     22.5578     28.8418    144.1757
   584.5000    210.9926     21.7186     23.7868     28.8118    145.4514
   584.7500    211.3558     21.9526     22.9458     29.5873    140.6337
   585.0000    211.2263     22.1613     23.7530     32.0782    117.6056
   585.2500    211.1421     22.7208     25.0740     36.1997    101.0271
   585.5000    210.6858     23.4590     25.2047     39.3781    130.0194
   585.7500    210.0985     23.9211     26.4831     39.6935    141.8476
   586.0000    209.6278     24.4249     27.3048     39.2365    136.0800
   586.2500    209.0719     24.5049     26.9415     40.5613    118.1852
   586.5000    209.1953     24.2228     26.9831     41.2505    105.9279
   586.7500    209.0791     25.3840     28.2588     42.5880    115.6523
   587.0000    208.9831     25.1980     29.7654     42.4364    113.7719
   587.2500    208.3681     25.7504     28.7767     42.0441    120.9859
   587.5000    207.4322     26.4536     29.2802     41.5931    108.9153
   587.7500    206.3353     27.3098     30.1232     39.7756    106.6114
   588.0000    204.7374     26.9773     30.4676     37.1650     87.7812
   588.2500    203.2739     27.0223     29.9815     39.9567     92.8003
   588.5000    201.9042     27.8231     30.7305     40.9770    103.9438
   588.7500    200.2360     27.2302     29.6189     43.1795     92.0726
   589.0000    199.6211     27.5487     28.8637     44.4612     83.2852
   589.2500    199.7979     27.0550     29.0262     43.8051     79.5775
   589.5000    199.4283     28.7051     29.6294     39.6217     86.8694
   589.7500    198.5307     29.0686     30.1517     38.2311     83.7208
   590.0000    197.3837     28.2412     30.6218     38.2132     80.9161
   590.2500    196.9628     28.7505     33.4080     38.0060     71.6089
   590.5000    197.4224     29.3698     31.9065     38.7516     82.1583
   590.7500    197.1226     30.2727     33.1721     39.8076     82.2379
   591.0000    196.7493     29.8575     33.3563     43.7663     67.0517
   591.2500    196.3405     30.0617     34.3489     48.5183     65.0249
   591.5000    196.9404     31.2244     34.4217     51.2334     42.1639
   591.7500    197.5983     30.9832     35.6454     50.7777     57.6527
   592.0000    198.4380     32.9800     36.3120     48.0303     58.3857
   592.2500    198.2802     32.6675     36.6324     45.8674     54.0662
   592.5000    197.8884     32.5562     38.8928     47.8817     49.7771
   592.7500    197.6388     33.6829     40.5070     54.0965     52.6438
   593.0000    198.2215     34.6832     41.3388     60.7629     48.6000
   593.2500    198.8340     35.1199     39.5692     62.4206     47.0070
   593.5000    199.2904     35.1194     40.8115     57.9554     54.3031
   593.7500    199.6062     35.7944     41.2657     55.8448     60.4773
   594.0000    199.6636     34.2965     41.1359     57.1337     66.0955
   594.2500    200.1691     32.8317     42.0774     54.0380     65.5155
   594.5000    200.6444     31.1199     40.2228     47.7100     80.1651
   594.7500    201.6152     32.5458     40.9860     48.6684     98.3064
   595.0000    203.5185     31.9579     39.4354     55.5044     71.4085
   595.2500    204.7367     30.5880     37.8701     62.0104     57.3995
   595.5000    206.0111     28.7440     36.5860     66.6399     85.6142
   595.7500    207.6889     27.6627     34.1543     63.3299     99.4780
   596.0000    209.3403     26.5441     30.3468     51.2140     89.1266
   596.2500    210.7922     25.0752     28.6867     34.6845    109.6004
   596.5000    212.0378     24.8519     26.3611     26.1329    131.5062
   596.7500    213.3041     24.6357     24.3453     23.8145    116.9985
   597.0000    214.3679     23.6936     22.3975     24.1547    133.2955
   597.2500    215.6067     21.5118     21.6552     26.4582    131.1249
   597.5000    217.0129     21.6387     20.4152     25.2842    135.4756
   597.7500    217.9664     20.6477     20.2191     21.4101    124.4555
   598.0000    218.4472     20.1858     19.3873     20.3802    128.4953
   598.2500    218.4178     20.3002     19.3348     21.6778    132.4232
   598.5000    218.2904     20.1916     18.3964     20.3301    147.0878
   598.7500    218.4129     20.2862     17.8641     20.4643    134.0701
   599.0000    219.0543     20.4499     17.9531     20.5108    161.3875
   599.2500    220.4719     20.0366     18.6536     23.1200    145.0542
   599.5000    220.6635     19.8591     18.9036     25.9891    137.8008
   599.7500    220.8982     19.5309     19.7549     27.9678    148.3584
   600.0000    220.7361     20.1125     20.4720     27.0355    122.8057
   600.2500    220.7755     20.7446     20.6628     27.7208    126.0252
   600.5000    220.6862     21.1658     21.0718     30.4105    113.7516
   600.7500    220.6399     22.1821     21.9337     34.5995    109.5999
   601.0000    221.0885     21.6876     24.0187     33.1852    112.2822
   601.2500    220.8895     22.6047     24.1248     30.7038    121.2812
   601.5000    220.2916     23.7981     24.4517     29.2957    122.3250
   601.7500    219.3402     24.7787     25.1571     30.6114    129.1181
   602.0000    218.1442     25.4212     26.3387     37.0635    112.3496
   602.2500    216.9146     25.6013     28.1089     44.1344    119.2027
   602.5000    215.2085     26.3008     29.3445     51.8577    115.3438
   602.7500    214.2423     26.3063     29.6931     56.5371    113.4577
   603.0000    212.3734     27.8968     31.1363     55.1436    105.3613
   603.2500    211.3316     27.4492     31.2028     50.5570     95.0090
   603.5000    211.0761     28.3456     32.5938     46.2983    100.7112
   603.7500    209.3338     28.6756     31.2155     43.8965    113.3410
   604.0000    207.0359     29.5741     30.8326     42.2874    100.5178
   604.2500    205.5555     30.8083     31.7991     42.8191     86.8833
   604.5000    203.4608     29.9447     31.4968     42.8633     81.7186
   604.7500    202.0962     30.6969     33.2830     43.9591     80.2721
   605.0000    200.5563     30.4130     33.1488     45.8817     77.3936
   605.2500    199.7917     30.6704     34.0510     47.5604     81.1084
   605.5000    200.0992     30.8252     33.7989     48.7307     64.9929
   605.7500    199.4798     32.5381     34.2274     49.1363     57.5090
