~Version Information
VERS.                      2.0: CWLS Log ASCII Standard - VERSION 2.0
WRAP.                       NO: One line per depth step
~Well Information Block
STRT.FT                -8.2500: 
STOP.FT              1439.2500: 
STEP.FT                 0.2500: 
NULL.                -999.2500: 
COMP.          Pioneer Natural Resources: COMPANY
WELL.          Old Faithful 21-2: WELL
FLD.           Purgatorie River: FIELD
LOC.           806' FNL & 2509' FWL--: LOCATION
PROV.                       CO: PROVINCE
CNTY.               Las Animas: COUNTRY
SRVC.          Patterson Wireline: SERVICE COMPANY
DATE.          Mon Dec 12 11:21:25 2005: LOG DATE
UWI.           08 071 08617 00: UNIQUE WELL ID
~Curve Information Block
DEPT.FT            0 000 00 00: Depth
CCL.                          : Casing Collar Locator
TT3.usec                      : CBL 3' Travel Time
AMP3.mV                       : CBL 3' Amplitude
GR.GAPI                       : Gamma Ray
~Parameter Information Block
~A  Depth       CCL         TT3         AMP3         GR     
# ...
   561.2500      0.0000    581.7953     15.3494    124.9084
   561.5000      0.0000    628.2489     15.2012    127.3454
   561.7500      0.0000    650.7747     15.0688    130.3348
   562.0000      0.0000    650.2834     14.9745    134.2316
   562.2500      0.0000    640.5131     14.9224    138.7251
   562.5000      0.0000    627.8225     14.9414    142.8405
   562.7500      0.0000    604.7565     15.0815    145.7818
   563.0000      0.0000    565.8867     15.3471    147.5288
   563.2500      0.0000    525.0930     15.6464    148.6035
   563.5000      0.0000    509.5659     15.8361    149.5635
   563.7500      0.0000    535.1975     15.8251    150.6073
   564.0000      0.0000    591.2182     15.6408    151.2937
   564.2500      0.0000    649.7379     15.4016    150.5497
   564.5000      0.0000    687.6055     15.2225    147.2343
   564.7500      0.0000    699.4951     15.1353    141.1492
   565.0000      0.0000    695.7075     15.0896    133.7619
   565.2500      0.0000    691.3509     15.0246    127.5930
   565.5000      0.0000    695.6720     14.9346    124.3075
   565.7500      0.0000    707.9842     14.8623    123.2794
   566.0000      0.0000    721.7671     14.8366    122.2601
   566.2500      0.0000    731.3441     14.8271    119.4878
   566.5000      0.0000    735.0193     14.7632    114.9616
   566.7500      0.0000    734.1981     14.5933    109.8410
   567.0000      0.0000    731.2825     14.3234    105.1798
   567.2500      0.0000    728.0189     13.9973    101.5935
   567.5000      0.0000    724.9190     13.6516     99.6088
   567.7500      0.0000    721.8639     13.2950     99.5760
   568.0000      0.0000    719.0861     12.9299    101.2640
   568.2500      0.0000    717.1851     12.5785    104.1005
   568.5000      0.0000    716.2391     12.2793    107.9406
   568.7500      0.0000    715.5166     12.0565    113.2173
   569.0000      0.0000    714.6105     11.8994    120.1861
   569.2500      0.0000    714.4987     11.7718    128.2659
   569.5000      0.0000    716.8635     11.6407    136.3808
   569.7500      0.0000    722.3173     11.4938    143.8021
   570.0000      0.0000    729.5578     11.3347    150.2634
   570.2500      0.0000    736.3264     11.1689    155.1702
   570.5000      0.0000    741.0391     10.9942    157.1642
   570.7500      0.0000    743.5157     10.8053    155.1093
   571.0000      0.0000    744.4838     10.6097    149.5870
   571.2500      0.0000    744.7628     10.4422    142.9531
   571.5000      0.0000    744.8576     10.3587    137.5025
   571.7500      0.0000    744.9721     10.4045    133.6761
   572.0000      0.0000    745.1458     10.5804    130.2650
   572.2500      0.0000    745.3627     10.8329    125.9527
   572.5000      0.0000    745.6038     11.0805    120.2113
   572.7500      0.0000    745.8519     11.2624    113.3290
   573.0000      0.0000    746.0799     11.3684    106.5540
   573.2500      0.0000    746.2121     11.4262    102.0403
   573.5000      0.0000    746.0723     11.4613    101.4901
   573.7500      0.0000    745.3475     11.4730    104.3817
   574.0000      0.0000    743.7071     11.4452    108.2312
   574.2500      0.0000    741.2008     11.3750    111.0596
   574.5000      0.0000    738.6462     11.2897    113.0542
   574.7500      0.0000    737.3159     11.2288    115.5510
   575.0000      0.0000    737.8818     11.2087    119.0480
   575.2500      0.0000    739.7791     11.2054    122.6400
   575.5000      0.0000    741.8136     11.1789    124.9668
   575.7500      0.0000    743.2120     11.1124    125.3074
   576.0000      0.0000    743.9402     11.0238    123.8701
   576.2500      0.0000    744.3083     10.9421    121.4293
   576.5000      0.0000    744.5627     10.8798    118.9251
   576.7500      0.0000    744.7820     10.8264    117.0997
   577.0000      0.0000    744.9480     10.7579    116.0764
   577.2500      0.0000    745.0272     10.6576    115.3293
   577.5000      0.0000    745.0149     10.5366    114.3096
   577.7500      0.0000    744.9382     10.4294    113.2142
   578.0000      0.0000    744.8058     10.3631    113.1293
   578.2500      0.0000    744.4834     10.3378    115.1007
   578.5000      0.0000    743.5444     10.3322    118.8283
   578.7500      0.0000    741.2809     10.3191    122.7183
   579.0000      0.0000    737.1386     10.2721    125.6166
   579.2500      0.0000    731.3575     10.1673    127.9087
   579.5000      0.0000    725.0133      9.9828    130.3110
   579.7500      0.0000    719.1426      9.7150    132.2274
   580.0000      0.0000    714.3711      9.4199    132.2360
   580.2500      0.0000    712.1367      9.2146    129.8071
   580.5000      0.0000    715.5317      9.1786    125.5707
   580.7500      0.0000    726.9903      9.2544    120.1102
   581.0000      0.0000    744.6102      9.3085    113.4757
   581.2500      0.0000    762.2217      9.2841    105.9786
   581.5000      0.0000    774.2497      9.2340     98.6575
   581.7500      0.0000    780.1451      9.2206     92.6006
   582.0000     -2.0000    783.9709      9.2541     88.3137
   582.2500      0.0000    790.0082      9.3250     85.9250
   582.5000      0.0000    797.1256      9.4661     85.2978
   582.7500      0.0000    796.1674      9.7624     85.5549
   583.0000      0.0000    776.5936     10.2657     85.1656
   583.2500      0.0000    739.9973     10.8819     83.0706
   583.5000      0.0000    703.7200     11.4064     79.5050
   583.7500      0.0000    685.9324     11.7282     75.6441
   584.0000      0.0000    689.7809     11.9339     72.8237
   584.2500      0.0000    705.0959     12.1580     72.0376
   584.5000      0.0000    720.8112     12.4123     73.5076
   584.7500      0.0000    731.8959     12.6158     76.3850
   585.0000      0.0000    738.1598     12.7168     79.1566
   585.2500      0.0000    741.1400     12.7305     80.7932
   585.5000      0.0000    742.4056     12.7014     81.5426
   585.7500      0.0000    742.9821     12.6694     82.3302
   586.0000      0.0000    743.3464     12.6587     83.3553
   586.2500      0.0000    743.6531     12.6695     83.6843
   586.5000      0.0000    743.9073     12.6796     82.4871
   586.7500      0.0000    744.0869     12.6658     80.4663
   587.0000      0.0000    744.1760     12.6298     79.6884
   587.2500      0.0000    744.1718     12.5963     81.8123
   587.5000      0.0000    744.0577     12.5823     86.5394
   587.7500      0.0000    743.7385     12.5730     91.8833
   588.0000      0.0000    742.9763     12.5353     95.9747
   588.2500      0.0000    741.4828     12.4513     98.6162
   588.5000      0.0000    739.2977     12.3326    101.1589
   588.7500      0.0000    737.1369     12.1989    104.9618
   589.0000      0.0000    736.0052     12.0497    109.9195
   589.2500      0.0000    736.0297     11.8634    114.3461
   589.5000      0.0000    735.8049     11.6243    116.4088
   589.7500      0.0000    733.3530     11.3438    115.9460
   590.0000      0.0000    727.9432     11.0518    114.8461
   590.2500      0.0000    720.9260     10.7794    115.5580
   590.5000      0.0000    714.8142     10.5566    119.3538
   590.7500      0.0000    711.5695     10.4155    125.6958
   591.0000      0.0000    711.5429     10.3782    132.5360
   591.2500      0.0000    713.6599     10.4377    137.2530
   591.5000      0.0000    716.4813     10.5593    138.1280
   591.7500      0.0000    719.1461     10.6978    135.3338
   592.0000      0.0000    721.1967     10.8110    130.4808
   592.2500      0.0000    721.7817     10.8738    125.3360
   592.5000      0.0000    719.9454     10.8946    121.0266
   592.7500      0.0000    716.0321     10.9119    118.0815
   593.0000      0.0000    712.1424     10.9660    116.6127
   593.2500      0.0000    710.8142     11.0722    116.0560
   593.5000      0.0000    713.4075     11.2198    115.0438
   593.7500      0.0000    719.4470     11.3845    112.2720
   594.0000      0.0000    726.9573     11.5461    107.7144
   594.2500      0.0000    733.2628     11.7080    102.7122
   594.5000      0.0000    735.6757     11.8963     98.8424
