~Version Information
VERS.                      2.0: CWLS Log ASCII Standard - VERSION 2.0
WRAP.                       NO: One line per depth step
~Well Information Block
STRT.FT                 0.0000: 
STOP.FT              2086.0000: 
STEP.FT                 0.2500: 
NULL.                -999.2500: 
COMP.          Petrogulf Corporation: COMPANY
WELL.               YWAM 7-32R: WELL
FLD.           Purgatorie River: FIELD
LOC.           2355' FNL & 2376' FEL: LOCATION
STAT.                 Colorado: State
CNTY.               Las Animas: COUNTY
CTRY. USA : Country
SECT. 7 : Section
TOWN. 33S : Township
RANG. 67W : Range
SRVC.                Patterson: SERVICE COMPANY
DATE.          Wed Nov 09 16:33:59 2005: LOG DATE
API. 05-071-08518                         : UNIQUE WELL ID
~Curve Information Block
DEPT.FT            0 000 00 00: Depth
CCL.                          : Casing Collar Locator
TT3.usec                      : CBL 3' Travel Time
AMP3.mV                       : CBL 3' Amplitude
GR.GAPI                       : Gamma Ray
~Parameter Information Block
~A  Depth       CCL         TT3         AMP3         GR     
# ...
   536.0000      0.0000    593.5308      5.7662     87.7621
   536.2500      0.0000    551.0673      5.8052     89.3265
   536.5000      0.0000    502.7490      5.8673     91.0600
   536.7500      0.0000    451.9423      5.9220     92.6749
   537.0000      0.0000    409.6308      5.9470     94.0780
   537.2500      0.0000    385.9344      5.9538     95.1221
   537.5000      0.0000    377.4995      5.9708     95.4328
   537.7500      0.0000    375.8349      6.0044     94.7696
   538.0000      0.0000    377.6048      6.0365     93.3460
   538.2500      0.0000    387.4253      6.0561     91.5651
   538.5000      0.0000    417.4316      6.0667     89.6148
   538.7500      0.0000    475.7635      6.0762     87.5274
   539.0000      0.0000    547.5734      6.0926     85.4444
   539.2500      0.0000    601.0007      6.1121     83.6700
   539.5000      0.0000    617.9401      6.1237     82.6385
   539.7500      0.0000    604.9108      6.1199     82.8880
   540.0000      0.0000    577.3962      6.0963     84.7183
   540.2500      0.0000    543.7861      6.0568     87.6743
   540.5000      0.0000    504.0977      6.0291     90.4905
   540.7500      0.0000    463.2941      6.0574     91.7840
   541.0000      0.0000    437.0906      6.1672     91.0446
   541.2500      0.0000    441.3936      6.3316     89.0973
   541.5000      0.0000    480.6012      6.4861     87.4398
   541.7500      0.0000    539.0782      6.5907     87.0575
   542.0000      0.0000    588.8571      6.6555     87.8783
   542.2500      0.0000    615.2811      6.7087     89.1969
   542.5000      0.0000    624.1085      6.7653     90.4713
   542.7500      0.0000    625.3897      6.8222     91.7351
   543.0000      0.0000    622.7236      6.8623     93.0936
   543.2500      0.0000    614.3290      6.8720     93.7533
   543.5000      0.0000    599.6104      6.8675     92.0681
   543.7500      0.0000    585.6240      6.8877     87.0818
   544.0000      0.0000    581.8018      6.9478     79.7651
   544.2500      0.0000    586.6472      7.0133     72.3819
   544.5000      0.0000    589.4508      7.0439     66.8957
   544.7500      0.0000    583.3657      7.0464     64.1042
   545.0000      0.0000    566.9698      7.0636     63.8151
   545.2500      0.0000    538.3086      7.1318     65.4654
   545.5000      0.0000    496.4371      7.2616     68.5392
   545.7500      0.0000    449.3014      7.4262     72.4406
   546.0000      0.0000    413.0255      7.5657     76.2011
   546.2500      0.0000    397.4583      7.6406     78.7719
   546.5000      0.0000    397.6758      7.6782     79.7126
   546.7500      0.0000    402.3596      7.7388     79.2965
   547.0000      0.0000    404.4307      7.8519     77.8913
   547.2500      0.0000    402.4803      7.9823     75.5931
   547.5000      0.0000    398.5289      8.0624     72.5759
   547.7500      0.0000    397.3932      8.0646     69.4718
   548.0000      0.0000    404.8978      8.0046     67.0781
   548.2500      0.0000    426.4060      7.8903     65.7547
   548.5000      0.0000    464.6339      7.7286     65.2465
   548.7500      0.0000    510.7997      7.5563     64.9134
   549.0000      0.0000    544.9852      7.4191     64.0651
   549.2500      0.0000    556.5982      7.3341     62.5104
   549.5000      0.0000    554.3078      7.2824     61.0274
   549.7500      0.0000    550.9582      7.2330     60.8255
   550.0000      0.0000    551.9056      7.1633     62.1384
   550.2500      0.0000    558.6781      7.0621     63.6518
   550.5000      0.0000    572.7421      6.9374     63.6942
   550.7500      0.0000    592.7923      6.8150     61.6842
   551.0000      0.0000    613.1004      6.7059     58.1381
   551.2500      0.0000    626.5650      6.6102     53.8561
   551.5000      0.0000    628.4464      6.5535     49.6821
   551.7500      0.0000    620.2861      6.5679     46.6517
   552.0000      0.0000    609.6708      6.6323     45.6245
   552.2500      0.0000    602.0991      6.6900     46.7558
   552.5000      0.0000    596.9537      6.7344     49.5075
   552.7500      0.0000    592.6757      6.8028     52.9857
   553.0000      0.0000    590.3072      6.8985     56.1853
   553.2500      0.0000    591.7914      6.9923     58.3094
   553.5000      0.0000    600.3928      7.0724     59.1783
   553.7500      0.0000    618.9683      7.1433     59.2811
   554.0000      0.0000    641.6531      7.1958     59.3452
   554.2500      0.0000    657.1063      7.2071     59.7876
   554.5000      0.0000    662.5853      7.1697     60.4255
   554.7500      0.0000    663.6844      7.1007     60.6655
   555.0000      0.0000    661.8963      7.0177     60.1056
   555.2500      0.0000    652.2904      6.9308     59.0322
   555.5000      0.0000    632.5155      6.8603     58.4392
   555.7500      0.0000    606.7977      6.8273     59.5162
   556.0000      0.0000    582.4619      6.8276     62.6015
   556.2500      0.0000    567.9746      6.8521     66.3992
   556.5000      0.0000    568.2139      6.9039     68.8144
   556.7500      0.0000    576.6118      6.9792     68.9658
   557.0000      0.0000    579.0132      7.0568     67.8386
   557.2500      0.0000    567.2861      7.1055     66.7662
   557.5000      0.0000    548.4455      7.1044     66.0683
   557.7500      0.0000    538.4930      7.0447     65.5508
   558.0000      0.0000    540.3404      6.9032     65.5094
   558.2500      0.0000    542.3630      6.6463     66.4692
   558.5000      0.0000    547.0565      6.3030     68.1994
   558.7500      0.0000    566.6899      5.9889     69.5579
   559.0000      0.0000    590.5518      5.7956     69.4259
   559.2500      0.0000    594.1901      5.7564     67.6620
   559.5000      0.0000    569.0475      5.8774     65.2470
   559.7500      0.0000    522.8006      6.0887     63.7081
   560.0000      2.0000    472.8440      6.2923     64.3274
   560.2500     -2.0000    443.6046      6.4453     67.5126
   560.5000      0.0000    445.1884      6.5263     72.5787
   560.7500      0.0000    462.2804      6.5167     78.0883
   561.0000      0.0000    480.0198      6.4672     82.5820
   561.2500      0.0000    498.7309      6.5613     85.2593
   561.5000      0.0000    516.6497      6.9103     86.2402
   561.7500      0.0000    530.9497      7.2681     86.3715
   562.0000      0.0000    549.8949      7.3511     86.7391
   562.2500      0.0000    577.3562      7.2526     87.9778
   562.5000      0.0000    602.5115      7.1579     89.8457
   562.7500      0.0000    616.4608      7.0646     91.6616
   563.0000      0.0000    621.3607      6.9502     93.1038
   563.2500      0.0000    622.4805      6.8682     94.0508
   563.5000      0.0000    622.5074      6.8423     93.8500
   563.7500      0.0000    622.2903      6.8435     91.7472
   564.0000      0.0000    622.1235      6.8563     88.2434
   564.2500      0.0000    622.0510      6.8747     85.1287
   564.5000      0.0000    622.0412      6.8875     83.8827
   564.7500      0.0000    622.0900      6.9049     84.5856
   565.0000      0.0000    622.1299      6.9348     86.3327
   565.2500      0.0000    621.9788      6.9670     88.0949
   565.5000      0.0000    621.1810      7.0248     89.2830
   565.7500      0.0000    618.5406      7.1511     90.0449
   566.0000      0.0000    612.1076      7.3473     90.9961
   566.2500      0.0000    600.5495      7.5968     92.4639
   566.5000      0.0000    586.7517      7.8953     94.0908
   566.7500      0.0000    578.3740      8.2225     95.0615
   567.0000      0.0000    575.7068      8.5506     94.4130
   567.2500      0.0000    565.2705      8.8626     91.3946
   567.5000      0.0000    541.6591      9.1240     86.1038
   567.7500      0.0000    521.2010      9.2895     79.7012
   568.0000      0.0000    517.6572      9.3678     73.5495
   568.2500      0.0000    524.2258      9.4282     68.1362
   568.5000      0.0000    530.1566      9.4958     63.0644
   568.7500      0.0000    533.4307      9.5078     57.9243
   569.0000      0.0000    535.4572      9.4132     52.9771
   569.2500      0.0000    539.5071      9.2320     49.0793
