~Version Information
VERS.                      2.0: CWLS Log ASCII Standard - VERSION 2.0
WRAP.                       NO: One line per depth step
~Well Information Block
STRT.FT               -10.2500: 
STOP.FT              2437.2500: 
STEP.FT                 0.2500: 
NULL.                -999.2500: 
COMP.          Pioneer Natural Resources: COMPANY
WELL.          Hellzonfire 32-31: WELL
FLD.           Purgatorie River: FIELD
LOC.           1993' FNL & 2265' FEL------: LOCATION
STAT.                       CO: State
CNTY.               Las Animas: COUNTY
CTRY. USA : Country
SECT. 31 : Section
TOWN. 32S : Township
RANG. 66W : Range
SRVC.          Patterson Wireline: SERVICE COMPANY
DATE.          Thu Sep 08 11:10:17 2005: LOG DATE
API.           05 071 08483 00: UNIQUE WELL ID
~Curve Information Block
DEPT.FT            0 000 00 00: Depth
CCL.                          : Casing Collar Locator
TT3.usec                      : CBL 3' Travel Time
AMP3.mV                       : CBL 3' Amplitude
GR.GAPI                       : Gamma Ray
~Parameter Information Block
~A  Depth       CCL         TT3         AMP3         GR     
# ...
   626.2500      0.0000   1023.5959     11.0630     67.1682
   626.5000      0.0000   1026.5499     10.9175     68.5537
   626.7500      0.0000   1050.1047     10.7597     69.6305
   627.0000      0.0000   1079.5211     10.5997     70.0738
   627.2500      0.0000   1099.5933     10.4538     69.6626
   627.5000      0.0000   1107.3795     10.3303     68.4311
   627.7500      0.0000   1109.9255     10.2219     66.7996
   628.0000      0.0000   1113.3820     10.1149     65.3219
   628.2500      0.0000   1117.0021     10.0062     63.9431
   628.5000      0.0000   1117.1289      9.9061     61.7610
   628.7500      0.0000   1114.1494      9.8264     57.9603
   629.0000      0.0000   1113.0815      9.7724     52.8965
   629.2500      0.0000   1117.5400      9.7450     48.0484
   629.5000      0.0000   1125.2330      9.7443     44.9777
   629.7500      0.0000   1130.1907      9.7644     44.3339
   630.0000      0.0000   1128.2468      9.7891     45.6489
   630.2500      0.0000   1119.7521      9.8013     47.8907
   630.5000      0.0000   1107.8124      9.7947     50.1709
   630.7500      0.0000   1094.3252      9.7725     51.9510
   631.0000      0.0000   1078.3423      9.7365     52.9268
   631.2500      0.0000   1059.5248      9.6855     53.2364
   631.5000      0.0000   1042.8970      9.6252     53.7441
   631.7500      0.0000   1037.5280      9.5732     55.5639
   632.0000      0.0000   1048.4055      9.5508     59.0013
   632.2500      0.0000   1070.0189      9.5718     63.1834
   632.5000      0.0000   1088.0491      9.6391     66.8337
   632.7500      0.0000   1086.8378      9.7508     69.2381
   633.0000      0.0000   1057.6143      9.9046     70.3843
   633.2500      0.0000   1004.9834     10.0949     70.4407
   633.5000      0.0000    946.9055     10.3050     69.3499
   633.7500      0.0000    903.3077     10.5037     66.9553
   634.0000      0.0000    880.7672     10.6538     63.5522
   634.2500      0.0000    870.1595     10.7292     60.2133
   634.5000      0.0000    860.2668     10.7289     58.3271
   634.7500      0.0000    849.5242     10.6766     58.7439
   635.0000      0.0000    843.1578     10.6063     61.4443
   635.2500      0.0000    844.4510     10.5499     65.9764
   635.5000      0.0000    852.4324     10.5337     72.1653
   635.7500      0.0000    864.5644     10.5752     80.4178
   636.0000      0.0000    878.3599     10.6717     91.2455
   636.2500      0.0000    892.2701     10.7933    104.1902
   636.5000      0.0000    907.1467     10.8951    116.9533
   636.7500      0.0000    925.3379     10.9420    125.8206
   637.0000      0.0000    946.5090     10.9264    127.9695
   637.2500      0.0000    965.5309     10.8668    124.1483
   637.5000      0.0000    975.1153     10.7936    118.6065
   637.7500      0.0000    969.4335     10.7308    115.8342
   638.0000      0.0000    946.0602     10.6872    117.4956
   638.2500      0.0000    907.7318     10.6599    122.0853
   638.5000      0.0000    863.1768     10.6450    126.6506
   638.7500      0.0000    823.6180     10.6439    128.9114
   639.0000      0.0000    796.3607     10.6614    128.5979
   639.2500      0.0000    781.7338     10.7029    127.2722
   639.5000      0.0000    775.6286     10.7670    126.8479
   639.7500      0.0000    773.6671     10.8384    128.0952
   640.0000      0.0000    773.2062     10.8886    130.3679
   640.2500      0.0000    773.1536     10.8903    132.3868
   640.5000      0.0000    773.1876     10.8340    133.1009
   640.7500      0.0000    773.2250     10.7338    132.2471
   641.0000      0.0000    773.1531     10.6177    130.5985
   641.2500      0.0000    772.6918     10.5113    129.3590
   641.5000      0.0000    771.2563     10.4271    128.8554
   641.7500      0.0000    767.9562     10.3675    128.1380
   642.0000      0.0000    762.0618     10.3337    126.3254
   642.2500      0.0000    753.9572     10.3265    124.0163
   642.5000      0.0000    745.7595     10.3393    122.7822
   642.7500      0.0000    740.5923     10.3564    123.3446
   643.0000      0.0000    740.7311     10.3637    124.9306
   643.2500      0.0000    746.0897     10.3607    126.4709
   643.5000      0.0000    754.2846     10.3622    127.7419
   643.7500      0.0000    762.2481     10.3884    129.1467
   644.0000      0.0000    768.1252     10.4494    130.8351
   644.2500      0.0000    772.0410     10.5335    132.0794
   644.5000      0.0000    775.4591     10.6128    131.3857
   644.7500      0.0000    779.9300     10.6621    127.7043
   645.0000      0.0000    786.1342     10.6671    121.8232
   645.2500      0.0000    793.3814     10.6135    116.2318
   645.5000      0.0000    799.4730     10.4729    113.5206
   645.7500      0.0000    801.6749     10.2077    115.1530
   646.0000      0.0000    800.2084      9.7939    121.1525
   646.2500      0.0000    802.2313      9.2400    129.7260
   646.5000      0.0000    820.1934      8.5846    136.9494
   646.7500      0.0000    862.7775      7.8800    137.9827
   647.0000      0.0000    926.6055      7.1768    129.8333
   647.2500      0.0000    997.5265      6.5160    113.4331
   647.5000      0.0000   1059.7565      5.9206     93.2477
   647.7500      0.0000   1104.1002      5.3895     74.8767
   648.0000      0.0000   1129.9286      4.9060     62.4164
   648.2500      0.0000   1141.9323      4.4583     57.0624
   648.5000      0.0000   1145.3755      4.0545     57.3195
   648.7500      0.0000   1142.8213      3.7186     60.1895
   649.0000      0.0000   1133.6604      3.4763     62.5239
   649.2500      0.0000   1116.4039      3.3434     62.1026
   649.5000      0.0000   1092.4739      3.3192     58.1729
   649.7500      0.0000   1067.8524      3.3854     51.4106
   650.0000      0.0000   1049.4824      3.5148     43.5147
   650.2500      0.0000   1039.2153      3.6898     36.6135
   650.5000      0.0000   1032.6826      3.9127     32.3620
   650.7500      0.0000   1024.8376      4.1979     31.0586
   651.0000      0.0000   1015.0840      4.5565     31.7691
   651.2500      0.0000   1006.1888      4.9863     33.7736
   651.5000      0.0000   1000.0153      5.4726     37.9414
   651.7500      0.0000    995.6156      5.9981     46.3139
   652.0000      0.0000    990.3796      6.5569     59.9799
   652.2500      0.0000    981.8033      7.1589     77.2414
   652.5000      0.0000    968.4359      7.8203     94.1024
   652.7500      0.0000    950.1965      8.5475    107.0052
   653.0000      0.0000    929.1995      9.3242    115.3179
   653.2500      0.0000    911.0060     10.1079    121.0045
   653.5000      0.0000    903.0957     10.8385    125.9879
   653.7500      0.0000    908.8234     11.4567    130.3682
   654.0000      0.0000    922.8239     11.9187    133.2454
   654.2500      0.0000    934.6036     12.1994    134.4350
   654.5000      0.0000    937.1743     12.2989    134.7616
   654.7500      0.0000    932.1042     12.2576    134.9838
   655.0000      0.0000    927.7642     12.1520    135.0215
   655.2500      0.0000    933.0618     12.0582    134.2639
   655.5000      0.0000    950.7811     12.0101    132.1793
   655.7500      0.0000    975.4962     11.9948    128.4367
   656.0000      0.0000    997.7483     11.9840    122.7916
   656.2500      0.0000   1009.4359     11.9679    115.3806
   656.5000      0.0000   1005.3604     11.9622    107.3041
   656.7500      0.0000    982.4307     11.9839    100.5174
   657.0000      0.0000    941.1571     12.0221     96.4351
   657.2500      0.0000    889.0889     12.0357     94.5332
   657.5000      0.0000    839.8710     11.9891     92.7780
   657.7500      0.0000    806.3804     11.8847     89.6167
   658.0000      0.0000    794.3351     11.7552     85.3568
   658.2500      0.0000    800.2546     11.6314     81.6773
   658.5000      0.0000    812.3723     11.5269     80.0823
   658.7500      0.0000    815.9324     11.4504     80.7511
   659.0000      0.0000    803.3831     11.4158     82.5178
   659.2500      0.0000    780.3093     11.4250     83.8324
   659.5000      0.0000    759.7689     11.4301     84.0137
