~Version Information
VERS.                      2.0: CWLS Log ASCII Standard - VERSION 2.0
WRAP.                       NO: One line per depth step
~Well Information Block
STRT.FT                 7.7500: 
STOP.FT              2101.0000: 
STEP.FT                 0.2500: 
NULL.                -999.2500: 
COMP.          Pioneer Natural Resources: COMPANY
WELL.          Gunslinger 13-24: WELL
FLD.           Purgatoire River: FIELD
LOC.           1968' FSL & 633' FWL: LOCATION
PROV.                 Colorado: PROVINCE
CNTY.               Las Animas: COUNTRY
SRVC.                Patterson: SERVICE COMPANY
DATE.          Mon Aug 15 11:00:02 2005: LOG DATE
UWI.           05 071 08442 00: UNIQUE WELL ID
~Curve Information Block
DEPT.FT            0 000 00 00: Depth
GR.GAPI                       : Gamma Ray
CCL.                          : Casing Collar Locator
TT3.usec                      : CBL 3' Travel Time
AMP3.mV                       : CBL 3' Amplitude
~Parameter Information Block
~A  Depth        GR         CCL         TT3         AMP3    
# ...
  2051.2500    110.3902      0.0000    520.2157     17.5475
  2051.5000    109.3637      0.0000    564.9609     16.7617
  2051.7500    107.2308      0.0000    610.5059     16.2599
  2052.0000    104.6539      0.0000    647.0519     16.1376
  2052.2500    102.2899      0.0000    666.7012     16.5364
  2052.5000    101.0716      0.0000    666.7842     17.6118
  2052.7500    101.8493      0.0000    646.7073     19.4597
  2053.0000    104.4996      0.0000    604.9437     22.0573
  2053.2500    107.7302      0.0000    542.5747     25.2745
  2053.5000    110.1179      0.0000    468.7963     28.9382
  2053.7500    111.1466      0.0000    398.5854     32.8777
  2054.0000    111.0418      0.0000    343.3665     36.9155
  2054.2500    110.0379      0.0000    305.6263     40.8479
  2054.5000    108.1757      0.0000    281.8779     44.4574
  2054.7500    105.5488      0.0000    267.7903     47.5424
  2055.0000    102.4749      0.0000    260.1385     49.9388
  2055.2500     99.5763      0.0000    256.5157     51.5396
  2055.5000     97.7507      0.0000    255.0928     52.3201
  2055.7500     97.7176      0.0000    254.7290     52.3466
  2056.0000     99.3324      0.0000    254.9867     51.7419
  2056.2500    101.5319      0.0000    256.0908     50.6254
  2056.5000    103.1606      0.0000    258.8891     49.0796
  2056.7500    103.7432      0.0000    264.9302     47.1583
  2057.0000    103.3839      0.0000    276.7111     44.9081
  2057.2500    102.2446      0.0000    298.2849     42.3875
  2057.5000    100.4331      0.0000    335.0658     39.6865
  2057.7500     98.2943      0.0000    390.4542     36.9428
  2058.0000     96.5361      0.0000    459.4398     34.3382
  2058.2500     95.9869      0.0000    526.4387     32.0588
  2058.5000     97.1678      0.0000    574.7025     30.2160
  2058.7500     99.9147      0.0000    600.5993     28.7715
  2059.0000    103.3312      0.0000    615.4673     27.5490
  2059.2500    106.2145      0.0000    631.5279     26.3481
  2059.5000    107.6749      0.0000    649.8420     25.0708
  2059.7500    107.4779      0.0000    664.0359     23.7542
  2060.0000    105.9658      0.0000    670.7490     22.5005
  2060.2500    103.7661      0.0000    672.1993     21.3836
  2060.5000    101.4575      0.0000    671.3118     20.4063
  2060.7500     99.2804      0.0000    668.7780     19.5151
  2061.0000     97.0568      0.0000    664.8839     18.6286
  2061.2500     94.4447      0.0000    661.5634     17.6479
  2061.5000     91.2980      0.0000    661.3796     16.4643
  2061.7500     87.7669      0.0000    665.3400     14.9862
  2062.0000     84.2202      0.0000    672.1529     13.1870
  2062.2500     81.2499      0.0000    679.0452     11.1561
  2062.5000     79.4970      0.0000    682.9181      9.1252
  2062.7500     79.1780      0.0000    681.8568      7.4127
  2063.0000     79.9283      0.0000    676.5208      6.2708
  2063.2500     81.1919      0.0000    669.4200      5.7384
  2063.5000     82.5443      0.0000    662.4681      5.6341
  2063.7500     83.7129      0.0000    656.3374      5.6935
  2064.0000     84.7364      0.0000    652.0360      5.7320
  2064.2500     86.1840     -1.6013    650.9176      5.7137
  2064.5000     88.7923     -1.8269    652.5891      5.7162
  2064.7500     92.7006      0.0000    654.7706      5.8733
  2065.0000     97.1204      0.0000    655.9010      6.3269
  2065.2500    100.7413      0.0000    656.3945      7.1427
  2065.5000    102.5051      0.0000    656.9194      8.2170
  2065.7500    102.2809      0.0000    656.8756      9.3214
  2066.0000    100.9509      0.0000    655.3278     10.2884
  2066.2500     99.7013      0.0000    652.5326     11.1043
  2066.5000     99.0667      0.0000    649.6393     11.8012
  2066.7500     98.5850      0.0000    647.1957     12.3394
  2067.0000     97.3232      0.0000    644.3197     12.6426
  2067.2500     94.8106      0.0000    639.0689     12.6877
  2067.5000     91.5576      0.0000    629.7201     12.5243
  2067.7500     88.6058      0.0000    616.5264     12.2303
  2068.0000     86.5976      0.0000    602.7060     11.8703
  2068.2500     85.4559      0.0000    593.0775     11.4845
  2068.5000     84.8259      0.0000    590.6566     11.0946
  2068.7500     84.4388      0.0000    593.9382     10.7131
  2069.0000     84.0628      0.0000    597.5934     10.3437
  2069.2500     83.5261      0.0000    596.5587      9.9823
  2069.5000     82.9201      0.0000    589.9517      9.6224
  2069.7500     82.6372      0.0000    580.9918      9.2633
  2070.0000     83.0913      0.0000    573.4932      8.9098
  2070.2500     84.2537      0.0000    569.0449      8.5669
  2070.5000     85.3726      0.0000    567.0795      8.2346
  2070.7500     85.3261      0.0000    566.4059      7.9113
  2071.0000     83.4391      0.0000    566.2159      7.6017
  2071.2500     80.0326      0.0000    566.1870      7.3212
  2071.5000     76.3289      0.0000    566.2468      7.0905
  2071.7500     73.9242      0.0000    566.4152      6.9262
  2072.0000     74.1133      0.0000    566.9020      6.8364
  2072.2500     77.2915      0.0000    568.5076      6.8219
  2072.5000     82.7435      0.0000    573.2382      6.8750
  2072.7500     89.0197      0.0000    584.4014      6.9767
  2073.0000     94.6111      0.0000    604.8834      7.0998
  2073.2500     98.4272      0.0000    633.7817      7.2227
  2073.5000    100.0229      0.0000    664.8157      7.3396
  2073.7500     99.7784      0.0000    689.7935      7.4594
  2074.0000     98.7182      0.0000    704.5686      7.5909
  2074.2500     97.7348      0.0000    711.1213      7.7286
  2074.5000     96.9570      0.0000    713.9319      7.8518
  2074.7500     96.0464      0.0000    715.2260      7.9353
  2075.0000     94.9174      0.0000    713.8461      7.9629
  2075.2500     93.8680      0.0000    708.0059      7.9339
  2075.5000     93.0952      0.0000    698.4474      7.8603
  2075.7500     92.3158      0.0000    688.6522      7.7596
  2076.0000     91.0025      0.0000    682.4538      7.6471
  2076.2500     89.0580      0.0000    681.9188      7.5326
  2076.5000     87.1256      0.0000    686.6624      7.4190
  2076.7500     86.0156      0.0000    693.6508      7.3049
  2077.0000     85.8871      0.0000    697.8204      7.1895
  2077.2500     86.1816      0.0000    694.8340      7.0783
  2077.5000     86.2842      0.0000    684.4461      6.9814
  2077.7500     86.0456      0.0000    670.7266      6.9079
  2078.0000     85.7050      0.0000    658.6306      6.8615
  2078.2500     85.5424      0.0000    650.6818      6.8400
  2078.5000     85.5884      0.0000    646.6002      6.8374
  2078.7500     85.5434      0.0000    644.9008      6.8459
  2079.0000     85.0344      0.0000    644.1944      6.8561
  2079.2500     83.9904      0.0000    643.3876      6.8588
  2079.5000     82.7470      0.0000    641.2531      6.8482
  2079.7500     81.8711      0.0000    636.1453      6.8237
  2080.0000     81.9945      0.0000    626.5772      6.7883
  2080.2500     83.5245      0.0000    612.6368      6.7446
  2080.5000     86.0642      0.0000    596.8335      6.6957
  2080.7500     88.1786      0.0000    582.9620      6.6472
  2081.0000     88.2633      0.0000    573.8145      6.6049
  2081.2500     85.9043      0.0000    570.1594      6.5718
  2081.5000     82.2161      0.0000    571.5560      6.5464
  2081.7500     78.8121      0.0000    577.2527      6.5252
  2082.0000     76.6575      0.0000    586.0588      6.5050
  2082.2500     75.8153      0.0000    596.0294      6.4840
  2082.5000     75.9189      0.0000    604.7786      6.4615
  2082.7500     76.7123      0.0000    610.1064      6.4392
  2083.0000     78.2352      0.0000    610.6387      6.4197
  2083.2500     80.5974      0.0000    606.3011      6.4043
  2083.5000     83.6143      0.0000    597.6526      6.3919
  2083.7500     86.6702      0.0000    584.2669      6.3792
  2084.0000     89.0651      0.0000    564.6365      6.3605
  2084.2500     90.6258      0.0000    538.9005      6.3303
  2084.5000     91.9370      0.0000    511.4793      6.2862
