~Version Information
VERS.                      2.0: CWLS Log ASCII Standard - VERSION 2.0
WRAP.                       NO: One line per depth step
~Well Information Block
STRT.FT                -6.7500: 
STOP.FT              1544.5000: 
STEP.FT                 0.2500: 
NULL.                -999.2500: 
COMP.          Pioneer Natural Resources: COMPANY
WELL.          Lorencito 10-36-33-67: WELL
FLD.           Purgatorie River: FIELD
LOC.           2130' FSL & 2362' FEL--: LOCATION
STAT.                       CO: State
CNTY.               Las Animas: COUNTY
CTRY. USA : Country
SECT. 36 : Section
TOWN. 33S : Township
RANG. 67W : Range
SRVC.          Patterson Wireline: SERVICE COMPANY
DATE.          Fri Sep 02 09:21:42 2005: LOG DATE
API.           05 071 08501 00: UNIQUE WELL ID
~Curve Information Block
DEPT.FT            0 000 00 00: Depth
CCL.                          : Casing Collar Locator
TT3.usec                      : CBL 3' Travel Time
AMP3.mV                       : CBL 3' Amplitude
GR.GAPI                       : Gamma Ray
~Parameter Information Block
~A  Depth       CCL         TT3         AMP3         GR     
# ...
   294.7500      0.0000    769.4178     11.6376     90.6426
   295.0000      0.0000    767.3012     11.7148     91.8793
   295.2500      0.0000    763.8833     11.8067     91.5386
   295.5000      0.0000    759.6946     11.9072     90.9931
   295.7500      0.0000    756.1356     12.0049     92.1295
   296.0000      0.0000    754.7479     12.0810     96.1773
   296.2500      0.0000    756.1806     12.1178    102.6399
   296.5000      0.0000    759.6910     12.1121    109.4567
   296.7500      0.0000    763.5193     12.0808    114.3946
   297.0000      0.0000    765.7935     12.0508    116.6176
   297.2500      0.0000    765.2794     12.0429    116.9957
   297.5000      0.0000    761.7729     12.0617    116.6084
   297.7500      0.0000    756.3443     12.0956    115.3546
   298.0000      0.0000    751.1730     12.1229    112.7397
   298.2500      0.0000    748.4926     12.1194    109.4462
   298.5000      0.0000    749.2796     12.0707    106.9561
   298.7500      0.0000    752.8107     11.9827    105.8283
   299.0000      0.0000    757.1235     11.8761    105.2932
   299.2500      0.0000    759.8367     11.7677    104.4783
   299.5000      0.0000    759.4017     11.6573    103.2140
   299.7500      0.0000    756.3836     11.5337    101.6026
   300.0000      0.0000    753.2970     11.3873     99.4320
   300.2500      0.0000    752.3494     11.2175     96.3561
   300.5000      0.0000    753.1136     11.0303     92.4274
   300.7500      0.0000    752.9775     10.8297     88.2557
   301.0000      0.0000    750.2247     10.6126     84.6812
   301.2500      0.0000    746.2900     10.3734     82.1813
   301.5000      0.0000    744.5709     10.1169     80.5132
   301.7500      0.0000    747.0628      9.8637     79.2398
   302.0000      0.0000    752.3160      9.6400     78.6087
   302.2500      0.0000    756.5228      9.4620     79.3052
   302.5000      0.0000    756.4414      9.3277     81.1858
   302.7500      0.0000    751.6236      9.2227     83.0712
   303.0000      0.0000    744.5470      9.1342     84.1581
   303.2500      0.0000    738.8704      9.0634     84.8780
   303.5000      0.0000    737.1729      9.0276     85.9422
   303.7500      0.0000    739.7882      9.0476     87.1081
   304.0000      0.0000    745.3699      9.1296     87.2928
   304.2500      0.0000    752.2172      9.2546     85.5898
   304.5000      0.0000    759.0287      9.3876     82.0504
   304.7500      0.0000    764.9481      9.4993     77.8200
   305.0000      0.0000    769.9035      9.5812     74.4631
   305.2500      0.0000    775.6364      9.6413     72.7707
   305.5000      0.0000    786.9254      9.6896     72.2734
   305.7500      0.0000    811.5042      9.7299     72.0407
   306.0000      0.0000    856.1306      9.7637     71.7342
   306.2500      0.0000    918.8217      9.8007     71.7629
   306.5000      0.0000    983.8746      9.8583     72.5207
   306.7500      0.0000   1027.7098      9.9509     73.5603
   307.0000      0.0000   1033.3741     10.0779     73.7198
   307.2500      0.0000   1001.2951     10.2227     72.2451
   307.5000      0.0000    947.2751     10.3635     69.4950
   307.7500      0.0000    890.8576     10.4876     66.2421
   308.0000      0.0000    844.7386     10.5949     62.6893
   308.2500      0.0000    812.4688     10.6910     58.5762
   308.5000      0.0000    792.3234     10.7792     53.8762
   308.7500      0.0000    781.0884     10.8612     48.9826
   309.0000      0.0000    775.4069     10.9421     44.4608
   309.2500      0.0000    772.0296     11.0302     40.8391
   309.5000      0.0000    768.1547     11.1306     38.3273
   309.7500      0.0000    761.9468     11.2409     36.5324
   310.0000      0.0000    753.1718     11.3542     34.7420
   310.2500      0.0000    743.4244     11.4638     32.7417
   310.5000      0.0000    735.2455     11.5652     31.0923
   310.7500      0.0000    730.6465     11.6545     30.4048
   311.0000      0.0000    730.3131     11.7258     30.7574
   311.2500      0.0000    733.6141     11.7726     32.0450
   311.5000      0.0000    738.6730     11.7923     34.3672
   311.7500      0.0000    742.7612     11.7900     37.7302
   312.0000      0.0000    743.8842     11.7741     41.7404
   312.2500      0.0000    742.5158     11.7502     45.8032
   312.5000      0.0000    741.1904     11.7187     49.2469
   312.7500      0.0000    742.0351     11.6790     51.1814
   313.0000      0.0000    744.9857     11.6349     50.8251
   313.2500      0.0000    748.2608     11.5937     48.3787
   313.5000      0.0000    750.0472     11.5612     45.3667
   313.7500      0.0000    749.9266     11.5362     43.8195
   314.0000      0.0000    749.1652     11.5110     44.9833
   314.2500      0.0000    749.4664     11.4783     48.5383
   314.5000      0.0000    751.3503     11.4382     52.7040
   314.7500      0.0000    754.1559     11.3976     55.2822
   315.0000      0.0000    757.1724     11.3644     55.2046
   315.2500      0.0000    759.6816     11.3425     53.3555
   315.5000      0.0000    759.9498     11.3343     51.7105
   315.7500      0.0000    755.5204     11.3387     51.5418
   316.0000      0.0000    745.7684     11.3428     52.4958
   316.2500      0.0000    734.4148     11.3194     53.2118
   316.5000      0.0000    728.4219     11.2459     52.4816
   316.7500      0.0000    732.9820     11.1286     50.0414
   317.0000      0.0000    747.7067     10.9989     46.9712
   317.2500      0.0000    768.1317     10.8872     45.5032
   317.5000      0.0000    788.8427     10.8034     47.7256
   317.7500      0.0000    803.5452     10.7394     53.7453
   318.0000      0.0000    805.0278     10.6825     61.0829
   318.2500      0.0000    789.4716     10.6241     66.3549
   318.5000      0.0000    760.8627     10.5579     67.8627
   318.7500      0.0000    729.1288     10.4729     66.5279
   319.0000      0.0000    704.1004     10.3575     64.5268
   319.2500      0.0000    691.1702     10.2166     63.5393
   319.5000      0.0000    689.9188     10.0766     64.2736
   319.7500      0.0000    695.4204      9.9605     66.7088
   320.0000      0.0000    701.6556      9.8662     69.9942
   320.2500      0.0000    704.2385      9.7753     72.5841
   320.5000      0.0000    701.3901      9.6814     73.4751
   320.7500      0.0000    695.6344      9.6038     73.3022
   321.0000      0.0000    696.2911      9.5769     73.5760
   321.2500      0.0000    717.5161      9.6205     74.9204
   321.5000      0.0000    768.6060      9.7125     76.6311
   321.7500      0.0000    842.5320      9.7929     77.8861
   322.0000      0.0000    914.2361      9.8011     78.7330
   322.2500      0.0000    953.9402      9.7091     79.6824
   322.5000      0.0000    946.1317      9.5211     80.8883
   322.7500      0.0000    898.7335      9.2505     82.1026
   323.0000      0.0000    836.8569      8.8921     83.0704
   323.2500      0.0000    789.3811      8.4140     83.5226
   323.5000      0.0000    777.6403      7.8007     83.0675
   323.7500      0.0000    807.9683      7.1206     81.5548
   324.0000      0.0000    868.9125      6.5220     79.4620
   324.2500      0.0000    937.3248      6.1266     77.6012
   324.5000      0.0000    992.0878      5.9364     76.5744
   324.7500      0.0000   1023.4910      5.8613     76.6563
   325.0000      2.0000   1029.6929      5.8193     78.0066
   325.2500      0.0000   1009.0727      5.8040     80.7674
   325.5000      0.0000    961.9935      5.8799     84.8392
   325.7500      0.0000    898.0573      6.1320     89.4622
   326.0000      0.0000    834.3352      6.6050     93.2631
   326.2500      0.0000    784.2041      7.2615     95.0213
   326.5000      0.0000    750.9636      7.9891     94.3672
   326.7500      0.0000    732.5242      8.6489     91.8802
   327.0000      0.0000    727.5015      9.1355     88.9091
   327.2500      0.0000    734.2567      9.4160     86.9661
   327.5000      0.0000    747.6164      9.5282     86.4463
   327.7500      0.0000    760.6245      9.5399     85.8442
   328.0000      0.0000    769.1563      9.5121     82.8880
