~Version Information
VERS.                      2.0: CWLS Log ASCII Standard - VERSION 2.0
WRAP.                       NO: One line per depth step
~Well Information Block
STRT.FT                -8.0000: 
STOP.FT              1472.2500: 
STEP.FT                 0.2500: 
NULL.                -999.2500: 
COMP.          Pioneer Natural Resources: COMPANY
WELL.           Amore 32-09 Tr: WELL
FLD.           Purgatoire River: FIELD
LOC.           1941' FNL & 2297' FEL--: LOCATION
PROV.                       CO: PROVINCE
CNTY.               Las Animas: COUNTRY
SRVC.          Patterson Wireline: SERVICE COMPANY
DATE.          Tue Nov 22 11:37:00 2005: LOG DATE
UWI.           05 071 08584 00: UNIQUE WELL ID
~Curve Information Block
DEPT.FT            0 000 00 00: Depth
CCL.                          : Casing Collar Locator
TT3.usec                      : CBL 3' Travel Time
AMP3.mV                       : CBL 3' Amplitude
GR.GAPI                       : Gamma Ray
~Parameter Information Block
~A  Depth       CCL         TT3         AMP3         GR     
# ...
    92.5000      0.0000    763.8378     11.0101     52.7735
    92.7500      0.0000    758.8156     10.7893     56.1143
    93.0000      0.0000    756.1083     10.5932     61.2969
    93.2500      0.0000    754.6501     10.4253     67.7336
    93.5000      0.0000    753.4367     10.2361     74.5547
    93.7500      0.0000    753.3295      9.9340     81.1623
    94.0000      0.0000    758.6460      9.4522     87.4005
    94.2500      0.0000    775.5555      8.8244     92.9744
    94.5000      0.0000    806.2234      8.1805     97.1156
    94.7500      0.0000    844.8285      7.6522     99.1797
    95.0000      0.0000    882.7170      7.2896     99.1615
    95.2500      0.0000    917.2202      7.0662     97.2134
    95.5000      0.0000    950.9505      6.9425     93.2375
    95.7500      2.0000    982.9050      6.9085     87.6585
    96.0000      0.0000   1005.9417      6.9835     82.1331
    96.2500      0.0000   1012.5466      7.2054     78.5412
    96.5000      0.0000    998.1310      7.6372     77.1467
    96.7500      0.0000    961.7431      8.3507     76.2942
    97.0000      0.0000    909.8396      9.3352     74.0331
    97.2500      0.0000    856.7374     10.3947     69.7515
    97.5000      0.0000    815.9766     11.1933     64.4417
    97.7500      0.0000    791.7474     11.4656     60.0156
    98.0000      0.0000    780.1091     11.1971     58.2560
    98.2500      0.0000    775.7896     10.6056     59.5641
    98.5000      0.0000    775.7047      9.9730     62.3373
    98.7500      0.0000    777.8880      9.4957     64.0432
    99.0000      0.0000    780.3723      9.2424     63.2560
    99.2500      0.0000    782.0634      9.1787     60.5227
    99.5000      0.0000    783.5157      9.2012     57.3462
    99.7500      0.0000    786.1559      9.1820     54.7766
   100.0000      0.0000    791.6548      9.0337     52.9625
   100.2500      0.0000    803.0223      8.7533     51.4716
   100.5000      0.0000    825.1357      8.4039     49.7359
   100.7500      0.0000    860.8832      8.0611     47.4346
   101.0000      0.0000    904.2762      7.7796     44.6680
   101.2500      0.0000    939.8740      7.5914     41.8171
   101.5000      0.0000    954.2408      7.5025     39.2754
   101.7500      0.0000    948.2042      7.4779     37.3901
   102.0000      0.0000    934.8325      7.4486     36.5506
   102.2500      0.0000    927.9768      7.3564     36.9937
   102.5000      0.0000    936.0226      7.1970     38.3662
   102.7500      0.0000    959.7177      7.0175     39.7713
   103.0000      0.0000    987.9759      6.8820     40.5305
   103.2500      0.0000   1001.2979      6.8431     40.8524
   103.5000      0.0000    988.1270      6.9277     41.5739
   103.7500      0.0000    955.7830      7.1315     43.2159
   104.0000      0.0000    920.3073      7.4294     45.3902
   104.2500      0.0000    889.7123      7.7919     47.1645
   104.5000      0.0000    863.1232      8.1868     47.9019
   104.7500      0.0000    842.5405      8.5714     47.6947
   105.0000      0.0000    837.3656      8.9061     47.1995
   105.2500      0.0000    855.2889      9.1844     47.2164
   105.5000      0.0000    890.6690      9.4328     48.2977
   105.7500      0.0000    924.5095      9.6778     50.5486
   106.0000      0.0000    939.7693      9.9231     53.6051
   106.2500      0.0000    936.6194     10.1578     56.7030
   106.5000      0.0000    927.8519     10.3757     58.8798
   106.7500      0.0000    920.1296     10.5781     59.4792
   107.0000      0.0000    907.5185     10.7569     58.9010
   107.2500      0.0000    884.5333     10.8824     58.8528
   107.5000      0.0000    856.9816     10.9206     61.3148
   107.7500      0.0000    836.1099     10.8679     66.9439
   108.0000      0.0000    827.4362     10.7622     74.7852
   108.2500      0.0000    829.1078     10.6536     83.3782
   108.5000      0.0000    837.7769     10.5669     91.4000
   108.7500      0.0000    851.7158     10.4943     97.4278
   109.0000      0.0000    868.6724     10.4183    100.4034
   109.2500      0.0000    884.1516     10.3381    100.8407
   109.5000      0.0000    893.1136     10.2744    100.7409
   109.7500      0.0000    892.1151     10.2456    101.8271
   110.0000      0.0000    880.2021     10.2404    104.2582
   110.2500      0.0000    859.7870     10.2220    107.0869
   110.5000      0.0000    836.6560     10.1675    109.3425
   110.7500      0.0000    817.1164     10.0948    110.4657
   111.0000      0.0000    804.3619     10.0478    110.0938
   111.2500      0.0000    797.7742     10.0604    107.8671
   111.5000      0.0000    794.9957     10.1377    103.7931
   111.7500      0.0000    793.9725     10.2623     98.8908
   112.0000      0.0000    793.5465     10.4097     94.9815
   112.2500      0.0000    793.1028     10.5568     93.2987
   112.5000      0.0000    792.0619     10.6794     93.3956
   112.7500      0.0000    789.6517     10.7510     93.7624
   113.0000      0.0000    785.2650     10.7552     93.4671
   113.2500      0.0000    779.3273     10.7006     92.8882
   113.5000      0.0000    773.8300     10.6160     92.8218
   113.7500      0.0000    771.4505     10.5295     93.0740
   114.0000      0.0000    773.5575     10.4550     92.1660
   114.2500      0.0000    779.0170     10.3970     88.8551
   114.5000      0.0000    785.1024     10.3576     84.1043
   114.7500      0.0000    789.4788     10.3348     80.9358
   115.0000      0.0000    791.2582     10.3167     81.7713
   115.2500      0.0000    790.6872     10.2817     85.9978
   115.5000      0.0000    788.6184     10.2054     90.3089
   115.7500      0.0000    786.4070     10.0705     91.4258
   116.0000      0.0000    785.5616      9.8780     88.6978
   116.2500      0.0000    786.7905      9.6490     84.5171
   116.5000      0.0000    789.5045      9.4083     82.2879
   116.7500      0.0000    792.6562      9.1671     83.6605
   117.0000      0.0000    796.0405      8.9261     87.5640
   117.2500      0.0000    800.6368      8.6910     91.8120
   117.5000      0.0000    807.6987      8.4702     95.1089
   117.7500      0.0000    817.3776      8.2547     97.0793
   118.0000      0.0000    828.0489      8.0137     97.0556
   118.2500      0.0000    837.0108      7.7189     94.1410
   118.5000      0.0000    841.8856      7.3719     88.5726
   118.7500      0.0000    841.3890      7.0054     82.0035
   119.0000      0.0000    835.5193      6.6609     76.0896
   119.2500      0.0000    826.2313      6.3722     71.3489
   119.5000      0.0000    817.8380      6.1721     67.6609
   119.7500      0.0000    814.8939      6.1021     65.3808
   120.0000      0.0000    818.2723      6.1938     65.3787
   120.2500      0.0000    823.9359      6.4325     67.9541
   120.5000      0.0000    826.4371      6.7540     72.1955
   120.7500      0.0000    823.3575      7.0916     76.6695
   121.0000      0.0000    816.3347      7.4206     80.3613
   121.2500      0.0000    808.7452      7.7521     82.6903
   121.5000      0.0000    803.0091      8.0938     83.0908
   121.7500      0.0000    799.6461      8.4293     81.1441
   122.0000      0.0000    797.9679      8.7359     77.0849
   122.2500      0.0000    797.0930      9.0112     71.9892
   122.5000      0.0000    796.4149      9.2723     67.4012
   122.7500      0.0000    795.5156      9.5280     64.5683
   123.0000      0.0000    793.9149      9.7619     63.7315
   123.2500      0.0000    791.0010      9.9476     64.1358
   123.5000      0.0000    786.4847     10.0768     64.7813
   123.7500      0.0000    781.1824     10.1711     64.9004
   124.0000      0.0000    777.0717     10.2660     63.7250
   124.2500      0.0000    775.8521     10.3824     60.5204
   124.5000      0.0000    777.2983     10.5095     55.5190
   124.7500      0.0000    779.6136     10.6195     50.5078
   125.0000      0.0000    781.5328     10.6958     47.7302
   125.2500      0.0000    783.4039     10.7460     48.0250
   125.5000      0.0000    786.0107     10.7919     50.2325
   125.7500      0.0000    789.1360     10.8570     52.3596
