~Version Information
VERS.                      2.0: CWLS Log ASCII Standard - VERSION 2.0
WRAP.                       NO: One line per depth step
~Well Information Block
STRT.FT               645.0000: 
STOP.FT              1320.0000: 
STEP.FT                 0.1000: 
NULL.                -999.2500: 
COMP.          Pioneer Natural Resources: COMPANY
WELL.          Rockfish 11-30 Tr: WELL
FLD.           Purgatoire River: FIELD
LOC.           1063' FNL & 1068' FWL: LOCATION
STAT.                 Colorado: State
CNTY.               Las Animas: COUNTY
CTRY. USA : Country
SECT. 30 : Section
TOWN. 32S : Township
RANG. 65W : Range
SRVC.                Patterson: SERVICE COMPANY
DATE.          Wed Nov 16 07:46:07 2005: LOG DATE
API.           05 071 08585 00: UNIQUE WELL ID
~Curve Information Block
DEPT.FT            0 000 00 00: Depth
DCAL.in                       : CDL Caliper
RHOB.g/cc                     : CDL Bulk Density
RHOC.g/cc                     : CDL Density Correction
DPOR.pu                       : CDL Density Porosity
GR.GAPI                       : Gamma Ray
NPOR.pu                       : Neutron Porosity
~Parameter Information Block
~A  Depth       DCAL        RHOB        RHOC        DPOR         GR         NPOR    
# ...
   952.2000      7.9659      2.5850      0.1679      3.9413    139.1147     24.6152
   952.3000      7.9553      2.5782      0.1219      4.3536    147.7940     24.7983
   952.4000      7.9553      2.5594      0.0958      5.4911    150.0130     24.9858
   952.5000      7.9535      2.5414      0.1011      6.5813    140.6172     25.1451
   952.6000      7.9535      2.5226      0.0754      7.7198    129.3115     25.1306
   952.7000      7.9535      2.5053      0.0427      8.7719    126.7661     24.9077
   952.8000      7.9637      2.4919      0.0867      9.5806    132.9899     24.5726
   952.9000      7.9637      2.4761      0.0781     10.5372    142.8348     23.8442
   953.0000      7.9657      2.4574      0.0339     11.6704    148.4773     22.8504
   953.1000      7.9657      2.4407     -0.0071     12.6826    147.3735     22.4025
   953.2000      7.9657      2.4217      0.0636     13.8350    143.3433     22.4720
   953.3000      7.9736      2.3886      0.0548     15.8425    137.0742     22.4338
   953.4000      7.9736      2.3396      0.0099     18.8122    131.5408     22.2605
   953.5000      8.0096      2.2886      0.0027     21.9052    131.8436     22.1777
   953.6000      8.0096      2.2569     -0.0017     23.8260    134.3181     22.3083
   953.7000      8.0096      2.2521     -0.0021     24.1137    132.8883     22.7200
   953.8000      8.0509      2.2515      0.0327     24.1503    130.6551     22.9927
   953.9000      8.0509      2.2364     -0.0354     25.0691    132.8664     23.0092
   954.0000      8.0620      2.2298     -0.0649     25.4655    136.2223     23.4531
   954.1000      8.0620      2.2655      0.0103     23.3045    134.0327     24.4727
   954.2000      8.0620      2.3441      0.0776     18.5395    128.0993     25.5489
   954.3000      8.0897      2.4363      0.1410     12.9502    122.3175     26.4065
   954.4000      8.0897      2.5164      0.1289      8.0941    117.7476     26.9775
   954.5000      8.1296      2.5843      0.1197      3.9833    116.1935     27.1786
   954.6000      8.1296      2.6387      0.1195      0.6868    116.7716     27.0077
   954.7000      8.1296      2.6620      0.1565     -0.7294    116.6324     26.6711
   954.8000      8.0177      2.6517      0.1717     -0.1036    114.5900     26.5540
   954.9000      8.0177      2.6304      0.1209      1.1889    110.1787     26.6110
   955.0000      7.8588      2.6203      0.0797      1.7986    103.6969     26.4002
   955.1000      7.8588      2.6198      0.0885      1.8322     97.1997     25.8617
   955.2000      7.8588      2.6117      0.0875      2.3232     94.5206     25.5551
   955.3000      7.8313      2.5923      0.0546      3.4952     96.9851     25.8111
   955.4000      7.8313      2.5752     -0.0095      4.5354    102.4852     26.1637
   955.5000      7.8440      2.5700      0.0135      4.8502    110.6512     26.1759
   955.6000      7.8440      2.5728      0.0699      4.6806    120.5327     25.9930
   955.7000      7.8440      2.5770      0.0582      4.4244    127.3894     25.8040
   955.8000      7.9120      2.5775      0.0483      4.3948    126.3493     25.6521
   955.9000      7.9120      2.5724      0.0431      4.7056    118.5730     25.3602
   956.0000      7.9212      2.5646      0.0550      5.1735    111.1797     25.0218
   956.1000      7.9212      2.5513      0.0437      5.9798    109.2348     24.9050
   956.2000      7.9212      2.5268      0.0566      7.4655    109.1652     24.4259
   956.3000      7.9083      2.4923     -0.0258      9.5603    104.2087     23.3061
   956.4000      7.9083      2.4598     -0.0501     11.5244     96.2504     22.4883
   956.5000      7.8853      2.4380     -0.0023     12.8499     92.4400     22.3567
   956.6000      7.8853      2.4172      0.0196     14.1093     93.5416     22.4221
   956.7000      7.8853      2.3937      0.0122     15.5324     96.4452     22.4013
   956.8000      7.9142      2.3787     -0.0083     16.4406    101.1884     22.2734
   956.9000      7.9142      2.3773      0.0348     16.5278    108.4725     22.2997
   957.0000      7.8866      2.3880      0.0024     15.8762    116.7543     22.6925
   957.1000      7.8866      2.4170      0.0959     14.1240    123.2668     23.0705
   957.2000      7.8866      2.4659      0.1360     11.1593    125.4334     23.3667
   957.3000      7.8656      2.5229      0.2235      7.7027    122.7132     23.9044
   957.4000      7.8656      2.5714      0.2524      4.7639    117.9600     24.6279
   957.5000      7.8556      2.6035      0.2291      2.8164    114.0231     25.2062
   957.6000      7.8556      2.6209      0.2105      1.7622    112.9650     25.3787
   957.7000      7.8556      2.6292      0.1606      1.2600    113.9092     25.1708
   957.8000      7.8606      2.6280      0.1839      1.3332    113.4199     24.9297
   957.9000      7.8606      2.6144      0.1045      2.1574    110.2928     24.8867
   958.0000      7.8667      2.5980      0.1043      3.1530    108.0287     24.9282
   958.1000      7.8667      2.5859      0.1181      3.8846    105.4172     24.8854
   958.2000      7.8667      2.5776      0.0930      4.3878     98.4928     24.8417
   958.3000      7.8843      2.5748      0.0552      4.5590     92.7056     24.9822
   958.4000      7.8843      2.5740      0.0626      4.6055     93.7472     25.1641
   958.5000      7.8812      2.5741      0.0236      4.6017     97.4841     25.1447
   958.6000      7.8812      2.5797      0.0506      4.2597     99.2198     24.9601
   958.7000      7.8812      2.5846      0.0919      3.9657    101.8857     24.8306
   958.8000      7.9105      2.5809      0.0353      4.1864    106.6439     24.9184
   958.9000      7.9105      2.5752      0.0367      4.5305    111.0245     25.0203
   959.0000      7.9082      2.5760     -0.0150      4.4821    113.8766     24.8011
   959.1000      7.9082      2.5742      0.0478      4.5949    114.4375     24.3970
   959.2000      7.9082      2.5534      0.0080      5.8524    113.2500     24.1035
   959.3000      7.9308      2.5298     -0.0689      7.2839    114.0375     23.8610
   959.4000      7.9308      2.5270      0.0229      7.4564    116.3514     23.8474
   959.5000      7.9462      2.5295      0.0504      7.3034    114.5799     24.1813
   959.6000      7.9462      2.5192      0.0003      7.9267    109.0409     24.2776
   959.7000      7.9462      2.5056      0.0394      8.7500    104.2067     23.8411
   959.8000      7.9317      2.5019     -0.0027      8.9758    102.1019     23.4200
   959.9000      7.9317      2.5052      0.0695      8.7764    103.3073     23.4876
   960.0000      7.9377      2.5059     -0.0017      8.7348    107.9874     23.8079
   960.1000      7.9377      2.5082      0.0305      8.5953    112.0471     23.9441
   960.2000      7.9377      2.5217      0.0429      7.7742    110.3048     23.8191
   960.3000      7.9367      2.5436      0.0681      6.4512    104.5458     23.6316
   960.4000      7.9367      2.5602      0.0245      5.4425     98.5942     23.3698
   960.5000      7.9348      2.5618      0.0584      5.3452     98.6673     22.8998
   960.6000      7.9348      2.5520      0.0613      5.9410    105.3765     22.5924
   960.7000      7.9348      2.5433      0.0567      6.4688    108.3019     22.8592
   960.8000      7.9269      2.5417      0.0540      6.5640    106.2208     23.4533
   960.9000      7.9269      2.5487      0.0673      6.1368    105.5475     24.0208
   961.0000      7.8795      2.5646      0.0933      5.1780    105.7492     24.3596
   961.1000      7.8795      2.5845      0.0976      3.9720    106.3105     24.3812
   961.2000      7.8795      2.6018      0.1291      2.9183    106.8650     24.4325
   961.3000      7.8683      2.6125      0.1251      2.2715    104.2585     24.6072
   961.4000      7.8683      2.6187      0.0954      1.8988    101.6988     24.4078
   961.5000      7.8594      2.6214      0.1395      1.7349    102.6988     23.9284
   961.6000      7.8594      2.6201      0.1299      1.8123    103.1117     23.8061
   961.7000      7.8594      2.6136      0.1232      2.2039    101.3753     24.2007
