~Version Information
VERS.                      2.0: CWLS Log ASCII Standard - VERSION 2.0
WRAP.                       NO: One line per depth step
~Well Information Block
STRT.FT               550.0000: 
STOP.FT              1979.0000: 
STEP.FT                 0.1000: 
NULL.                -999.2500: 
COMP.          Pioneer Natural Resources: COMPANY
WELL.          Flying Horse 12-11 Tr: WELL
FLD.           Purgatoire River: FIELD
LOC.           2459' FNL & 410' FWL: LOCATION
STAT.                 Colorado: PROVINCE
CNTY.               Las Animas: COUNTY
CTRY. USA : Country
SECT. 11 : Section
TOWN. 32S : Township
RANG. 66W : Range
SRVC.                Patterson: SERVICE COMPANY
DATE.          Tue Sep 06 07:09:24 2005: LOG DATE
API.           05 071 08485 00: UNIQUE WELL ID
~Curve Information Block
DEPT.FT            0 000 00 00: Depth
DCAL.in                       : CDL Caliper
RHOB.g/cc                     : CDL Bulk Density
RHOC.g/cc                     : CDL Density Correction
DPOR.pu                       : CDL Density Porosity
GR.GAPI                       : Gamma Ray
NPOR.pu                       : Neutron Porosity
~Parameter Information Block
~A  Depth       DCAL        RHOB        RHOC        DPOR         GR         NPOR    
   550.0000      5.0837      2.7529      0.5498     -6.2368     44.8576     15.0498
   550.1000      5.0837      2.9208      0.7145    -16.4123     46.3828     15.3502
   550.2000      5.0837      2.9880      0.7572    -20.4871     46.3971     15.8075
   550.3000      5.0961      2.9329      0.7233    -17.1459     43.5648     16.0942
   550.4000      5.0961      2.7716      0.4897     -7.3682     43.4464     15.9503
   550.5000      5.0956      2.5611      0.1895      5.3899     46.2070     16.0143
   550.6000      5.0956      2.3711     -0.0468     16.9032     48.3073     16.3760
   550.7000      5.0956      2.2392     -0.1296     24.8949     51.6042     16.3188
   550.8000      5.1022      2.1617     -0.2191     29.5960     53.4735     16.1205
   550.9000      5.1022      2.1215     -0.2804     32.0285     49.1307     16.2628
   551.0000      5.1022      2.1127     -0.3446     32.5658     44.8693     16.3583
   551.1000      5.1022      2.1247     -0.2394     31.8357     46.0053     16.1661
   551.2000      5.1022      2.1281     -0.3006     31.6284     47.8513     15.9959
   551.3000      5.0955      2.1137     -0.3067     32.5050     46.3018     16.3513
   551.4000      5.0955      2.1007     -0.2928     33.2911     43.3740     17.4057
   551.5000      5.0950      2.1050     -0.3179     33.0307     43.3385     18.3870
   551.6000      5.0950      2.1193     -0.3185     32.1625     45.5965     18.1714
   551.7000      5.0950      2.1249     -0.2910     31.8240     46.7807     17.0714
   551.8000      5.1035      2.1191     -0.3021     32.1780     46.1785     16.1825
   551.9000      5.1035      2.1160     -0.3202     32.3652     45.8311     15.6060
   552.0000      5.0994      2.1200     -0.3250     32.1232     46.5467     15.1556
   552.1000      5.0994      2.1133     -0.3061     32.5285     45.4122     15.0778
   552.2000      5.0994      2.0863     -0.3632     34.1615     41.6360     15.1726
   552.3000      5.1010      2.0608     -0.4178     35.7088     38.9452     15.0717
   552.4000      5.1010      2.0544     -0.4124     36.0959     40.2435     15.0187
   552.5000      5.1014      2.0476     -0.3358     36.5102     46.4270     15.5242
   552.6000      5.1014      2.0237     -0.3935     37.9597     53.8210     16.5454
   552.7000      5.1014      2.0048     -0.4457     39.1027     55.6726     17.6084
   552.8000      5.1019      2.0045     -0.4108     39.1234     51.3713     18.2416
   552.9000      5.1019      2.0047     -0.4314     39.1084     47.0003     17.9583
   553.0000      5.1031      1.9940     -0.4025     39.7554     45.5440     16.9545
   553.1000      5.1031      1.9869     -0.4921     40.1879     45.9965     16.2634
   553.2000      5.1031      2.0011     -0.4344     39.3301     47.8245     16.4028
   553.3000      5.1073      2.0289     -0.3530     37.6424     49.6335     16.9961
   553.4000      5.1073      2.0490     -0.3499     36.4242     49.1438     17.5575
   553.5000      5.1043      2.0575     -0.3666     35.9072     47.2314     17.9931
   553.6000      5.1043      2.0703     -0.3969     35.1364     44.6713     18.0792
   553.7000      5.1043      2.0990     -0.3919     33.3919     41.9929     17.9330
   553.8000      5.1046      2.1312     -0.3064     31.4424     41.7660     18.1967
   553.9000      5.1046      2.1425     -0.2641     30.7595     44.0279     18.4671
   554.0000      5.1030      2.1307     -0.3250     31.4753     46.5008     17.7715
   554.1000      5.1030      2.1149     -0.3225     32.4289     48.3124     16.4980
   554.2000      5.1030      2.1016     -0.3298     33.2368     49.0070     16.0339
   554.3000      5.0999      2.0925     -0.4301     33.7853     49.2831     16.8811
   554.4000      5.0999      2.1003     -0.4035     33.3179     52.6437     18.0467
   554.5000      5.0962      2.1120     -0.3219     32.6053     58.7571     18.3126
   554.6000      5.0962      2.1052     -0.3469     33.0193     61.7191     18.0621
   554.7000      5.0962      2.0912     -0.4437     33.8641     58.4757     18.0713
   554.8000      5.1022      2.0800     -0.3591     34.5478     54.8569     18.2186
   554.9000      5.1022      2.0627     -0.4207     35.5915     56.0249     18.5652
   555.0000      5.1016      2.0527     -0.5053     36.2006     57.2835     19.2874
   555.1000      5.1016      2.0598     -0.3909     35.7722     53.8983     19.8932
   555.2000      5.1016      2.0663     -0.3866     35.3762     48.6302     19.7736
   555.3000      5.0945      2.0669     -0.3925     35.3401     46.0170     18.8305
   555.4000      5.0945      2.0743     -0.3855     34.8937     45.6766     17.4504
   555.5000      5.0962      2.0941     -0.3679     33.6911     45.8750     16.3712
   555.6000      5.0962      2.1156     -0.3725     32.3892     46.3492     16.0209
   555.7000      5.0962      2.1143     -0.3868     32.4638     46.6886     16.0623
   555.8000      5.0906      2.0868     -0.4954     34.1322     46.2491     15.9392
   555.9000      5.0906      2.0676     -0.4877     35.2954     44.2411     15.7883
   556.0000      5.0991      2.0702     -0.4871     35.1417     42.5932     15.8449
   556.1000      5.0991      2.0566     -0.4305     35.9650     42.3302     15.6595
   556.2000      5.0991      1.9998     -0.4899     39.4061     41.7732     15.0118
   556.3000      5.0984      1.9157     -0.4791     44.5018     40.4500     14.7226
   556.4000      5.0984      1.8300     -0.5015     49.6980     39.4637     15.3781
   556.5000      5.0992      1.7682     -0.6171     53.4425     39.3063     16.4692
   556.6000      5.0992      1.7515     -0.5479     54.4519     38.4886     17.3466
   556.7000      5.0992      1.7782     -0.5315     52.8345     38.0467     17.6274
   556.8000      5.0875      1.8351     -0.4296     49.3902     39.1630     17.2020
   556.9000      5.0875      1.9021     -0.3219     45.3303     39.3882     16.4368
   557.0000      5.0938      1.9608     -0.2625     41.7721     37.4552     15.9073
   557.1000      5.0938      2.0166     -0.2752     38.3891     36.2557     15.8546
   557.2000      5.0938      2.0745     -0.1322     34.8804     39.8716     15.9968
   557.3000      5.0921      2.1129     -0.1090     32.5508     45.9315     15.8098
   557.4000      5.0921      2.1187     -0.1791     32.1974     48.4817     15.2111
   557.5000      5.0916      2.1024     -0.1169     33.1864     46.8241     14.5617
   557.6000      5.0916      2.0754     -0.1168     34.8234     42.4683     14.7087
   557.7000      5.0916      2.0465     -0.1150     36.5784     37.9841     16.1221
   557.8000      5.0931      2.0279     -0.1440     37.7001     37.0417     17.5804
   557.9000      5.0931      2.0305     -0.0841     37.5478     41.7688     17.9214
   558.0000      5.0885      2.0586     -0.1095     35.8421     50.0083     17.8284
   558.1000      5.0885      2.1095     -0.0396     32.7590     56.3015     18.1644
   558.2000      5.0885      2.1632      0.0495     29.5013     59.2417     18.5316
   558.3000      5.0898      2.2049      0.0205     26.9744     62.0942     18.3212
   558.4000      5.0898      2.2380      0.0709     24.9682     64.6459     17.9718
   558.5000      5.0944      2.2535      0.1193     24.0279     65.8701     18.2229
   558.6000      5.0944      2.2332      0.1058     25.2623     67.7236     19.0213
   558.7000      5.0944      2.1793      0.0627     28.5292     71.3180     19.8628
   558.8000      5.0952      2.1168     -0.0002     32.3176     75.4846     20.2503
   558.9000      5.0952      2.0711      0.0110     35.0852     79.2336     19.9502
   559.0000      5.0828      2.0516     -0.0197     36.2690     82.0390     19.4550
   559.1000      5.0828      2.0561     -0.0297     35.9934     82.6878     19.5023
   559.2000      5.0828      2.0771      0.0139     34.7219     80.7309     20.2317
   559.3000      5.0819      2.1062      0.0331     32.9576     77.4963     21.3063
   559.4000      5.0819      2.1395      0.1041     30.9379     74.8453     21.9922
   559.5000      5.0887      2.1710      0.1358     29.0325     73.4693     21.9365
