~Version Information
VERS.                      2.0: CWLS Log ASCII Standard - VERSION 2.0
WRAP.                       NO: One line per depth step
~Well Information Block
STRT.FT                -9.5000: 
STOP.FT              2305.7500: 
STEP.FT                 0.2500: 
NULL.                -999.2500: 
COMP.          Pioneer Natural Resources: COMPANY
WELL.          Fittipaldi 21-12: WELL
FLD.           Purgatorie River: FIELD
LOC.           207' FNL & 2110' FWL--: LOCATION
CNTY.               Las Animas: COUNTY
SRVC.          Patterson Wireline: SERVICE COMPANY
DATE.          Wed Apr 12 10:38:25 2006: LOG DATE
UWI.           05 071 08492 00: UNIQUE WELL ID
STAT.                       CO: STATE
~Curve Information Block
DEPT.FT            0 000 00 00: Depth
CCL.                          : Casing Collar Locator
TT3.usec                      : CBL 3' Travel Time
AMP3.mV                       : CBL 3' Amplitude
GR.GAPI                       : Gamma Ray
~Parameter Information Block
~A  Depth       CCL         TT3         AMP3         GR     
# ...
  1665.5000      0.0000    390.6956      2.9329    136.5268
  1665.7500      0.0000    391.9139      2.9784    138.2992
  1666.0000      0.0000    388.9824      3.0094    138.0316
  1666.2500      0.0000    382.6302      3.0056    134.8521
  1666.5000      0.0000    374.6089      2.9662    129.0031
  1666.7500      0.0000    367.0219      2.9111    122.8423
  1667.0000      0.0000    361.4502      2.8683    119.4034
  1667.2500      0.0000    358.5681      2.8541    120.1966
  1667.5000      0.0000    358.5413      2.8636    124.4176
  1667.7500      0.0000    361.5187      2.8794    129.5829
  1668.0000      0.0000    367.3943      2.8901    132.8748
  1668.2500      0.0000    375.0085      2.8978    132.8468
  1668.5000      0.0000    382.0246      2.9101    130.3034
  1668.7500      0.0000    386.3693      2.9306    127.3283
  1669.0000      0.0000    388.0471      2.9563    125.6212
  1669.2500      0.0000    389.0286      2.9799    125.8393
  1669.5000      0.0000    390.9349      2.9914    127.5993
  1669.7500      0.0000    393.0432      2.9802    129.2783
  1670.0000      0.0000    392.8758      2.9409    128.3541
  1670.2500      0.0000    388.6818      2.8783    123.1751
  1670.5000      0.0000    381.1292      2.8082    114.7536
  1670.7500      0.0000    372.6562      2.7513    106.2204
  1671.0000      0.0000    365.5381      2.7256    100.2738
  1671.2500      0.0000    360.6988      2.7398     97.3687
  1671.5000      0.0000    357.9409      2.7889     96.2068
  1671.7500      0.0000    356.7195      2.8552     95.4779
  1672.0000      0.0000    356.5445      2.9171     94.9957
  1672.2500      0.0000    356.9576      2.9614     95.3496
  1672.5000      0.0000    357.4946      2.9878     96.8992
  1672.7500      0.0000    357.8456      3.0024     99.5988
  1673.0000      0.0000    358.1792      3.0067    103.4070
  1673.2500      0.0000    359.6195      2.9954    107.9954
  1673.5000      0.0000    364.7363      2.9669    112.2092
  1673.7500      0.0000    377.1632      2.9376    114.7198
  1674.0000      0.0000    398.7326      2.9417    115.1877
  1674.2500      0.0000    424.8732      3.0109    114.0978
  1674.5000      0.0000    443.8811      3.1525    111.4955
  1674.7500      0.0000    444.7049      3.3473    106.6378
  1675.0000      0.0000    427.2749      3.5607     99.2373
  1675.2500      0.0000    403.3365      3.7515     90.6580
  1675.5000      0.0000    386.5858      3.8833     83.5026
  1675.7500      0.0000    383.7321      3.9398     80.1418
  1676.0000      2.0000    394.7210      3.9295     81.8149
  1676.2500      0.0000    418.1633      3.8738     88.5906
  1676.5000      0.0000    453.8292      3.7994     99.3442
  1676.7500      0.0000    499.1617      3.7372    111.6516
  1677.0000      0.0000    545.1489      3.7023    122.3670
  1677.2500      0.0000    579.2869      3.6689    129.0113
  1677.5000      0.0000    595.2144      3.5878    131.0596
  1677.7500      0.0000    598.6270      3.4443    130.1992
  1678.0000      0.0000    602.2787      3.2812    129.2166
  1678.2500      0.0000    615.4946      3.1565    130.0073
  1678.5000      0.0000    638.1951      3.0957    132.3209
  1678.7500      0.0000    663.1699      3.0880    134.7040
  1679.0000      0.0000    682.9229      3.1107    136.6794
  1679.2500      0.0000    694.6347      3.1461    139.3340
  1679.5000      0.0000    699.9381      3.1822    143.5072
  1679.7500      0.0000    701.7845      3.2069    148.2895
  1680.0000      0.0000    702.2369      3.2062    151.9712
  1680.2500      0.0000    702.1904      3.1691    153.7673
  1680.5000      0.0000    701.9493      3.0953    153.8815
  1680.7500      0.0000    701.6306      2.9960    152.4729
  1681.0000      0.0000    701.3043      2.8888    149.3411
  1681.2500      0.0000    700.9095      2.7873    144.3814
  1681.5000      0.0000    700.2068      2.6934    137.8301
  1681.7500      0.0000    698.9022      2.6002    130.1239
  1682.0000      0.0000    697.0027      2.5041    121.7070
  1682.2500      0.0000    695.1006      2.4139    112.8638
  1682.5000      0.0000    694.0703      2.3453    103.6801
  1682.7500      0.0000    694.2030      2.3087     94.3487
  1683.0000      0.0000    694.7670      2.3051     85.6214
  1683.2500      0.0000    694.6924      2.3328     78.8401
  1683.5000      0.0000    693.5949      2.3887     75.5183
  1683.7500      0.0000    691.6981      2.4602     77.0145
  1684.0000      0.0000    688.8453      2.5248     84.2234
  1684.2500      0.0000    684.3094      2.5649     96.8815
  1684.5000      0.0000    678.0052      2.5813    113.1752
  1684.7500      0.0000    671.3297      2.5891    130.3772
  1685.0000      0.0000    666.0325      2.6051    145.7435
  1685.2500      0.0000    662.2308      2.6427    156.9344
  1685.5000      0.0000    657.5013      2.7091    162.4659
  1685.7500      0.0000    647.5156      2.7993    162.2165
  1686.0000      0.0000    627.9425      2.8948    157.2027
  1686.2500      0.0000    597.3695      2.9714    149.0900
  1686.5000      0.0000    559.4374      3.0116    140.4328
  1686.7500      0.0000    521.3336      3.0127    134.6419
  1687.0000      0.0000    489.3115      2.9872    134.3863
  1687.2500      0.0000    465.7316      2.9558    139.7064
  1687.5000      0.0000    449.8071      2.9363    147.9149
  1687.7500      0.0000    439.7683      2.9352    155.1048
  1688.0000      0.0000    434.2618      2.9446    157.8812
  1688.2500      0.0000    432.8281      2.9480    154.8713
  1688.5000      0.0000    435.7376      2.9317    147.5800
  1688.7500      0.0000    443.1392      2.8957    139.3767
  1689.0000      0.0000    454.0669      2.8549    132.7159
  1689.2500      0.0000    466.2206      2.8300    127.1339
  1689.5000      0.0000    476.6801      2.8370    120.2020
  1689.7500      0.0000    482.7501      2.8825    110.3536
  1690.0000      0.0000    482.1905      2.9658     98.5258
  1690.2500      0.0000    473.5963      3.0769     87.3653
  1690.5000      0.0000    458.1063      3.1897     79.4940
  1690.7500      0.0000    441.2718      3.2617     76.4274
  1691.0000      0.0000    431.2321      3.2533     78.2046
  1691.2500      0.0000    432.2587      3.1578     83.4044
  1691.5000      0.0000    439.5575      3.0129     89.7743
  1691.7500      0.0000    442.4728      2.8771     95.1992
  1692.0000      0.0000    434.3216      2.7899     98.1405
  1692.2500      0.0000    418.0522      2.7549     97.4934
  1692.5000      0.0000    401.7652      2.7572     92.7438
  1692.7500      0.0000    390.9082      2.7829     84.5688
  1693.0000      0.0000    386.1141      2.8211     74.9196
  1693.2500      0.0000    386.5781      2.8591     66.1721
  1693.5000      0.0000    393.8963      2.8858     60.1236
  1693.7500      0.0000    412.9760      2.8997     57.5199
  1694.0000      0.0000    448.8739      2.9071     57.9790
  1694.2500      0.0000    500.9143      2.9105     60.3040
  1694.5000      0.0000    559.6027      2.9025     63.4343
  1694.7500      0.0000    611.4080      2.8718     67.4078
  1695.0000      0.0000    647.7140      2.8147     73.1224
  1695.2500      0.0000    668.8944      2.7390     81.0252
  1695.5000      0.0000    680.6342      2.6572     90.3086
  1695.7500      0.0000    688.1058      2.5768     99.4044
  1696.0000      0.0000    693.5585      2.4996    106.9457
  1696.2500      0.0000    697.3759      2.4291    112.2475
  1696.5000      0.0000    699.6896      2.3755    115.3573
  1696.7500      0.0000    700.8818      2.3504    117.0600
  1697.0000      0.0000    701.3820      2.3562    118.5370
  1697.2500      0.0000    701.4924      2.3824    120.6078
  1697.5000      0.0000    701.4313      2.4138    123.4457
  1697.7500      0.0000    701.3578      2.4413    127.0902
  1698.0000      0.0000    701.3475      2.4644    131.7277
  1698.2500      0.0000    701.3793      2.4886    137.2120
  1698.5000      0.0000    701.3797      2.5223    142.7658
  1698.7500      0.0000    701.3002      2.5715    147.5279
