~Version Information
VERS.                      2.0: CWLS Log ASCII Standard - VERSION 2.0
WRAP.                       NO: One line per depth step
~Well Information Block
STRT.FT                 6.0000: 
STOP.FT              1577.7500: 
STEP.FT                 0.2500: 
NULL.                -999.2500: 
COMP.          Pioneer Natural Resources: COMPANY
WELL.           Kermit 32-7 Tr: WELL
FLD.           Purgatoire River: FIELD
LOC.           2009' FNL & 2196' FEL: LOCATION
PROV.                 Colorado: PROVINCE
CNTY.               Las Animas: COUNTRY
SRVC.                Patterson: SERVICE COMPANY
DATE.          Wed Jan 18 14:19:39 2006: LOG DATE
UWI.           05 071 08664 00: UNIQUE WELL ID
~Curve Information Block
DEPT.FT            0 000 00 00: Depth
GR.GAPI                       : Gamma Ray
CCL.                          : Casing Collar Locator
TT3.usec                      : CBL 3' Travel Time
AMP3.mV                       : CBL 3' Amplitude
~Parameter Information Block
~A  Depth        GR         CCL         TT3         AMP3    
# ...
   307.5000     92.4941      0.0000    782.7184     10.8062
   307.7500     91.6624      0.0000    777.4052     10.8314
   308.0000     89.0015      0.0000    774.1899     10.8567
   308.2500     85.3592      0.0000    772.5605     10.8952
   308.5000     82.3932      0.0000    771.7526     10.9574
   308.7500     81.2635      0.0000    771.2761     11.0416
   309.0000     81.4257      0.0000    770.8945     11.1308
   309.2500     81.2894      0.0000    770.2983     11.2031
   309.5000     79.9343      0.0000    768.7346     11.2467
   309.7500     77.7474      0.0000    764.9921     11.2647
   310.0000     75.6726      0.0000    758.0013     11.2685
   310.2500     74.5092      0.0000    747.6702     11.2694
   310.5000     74.7075      0.0000    735.0388     11.2754
   310.7500     75.9941      0.0000    721.7454     11.2882
   311.0000     77.1920      0.0000    709.9127     11.2982
   311.2500     77.1863      0.0000    702.5389     11.2863
   311.5000     76.2192      0.0000    702.8860     11.2388
   311.7500     75.6988      0.0000    712.0454     11.1653
   312.0000     76.6257      0.0000    726.3931     11.0996
   312.2500     78.5893      0.0000    738.6442     11.0763
   312.5000     80.2704      0.0000    744.1266     11.1040
   312.7500     80.6400      0.0000    747.0000     11.1546
   313.0000     79.7988      0.0000    757.5657     11.1740
   313.2500     78.8227      0.0000    780.2081     11.0944
   313.5000     78.6319      0.0000    804.2471     10.8339
   313.7500     78.9532      0.0000    810.3675     10.3070
   314.0000     78.6399      0.0000    788.7374      9.4817
   314.2500     77.0409      0.0000    749.7454      8.4455
   314.5000     74.8181      0.0000    715.9973      7.3842
   314.7500     73.4251      0.0000    705.5836      6.4707
   315.0000     73.9585      0.0000    722.8286      5.7871
   315.2500     76.3910      0.0000    760.1389      5.3386
   315.5000     79.6902      0.0000    804.4253      5.0916
   315.7500     82.7627      0.0000    842.2599      4.9950
   316.0000     85.3557     -3.0000    862.8904      5.0115
   316.2500     87.8687     -3.0000    861.2898      5.1563
   316.5000     90.4481      0.0000    840.9654      5.5139
   316.7500     92.6781      0.0000    812.7648      6.1975
   317.0000     93.9924      0.0000    788.6805      7.2398
   317.2500     93.9066      0.0000    775.4440      8.4903
   317.5000     92.0705      0.0000    772.7177      9.6565
   317.7500     88.6859      0.0000    776.0803     10.4990
   318.0000     84.8549      0.0000    781.5443     10.9755
   318.2500     82.0011      0.0000    787.8681     11.1909
   318.5000     80.7905      0.0000    795.2692     11.2628
   318.7500     80.8127      0.0000    802.7637     11.2597
   319.0000     81.2556      0.0000    807.6058     11.2117
   319.2500     81.5487      0.0000    807.2528     11.1301
   319.5000     81.3996      0.0000    801.4940     11.0182
   319.7500     80.7447      0.0000    792.6858     10.8850
   320.0000     79.8872      0.0000    784.0920     10.7494
   320.2500     79.3956      0.0000    777.8991     10.6289
   320.5000     79.8011      0.0000    774.4636     10.5274
   320.7500     81.5256      0.0000    772.9890     10.4379
   321.0000     84.7196      0.0000    772.5721     10.3563
   321.2500     88.5982      0.0000    772.7080     10.2869
   321.5000     91.2051      0.0000    773.1998     10.2340
   321.7500     90.7349      0.0000    773.7206     10.1899
   322.0000     87.4188      0.0000    773.4168     10.1377
   322.2500     83.6416      0.0000    771.1895     10.0668
   322.5000     81.8303      0.0000    766.7694      9.9853
   322.7500     82.3164      0.0000    761.0464      9.9140
   323.0000     83.4104      0.0000    754.4077      9.8680
   323.2500     83.2710      0.0000    745.2317      9.8443
   323.5000     81.4113      0.0000    731.4173      9.8291
   323.7500     78.5955      0.0000    713.2584      9.8148
   324.0000     75.6792      0.0000    693.6917      9.8071
   324.2500     72.7407      0.0000    676.0151      9.8144
   324.5000     69.4081      0.0000    662.3041      9.8348
   324.7500     65.8996      0.0000    653.5940      9.8550
   325.0000     63.3626      0.0000    650.3934      9.8579
   325.2500     63.0759      0.0000    652.6590      9.8296
   325.5000     65.5050      0.0000    659.6238      9.7659
   325.7500     69.9563      0.0000    670.0916      9.6785
   326.0000     74.6258      0.0000    683.3244      9.5904
   326.2500     77.1127      0.0000    699.4605      9.5214
   326.5000     75.7438      0.0000    718.4147      9.4774
   326.7500     70.9141      0.0000    738.4362      9.4513
   327.0000     64.9511      0.0000    756.5167      9.4303
   327.2500     60.2941      0.0000    770.1592      9.4010
   327.5000     57.7621      0.0000    778.0424      9.3546
   327.7500     56.6076      0.0000    779.2565      9.2913
   328.0000     55.9744      0.0000    773.0001      9.2209
   328.2500     55.9111      0.0000    759.4427      9.1564
   328.5000     56.9913      0.0000    740.6955      9.1077
   328.7500     59.3036      0.0000    720.7487      9.0778
   329.0000     62.0228      0.0000    703.9052      9.0631
   329.2500     63.9418      0.0000    692.6167      9.0558
   329.5000     64.3102      0.0000    686.6440      9.0481
   329.7500     63.1011      0.0000    684.1674      9.0361
   330.0000     60.7379      0.0000    683.3854      9.0193
   330.2500     57.9261      0.0000    683.2327      8.9980
   330.5000     55.5399      0.0000    683.2496      8.9734
   330.7500     54.1826      0.0000    683.2732      8.9490
   331.0000     53.8656      0.0000    683.2612      8.9305
   331.2500     54.3149      0.0000    683.2242      8.9211
   331.5000     55.3771      0.0000    683.1940      8.9204
   331.7500     56.7691      0.0000    683.1948      8.9258
   332.0000     57.6419      0.0000    683.2327      8.9357
   332.2500     57.0191      0.0000    683.2984      8.9477
   332.5000     54.9454      0.0000    683.3757      8.9574
   332.7500     52.7855      0.0000    683.4557      8.9601
   333.0000     51.9744      0.0000    683.5534      8.9550
   333.2500     52.7035      0.0000    683.7736      8.9461
   333.5000     54.0435      0.0000    684.4377      8.9393
   333.7500     54.9391      0.0000    686.2641      8.9381
   334.0000     54.8384      0.0000    690.3341      8.9392
   334.2500     53.8276      0.0000    697.4879      8.9327
   334.5000     52.4801      0.0000    707.4420      8.9087
   334.7500     51.3640      0.0000    718.5759      8.8671
   335.0000     50.6246      0.0000    728.8421      8.8192
   335.2500     50.2097      0.0000    737.1351      8.7797
   335.5000     50.3049      0.0000    744.2800      8.7554
   335.7500     51.1997      0.0000    752.7819      8.7418
   336.0000     52.7776      0.0000    764.7741      8.7291
   336.2500     54.4702      0.0000    779.7257      8.7112
   336.5000     55.8481      0.0000    794.5648      8.6915
   336.7500     57.0478      0.0000    806.0923      8.6785
   337.0000     58.4683      0.0000    812.9244      8.6745
   337.2500     60.2630      0.0000    815.3770      8.6720
   337.5000     62.1837      0.0000    814.2522      8.6603
   337.7500     63.6868      0.0000    810.2729      8.6365
   338.0000     64.1784      0.0000    804.5211      8.6086
   338.2500     63.4922      0.0000    798.7382      8.5917
   338.5000     62.2407      0.0000    794.6272      8.6081
   338.7500     61.3436      0.0000    792.9924      8.6907
   339.0000     60.9486      0.0000    793.7878      8.8785
   339.2500     60.0714      0.0000    796.3376      9.1949
   339.5000     57.6362      0.0000    799.0119      9.6198
   339.7500     53.7868      0.0000    799.5018     10.0858
   340.0000     49.9757      0.0000    796.4404     10.5123
   340.2500     47.9013      0.0000    790.6746     10.8487
   340.5000     48.4169      0.0000    784.5091     11.0934
   340.7500     51.1263      0.0000    779.8244     11.2759
