~Version Information
VERS.                      2.0: CWLS Log ASCII Standard - VERSION 2.0
WRAP.                       NO: One line per depth step
~Well Information Block
STRT.FT                -7.0000: 
STOP.FT              1239.2500: 
STEP.FT                 0.2500: 
NULL.                -999.2500: 
COMP.          Pioneer Natural Resources: COMPANY
WELL.              Julie 11-30: WELL
FLD.           Purgatorie River: FIELD
LOC.           672' FNL & 1052' FWL--: LOCATION
CNTY.               Las Animas: COUNTY
SRVC.          Patterson Wireline: SERVICE COMPANY
DATE.          Tue Apr 18 11:12:35 2006: LOG DATE
UWI.           05 071 08724 00: UNIQUE WELL ID
STAT.                       CO: STATE
~Curve Information Block
DEPT.FT            0 000 00 00: Depth
CCL.                          : Casing Collar Locator
TT3.usec                      : CBL 3' Travel Time
AMP3.mV                       : CBL 3' Amplitude
GR.GAPI                       : Gamma Ray
~Parameter Information Block
~A  Depth       CCL         TT3         AMP3         GR     
# ...
   328.0000      0.0000    752.5119      3.9946    107.5147
   328.2500      0.0000    801.3038      4.0592    112.1365
   328.5000      0.0000    864.1973      4.0848    110.3812
   328.7500      0.0000    924.7446      4.0540    102.1937
   329.0000      0.0000    965.1517      4.0197     89.0089
   329.2500      0.0000    973.5105      4.0518     73.5927
   329.5000      0.0000    949.3690      4.2121     59.4203
   329.7500      2.0000    904.7094      4.5674     49.1755
   330.0000      0.0000    857.6066      5.1851     43.3459
   330.2500      0.0000    821.3951      6.0827     40.6476
   330.5000      0.0000    798.0007      7.1640     39.9788
   330.7500      0.0000    781.8163      8.2162     41.5599
   331.0000      0.0000    766.9177      9.0303     46.1509
   331.2500      0.0000    745.7250      9.5681     53.7673
   331.5000      0.0000    705.1806      9.9802     63.4722
   331.7500      0.0000    635.7006     10.4408     74.0514
   332.0000      0.0000    545.6414     10.9979     84.6308
   332.2500      0.0000    458.9620     11.5824     94.9361
   332.5000      0.0000    396.3639     12.0944    105.3208
   332.7500      0.0000    362.7400     12.4570    116.3635
   333.0000      0.0000    352.1451     12.6215    128.0267
   333.2500      0.0000    360.1884     12.5546    139.1885
   333.5000      0.0000    390.7196     12.2280    148.1957
   333.7500      0.0000    452.4376     11.6236    154.0123
   334.0000      0.0000    548.1180     10.7641    156.9576
   334.2500      0.0000    665.5995      9.7407    158.3085
   334.5000      0.0000    780.0410      8.6965    158.9512
   334.7500      0.0000    866.5911      7.7649    158.1984
   335.0000      0.0000    912.1796      7.0174    153.9709
   335.2500      0.0000    918.5922      6.4630    144.5903
   335.5000      0.0000    898.0174      6.0855    130.8577
   335.7500      0.0000    865.6844      5.8740    116.2558
   336.0000      0.0000    833.5240      5.8278    104.6651
   336.2500      0.0000    807.5414      5.9421     97.8689
   336.5000      0.0000    789.0029      6.1923     95.4109
   336.7500      0.0000    776.9200      6.5316     96.3104
   337.0000      0.0000    769.4979      6.9033    100.0024
   337.2500      0.0000    764.7165      7.2491    105.6415
   337.5000      0.0000    761.0675      7.5080    111.6669
   337.7500      0.0000    758.2318      7.6195    116.9429
   338.0000      0.0000    756.8190      7.5442    121.7775
   338.2500      0.0000    757.1859      7.2896    126.9593
   338.5000      0.0000    758.7040      6.9138    131.9063
   338.7500      0.0000    760.2484      6.4981    134.4011
   339.0000      0.0000    761.1232      6.1089    132.3663
   339.2500      0.0000    761.3297      5.7780    125.8208
   339.5000      0.0000    761.1854      5.5091    117.2765
   339.7500      0.0000    760.9534      5.2952    110.2778
   340.0000      0.0000    760.7582      5.1303    107.0571
   340.2500      0.0000    760.6483      5.0095    107.2330
   340.5000      0.0000    760.6361      4.9258    108.8289
   340.7500      0.0000    760.7046      4.8702    110.2532
   341.0000      0.0000    760.8060      4.8341    110.9827
   341.2500      0.0000    760.8771      4.8123    110.9766
   341.5000      0.0000    760.8042      4.8021    110.3954
   341.7500      0.0000    760.2709      4.8017    109.7884
   342.0000      0.0000    758.4899      4.8088    109.8130
   342.2500      0.0000    754.1130      4.8222    110.5136
   342.5000      0.0000    745.8381      4.8451    111.0035
   342.7500      0.0000    733.7008      4.8842    109.9411
   343.0000      0.0000    719.8386      4.9444    106.4618
   343.2500      0.0000    707.4647      5.0228    100.8903
   343.5000      0.0000    698.7789      5.1067     94.6967
   343.7500      0.0000    693.9316      5.1767     89.7014
   344.0000      0.0000    691.8173      5.2163     86.8955
   344.2500      0.0000    691.5027      5.2234     85.6499
   344.5000      0.0000    693.0785      5.2142     84.3899
   344.7500      0.0000    697.6311      5.2130     82.4115
   345.0000      0.0000    706.3336      5.2361     80.6842
   345.2500      0.0000    718.9855      5.2865     80.5361
   345.5000      0.0000    733.2562      5.3629     81.9682
   345.7500      0.0000    745.7990      5.4687     83.7735
   346.0000      0.0000    754.3844      5.6116     85.2209
   346.2500      0.0000    758.8912      5.7933     87.0511
   346.5000      0.0000    760.4447      6.0033     90.4996
   346.7500      0.0000    760.0127      6.2231     95.7211
   347.0000      0.0000    757.8114      6.4403    101.6474
   347.2500      0.0000    753.8081      6.6597    106.9544
   347.5000      0.0000    748.6862      6.9009    110.5673
   347.7500      0.0000    744.1697      7.1826    111.6040
   348.0000      0.0000    742.1205      7.5089    109.5736
   348.2500      0.0000    743.2914      7.8695    104.7192
   348.5000      0.0000    747.0059      8.2484     98.1476
   348.7500      0.0000    751.6928      8.6316     91.8035
   349.0000      0.0000    755.5248      9.0080     87.9731
   349.2500      0.0000    756.7753      9.3659     88.0953
   349.5000      0.0000    753.8874      9.6925     91.8098
   349.7500      0.0000    744.8456      9.9816     97.4008
   350.0000      0.0000    726.5328     10.2418    103.2984
   350.2500      0.0000    695.6866     10.4923    109.1073
   350.5000      0.0000    651.4069     10.7480    115.1585
   350.7500      0.0000    596.2398     11.0118    121.3287
   351.0000      0.0000    534.8479     11.2793    126.6723
   351.2500      0.0000    473.3820     11.5446    130.1230
   351.5000      0.0000    419.6621     11.7980    131.1857
   351.7500      0.0000    380.4656     12.0271    129.8744
   352.0000      0.0000    357.3562     12.2254    126.3086
   352.2500      0.0000    346.4820     12.3965    120.6803
   352.5000      0.0000    342.3484     12.5502    113.6379
   352.7500      0.0000    341.0075     12.6972    106.4191
   353.0000      0.0000    340.5883     12.8426    100.2587
   353.2500      0.0000    340.4472     12.9765     95.6896
   353.5000      0.0000    340.4376     13.0714     92.6978
   353.7500      0.0000    340.5178     13.0979     91.3523
   354.0000      0.0000    340.6667     13.0477     91.7348
   354.2500      0.0000    340.8548     12.9388     93.3745
   354.5000      0.0000    341.0508     12.8037     95.1751
   354.7500      0.0000    341.2287     12.6726     95.7726
   355.0000      0.0000    341.4013     12.5612     93.7616
   355.2500      0.0000    341.6955     12.4675     88.2456
   355.5000      0.0000    342.7207     12.3807     80.0060
   355.7500      0.0000    346.5055     12.2931     71.9009
   356.0000      0.0000    357.9714     12.2038     67.1969
   356.2500      0.0000    385.3117     12.1145     67.1205
   356.5000      0.0000    436.2631     12.0282     70.1777
   356.7500      0.0000    510.3463     11.9534     73.8761
   357.0000      0.0000    594.3376     11.9032     76.8031
   357.2500      0.0000    668.5433     11.8895     78.8891
   357.5000      0.0000    719.5328     11.9158     80.1054
   357.7500      0.0000    746.2224     11.9731     79.7309
   358.0000      0.0000    754.7639     12.0449     77.1814
   358.2500      0.0000    749.8467     12.1203     73.0535
   358.5000      0.0000    731.0955     12.2060     68.8399
   358.7500      0.0000    696.1058     12.3213     65.8487
   359.0000      0.0000    645.5826     12.4772     64.8012
   359.2500      0.0000    584.7098     12.6626     66.0702
   359.5000      0.0000    520.3979     12.8494     69.4465
   359.7500      0.0000    459.4775     13.0071     73.6859
   360.0000      0.0000    408.8712     13.1133     76.9720
   360.2500      0.0000    373.6508     13.1600     78.2211
   360.5000      0.0000    353.8905     13.1537     77.9238
   360.7500      0.0000    345.1642     13.1051     77.7079
   361.0000      0.0000    342.3109     13.0184     78.9499
   361.2500      0.0000    342.4832     12.8932     81.5276
