~Version Information
VERS.                      2.0: CWLS Log ASCII Standard - VERSION 2.0
WRAP.                       NO: One line per depth step
~Well Information Block
STRT.FT               619.7000: 
STOP.FT               951.7000: 
STEP.FT                 0.1000: 
NULL.                -999.2500: 
COMP.          Pioneer Natural Resources: COMPANY
WELL.          Screamin 12-29 Tr: WELL
FLD.           Purgatoire River: FIELD
LOC.           1979' FNL & 532' FWL--: LOCATION
CNTY.               Las Animas: COUNTY
SRVC.                Patterson: SERVICE COMPANY
DATE.          Fri Mar 31 15:43:57 2006: LOG DATE
UWI.           05 071 08660 00: UNIQUE WELL ID
STAT.                 Colorado: STATE
~Curve Information Block
DEPT.FT            0 000 00 00: Depth
DCAL.in                       : CDL Caliper
RHOB.g/cc                     : CDL Bulk Density
RHOC.g/cc                     : CDL Density Correction
DPOR.pu                       : CDL Density Porosity
GR.GAPI                       : Gamma Ray
~Parameter Information Block
~A  Depth       DCAL        RHOB        RHOC        DPOR         GR     
# ...
   787.7000      7.9914      2.4533      0.0445     11.9220     73.6564
   787.8000      7.9909      2.4590      0.0309     11.5758     73.0577
   787.9000      7.9909      2.4699      0.0611     10.9178     69.3390
   788.0000      7.9884      2.4728      0.0553     10.7399     65.6528
   788.1000      7.9884      2.4679      0.0255     11.0372     65.3618
   788.2000      7.9884      2.4700      0.0334     10.9063     70.9620
   788.3000      7.9849      2.4869      0.0051      9.8878     78.9988
   788.4000      7.9849      2.5056      0.0673      8.7507     82.1434
   788.5000      7.9790      2.5068      0.0375      8.6762     79.4556
   788.6000      7.9790      2.4916      0.0385      9.6015     76.5795
   788.7000      7.9790      2.4712      0.0017     10.8354     76.4514
   788.8000      7.9721      2.4514      0.0192     12.0341     75.7658
   788.9000      7.9721      2.4260      0.0126     13.5753     73.7640
   789.0000      7.9694      2.3773      0.0112     16.5284     73.2227
   789.1000      7.9694      2.2925     -0.0179     21.6693     72.4044
   789.2000      7.9694      2.1749     -0.0683     28.7924     69.4818
   789.3000      7.9753      2.0372     -0.0695     37.1382     66.5666
   789.4000      7.9753      1.8942     -0.1461     45.8042     66.3820
   789.5000      7.9896      1.7641     -0.1947     53.6902     67.4456
   789.6000      7.9896      1.6568     -0.2096     60.1951     66.3467
   789.7000      7.9896      1.5658     -0.1705     65.7082     64.2854
   789.8000      8.0089      1.4911     -0.2002     70.2342     63.7612
   789.9000      8.0089      1.4570     -0.1797     72.3026     63.8495
   790.0000      8.0402      1.4890     -0.0661     70.3653     64.8103
   790.1000      8.0402      1.5866      0.1087     64.4471     68.9435
   790.2000      8.0402      1.7226      0.2474     56.2036     75.8170
   790.3000      8.0955      1.8639      0.3271     47.6426     82.4951
   790.4000      8.0955      1.9899      0.3411     40.0057     85.9784
   790.5000      8.1349      2.0935      0.3475     33.7290     87.1974
   790.6000      8.1349      2.1775      0.3125     28.6366     89.2949
   790.7000      8.1349      2.2441      0.2920     24.5973     90.4640
   790.8000      8.1060      2.2816      0.2500     22.3287     90.3613
   790.9000      8.1060      2.2845      0.1753     22.1543     94.5131
   791.0000      8.0516      2.2784      0.1000     22.5220    104.5864
   791.1000      8.0516      2.2922      0.1091     21.6868    114.6323
   791.2000      8.0516      2.3227      0.1229     19.8342    117.1853
   791.3000      8.0263      2.3514      0.1095     18.0961    112.0804
   791.4000      8.0263      2.3674      0.0975     17.1260    108.7787
   791.5000      8.0225      2.3682      0.1058     17.0778    112.7301
   791.6000      8.0225      2.3594      0.1222     17.6129    117.5976
   791.7000      8.0225      2.3499      0.0815     18.1868    117.1092
   791.8000      8.0236      2.3370      0.1282     18.9726    113.5147
   791.9000      8.0236      2.3060      0.0574     20.8475    113.2926
   792.0000      8.0295      2.2535      0.0349     24.0277    119.0585
   792.1000      8.0295      2.1920      0.0063     27.7568    126.7733
   792.2000      8.0295      2.1428     -0.0396     30.7386    129.3094
   792.3000      8.0401      2.1122      0.0040     32.5946    124.6821
   792.4000      8.0401      2.0782      0.0158     34.6549    118.2329
   792.5000      8.0533      2.0264     -0.0175     37.7953    115.2842
   792.6000      8.0533      1.9599     -0.0317     41.8225    116.5822
   792.7000      8.0533      1.8761     -0.0597     46.9011    116.9108
   792.8000      8.0656      1.7788     -0.1166     52.7977    111.7632
   792.9000      8.0656      1.6891     -0.1001     58.2352    104.2968
   793.0000      8.0608      1.6173     -0.0823     62.5861     99.6720
   793.1000      8.0608      1.5536     -0.0472     66.4498     96.8110
   793.2000      8.0608      1.4855     -0.0502     70.5774     93.4644
   793.3000      8.0344      1.4155     -0.0978     74.8200     90.0306
   793.4000      8.0344      1.3609     -0.0870     78.1243     85.1738
   793.5000      8.0065      1.3321     -0.0308     79.8700     77.8990
   793.6000      8.0065      1.3240      0.0070     80.3664     70.9406
   793.7000      8.0065      1.3308      0.0262     79.9486     67.9506
   793.8000      7.9928      1.3512      0.0527     78.7172     67.4428
   793.9000      7.9928      1.3808      0.0639     76.9192     64.5221
   794.0000      7.9916      1.4156      0.0836     74.8098     59.5953
   794.1000      7.9916      1.4554      0.0894     72.3976     58.3433
   794.2000      7.9916      1.5005      0.0983     69.6644     62.3121
   794.3000      7.9888      1.5484      0.1143     66.7609     66.6533
   794.4000      7.9888      1.6048      0.1325     63.3449     68.3510
   794.5000      7.9856      1.6872      0.1399     58.3504     70.2637
   794.6000      7.9856      1.7990      0.1872     51.5751     74.3372
   794.7000      7.9856      1.9123      0.2491     44.7103     79.1445
   794.8000      7.9907      1.9999      0.1847     39.3973     84.1085
   794.9000      7.9907      2.0633      0.2143     35.5579     90.5397
   795.0000      7.9981      2.1175      0.2267     32.2703     97.6198
   795.1000      7.9981      2.1770      0.2143     28.6696    103.2044
   795.2000      7.9981      2.2368      0.2271     25.0406    108.1001
   795.3000      7.9972      2.2777      0.1793     22.5646    112.0113
   795.4000      7.9972      2.2968      0.1593     21.4042    113.9880
   795.5000      7.9990      2.3059      0.1456     20.8538    116.4249
   795.6000      7.9990      2.3118      0.1529     20.4942    119.1205
   795.7000      7.9990      2.3157      0.1154     20.2598    117.9313
   795.8000      8.0194      2.3249      0.0654     19.7046    111.6550
   795.9000      8.0194      2.3575      0.0983     17.7245    103.4190
   796.0000      8.0455      2.4182      0.1967     14.0504     97.3976
   796.1000      8.0455      2.4747      0.2703     10.6240     96.8806
   796.2000      8.0455      2.4866      0.2769      9.9032    101.0215
   796.3000      8.0575      2.4607      0.1602     11.4728    105.9335
   796.4000      8.0575      2.4456      0.1864     12.3906    108.6657
   796.5000      8.0750      2.4652      0.2212     11.1975    108.7229
   796.6000      8.0750      2.4972      0.2602      9.2619    109.6595
   796.7000      8.0750      2.5122      0.2052      8.3525    115.0651
   796.8000      8.0678      2.5116      0.1228      8.3899    122.0022
   796.9000      8.0678      2.5079      0.1362      8.6108    126.7292
   797.0000      8.0068      2.5032      0.1503      8.8975    128.7654
   797.1000      8.0068      2.5044      0.0872      8.8242    127.1671
   797.2000      8.0068      2.5202      0.1374      7.8652    123.0059
   797.3000      7.9629      2.5384      0.1936      6.7663    120.0352
   797.4000      7.9629      2.5436      0.1534      6.4477    120.2104
   797.5000      7.9601      2.5417      0.1193      6.5659    122.5752
   797.6000      7.9601      2.5423      0.0896      6.5264    127.5627
   797.7000      7.9601      2.5406      0.0780      6.6315    134.1975
   797.8000      7.9628      2.5303      0.0340      7.2521    138.6643
   797.9000      7.9628      2.5258     -0.0085      7.5272    138.1538
   798.0000      7.9607      2.5395      0.0385      6.6967    132.2323
   798.1000      7.9607      2.5594      0.0502      5.4901    123.4586
   798.2000      7.9607      2.5724      0.0772      4.7012    116.6653
   798.3000      7.9597      2.5790      0.0384      4.3032    115.0025
   798.4000      7.9597      2.5782      0.0536      4.3507    117.3078
   798.5000      7.9555      2.5644      0.0433      5.1871    121.6563
   798.6000      7.9555      2.5464     -0.0187      6.2759    127.1197
   798.7000      7.9555      2.5389      0.0292      6.7357    131.2841
   798.8000      7.9479      2.5397      0.0494      6.6835    132.3664
