~Version Information
VERS.                      2.0: CWLS Log ASCII Standard - VERSION 2.0
WRAP.                       NO: One line per depth step
~Well Information Block
STRT.FT                -5.2500: 
STOP.FT              1184.2500: 
STEP.FT                 0.2500: 
NULL.                -999.2500: 
COMP.          Pioneer Natural Resources: COMPANY
WELL.          Lucky Lady 42-29: WELL
FLD.           Purgatoire River: FIELD
LOC.           2482' FNL & 662' FEL: LOCATION
CNTY.               Las Animas: COUNTY
SRVC.                         : SERVICE COMPANY
DATE.          Tue Mar 14 14:47:22 2006: LOG DATE
UWI.           05 071 08659 00: UNIQUE WELL ID
STAT.                       CO: STATE
~Curve Information Block
DEPT.FT            0 000 00 00: Depth
GR.GAPI                       : Gamma Ray
CCL.                          : Casing Collar Locator
TT3.usec                      : CBL 3' Travel Time
AMP3.mV                       : CBL 3' Amplitude
~Parameter Information Block
~A  Depth        GR         CCL         TT3         AMP3    
# ...
   932.7500     74.1246      0.0000    706.3492      9.9333
   933.0000     73.4273      0.0000    691.8252     10.1898
   933.2500     75.7897      0.0000    673.0144     10.3950
   933.5000     80.3915      0.0000    657.3541     10.5136
   933.7500     85.8860      0.0000    653.2931     10.5663
   934.0000     91.0581      0.0000    663.8630     10.5983
   934.2500     94.8112      0.0000    681.0559     10.6306
   934.5000     96.3076      0.0000    689.8959     10.6464
   934.7500     95.7503      0.0000    680.4458     10.6206
   935.0000     94.7003      0.0000    656.8585     10.5489
   935.2500     94.9677      0.0000    633.7090     10.4425
   935.5000     97.0261      0.0000    621.3519     10.3004
   935.7500     99.4756      0.0000    616.5522     10.1043
   936.0000     99.9633      0.0000    610.7893      9.8431
   936.2500     96.8723      0.0000    603.9190      9.5337
   936.5000     90.4479      0.0000    601.7825      9.2105
   936.7500     82.4402      0.0000    601.4998      8.9049
   937.0000     74.9998      0.0000    588.6039      8.6432
   937.2500     70.0992      0.0000    552.6268      8.4577
   937.5000     69.2016      0.0000    500.7419      8.3735
   937.7500     72.3563      0.0000    452.6139      8.3759
   938.0000     77.5173      0.0000    424.7516      8.4050
   938.2500     81.6250      0.0000    422.6226      8.4028
   938.5000     82.9576      0.0000    444.5308      8.3622
   938.7500     82.2804      0.0000    486.7318      8.3228
   939.0000     81.5595      0.0000    542.6151      8.3237
   939.2500     81.9113      0.0000    600.2826      8.3703
   939.5000     83.0289      0.0000    645.5903      8.4395
   939.7500     84.0509      0.0000    669.6271      8.5063
   940.0000     84.3551      0.0000    673.2319      8.5638
   940.2500     83.7777      0.0000    664.8269      8.6187
   940.5000     82.6777      0.0000    654.6392      8.6701
   940.7500     81.7591      0.0000    650.0586      8.7024
   941.0000     81.4407      0.0000    653.7703      8.7063
   941.2500     81.3068      0.0000    663.6627      8.6993
   941.5000     80.4160      0.0000    673.9344      8.7168
   941.7500     78.3757      0.0000    678.3100      8.7795
   942.0000     76.0754      0.0000    674.3841      8.8712
   942.2500     75.2311      0.0000    665.0959      8.9509
   942.5000     77.1414      0.0000    655.1597      8.9874
   942.7500     81.7059      0.0000    646.5414      8.9829
   943.0000     87.3209      0.0000    638.2417      8.9609
   943.2500     91.7633      0.0000    629.1376      8.9399
   943.5000     93.6893      0.0000    618.5620      8.9233
   943.7500     93.5823      0.0000    604.1147      8.9039
   944.0000     93.0023      0.0000    581.5044      8.8715
   944.2500     92.7022      0.0000    548.5010      8.8219
   944.5000     91.6192      0.0000    508.6999      8.7599
   944.7500     87.9856      0.0000    470.1293      8.6902
   945.0000     81.4408      0.0000    439.9050      8.6099
   945.2500     73.7608      0.0000    420.4357      8.5152
   945.5000     67.3426      0.0000    409.9030      8.4097
   945.7500     63.2936      0.0000    405.0797      8.2885
   946.0000     61.3455      0.0000    403.7895      8.1147
   946.2500     61.1952      0.0000    406.3094      7.8330
   946.5000     63.0205      0.0000    415.8749      7.4364
   946.7500     66.5938      0.0000    437.3992      7.0168
   947.0000     70.6918      0.0000    472.6942      6.7057
   947.2500     73.8552      0.0000    514.0223      6.5328
   947.5000     75.4161      0.0000    543.7982      6.3887
   947.7500     75.5587      0.0000    545.7222      6.1771
   948.0000     74.6809      0.0000    518.3587      5.9575
   948.2500     73.1167      0.0000    475.8871      5.8750
   948.5000     71.3911      0.0000    436.0058      5.9825
   948.7500     70.2270      0.0000    410.1802      6.1925
   949.0000     70.0419     -1.5414    404.4742      6.3800
   949.2500     70.5973      0.0000    423.7749      6.4815
   949.5000     71.3209      0.0000    470.1151      6.5068
   949.7500     72.0500      0.0000    535.1992      6.4918
   950.0000     73.3800      0.0000    596.6801      6.4497
   950.2500     76.1391      0.0000    627.8540      6.3671
   950.5000     80.6702      0.0000    617.0511      6.2607
   950.7500     86.9353      0.0000    578.8084      6.2176
   951.0000     95.0181      0.0000    544.1072      6.3366
   951.2500    104.8180      0.0000    538.1632      6.6301
   951.5000    115.2322      0.0000    564.9413      7.0040
   951.7500    124.3694      0.0000    607.8717      7.3333
   952.0000    130.7595      0.0000    642.7057      7.5398
   952.2500    133.8566      0.0000    652.9422      7.6120
   952.5000    133.4510      0.0000    638.8166      7.5804
   952.7500    129.5376      0.0000    614.8788      7.4885
   953.0000    123.1154      0.0000    598.8378      7.3738
   953.2500    116.3298      0.0000    600.9962      7.2574
   953.5000    111.0693      0.0000    621.5941      7.1429
   953.7500    107.6461      0.0000    654.1769      7.0277
   954.0000    105.2749      0.0000    689.5900      6.9213
   954.2500    103.3283      0.0000    719.4174      6.8453
   954.5000    101.4083      0.0000    739.2239      6.8126
   954.7500     98.6941      0.0000    749.6400      6.8079
   955.0000     94.3085      0.0000    754.2811      6.7965
   955.2500     88.5186      0.0000    756.8878      6.7528
   955.5000     83.0227      0.0000    759.9294      6.6833
   955.7500     79.6629      0.0000    764.3101      6.6288
   956.0000     78.8344      0.0000    769.2560      6.6513
   956.2500     79.1836      0.0000    772.7344      6.8122
   956.5000     78.7205      0.0000    773.0530      7.1404
   956.7500     76.1705      0.0000    770.4144      7.6081
   957.0000     71.7020      0.0000    766.5162      8.1379
   957.2500     66.8684      0.0000    762.6900      8.6419
   957.5000     63.6527      0.0000    759.0942      9.0601
   957.7500     63.2254      0.0000    755.4667      9.3768
   958.0000     65.7557      0.0000    751.5524      9.6128
   958.2500     71.1390      0.0000    746.7491      9.8003
   958.5000     78.9783      0.0000    740.4354      9.9561
   958.7500     87.7826      0.0000    732.9704     10.0724
   959.0000     95.2292      0.0000    725.5800     10.1296
   959.2500     99.7502      0.0000    719.0242     10.1118
   959.5000    101.4230      0.0000    712.8942     10.0094
   959.7500    101.1013      0.0000    706.4205      9.8158
   960.0000     99.2553      0.0000    699.6263      9.5313
   960.2500     96.0668      0.0000    693.2939      9.1758
   960.5000     92.1520      0.0000    687.7456      8.7978
   960.7500     88.4915      0.0000    682.1293      8.4629
   961.0000     85.6977      0.0000    675.9511      8.2231
   961.2500     83.6368      0.0000    671.4258      8.0864
   961.5000     81.5627      0.0000    672.4041      8.0148
   961.7500     78.4734      0.0000    679.1393      7.9580
   962.0000     73.8766      0.0000    684.7208      7.8927
   962.2500     68.6309      0.0000    678.8430      7.8291
   962.5000     64.7474      0.0000    657.0544      7.7783
   962.7500     63.9529      0.0000    627.3358      7.7187
   963.0000     66.3509      0.0000    606.7408      7.6040
   963.2500     70.3207      0.0000    608.8081      7.4122
   963.5000     73.5595      0.0000    632.5760      7.1773
   963.7500     74.4511      0.0000    664.5352      6.9658
   964.0000     72.9093      0.0000    690.8680      6.8256
   964.2500     70.2225      0.0000    706.4198      6.7640
   964.5000     68.0477      0.0000    713.7382      6.7670
   964.7500     67.1986      0.0000    717.4107      6.8259
   965.0000     67.2326      0.0000    720.2493      6.9387
   965.2500     67.2520      0.0000    722.6053      7.0906
   965.5000     66.8842      0.0000    723.5019      7.2463
   965.7500     66.3251      0.0000    722.3356      7.3701
   966.0000     65.8696      0.0000    719.7691      7.4483
