~Version Information
VERS.                      2.0: CWLS Log ASCII Standard - VERSION 2.0
WRAP.                       NO: One line per depth step
~Well Information Block
STRT.FT               795.0000: 
STOP.FT              2279.7500: 
STEP.FT                 0.2500: 
NULL.                -999.2500: 
COMP.          Pioneer Natural Resources: COMPANY
WELL.            Wildcard 31-5: WELL
FLD.           Purgatoire River: FIELD
LOC.           624' FNL & 1852' FEL--: LOCATION
CNTY.               Las Animas: COUNTY
SRVC.                Patterson: SERVICE COMPANY
DATE.          Tue Mar 07 07:02:36 2006: LOG DATE
UWI.           05 071 08707 00: UNIQUE WELL ID
STAT.                 Colorado: STATE
~Curve Information Block
DEPT.FT            0 000 00 00: Depth
DIR.Ohm-m                     : IEL Induction Resistivity
SN.Ohm-m                      : IEL Short Normal
SP.mV                         : IEL Spontaneous Potential
GR.GAPI                       : Gamma Ray
~Parameter Information Block
~A  Depth       DIR          SN          SP          GR     
# ...
   895.5000     22.9144   2000.0000   1968.0000     75.7829
   895.7500     23.8536   2000.0000   1968.0000     76.1305
   896.0000     24.6987   2000.0000   1968.0000     75.2834
   896.2500     25.4071   2000.0000   1968.0000     73.9880
   896.5000     25.9701   2000.0000   1968.0000     72.0981
   896.7500     26.4159   2000.0000   1968.0000     71.4812
   897.0000     26.7872   2000.0000   1968.0000     71.7790
   897.2500     27.1154   2000.0000   1968.0000     72.5279
   897.5000     27.4156   2000.0000   1968.0000     73.8393
   897.7500     27.6992   2000.0000   1968.0000     74.5683
   898.0000     27.9794   2000.0000   1968.0000     75.1128
   898.2500     28.2576   2000.0000   1968.0000     74.9212
   898.5000     28.5038   2000.0000   1968.0000     73.7221
   898.7500     28.6523   2000.0000   1968.0000     72.6293
   899.0000     28.6290   2000.0000   1968.0000     71.5389
   899.2500     28.3903   2000.0000   1968.0000     71.6504
   899.5000     27.9451   2000.0000   1968.0000     73.3814
   899.7500     27.3411   2000.0000   1968.0000     75.6079
   900.0000     26.6345   2000.0000   1968.0000     80.4340
   900.2500     25.8680   2000.0000   1968.0000     84.2687
   900.5000     25.0635   2000.0000   1968.0000     89.7163
   900.7500     24.2226   2000.0000   1968.0000     92.4605
   901.0000     23.3327   2000.0000   1968.0000     95.0359
   901.2500     22.3832   2000.0000   1968.0000     96.2089
   901.5000     21.3847   2000.0000   1968.0000     98.1721
   901.7500     20.3769   2000.0000   1968.0000     99.8656
   902.0000     19.4184   2000.0000   1968.0000    102.7303
   902.2500     18.5635   2000.0000   1968.0000    104.5510
   902.5000     17.8414   2000.0000   1968.0000    106.7900
   902.7500     17.2480   2000.0000   1968.0000    107.9689
   903.0000     16.7517   2000.0000   1968.0000    109.5557
   903.2500     16.3097   2000.0000   1968.0000    110.6132
   903.5000     15.8892   2000.0000   1968.0000    112.1954
   903.7500     15.4798   2000.0000   1968.0000    113.2723
   904.0000     15.0936   2000.0000   1968.0000    115.1270
   904.2500     14.7528   2000.0000   1968.0000    116.5849
   904.5000     14.4767   2000.0000   1968.0000    118.8269
   904.7500     14.2731   2000.0000   1968.0000    120.0736
   905.0000     14.1366   2000.0000   1968.0000    121.2519
   905.2500     14.0503   2000.0000   1968.0000    121.4987
   905.5000     13.9913   2000.0000   1968.0000    120.6847
   905.7500     13.9371   2000.0000   1968.0000    118.9456
   906.0000     13.8736   2000.0000   1968.0000    114.2551
   906.2500     13.7989   2000.0000   1968.0000    110.2635
   906.5000     13.7200   2000.0000   1968.0000    104.9081
   906.7500     13.6463   2000.0000   1968.0000    102.8895
   907.0000     13.5841   2000.0000   1968.0000    103.1556
   907.2500     13.5341   2000.0000   1968.0000    105.4383
   907.5000     13.4912   2000.0000   1968.0000    110.9729
   907.7500     13.4453   2000.0000   1968.0000    114.9719
   908.0000     13.3863   2000.0000   1968.0000    119.0112
   908.2500     13.3108   2000.0000   1968.0000    119.3045
   908.5000     13.2246   2000.0000   1968.0000    116.1487
   908.7500     13.1384   2000.0000   1968.0000    112.7503
   909.0000     13.0596   2000.0000   1968.0000    108.1930
   909.2500     12.9880   2000.0000   1968.0000    106.5976
   909.5000     12.9159   2000.0000   1968.0000    107.0642
   909.7500     12.8291   2000.0000   1968.0000    108.9930
   910.0000     12.7095   2000.0000   1968.0000    113.0111
   910.2500     12.5402   2000.0000   1968.0000    115.6248
   910.5000     12.3151   2000.0000   1968.0000    118.6836
   910.7500     12.0455   2000.0000   1968.0000    120.2048
   911.0000     11.7594   2000.0000   1968.0000    122.4434
   911.2500     11.4925   2000.0000   1968.0000    124.4541
   911.5000     11.2785   2000.0000   1968.0000    128.6937
   911.7500     11.1416   2000.0000   1968.0000    131.9471
   912.0000     11.0945   2000.0000   1968.0000    135.7565
   912.2500     11.1376   2000.0000   1968.0000    136.5388
   912.5000     11.2618   2000.0000   1968.0000    134.2887
   912.7500     11.4512   2000.0000   1968.0000    130.6306
   913.0000     11.6856   2000.0000   1968.0000    122.3328
   913.2500     11.9426   2000.0000   1968.0000    115.1232
   913.5000     12.1987   2000.0000   1968.0000    102.6101
   913.7500     12.4308   2000.0000   1968.0000     94.2567
   914.0000     12.6183   2000.0000   1968.0000     84.5008
   914.2500     12.7463   2000.0000   1968.0000     81.2645
   914.5000     12.8066   2000.0000   1968.0000     81.6924
   914.7500     12.7944   2000.0000   1968.0000     84.1655
   915.0000     12.7024   2000.0000   1968.0000     87.4724
   915.2500     12.5177   2000.0000   1968.0000     87.7536
   915.5000     12.2289   2000.0000   1968.0000     84.9068
   915.7500     11.8380   2000.0000   1968.0000     81.8176
   916.0000     11.3685   2000.0000   1968.0000     77.5905
   916.2500     10.8628   2000.0000   1968.0000     75.9601
   916.5000     10.3707   2000.0000   1968.0000     75.9998
   916.7500      9.9357   2000.0000   1968.0000     77.7490
   917.0000      9.5823   2000.0000   1968.0000     82.7638
   917.2500      9.3098   2000.0000   1968.0000     87.4790
   917.5000      9.0904   2000.0000   1968.0000     96.1163
   917.7500      8.8729   2000.0000   1968.0000    102.5610
   918.0000      8.5941   2000.0000   1968.0000    112.2663
   918.2500      8.1997   2000.0000   1968.0000    117.8746
   918.5000      7.6698   2000.0000   1968.0000    123.5117
   918.7500      7.0317   2000.0000   1968.0000    125.0839
   919.0000      6.3470   2000.0000   1968.0000    124.6061
   919.2500      5.6835   2000.0000   1968.0000    122.8456
   919.5000      5.0927   2000.0000   1968.0000    118.5737
   919.7500      4.6034   2000.0000   1968.0000    114.8163
   920.0000      4.2255   2000.0000   1968.0000    108.2502
   920.2500      3.9567   2000.0000   1968.0000    103.9332
   920.5000      3.7897   2000.0000   1968.0000     99.7997
   920.7500      3.7168   2000.0000   1968.0000    100.0290
   921.0000      3.7335   2000.0000   1968.0000    105.5695
   921.2500      3.8386   2000.0000   1968.0000    111.6185
   921.5000      4.0340   2000.0000   1968.0000    120.8700
   921.7500      4.3222   2000.0000   1968.0000    125.5611
   922.0000      4.7055   2000.0000   1968.0000    129.6816
   922.2500      5.1844   2000.0000   1968.0000    131.0719
   922.5000      5.7545   2000.0000   1968.0000    132.3715
   922.7500      6.4007   2000.0000   1968.0000    132.9560
   923.0000      7.0919   2000.0000   1968.0000    133.0200
   923.2500      7.7818   2000.0000   1968.0000    132.2472
   923.5000      8.4211   2000.0000   1968.0000    129.8650
   923.7500      8.9771   2000.0000   1968.0000    127.7928
   924.0000      9.4465   2000.0000   1968.0000    125.0018
   924.2500      9.8542   2000.0000   1968.0000    124.0517
   924.5000     10.2397   2000.0000   1968.0000    124.6522
   924.7500     10.6435   2000.0000   1968.0000    126.1337
   925.0000     11.0987   2000.0000   1968.0000    128.4260
   925.2500     11.6302   2000.0000   1968.0000    128.8896
   925.5000     12.2559   2000.0000   1968.0000    126.7603
   925.7500     12.9873   2000.0000   1968.0000    123.4949
   926.0000     13.8230   2000.0000   1968.0000    117.0302
   926.2500     14.7393   2000.0000   1968.0000    112.6023
   926.5000     15.6808   2000.0000   1968.0000    106.9628
   926.7500     16.5609   2000.0000   1968.0000    104.1815
   927.0000     17.2766   2000.0000   1968.0000    101.4994
   927.2500     17.7341   2000.0000   1968.0000    100.5241
   927.5000     17.8735   2000.0000   1968.0000     99.8692
   927.7500     17.6858   2000.0000   1968.0000     99.8394
   928.0000     17.2140   2000.0000   1968.0000    100.4503
   928.2500     16.5410   2000.0000   1968.0000    101.3950
   928.5000     15.7653   2000.0000   1968.0000    103.9110
   928.7500     14.9768   2000.0000   1968.0000    106.6513
