~Version Information
VERS.                      2.0: CWLS Log ASCII Standard - VERSION 2.0
WRAP.                       NO: One line per depth step
~Well Information Block
STRT.FT               580.0000: 
STOP.FT              1179.0000: 
STEP.FT                 0.1000: 
NULL.                -999.2500: 
COMP.          Pioneer Natural Resources: COMPANY
WELL.          Tin Barn 14-20 TR: WELL
FLD.           Purgatorie River: FIELD
LOC.           925 FSL & 1151 FWL: LOCATION
PROV.                 Colorado: PROVINCE
CNTY.               Las Animas: COUNTRY
SRVC.                Patterson: SERVICE COMPANY
DATE.          Thu Jan 12 12:02:37 2006: LOG DATE
UWI.                          : UNIQUE WELL ID
~Curve Information Block
DEPT.FT            0 000 00 00: Depth
DCAL.in                       : CDL Caliper
RHOB.g/cc                     : CDL Bulk Density
RHOC.g/cc                     : CDL Density Correction
DPOR.pu                       : CDL Density Porosity
GR.GAPI                       : Gamma Ray
~Parameter Information Block
~A  Depth       DCAL        RHOB        RHOC        DPOR         GR     
# ...
   692.0000      7.9784      2.7449      0.0071     -5.7485    100.1872
   692.1000      7.9784      2.7482      0.0132     -5.9494     98.7639
   692.2000      7.9784      2.7331      0.0441     -5.0389     99.8238
   692.3000      7.9840      2.6942     -0.0191     -2.6772    102.8507
   692.4000      7.9840      2.6446     -0.0218      0.3254    105.5546
   692.5000      7.9912      2.5945     -0.0673      3.3608    105.7429
   692.6000      7.9912      2.5546     -0.0985      5.7808    102.9792
   692.7000      7.9912      2.5402     -0.0781      6.6562     99.0140
   692.8000      7.9876      2.5505      0.0008      6.0285     98.2342
   692.9000      7.9876      2.5717      0.0150      4.7445    102.3171
   693.0000      7.9978      2.5931      0.0434      3.4470    107.4530
   693.1000      7.9978      2.5999      0.1040      3.0358    110.6222
   693.2000      7.9978      2.5832      0.0323      4.0499    113.6313
   693.3000      7.9970      2.5619      0.0052      5.3402    118.2746
   693.4000      7.9970      2.5573      0.0136      5.6158    122.3369
   693.5000      7.9956      2.5661      0.0087      5.0842    123.7939
   693.6000      7.9956      2.5691      0.0226      4.9050    124.6465
   693.7000      7.9956      2.5574      0.0225      5.6113    126.2663
   693.8000      8.0011      2.5429     -0.0132      6.4911    126.7866
   693.9000      8.0011      2.5400      0.0191      6.6692    125.5574
   694.0000      7.9904      2.5432      0.0199      6.4724    123.9156
   694.1000      7.9904      2.5349      0.0294      6.9769    121.5110
   694.2000      7.9904      2.5161     -0.0329      8.1156    118.6251
   694.3000      7.9869      2.5087     -0.0033      8.5614    116.7391
   694.4000      7.9869      2.5140     -0.0069      8.2436    115.5304
   694.5000      7.9874      2.5099      0.0141      8.4890    114.2060
   694.6000      7.9874      2.4961     -0.0710      9.3257    113.8836
   694.7000      7.9874      2.4981     -0.0233      9.2044    116.4053
   694.8000      7.9859      2.5196      0.0215      7.9019    119.8767
   694.9000      7.9859      2.5316      0.0305      7.1728    121.4605
   695.0000      7.9873      2.5175      0.0162      8.0287    121.5955
   695.1000      7.9873      2.4953     -0.0398      9.3776    120.8366
   695.2000      7.9873      2.4895      0.0156      9.7276    118.8306
   695.3000      7.9775      2.5044      0.0247      8.8231    115.8191
   695.4000      7.9775      2.5321      0.0231      7.1462    113.2350
   695.5000      7.9766      2.5615      0.0339      5.3607    113.0692
   695.6000      7.9766      2.5812      0.0746      4.1717    115.4441
   695.7000      7.9766      2.5943      0.0075      3.3752    116.5658
   695.8000      7.9729      2.6128      0.0663      2.2569    113.9052
   695.9000      7.9729      2.6296      0.0644      1.2351    110.1516
   696.0000      7.9738      2.6367      0.0699      0.8066    108.0294
   696.1000      7.9738      2.6418      0.0282      0.4998    106.1133
   696.2000      7.9738      2.6489      0.0867      0.0691    102.0714
   696.3000      7.9697      2.6484      0.0661      0.0973     98.4355
   696.4000      7.9697      2.6393      0.0174      0.6465    100.9678
   696.5000      7.9669      2.6368     -0.0097      0.8024    106.7651
   696.6000      7.9669      2.6416      0.0396      0.5107    107.6752
   696.7000      7.9669      2.6293      0.0566      1.2515    103.8575
   696.8000      7.9662      2.5966     -0.0353      3.2379    100.4380
   696.9000      7.9662      2.5676      0.0156      4.9940    101.7063
   697.0000      7.9753      2.5461      0.0048      6.2982    108.1210
   697.1000      7.9753      2.5277     -0.0589      7.4116    115.1696
   697.2000      7.9753      2.5179      0.0329      8.0081    119.0897
   697.3000      8.0154      2.5164     -0.0639      8.0951    119.5787
   697.4000      8.0154      2.5280     -0.0450      7.3911    118.4559
   697.5000      8.0296      2.5500      0.0336      6.0576    118.2164
   697.6000      8.0296      2.5666      0.0223      5.0537    120.3904
   697.7000      8.0296      2.5711      0.0076      4.7797    123.8928
   697.8000      8.0265      2.5622      0.0537      5.3211    126.9277
   697.9000      8.0265      2.5442      0.0232      6.4125    129.5681
   698.0000      8.0062      2.5353     -0.0237      6.9535    130.9724
   698.1000      8.0062      2.5445      0.0049      6.3910    130.2474
   698.2000      8.0062      2.5637     -0.0249      5.2327    127.6022
   698.3000      7.9875      2.5787      0.0462      4.3215    123.9425
   698.4000      7.9875      2.5779      0.0068      4.3671    121.4470
   698.5000      7.9971      2.5641      0.0097      5.2058    121.4164
   698.6000      7.9971      2.5427     -0.0026      6.5020    123.4877
   698.7000      7.9971      2.5179      0.0085      8.0057    125.4779
   698.8000      8.0153      2.5022     -0.0241      8.9546    125.0190
   698.9000      8.0153      2.5064      0.0135      8.7048    121.3406
   699.0000      7.9989      2.5238      0.0223      7.6467    118.5248
   699.1000      7.9989      2.5355      0.0071      6.9411    122.2337
   699.2000      7.9989      2.5321      0.0075      7.1485    128.3057
   699.3000      8.0005      2.5220      0.0112      7.7554    128.5437
   699.4000      8.0005      2.5135      0.0074      8.2729    125.4320
   699.5000      8.0013      2.5116     -0.0171      8.3875    125.1020
   699.6000      8.0013      2.5212      0.0133      7.8088    125.5746
   699.7000      8.0013      2.5380      0.0287      6.7876    122.7972
   699.8000      7.9951      2.5540      0.0447      5.8159    118.7817
   699.9000      7.9951      2.5653      0.0299      5.1359    117.7970
   700.0000      7.9931      2.5658      0.0589      5.1018    119.6207
   700.1000      7.9931      2.5531      0.0500      5.8703    120.7186
   700.2000      7.9931      2.5410      0.0267      6.6074    120.8855
   700.3000      7.9920      2.5443      0.0201      6.4043    120.8726
   700.4000      7.9920      2.5552      0.0663      5.7433    120.2412
   700.5000      7.9977      2.5576      0.0337      5.6030    120.9814
   700.6000      7.9977      2.5548      0.0174      5.7713    124.2083
   700.7000      7.9977      2.5540      0.0587      5.8205    126.0879
   700.8000      8.0440      2.5547     -0.0032      5.7773    123.1779
   700.9000      8.0440      2.5617      0.0345      5.3516    119.0940
   701.0000      8.1275      2.5760      0.0448      4.4843    117.6343
   701.1000      8.1275      2.5887      0.0302      3.7163    116.2598
   701.2000      8.1275      2.5978      0.0056      3.1650    113.9079
   701.3000      8.1110      2.6092      0.0500      2.4698    111.1272
   701.4000      8.1110      2.6179      0.0609      1.9430    106.9206
   701.5000      8.0051      2.6200     -0.0086      1.8183    102.6440
   701.6000      8.0051      2.6241      0.0283      1.5692     99.9036
   701.7000      8.0051      2.6291      0.0028      1.2673     98.6423
   701.8000      7.9847      2.6240      0.0424      1.5779     98.7278
   701.9000      7.9847      2.6072      0.0113      2.5968     99.7595
   702.0000      7.9759      2.5911      0.0092      3.5692    100.8695
   702.1000      7.9759      2.5854      0.0149      3.9139    101.5415
   702.2000      7.9759      2.5869      0.0445      3.8228    103.3748
   702.3000      7.9834      2.5880      0.0473      3.7582    108.1663
   702.4000      7.9834      2.5766      0.0534      4.4474    113.6720
   702.5000      7.9817      2.5492     -0.0072      6.1065    117.4894
   702.6000      7.9817      2.5215     -0.0064      7.7904    120.4000
   702.7000      7.9817      2.5025     -0.0013      8.9373    122.6910
   702.8000      7.9892      2.4870      0.0316      9.8807    124.5576
   702.9000      7.9892      2.4642      0.0496     11.2631    127.4884
   703.0000      7.9820      2.4349     -0.0153     13.0385    128.6350
   703.1000      7.9820      2.4159      0.0087     14.1897    125.0763
