~Version Information
VERS.                      2.0: CWLS Log ASCII Standard - VERSION 2.0
WRAP.                       NO: One line per depth step
~Well Information Block
STRT.FT                 0.0000: 
STOP.FT              2086.0000: 
STEP.FT                 0.2500: 
NULL.                -999.2500: 
COMP.          Petrogulf Corporation: COMPANY
WELL.               YWAM 7-32R: WELL
FLD.           Purgatorie River: FIELD
LOC.           2355' FNL & 2376' FEL: LOCATION
STAT.                 Colorado: State
CNTY.               Las Animas: COUNTY
CTRY. USA : Country
SECT. 7 : Section
TOWN. 33S : Township
RANG. 67W : Range
SRVC.                Patterson: SERVICE COMPANY
DATE.          Wed Nov 09 16:33:59 2005: LOG DATE
API. 05-071-08518                         : UNIQUE WELL ID
~Curve Information Block
DEPT.FT            0 000 00 00: Depth
CCL.                          : Casing Collar Locator
TT3.usec                      : CBL 3' Travel Time
AMP3.mV                       : CBL 3' Amplitude
GR.GAPI                       : Gamma Ray
~Parameter Information Block
~A  Depth       CCL         TT3         AMP3         GR     
# ...
  2043.5000      0.0000    657.0938      1.3978     84.7510
  2043.7500      0.0000    658.2939      1.4483     90.0471
  2044.0000      0.0000    671.0378      1.4410     94.9189
  2044.2500      0.0000    683.8510      1.3873     99.3652
  2044.5000      0.0000    694.1252      1.3299    103.3039
  2044.7500      0.0000    706.2632      1.3062    106.4719
  2045.0000      0.0000    718.5831      1.3212    108.4273
  2045.2500      0.0000    724.1314      1.3678    108.7103
  2045.5000      0.0000    719.0155      1.4538    107.2700
  2045.7500      0.0000    705.4973      1.5809    104.7259
  2046.0000      0.0000    689.6865      1.7164    101.9868
  2046.2500      0.0000    675.3226      1.8240     99.6856
  2046.5000      0.0000    662.8619      1.8875     98.1304
  2046.7500      0.0000    653.6602      1.8920     97.4226
  2047.0000      0.0000    649.0660      1.8352     97.1511
  2047.2500      0.0000    648.4506      1.7521     96.2817
  2047.5000      0.0000    651.1095      1.6866     93.9787
  2047.7500      0.0000    657.3175      1.6580     90.6861
  2048.0000      0.0000    666.7992      1.6664     88.0470
  2048.2500      0.0000    677.7026      1.7073     87.3561
  2048.5000      0.0000    686.5452      1.7802     88.1192
  2048.7500      0.0000    689.0600      1.8928     88.4346
  2049.0000      0.0000    684.0166      2.0473     86.7173
  2049.2500      0.0000    677.0190      2.2505     82.7441
  2049.5000      0.0000    677.3857      2.5207     77.3838
  2049.7500      0.0000    688.4030      2.8192     71.9173
  2050.0000      0.0000    702.5504      3.0417     67.4241
  2050.2500      0.0000    710.9610      3.1219     64.1890
  2050.5000      0.0000    714.8700      3.0873     61.6987
  2050.7500      0.0000    720.7275      3.0463     59.5053
  2051.0000      0.0000    726.9524      3.1090     57.9018
  2051.2500      0.0000    723.3771      3.1982     57.4243
  2051.5000      0.0000    705.9920      3.1097     57.8202
  2051.7500      0.0000    685.3783      2.8485     57.8851
  2052.0000      0.0000    674.2106      2.6023     56.4991
  2052.2500      0.0000    673.1635      2.4560     53.8438
  2052.5000      0.0000    675.0093      2.3555     51.4851
  2052.7500      2.0000    674.5860      2.2401     51.1073
  2053.0000      0.0000    670.0387      2.1085     53.0650
  2053.2500      0.0000    662.8712      1.9876     56.1811
  2053.5000      0.0000    658.4732      1.8900     58.9411
  2053.7500      0.0000    658.9465      1.7750     60.7500
  2054.0000      0.0000    657.6189      1.5735     61.9757
  2054.2500      0.0000    647.7736      1.3233     63.0801
  2054.5000      0.0000    633.0383      1.1586     64.1076
  2054.7500      0.0000    621.4686      1.1130     64.9202
  2055.0000      0.0000    616.1459      1.1112     65.4658
  2055.2500      0.0000    617.0853      1.1063     65.6245
  2055.5000      0.0000    622.4423      1.0888     65.0345
  2055.7500      0.0000    627.9077      1.0607     63.3019
  2056.0000      0.0000    631.6827      1.0504     60.4219
  2056.2500      0.0000    635.2274      1.0703     56.9432
  2056.5000      0.0000    638.9459      1.0891     53.6741
  2056.7500      0.0000    642.9658      1.0858     51.2403
  2057.0000      0.0000    649.3536      1.0728     49.8348
  2057.2500      0.0000    658.6421      1.0676     49.2419
  2057.5000      0.0000    666.3102      1.0787     49.1128
  2057.7500      0.0000    667.3336      1.1093     49.3733
  2058.0000      0.0000    661.5232      1.1543     50.2872
  2058.2500      0.0000    652.2031      1.1965     51.9337
  2058.5000      0.0000    643.6695      1.2143     53.6492
  2058.7500      0.0000    638.5372      1.1984     54.2569
  2059.0000      0.0000    636.3303      1.1701     52.9542
  2059.2500      0.0000    635.5350      1.1632     49.9013
  2059.5000      0.0000    635.2801      1.1747     46.0449
  2059.7500      0.0000    635.2258      1.1769     42.5345
  2060.0000      0.0000    635.2668      1.1677     40.2226
  2060.2500      0.0000    635.4128      1.1585     39.4849
  2060.5000      0.0000    635.6750      1.1549     40.2666
  2060.7500      0.0000    635.9408      1.1711     42.2250
  2061.0000      0.0000    635.8364      1.2123     44.9579
  2061.2500      0.0000    634.5248      1.2507     48.0132
  2061.5000      0.0000    630.9640      1.2578     50.5173
  2061.7500      0.0000    626.0167      1.2411     51.2657
  2062.0000      0.0000    623.8201      1.2281     49.8567
  2062.2500      0.0000    627.1839      1.2342     47.4985
  2062.5000      0.0000    633.3357      1.2585     46.1057
  2062.7500      0.0000    638.2402      1.2850     46.7359
  2063.0000      0.0000    641.0417      1.2857     48.9925
  2063.2500      0.0000    642.4030      1.2459     51.4575
  2063.5000      0.0000    642.6982      1.1901     52.5777
  2063.7500      0.0000    642.3647      1.1684     51.6788
  2064.0000      0.0000    641.9471      1.2076     49.3949
  2064.2500      0.0000    641.7463      1.2876     46.9744
  2064.5000      0.0000    641.7911      1.3651     45.1927
  2064.7500      0.0000    641.9214      1.4205     44.1622
  2065.0000      0.0000    642.0009      1.4687     43.9813
  2065.2500      0.0000    642.1903      1.5033     44.9709
  2065.5000      0.0000    642.7978      1.5037     47.0163
  2065.7500      0.0000    643.8238      1.5048     49.1283
  2066.0000      0.0000    645.1498      1.5569     50.1904
  2066.2500      0.0000    647.5880      1.6442     50.0137
  2066.5000      0.0000    653.4270      1.7119     49.3128
  2066.7500      0.0000    664.6838      1.7294     48.8306
  2067.0000      0.0000    679.8494      1.7098     48.9037
  2067.2500      0.0000    693.3944      1.6808     49.6722
  2067.5000      0.0000    699.3969      1.6427     51.1020
  2067.7500      0.0000    696.4353      1.5756     52.8254
  2068.0000      0.0000    690.3353      1.4797     54.3581
  2068.2500      0.0000    690.2104      1.4034     55.4175
  2068.5000      0.0000    697.8682      1.4165     55.7692
  2068.7500      0.0000    703.7409      1.5292     54.9326
  2069.0000      0.0000    701.7947      1.6624     52.3320
  2069.2500      0.0000    702.7574      1.7317     47.7115
  2069.5000      0.0000    717.4788      1.7142     41.2465
  2069.7500      0.0000    736.2146      1.6340     33.3377
  2070.0000      0.0000    743.1592      1.5382     24.5835
  2070.2500      0.0000    737.8987      1.4810     16.0025
  2070.5000      0.0000    728.8497      1.4963      8.8907
  2070.7500      0.0000    722.1891      1.5625      4.0992
  2071.0000      0.0000    720.4131      1.6037      1.5367
  2071.2500      0.0000    720.3312      1.5549      0.4619
  2071.5000      0.0000    713.3149      1.4154      0.1099
  2071.7500      0.0000    694.7254      1.2411      0.0206
  2072.0000      0.0000    671.4997      1.0948      0.0028
  2072.2500      0.0000    653.5701      0.9960      0.0000
  2072.5000      0.0000    642.2956      0.9417   -999.2500
  2072.7500      0.0000    633.1609      0.9471   -999.2500
  2073.0000      0.0000    624.8951      1.0158   -999.2500
  2073.2500      0.0000    620.7660      1.1050   -999.2500
  2073.5000      0.0000    622.7195      1.1642   -999.2500
  2073.7500      0.0000    629.4584      1.1894   -999.2500
  2074.0000      0.0000    640.6732      1.2075   -999.2500
  2074.2500      0.0000    656.2713      1.2374   -999.2500
  2074.5000      0.0000    670.9906      1.2870   -999.2500
  2074.7500      0.0000    677.2890      1.3358   -999.2500
  2075.0000      0.0000    663.9667      1.3180   -999.2500
  2075.2500      0.0000    601.4063      1.1662   -999.2500
  2075.5000      0.0000    460.7999      0.8819   -999.2500
  2075.7500      0.0000    272.3958      0.5595   -999.2500
  2076.0000      0.0000    115.8963      0.3182   -999.2500
  2076.2500      0.0000     33.9362      0.1991   -999.2500
  2076.5000      0.0000      6.6530      0.1607   -999.2500
  2076.7500      0.0000      0.8566      0.1527   -999.2500
