~Version Information
VERS.                      2.0: CWLS Log ASCII Standard - VERSION 2.0
WRAP.                       NO: One line per depth step
~Well Information Block
STRT.FT               547.0000: 
STOP.FT              1685.5000: 
STEP.FT                 0.1000: 
NULL.                -999.2500: 
COMP.          Pioneer Natural Resources: COMPANY
WELL.           Pedri 42-33 Tr: WELL
FLD.           Purgatorie River: FIELD
LOC.           1933' FNL & 662' FEL: LOCATION
PROV.                 Colorado: PROVINCE
CNTY.               Las Animas: COUNTRY
SRVC.                Patterson: SERVICE COMPANY
DATE.          Mon Dec 19 13:36:44 2005: LOG DATE
UWI.                          : UNIQUE WELL ID
~Curve Information Block
DEPT.FT            0 000 00 00: Depth
DCAL.in                       : CDL Caliper
RHOB.g/cc                     : CDL Bulk Density
RHOC.g/cc                     : CDL Density Correction
DPOR.pu                       : CDL Density Porosity
GR.GAPI                       : Gamma Ray
~Parameter Information Block
~A  Depth       DCAL        RHOB        RHOC        DPOR         GR     
# ...
  1219.0000      8.0735      2.4822      0.0716     10.1694     61.5240
  1219.1000      8.0735      2.5052      0.0953      8.7762     67.2049
  1219.2000      8.0735      2.5139      0.0855      8.2505     70.9198
  1219.3000      8.0949      2.5015      0.0607      8.9989     70.7201
  1219.4000      8.0949      2.4800      0.0682     10.3021     68.9863
  1219.5000      8.0752      2.4715     -0.0196     10.8204     67.2872
  1219.6000      8.0752      2.4821      0.0551     10.1777     66.4362
  1219.7000      8.0752      2.4889      0.0664      9.7660     67.8828
  1219.8000      8.0938      2.4831      0.0071     10.1178     72.9035
  1219.9000      8.0938      2.4813      0.0288     10.2251     79.3825
  1220.0000      8.0739      2.4887      0.0029      9.7747     82.5353
  1220.1000      8.0739      2.5009     -0.0184      9.0337     80.0197
  1220.2000      8.0739      2.5174      0.0048      8.0379     75.0304
  1220.3000      8.0691      2.5302      0.0477      7.2603     72.6810
  1220.4000      8.0691      2.5285      0.0423      7.3652     72.5612
  1220.5000      8.0946      2.5200      0.0444      7.8812     70.5078
  1220.6000      8.0946      2.5186      0.0383      7.9648     66.2081
  1220.7000      8.0946      2.5147      0.0741      8.1982     64.2899
  1220.8000      8.0975      2.4882      0.0330      9.8046     66.3174
  1220.9000      8.0975      2.4389      0.0109     12.7914     69.4758
  1221.0000      8.1111      2.3735      0.0380     16.7593     72.7367
  1221.1000      8.1111      2.2940     -0.0375     21.5774     77.0788
  1221.2000      8.1111      2.2136     -0.0634     26.4486     82.3630
  1221.3000      8.1067      2.1484     -0.0573     30.3975     87.5025
  1221.4000      8.1067      2.1076     -0.0870     32.8742     91.8179
  1221.5000      8.1024      2.0890     -0.0465     34.0000     95.3721
  1221.6000      8.1024      2.0838     -0.0036     34.3178     98.1322
  1221.7000      8.1024      2.0918      0.0061     33.8301     98.9012
  1221.8000      8.1270      2.1179      0.0714     32.2461     97.9699
  1221.9000      8.1270      2.1574      0.1833     29.8560    100.2512
  1222.0000      8.0779      2.2010      0.1866     27.2132    109.2565
  1222.1000      8.0779      2.2488      0.1178     24.3125    120.0616
  1222.2000      8.0779      2.3042      0.1123     20.9578    126.8141
  1222.3000      8.0850      2.3633      0.1007     17.3742    130.6617
  1222.4000      8.0850      2.4239      0.1135     13.7018    134.5134
  1222.5000      8.0799      2.4762      0.2026     10.5345    137.7744
  1222.6000      8.0799      2.4965      0.2282      9.3036    140.7636
  1222.7000      8.0799      2.4857      0.1466      9.9568    144.9899
  1222.8000      8.0957      2.4791      0.1197     10.3567    147.1547
  1222.9000      8.0957      2.4904      0.1461      9.6710    143.7048
  1223.0000      8.1195      2.4997      0.1348      9.1089    137.6424
  1223.1000      8.1195      2.4992      0.1059      9.1411    132.1265
  1223.2000      8.1195      2.5046      0.0836      8.8122    127.3005
  1223.3000      8.1492      2.5289      0.1262      7.3399    126.0784
  1223.4000      8.1492      2.5609      0.1834      5.4000    129.8198
  1223.5000      8.1779      2.5838      0.1427      4.0126    133.5515
  1223.6000      8.1779      2.5990      0.1712      3.0906    133.7494
  1223.7000      8.1779      2.6079      0.1906      2.5505    132.7984
  1223.8000      8.1854      2.6028      0.1514      2.8616    133.1208
  1223.9000      8.1854      2.5799      0.1202      4.2464    133.0975
  1224.0000      8.1307      2.5449      0.0582      6.3713    132.5054
  1224.1000      8.1307      2.5113      0.0617      8.4036    133.3628
  1224.2000      8.1307      2.4968     -0.0357      9.2852    134.6655
  1224.3000      8.1297      2.5056      0.0366      8.7508    136.0163
  1224.4000      8.1297      2.5130      0.0773      8.3059    139.9205
  1224.5000      8.1416      2.4947      0.0359      9.4123    143.9733
  1224.6000      8.1416      2.4609      0.0095     11.4634    143.1802
  1224.7000      8.1416      2.4345      0.0185     13.0584    140.7385
  1224.8000      8.1508      2.4230      0.0325     13.7604    141.5322
  1224.9000      8.1508      2.4191      0.0415     13.9967    141.5864
  1225.0000      8.1790      2.4081      0.0999     14.6589    136.0024
  1225.1000      8.1790      2.3769      0.1125     16.5517    128.4203
  1225.2000      8.1790      2.3327      0.0766     19.2322    125.1302
  1225.3000      8.1876      2.2972      0.0313     21.3794    127.8305
  1225.4000      8.1876      2.2766      0.0899     22.6307    132.9596
  1225.5000      8.2325      2.2577      0.0259     23.7777    134.4379
  1225.6000      8.2325      2.2280      0.0187     25.5763    131.8121
  1225.7000      8.2325      2.1709      0.0761     29.0383    127.7829
  1225.8000      8.2426      2.0729      0.0368     34.9785    121.6257
  1225.9000      8.2426      1.9452     -0.0275     42.7153    114.7572
  1226.0000      8.2702      1.8095     -0.0416     50.9364    110.3661
  1226.1000      8.2702      1.6754     -0.0856     59.0685    106.4516
  1226.2000      8.2702      1.5474     -0.1424     66.8222    100.3077
  1226.3000      8.2660      1.4371     -0.1172     73.5082     94.2515
  1226.4000      8.2660      1.3594     -0.1476     78.2200     89.6022
  1226.5000      8.2855      1.3230     -0.0799     80.4241     83.8343
  1226.6000      8.2855      1.3194      0.0406     80.6410     76.2034
  1226.7000      8.2855      1.3307      0.1240     79.9567     68.3200
  1226.8000      8.2627      1.3496      0.1029     78.8150     61.9715
  1226.9000      8.2627      1.3698      0.2437     77.5889     57.8884
  1227.0000      8.4257      1.3697      0.2368     77.5925     55.9363
  1227.1000      8.4257      1.3379      0.1958     79.5238     53.9800
  1227.2000      8.4257      1.2897      0.1220     82.4402     50.1092
  1227.3000      8.3827      1.2510      0.0533     84.7859     46.3722
  1227.4000      8.3827      1.2349      0.0698     85.7621     44.9256
  1227.5000      8.2462      1.2392      0.0429     85.5040     45.2982
  1227.6000      8.2462      1.2594      0.0442     84.2804     46.2485
  1227.7000      8.2462      1.2900      0.0500     82.4220     46.7270
  1227.8000      8.2510      1.3250      0.0757     80.3059     45.6994
  1227.9000      8.2510      1.3602      0.1652     78.1721     44.0285
  1228.0000      8.3477      1.3914      0.2490     76.2761     44.2920
  1228.1000      8.3477      1.4177      0.2817     74.6850     46.9857
  1228.2000      8.3477      1.4561      0.2301     72.3567     51.0359
  1228.3000      8.4151      1.5355      0.1815     67.5459     56.4244
  1228.4000      8.4151      1.6534      0.2430     60.3979     62.6619
  1228.5000      8.4642      1.7724      0.2741     53.1861     67.3756
  1228.6000      8.4642      1.8619      0.3077     47.7645     69.5399
  1228.7000      8.4642      1.9086      0.4007     44.9332     71.2066
  1228.8000      8.3423      1.9100      0.4094     44.8501     73.9624
  1228.9000      8.3423      1.8784      0.3119     46.7626     76.6420
  1229.0000      8.6325      1.8224      0.2789     50.1583     77.9379
  1229.1000      8.6325      1.7298      0.1236     55.7681     78.6512
  1229.2000      8.6325      1.5975     -0.0644     63.7886     79.3526
  1229.3000      8.5499      1.4485     -0.1099     72.8196     78.6817
  1229.4000      8.5499      1.3222     -0.1517     80.4699     75.9897
  1229.5000      8.3773      1.2617     -0.1160     84.1412     74.0048
  1229.6000      8.3773      1.2820      0.0350     82.9099     74.7171
  1229.7000      8.3773      1.3570      0.1258     78.3643     76.0115
  1229.8000      8.4749      1.4472      0.1578     72.8966     75.9816
  1229.9000      8.4749      1.5429      0.1709     67.0987     76.2460
  1230.0000      8.6423      1.6707      0.1370     59.3492     79.1199
  1230.1000      8.6423      1.8369      0.2324     49.2805     83.5471
