~Version Information
VERS.                      2.0: CWLS Log ASCII Standard - VERSION 2.0
WRAP.                       NO: One line per depth step
~Well Information Block
STRT.FT                -6.0000: 
STOP.FT              1295.2500: 
STEP.FT                 0.2500: 
NULL.                -999.2500: 
COMP.          Pioneer Natural Resources: COMPANY
WELL.            Erin 21-15 Tr: WELL
FLD.           Purgatoire River: FIELD
LOC.           1217' FNL & 2284' FWL--: LOCATION
CNTY.               Las Animas: COUNTY
SRVC.                         : SERVICE COMPANY
DATE.          Fri Mar 10 09:14:17 2006: LOG DATE
UWI.           05 071 08712 00: UNIQUE WELL ID
STAT.                       CO: STATE
~Curve Information Block
DEPT.FT            0 000 00 00: Depth
GR.GAPI                       : Gamma Ray
CCL.                          : Casing Collar Locator
TT3.usec                      : CBL 3' Travel Time
AMP3.mV                       : CBL 3' Amplitude
~Parameter Information Block
~A  Depth        GR         CCL         TT3         AMP3    
# ...
   329.0000     79.8204      0.0000    810.7952     14.1462
   329.2500     77.0624      0.0000    808.5817     14.1269
   329.5000     74.9185      0.0000    801.8715     14.2049
   329.7500     73.3180      0.0000    792.2651     14.3665
   330.0000     71.3773      0.0000    782.4646     14.5781
   330.2500     68.1312      0.0000    775.0866     14.8144
   330.5000     63.1969      0.0000    771.6475     15.0697
   330.7500     56.9617      0.0000    771.9873     15.3362
   331.0000     50.5805      0.0000    774.4304     15.5795
   331.2500     45.7653      0.0000    776.7914     15.7551
   331.5000     43.9435      0.0000    777.3748     15.8570
   331.7500     45.1274      0.0000    775.2303     15.9370
   332.0000     47.7497      0.0000    770.1563     16.0670
   332.2500     49.9442      0.0000    763.1680     16.2808
   332.5000     51.1120      0.0000    756.7932     16.5467
   332.7500     52.1945      0.0000    753.9089     16.7789
   333.0000     54.4783      0.0000    755.4884     16.8810
   333.2500     58.2941      0.0000    759.6105     16.8050
   333.5000     62.8747      0.0000    763.3469     16.5904
   333.7500     67.1718      0.0000    765.8897     16.3410
   334.0000     70.5632      0.0000    769.2592     16.1519
   334.2500     72.9615      0.0000    775.3908     16.0489
   334.5000     74.7186      0.0000    783.0773     15.9921
   334.7500     76.5207      0.0000    788.8080     15.9269
   335.0000     78.8899      0.0000    790.4011     15.8241
   335.2500     81.5026      0.0000    788.8040     15.6768
   335.5000     83.2885      0.0000    786.5507     15.4806
   335.7500     83.4179      0.0000    785.6535     15.2403
   336.0000     82.1709      0.0000    787.0698     14.9909
   336.2500     80.8478      0.0000    790.9673     14.7913
   336.5000     80.8025      0.0000    796.6196     14.6767
   336.7500     82.4131      0.0000    802.4390     14.6136
   337.0000     84.9796      0.0000    806.9003     14.5120
   337.2500     87.5601      0.0000    809.5538     14.2963
   337.5000     89.6553      0.0000    810.9760     13.9735
   337.7500     91.0228      0.0000    812.0553     13.6307
   338.0000     91.3130      0.0000    813.4731     13.3583
   338.2500     90.3724      0.0000    815.2656     13.1774
   338.5000     88.6994      0.0000    816.6447     13.0413
   338.7500     86.9856      0.0000    816.7966     12.9011
   339.0000     85.2537      0.0000    816.0486     12.7610
   339.2500     83.1411      0.0000    815.7556     12.6680
   339.5000     81.0890      0.0000    816.7928     12.6601
   339.7500     80.5553      0.0000    818.4838     12.7357
   340.0000     82.7298      0.0000    819.2150     12.8721
   340.2500     87.4007      0.0000    817.9653     13.0507
   340.5000     93.2495      0.0000    815.3132     13.2521
   340.7500     98.8558      0.0000    813.1603     13.4468
   341.0000    103.1905      0.0000    813.2841     13.6173
   341.2500    105.5196      0.0000    815.8776     13.7820
   341.5000    105.3812      0.0000    819.5284     13.9743
   341.7500    102.9495      0.0000    822.5809     14.2020
   342.0000     99.3267      0.0000    824.3144     14.4370
   342.2500     96.0760      0.0000    824.9573     14.6333
   342.5000     94.1473      0.0000    825.0505     14.7405
   342.7500     93.4368      0.0000    824.9681     14.7195
   343.0000     93.5917      0.0000    824.8302     14.5660
   343.2500     94.7668      0.0000    824.6261     14.3205
   343.5000     97.0536      0.0000    824.3466     14.0522
   343.7500     99.6393      0.0000    824.0334     13.8399
   344.0000    101.4017      0.0000    823.7547     13.7625
   344.2500    102.3287      0.0000    823.5654     13.8764
   344.5000    103.7159      0.0000    823.4893     14.1707
   344.7500    106.7183      0.0000    823.5111     14.5408
   345.0000    110.9624      0.0000    823.5718     14.8296
   345.2500    114.8045      0.0000    823.5549     14.9217
   345.5000    116.8203      0.0000    823.2644     14.8106
   345.7500    116.7383      0.0000    822.3635     14.5922
   346.0000    115.0114      0.0000    820.3682     14.4111
   346.2500    111.9737      0.0000    816.8554     14.3930
   346.5000    107.6378      0.0000    811.7979     14.5773
   346.7500    102.0843      0.0000    805.6507     14.8821
   347.0000     95.6897      0.0000    799.1174     15.1482
   347.2500     89.0651      0.0000    792.9778     15.2393
   347.5000     83.0322      0.0000    788.0178     15.1187
   347.7500     78.5267      0.0000    784.7401     14.8440
   348.0000     76.1449      0.0000    783.0555     14.5065
   348.2500     75.7885      0.0000    782.4266     14.1718
   348.5000     76.8712      0.0000    782.3362     13.8556
   348.7500     78.7238      0.0000    782.6472     13.5271
   349.0000     80.8777      0.0000    783.7407     13.1278
   349.2500     83.3068      0.0000    786.6068     12.6011
   349.5000     86.2405      0.0000    792.9554     11.9370
   349.7500     89.3729      0.0000    805.3282     11.2053
   350.0000     91.5034      0.0000    826.8964     10.5146
   350.2500     91.3931      0.0000    859.2379      9.9064
   350.5000     88.9763      0.0000    897.5715      9.3262
   350.7500     85.5406      0.0000    928.7985      8.7520
   351.0000     82.7914      0.0000    939.4455      8.3089
   351.2500     81.9350      0.0000    928.3394      8.1765
   351.5000     83.3450      0.0000    908.0176      8.3970
   351.7500     86.5267      0.0000    891.3810      8.8387
   352.0000     90.2950     -2.0000    880.3937      9.3445
   352.2500     93.3744      0.0000    869.6365      9.8955
   352.5000     95.1301      0.0000    855.7971     10.6424
   352.7500     95.8725      0.0000    839.2070     11.7543
   353.0000     96.4864      0.0000    819.4373     13.1817
   353.2500     97.5703      0.0000    795.2169     14.6128
   353.5000     98.7315      0.0000    768.6003     15.7549
   353.7500     98.8839      0.0000    745.4904     16.6057
   354.0000     97.3558      0.0000    731.0928     17.3482
   354.2500     94.4827      0.0000    726.0793     18.0548
   354.5000     91.0580      0.0000    726.7971     18.6103
   354.7500     87.4207      0.0000    727.8909     18.8869
   355.0000     83.1332      0.0000    725.2911     18.8932
   355.2500     77.4171      0.0000    718.2484     18.7455
   355.5000     69.9641      0.0000    709.2316     18.5577
   355.7500     61.4499      0.0000    701.8765     18.3936
   356.0000     53.3226      0.0000    698.8162     18.2870
   356.2500     47.1086      0.0000    700.7938     18.2632
   356.5000     43.7307      0.0000    706.7887     18.3311
   356.7500     43.0101      0.0000    714.6394     18.4726
   357.0000     43.6070      0.0000    722.1188     18.6443
   357.2500     43.7688      0.0000    728.1375     18.7882
   357.5000     42.5896      0.0000    733.0522     18.8568
   357.7500     40.6833      0.0000    737.7555     18.8422
   358.0000     39.7016      0.0000    742.6110     18.7824
   358.2500     41.3565      0.0000    747.5717     18.7313
   358.5000     46.7703      0.0000    753.1559     18.7144
   358.7500     56.0544      0.0000    760.5817     18.7076
   359.0000     67.8541      0.0000    770.6027     18.6500
   359.2500     79.4428      0.0000    782.6312     18.4819
   359.5000     88.0966      0.0000    795.0962     18.1885
   359.7500     92.8628      0.0000    806.2455     17.8160
   360.0000     94.8260      0.0000    814.7465     17.4382
   360.2500     95.6306      0.0000    820.1322     17.0989
   360.5000     96.1609      0.0000    822.8340     16.7903
   360.7500     96.5723      0.0000    823.5938     16.4939
   361.0000     96.8799      0.0000    822.6760     16.2320
   361.2500     97.1653      0.0000    819.5002     16.0667
   361.5000     97.4334      0.0000    812.9460     16.0522
   361.7500     97.4492      0.0000    802.2736     16.1991
   362.0000     96.8651      0.0000    788.1848     16.4755
   362.2500     95.7915      0.0000    773.2555     16.8267
