~Version Information
VERS.                      2.0: CWLS Log ASCII Standard - VERSION 2.0
WRAP.                       NO: One line per depth step
~Well Information Block
STRT.FT               550.0000: 
STOP.FT              1981.5000: 
STEP.FT                 0.2500: 
NULL.                -999.2500: 
COMP.          Pioneer Natural Resources: COMPANY
WELL.          Flying Horse 12-11 Tr: WELL
FLD.           Purgatoire River: FIELD
LOC.           2459' FNL & 410' FWL: LOCATION
STAT.                 Colorado: State
CNTY.               Las Animas: COUNTY
CTRY. USA : Country
SECT. 11 : Section
TOWN. 32S : Township
RANG. 66W : Range
SRVC.                Patterson: SERVICE COMPANY
DATE.          Sat Sep 03 20:17:31 2005: LOG DATE
API.           05 071 08485 00: UNIQUE WELL ID
~Curve Information Block
DEPT.FT            0 000 00 00: Depth
SN.Ohm-m                      : IEL Short Normal
SP.mV                         : IEL Spontaneous Potential
DIR.Ohm-m                     : IEL Induction Resistivity
GR.GAPI                       : Gamma Ray
~Parameter Information Block
~A  Depth        SN          SP         DIR          GR     
# ...
  1488.0000     26.7112    185.1153     25.6357     94.5572
  1488.2500     26.9296    184.6135     26.0091     94.1824
  1488.5000     27.1058    184.2532     26.2850     93.5565
  1488.7500     27.2331    184.0370     26.4421     93.4495
  1489.0000     27.3726    183.9315     26.5419     94.3906
  1489.2500     27.6326    183.9183     26.6677     95.5644
  1489.5000     27.9819    184.0321     26.8632     96.9153
  1489.7500     28.2247    184.3589     27.1103     96.9584
  1490.0000     28.2810    184.9755     27.3509     95.7070
  1490.2500     28.2902    185.8642     27.5299     94.2926
  1490.5000     28.3417    186.8801     27.6265     91.7146
  1490.7500     28.3402    187.8171     27.6567     89.9084
  1491.0000     28.2275    188.5238     27.6540     87.7277
  1491.2500     28.1216    188.9746     27.6535     87.0960
  1491.5000     28.1687    189.2514     27.6882     87.7923
  1491.7500     28.3621    189.4627     27.7849     89.1900
  1492.0000     28.5425    189.6636     27.9522     91.8867
  1492.2500     28.5519    189.8307     28.1681     93.4756
  1492.5000     28.3866    189.9118     28.3818     94.4713
  1492.7500     28.2119    189.8959     28.5346     93.7052
  1493.0000     28.2017    189.8326     28.5881     90.1591
  1493.2500     28.3462    189.7988     28.5399     86.5853
  1493.5000     28.4334    189.8679     28.4137     80.7533
  1493.7500     28.2858    190.0972     28.2376     77.2733
  1494.0000     28.0082    190.5074     28.0315     73.0253
  1494.2500     27.8684    191.0582     27.8158     70.5751
  1494.5000     27.9724    191.6636     27.6264     66.8783
  1494.7500     28.2073    192.2522     27.5132     64.3356
  1495.0000     28.4133    192.8087     27.5123     60.9112
  1495.2500     28.5148    193.3453     27.6193     59.2856
  1495.5000     28.5493    193.8490     27.7909     58.0761
  1495.7500     28.6005    194.2713     27.9767     57.9873
  1496.0000     28.6790    194.5568     28.1514     58.8264
  1496.2500     28.7026    194.6648     28.3196     60.0972
  1496.5000     28.6187    194.5845     28.4955     63.0035
  1496.7500     28.5022    194.3501     28.6877     65.2463
  1497.0000     28.4986    194.0340     28.9008     68.0257
  1497.2500     28.6510    193.6941     29.1414     68.9356
  1497.5000     28.8702    193.3130     29.4164     68.4686
  1497.7500     29.1275    192.8015     29.7268     66.9834
  1498.0000     29.4908    192.0912     30.0645     63.4956
  1498.2500     29.9713    191.2368     30.4191     60.9468
  1498.5000     30.5168    190.4274     30.7875     58.1559
  1498.7500     31.0562    189.8872     31.1706     57.4920
  1499.0000     31.4716    189.7582     31.5518     58.0176
  1499.2500     31.6925    190.0561     31.8841     58.6979
  1499.5000     31.7825    190.7052     32.1131     59.0584
  1499.7500     31.8238    191.5852     32.2218     58.5737
  1500.0000     31.8497    192.5393     32.2449     56.9885
  1500.2500     31.8925    193.3660     32.2329     55.7435
  1500.5000     31.9716    193.8486     32.2056     54.4349
  1500.7500     32.0842    193.8380     32.1457     54.3837
  1501.0000     32.2563    193.3292     32.0328     55.7695
  1501.2500     32.5105    192.4569     31.8749     57.3307
  1501.5000     32.7862    191.4092     31.7075     59.4338
  1501.7500     32.9579    190.3363     31.5681     59.9226
  1502.0000     32.9747    189.3323     31.4727     58.6370
  1502.2500     32.9197    188.4880     31.4140     56.6954
  1502.5000     32.8701    187.9329     31.3806     53.3052
  1502.7500     32.8615    187.7839     31.3791     51.2863
  1503.0000     32.9761    188.0343     31.4353     49.0954
  1503.2500     33.2206    188.5285     31.5658     48.4368
  1503.5000     33.4209    189.0912     31.7456     49.0435
  1503.7500     33.4442    189.6632     31.9073     50.3992
  1504.0000     33.3416    190.2653     31.9749     52.9249
  1504.2500     33.1831    190.8244     31.8941     54.2960
  1504.5000     32.9286    191.0786     31.6283     55.1991
  1504.7500     32.5037    190.6894     31.1409     54.9644
  1505.0000     31.9099    189.4868     30.4024     53.9395
  1505.2500     31.2045    187.6618     29.4210     53.5520
  1505.5000     30.4162    185.7357     28.2572     54.8369
  1505.7500     29.5449    184.2800     27.0029     57.4460
  1506.0000     28.5894    183.5777     25.7461     64.0565
  1506.2500     27.5347    183.5031     24.5520     69.9566
  1506.5000     26.3259    183.6962     23.4604     80.2202
  1506.7500     24.8789    183.8389     22.4901     87.5210
  1507.0000     23.1909    183.8145     21.6419     98.7012
  1507.2500     21.4376    183.6817     20.9044    106.2316
  1507.5000     19.8696    183.5316     20.2624    117.0856
  1507.7500     18.6201    183.3481     19.7034    123.1425
  1508.0000     17.6824    183.0013     19.2191    128.7287
  1508.2500     17.0291    182.3740     18.8019    129.7824
  1508.5000     16.6919    181.4828     18.4400    128.3787
  1508.7500     16.7009    180.4720     18.1129    126.4309
  1509.0000     16.9412    179.5080     17.7944    123.2153
  1509.2500     17.1843    178.6864     17.4650    121.2815
  1509.5000     17.3060    178.0158     17.1283    119.3686
  1509.7500     17.3217    177.4649     16.8141    119.1990
  1510.0000     17.2074    177.0166     16.5631    120.9474
  1510.2500     16.9192    176.7030     16.4038    123.1553
  1510.5000     16.5439    176.6134     16.3424    126.9629
  1510.7500     16.2204    176.8448     16.3678    129.2020
  1511.0000     16.0038    177.3915     16.4619    131.1835
  1511.2500     15.8694    178.0802     16.6043    131.0691
  1511.5000     15.7594    178.6628     16.7682    128.0949
  1511.7500     15.6206    178.9868     16.9139    124.3795
  1512.0000     15.4364    179.0439     16.9922    117.9843
  1512.2500     15.2757    178.8700     16.9626    114.8985
  1512.5000     15.2764    178.4823     16.8179    114.1968
  1512.7500     15.5031    177.9424     16.5949    116.1868
  1513.0000     15.8687    177.4209     16.3579    120.8154
  1513.2500     16.2109    177.1558     16.1654    124.0186
  1513.5000     16.3686    177.3497     16.0462    128.7460
  1513.7500     16.2518    178.0811     15.9960    132.0693
  1514.0000     15.9236    179.2608     15.9869    137.3618
  1514.2500     15.5375    180.6692     15.9796    140.9097
  1514.5000     15.2173    182.0593     15.9346    145.7669
  1514.7500     15.0223    183.2280     15.8208    148.2446
  1515.0000     14.9307    184.0071     15.6168    149.9596
  1515.2500     14.8738    184.2574     15.3073    149.6343
  1515.5000     14.8320    183.9353     14.8812    147.6628
  1515.7500     14.8260    183.1686     14.3404    145.8885
  1516.0000     14.8337    182.2265     13.7135    142.9491
  1516.2500     14.8249    181.3779     13.0568    141.0053
  1516.5000     14.8336    180.7474     12.4389    139.0850
  1516.7500     14.9013    180.2719     11.9214    139.2121
  1517.0000     15.0046    179.7657     11.5490    142.1769
  1517.2500     15.0896    179.0320     11.3541    145.7144
  1517.5000     15.1204    177.9496     11.3755    151.7379
  1517.7500     15.0793    176.4925     11.6972    155.0766
  1518.0000     14.9782    174.6837     12.5287    158.0690
  1518.2500     14.8504    172.5330     14.4121    158.9431
  1518.5000     14.7273    170.0206     19.0251    159.2676
  1518.7500     14.6316    167.1422     35.0367    158.7594
  1519.0000     14.5721    163.9793 100000.0000    156.0146
  1519.2500     14.5622    160.7530 100000.0000    152.4381
  1519.5000     14.6172    157.8080 100000.0000    145.0096
  1519.7500     14.7395    155.4874 100000.0000    139.8912
  1520.0000     14.9363    153.9444 100000.0000    134.5172
  1520.2500     15.2073    153.0320 100000.0000    133.4477
  1520.5000     15.5170    152.3633 100000.0000    135.7878
  1520.7500     15.8099    151.4889 100000.0000    139.3144
  1521.0000     16.0239    150.0528 100000.0000    145.4409
  1521.2500     16.1002    147.8378 100000.0000    148.6789
