~Version Information
VERS.                      2.0: CWLS Log ASCII Standard - VERSION 2.0
WRAP.                       NO: One line per depth step
~Well Information Block
STRT.FT                -6.7500: 
STOP.FT              1250.5000: 
STEP.FT                 0.2500: 
NULL.                -999.2500: 
COMP.          Pioneer Natural Resources: COMPANY
WELL.          Irish Eyes 33-21: WELL
FLD.           Purgatorie River: FIELD
LOC.           1379' FSL & 2544' FEL--: LOCATION
PROV.                       CO: PROVINCE
CNTY.               Las Animas: COUNTRY
SRVC.          Patterson Wireline: SERVICE COMPANY
DATE.          Mon Jan 23 11:57:23 2006: LOG DATE
UWI.           05 071 08658 00: UNIQUE WELL ID
~Curve Information Block
DEPT.FT            0 000 00 00: Depth
CCL.                          : Casing Collar Locator
TT3.usec                      : CBL 3' Travel Time
AMP3.mV                       : CBL 3' Amplitude
GR.GAPI                       : Gamma Ray
~Parameter Information Block
~A  Depth       CCL         TT3         AMP3         GR     
# ...
   897.7500      0.0000    682.9232     14.0628     68.5574
   898.0000      0.0000    726.2466     14.1791     64.7814
   898.2500      0.0000    750.1812     14.3542     60.1970
   898.5000      0.0000    760.3466     14.5623     55.1237
   898.7500      0.0000    763.6531     14.7893     50.2151
   899.0000      0.0000    764.4330     15.0368     46.1919
   899.2500      0.0000    764.4965     15.3120     43.4839
   899.5000      0.0000    764.4022     15.6163     42.3241
   899.7500      0.0000    764.2765     15.9456     42.7763
   900.0000      0.0000    764.1508     16.2918     44.2271
   900.2500      0.0000    764.0306     16.6355     45.2197
   900.5000      0.0000    763.8868     16.9358     44.6174
   900.7500      0.0000    763.5872     17.1409     42.9566
   901.0000      0.0000    762.8450     17.2181     42.0092
   901.2500      0.0000    761.3334     17.1730     42.9696
   901.5000      0.0000    759.0743     17.0400     45.4821
   901.7500      0.0000    756.8099     16.8558     48.2659
   902.0000      0.0000    755.7095     16.6404     50.2541
   902.2500      0.0000    756.3879     16.3992     51.1680
   902.5000      0.0000    758.2879     16.1399     51.3417
   902.7500      0.0000    760.1871     15.8868     51.2579
   903.0000      0.0000    760.8730     15.6773     51.2900
   903.2500      0.0000    758.7238     15.5368     51.5938
   903.5000      0.0000    750.4717     15.4575     52.0414
   903.7500      0.0000    731.4500     15.4041     52.5449
   904.0000      0.0000    699.9359     15.3458     53.6349
   904.2500      0.0000    663.6143     15.2782     56.3612
   904.5000      0.0000    639.4460     15.2138     61.4643
   904.7500      0.0000    641.7578     15.1579     68.9253
   905.0000      0.0000    669.1166     15.1020     78.1594
   905.2500      0.0000    705.7150     15.0362     88.0330
   905.5000      0.0000    735.2362     14.9550     96.9580
   905.7500      0.0000    750.6958     14.8485    103.9090
   906.0000      0.0000    752.4501     14.6970    109.3000
   906.2500      0.0000    741.8956     14.4847    114.0395
   906.5000      0.0000    719.6456     14.2211    117.8904
   906.7500      0.0000    688.1302     13.9478    119.6147
   907.0000      0.0000    653.4108     13.7218    118.7447
   907.2500      0.0000    623.6935     13.5888    116.8580
   907.5000      0.0000    606.5482     13.5667    116.7544
   907.7500      0.0000    606.5856     13.6488    119.8930
   908.0000      0.0000    623.8400     13.8120    124.5996
   908.2500      0.0000    653.7340     14.0234    127.4460
   908.5000      0.0000    688.6691     14.2532    126.5608
   908.7500      0.0000    720.3946     14.4898    123.1308
   909.0000      0.0000    742.8200     14.7347    119.8018
   909.2500      0.0000    753.5399     14.9812    118.3312
   909.5000      0.0000    751.8984     15.2094    118.7378
   909.7500      0.0000    735.8453     15.4091    119.8050
   910.0000      0.0000    702.4689     15.5941    119.9333
   910.2500      0.0000    653.1000     15.7818    118.0913
   910.5000      0.0000    596.9512     15.9619    114.6794
   910.7500      0.0000    547.2935     16.0894    111.5007
   911.0000      0.0000    513.0601     16.1091    110.3948
   911.2500      0.0000    494.5499     15.9952    111.7295
   911.5000      0.0000    486.6269     15.7730    114.3820
   911.7500      0.0000    484.7200     15.5025    117.1412
   912.0000      0.0000    488.8339     15.2333    119.4457
   912.2500      0.0000    503.9455     14.9747    120.5706
   912.5000      0.0000    535.8087     14.7076    119.0147
   912.7500      0.0000    583.1719     14.4159    113.7715
   913.0000      0.0000    633.0104     14.0986    106.2417
   913.2500      0.0000    666.0529     13.7620     99.8598
   913.5000      0.0000    670.4688     13.4141     96.9834
   913.7500      0.0000    652.2361     13.0694     96.5157
   914.0000      0.0000    632.1437     12.7489     95.3643
   914.2500      0.0000    630.3915     12.4701     91.9169
   914.5000      0.0000    651.6573     12.2404     87.1955
   914.7500      0.0000    684.2089     12.0601     82.8239
   915.0000      0.0000    712.1970     11.9294     78.9142
   915.2500      0.0000    727.4813     11.8491     74.2809
   915.5000      0.0000    731.6865     11.8175     68.2062
   915.7500      0.0000    730.9578     11.8257     61.4611
   916.0000      0.0000    730.2261     11.8552     55.6019
   916.2500      0.0000    730.8191     11.8783     51.7213
   916.5000      0.0000    731.6127     11.8602     49.8990
   916.7500      0.0000    731.7139     11.7557     49.3167
   917.0000      0.0000    731.9380     11.5072     48.6685
   917.2500      0.0000    733.9995     11.0560     46.8802
   917.5000      0.0000    738.9710     10.3845     43.8505
   917.7500      0.0000    747.1006      9.5639     40.5038
   918.0000      0.0000    758.8704      8.7402     37.9716
   918.2500      0.0000    775.5403      8.0315     36.6469
   918.5000      0.0000    797.8905      7.4553     36.0134
   918.7500      0.0000    823.6639      6.9973     35.2886
   919.0000      0.0000    846.1635      6.7052     34.2523
   919.2500      0.0000    857.1461      6.6418     33.5385
   919.5000      0.0000    853.0711      6.7734     34.1118
   919.7500     -2.0000    838.1376      6.9809     36.3589
   920.0000      0.0000    820.4923      7.1680     39.6047
   920.2500      0.0000    806.2715      7.3340     42.4802
   920.5000      0.0000    796.9163      7.5527     43.8599
   920.7500      0.0000    790.0693      7.8805     43.5264
   921.0000      0.0000    782.5561      8.2686     41.9785
   921.2500      0.0000    773.3159      8.5998     39.8401
   921.5000      0.0000    763.1522      8.8561     37.7488
   921.7500      0.0000    751.7057      9.1824     36.5895
   922.0000      0.0000    736.5567      9.7120     37.2088
   922.2500      0.0000    716.8306     10.3878     39.6430
   922.5000      0.0000    696.9332     11.0197     42.8736
   922.7500      0.0000    684.3770     11.4670     45.5528
   923.0000      0.0000    682.0855     11.7176     46.9042
   923.2500      0.0000    684.0123     11.8417     46.7959
   923.5000      0.0000    680.5328     11.9259     45.1563
   923.7500      0.0000    668.3524     12.0401     41.7909
   924.0000      0.0000    654.4703     12.2276     36.9696
   924.2500      0.0000    650.6250     12.5104     31.9220
   924.5000      0.0000    663.5406     12.9010     28.3991
   924.7500      0.0000    688.8278     13.4090     27.6267
   925.0000      0.0000    711.8809     14.0424     29.6028
   925.2500      0.0000    713.9313     14.7983     33.1981
   925.5000      0.0000    680.9540     15.6418     36.8587
   925.7500      0.0000    612.9985     16.4894     39.4509
   926.0000      0.0000    527.2267     17.2282     40.7388
   926.2500      0.0000    448.4488     17.7644     41.1702
   926.5000      0.0000    393.5195     18.0610     41.2654
   926.7500      0.0000    364.1177     18.1363     41.3042
   927.0000      0.0000    352.2519     18.0320     41.4605
   927.2500      0.0000    349.4697     17.7795     41.9191
   927.5000      0.0000    351.2309     17.3919     42.7565
   927.7500      0.0000    356.1570     16.8839     43.8639
   928.0000      0.0000    363.6421     16.2946     44.9934
   928.2500      0.0000    372.6973     15.6870     45.7789
   928.5000      0.0000    382.7896     15.1248     45.8445
   928.7500      0.0000    395.5601     14.6482     45.1585
   929.0000      0.0000    414.3062     14.2701     44.1708
   929.2500      0.0000    439.4209     13.9856     43.2892
   929.5000      0.0000    463.8835     13.7799     42.3094
   929.7500      0.0000    476.7791     13.6280     40.7587
   930.0000      0.0000    474.8320     13.4972     38.7769
   930.2500      0.0000    467.9597     13.3573     37.1319
   930.5000      0.0000    469.0503     13.1923     36.2722
   930.7500      0.0000    479.8585     13.0048     35.8848
   931.0000      0.0000    492.4121     12.8092     35.5614
