~Version Information
VERS.                      2.0: CWLS Log ASCII Standard - VERSION 2.0
WRAP.                       NO: One line per depth step
~Well Information Block
STRT.FT                -8.0000: 
STOP.FT              2135.0000: 
STEP.FT                 0.2500: 
NULL.                -999.2500: 
COMP.          Pioneer Natural Resources: COMPANY
WELL.             AMX 13-13 Tr: WELL
FLD.           Purgatorie River: FIELD
LOC.           2401' FSL & 895' FWL--: LOCATION
PROV.                       CO: PROVINCE
CNTY.               Las Animas: COUNTRY
SRVC.          Patterson Wireline: SERVICE COMPANY
DATE.          Thu Jan 05 10:37:28 2006: LOG DATE
UWI.           05 071 08631 00: UNIQUE WELL ID
~Curve Information Block
DEPT.FT            0 000 00 00: Depth
CCL.                          : Casing Collar Locator
TT3.usec                      : CBL 3' Travel Time
AMP3.mV                       : CBL 3' Amplitude
GR.GAPI                       : Gamma Ray
~Parameter Information Block
~A  Depth       CCL         TT3         AMP3         GR     
# ...
   695.5000      0.0000    767.5577     14.7931     90.7459
   695.7500      0.0000    751.1210     14.8433     88.3924
   696.0000      0.0000    717.9113     14.9082     86.6026
   696.2500      0.0000    662.8140     14.9811     86.1111
   696.5000      0.0000    587.6589     15.0576     86.7804
   696.7500      0.0000    505.1371     15.1386     86.9472
   697.0000      0.0000    433.3030     15.2280     84.4879
   697.2500      0.0000    384.1325     15.3249     78.9650
   697.5000      0.0000    357.7663     15.4185     72.5717
   697.7500      0.0000    346.7137     15.4953     68.4707
   698.0000      0.0000    343.1045     15.5552     68.0656
   698.2500      0.0000    342.1936     15.6137     70.0023
   698.5000      0.0000    342.0111     15.6830     71.6103
   698.7500      0.0000    341.9774     15.7526     71.0204
   699.0000      0.0000    342.0035     15.7934     68.1594
   699.2500      0.0000    342.1047     15.7816     64.2839
   699.5000      0.0000    342.2872     15.7183     60.7998
   699.7500      0.0000    342.5117     15.6256     58.4083
   700.0000      0.0000    342.7302     15.5267     57.0729
   700.2500      0.0000    342.9240     15.4312     56.4550
   700.5000      0.0000    343.1013     15.3385     56.3414
   700.7500      0.0000    343.2686     15.2489     56.7691
   701.0000      0.0000    343.4232     15.1650     57.6541
   701.2500      0.0000    343.5662     15.0847     58.3247
   701.5000      0.0000    343.7361     15.0006     57.7786
   701.7500      0.0000    344.0703     14.9089     55.7380
   702.0000      0.0000    345.1486     14.8177     53.3602
   702.2500      0.0000    348.9329     14.7427     52.5300
   702.5000      0.0000    359.9904     14.6961     54.2609
   702.7500      0.0000    385.2640     14.6794     57.7850
   703.0000      0.0000    429.3385     14.6846     61.1826
   703.2500      0.0000    486.6453     14.7025     62.8363
   703.5000      0.0000    539.7694     14.7294     62.3263
   703.7500      0.0000    570.4615     14.7652     60.1773
   704.0000      0.0000    574.3644     14.8071     57.2160
   704.2500      0.0000    564.4274     14.8477     54.4510
   704.5000      0.0000    559.9827     14.8799     53.2337
   704.7500      0.0000    570.7446     14.9013     55.0385
   705.0000      0.0000    588.2132     14.9148     60.7763
   705.2500      0.0000    593.1663     14.9282     70.1750
   705.5000      0.0000    572.3719     14.9524     81.8482
   705.7500      0.0000    527.4117     14.9960     94.2460
   706.0000      0.0000    470.9014     15.0585    106.5629
   706.2500      0.0000    418.1339     15.1301    118.3690
   706.5000      0.0000    379.7146     15.2019    128.3224
   706.7500      0.0000    357.7895     15.2756    134.1330
   707.0000      0.0000    347.9243     15.3629    134.5721
   707.2500      0.0000    344.2912     15.4717    130.9886
   707.5000      0.0000    343.0481     15.5936    126.0977
   707.7500      0.0000    342.5617     15.7076    121.8429
   708.0000      0.0000    342.3467     15.7981    119.0890
   708.2500      0.0000    342.2957     15.8661    118.3541
   708.5000      0.0000    342.3279     15.9232    119.4301
   708.7500      0.0000    342.3893     15.9764    120.8566
   709.0000      0.0000    342.4580     16.0207    121.0646
   709.2500      0.0000    342.5404     16.0462    120.0011
   709.5000      0.0000    342.6390     16.0515    119.0759
   709.7500      0.0000    342.7359     16.0478    119.7593
   710.0000      0.0000    342.8052     16.0511    122.5738
   710.2500      0.0000    342.8368     16.0696    127.2032
   710.5000      0.0000    342.8470     16.0959    132.9801
   710.7500      0.0000    342.8691     16.1099    138.9048
   711.0000      0.0000    342.9307     16.0915    143.4962
   711.2500      0.0000    343.0356     16.0325    145.4134
   711.5000      0.0000    343.1638     15.9417    144.5233
   711.7500      0.0000    343.2888     15.8377    141.9323
   712.0000      0.0000    343.3979     15.7368    138.9394
   712.2500      0.0000    343.4957     15.6459    136.6320
   712.5000      0.0000    343.5868     15.5635    136.3247
   712.7500      0.0000    343.6587     15.4867    139.0016
   713.0000      0.0000    343.6849     15.4148    143.5391
   713.2500      0.0000    343.6538     15.3501    146.4753
   713.5000      0.0000    343.5900     15.2925    144.8898
   713.7500      0.0000    343.5382     15.2383    139.4838
   714.0000      0.0000    343.5244     15.1829    133.9855
   714.2500      0.0000    343.5420     15.1250    131.5107
   714.5000      0.0000    343.5715     15.0711    132.0750
   714.7500      0.0000    343.6056     15.0350    133.3784
   715.0000      0.0000    343.6632     15.0267    133.0587
   715.2500      0.0000    343.8213     15.0354    130.0905
   715.5000      0.0000    344.3184     15.0282    124.9098
   715.7500      0.0000    345.7428     14.9738    118.9554
   716.0000      0.0000    349.3138     14.8672    114.1288
   716.2500      0.0000    357.1711     14.7277    112.0648
   716.5000      0.0000    372.4385     14.5772    113.2206
   716.7500      0.0000    398.5674     14.4284    116.5634
   717.0000      0.0000    436.5320     14.2939    120.3709
   717.2500      0.0000    480.5799     14.1941    123.5457
   717.5000      0.0000    517.6953     14.1496    126.3728
   717.7500      0.0000    534.5893     14.1664    130.0164
   718.0000      0.0000    526.3268     14.2321    135.0611
   718.2500      0.0000    497.8735     14.3233    140.7476
   718.5000      0.0000    459.4225     14.4171    145.7487
   718.7500      0.0000    421.3872     14.4994    149.0808
   719.0000      0.0000    390.8868     14.5668    150.0289
   719.2500      0.0000    370.1464     14.6240    148.2518
   719.5000      0.0000    357.7133     14.6831    144.6951
   719.7500      0.0000    350.9534     14.7628    141.6938
   720.0000      0.0000    347.5758     14.8860    141.2317
   720.2500      0.0000    345.9720     15.0706    143.0860
   720.5000      0.0000    345.1559     15.3189    145.1284
   720.7500      0.0000    344.6358     15.6112    145.4249
   721.0000      0.0000    344.1940     15.9097    143.5272
   721.2500      0.0000    343.7814     16.1722    139.9819
   721.5000      0.0000    343.4165     16.3652    135.7440
   721.7500      0.0000    343.1260     16.4689    132.3388
   722.0000      0.0000    342.9213     16.4748    131.3795
   722.2500      0.0000    342.8322     16.3828    133.2037
   722.5000      0.0000    342.9556     16.2012    136.4365
   722.7500      0.0000    343.6865     15.9515    139.2261
   723.0000      0.0000    346.1890     15.6696    140.7245
   723.2500      0.0000    352.9041     15.3948    141.5462
   723.5000      0.0000    366.9278     15.1489    142.8938
   723.7500      0.0000    389.3071     14.9211    144.9770
   724.0000      0.0000    416.8969     14.6706    146.3676
   724.2500      0.0000    445.5920     14.3472    145.0799
   724.5000      0.0000    476.7163     13.9199    140.0208
   724.7500      0.0000    515.9214     13.3981    131.4616
   725.0000      0.0000    563.4271     12.8321    120.8037
   725.2500      0.0000    610.4552     12.3032    110.0935
   725.5000      0.0000    648.8055     11.9063    101.1691
   725.7500      0.0000    679.1702     11.7041     95.0017
   726.0000      0.0000    706.2706     11.6788     92.1512
   726.2500      0.0000    730.1683     11.7461     93.5613
   726.5000      2.0000    746.2459     11.8382     99.9025
   726.7500      0.0000    750.4129     11.9869    110.0592
   727.0000      0.0000    739.8416     12.3626    121.3162
   727.2500      0.0000    710.0442     13.2032    131.4279
   727.5000      0.0000    656.2795     14.5800    139.7913
   727.7500      0.0000    581.0280     16.1713    146.5118
   728.0000      0.0000    498.4934     17.3904    151.1528
   728.2500      0.0000    427.8518     17.8569    152.7248
   728.5000      0.0000    380.8161     17.6805    150.5834
   728.7500      0.0000    356.4698     17.2503    145.2251
