~Version Information
VERS.                      2.0: CWLS Log ASCII Standard - VERSION 2.0
WRAP.                       NO: One line per depth step
~Well Information Block
STRT.FT               655.0000: 
STOP.FT              2623.7000: 
STEP.FT                 0.1000: 
NULL.                -999.2500: 
COMP.          Pioneer Natural Resources: COMPANY
WELL.             Aviator 12-4: WELL
FLD.           Purgatoire River: FIELD
LOC.           1969' FNL & 732' FWL--: LOCATION
CNTY.               Las Animas: COUNTY
SRVC.                Patterson: SERVICE COMPANY
DATE.          Mon Apr 10 07:35:20 2006: LOG DATE
UWI.           05 071 08714 00: UNIQUE WELL ID
STAT.                 Colorado: STATE
~Curve Information Block
DEPT.FT            0 000 00 00: Depth
DCAL.in                       : CDL Caliper
RHOB.g/cc                     : CDL Bulk Density
RHOC.g/cc                     : CDL Density Correction
DPOR.pu                       : CDL Density Porosity
NPOR.pu                       : Neutron Porosity
GR.GAPI                       : Gamma Ray
~Parameter Information Block
~A  Depth       DCAL        RHOB        RHOC        DPOR        NPOR         GR     
# ...
  1951.0000      8.2448      2.5465      0.3311      6.2724     30.6631    130.5707
  1951.1000      8.2448      2.5667      0.2710      5.0510     30.1238    127.6303
  1951.2000      8.2448      2.5485      0.2093      6.1488     29.1666    122.4160
  1951.3000      8.1682      2.5327      0.1979      7.1111     28.4894    119.1223
  1951.4000      8.1682      2.5375      0.1946      6.8191     28.0819    123.6477
  1951.5000      8.1116      2.5519      0.2269      5.9441     27.5641    132.2153
  1951.6000      8.1116      2.5628      0.1955      5.2819     26.7381    137.8390
  1951.7000      8.1116      2.5733      0.1792      4.6471     25.9403    139.2962
  1951.8000      8.0890      2.5789      0.1876      4.3121     25.6694    136.9703
  1951.9000      8.0890      2.5649      0.1235      5.1548     25.9136    128.6207
  1952.0000      8.0784      2.5440      0.0627      6.4216     26.0052    117.5087
  1952.1000      8.0784      2.5444      0.0562      6.4003     25.4811    110.5588
  1952.2000      8.0784      2.5651      0.0995      5.1477     24.7040    105.2536
  1952.3000      8.0751      2.5827      0.1156      4.0801     24.1020     98.1696
  1952.4000      8.0751      2.5867      0.1081      3.8341     23.9213     93.7640
  1952.5000      8.0762      2.5833      0.0684      4.0422     24.2601     94.2183
  1952.6000      8.0762      2.5760      0.0729      4.4863     24.7209     96.5534
  1952.7000      8.0762      2.5675      0.0274      5.0024     24.6952     97.5956
  1952.8000      8.0767      2.5698      0.0386      4.8624     24.1197     96.6515
  1952.9000      8.0767      2.5789      0.0772      4.3085     23.4446     94.0870
  1953.0000      8.0751      2.5754      0.0351      4.5242     23.2776     93.3720
  1953.1000      8.0751      2.5557      0.0418      5.7163     23.8857     97.7754
  1953.2000      8.0751      2.5272      0.0339      7.4400     24.6725    101.9792
  1953.3000      8.0738      2.4957      0.0167      9.3521     25.1779    101.9555
  1953.4000      8.0738      2.4630     -0.0123     11.3338     25.7879    101.0652
  1953.5000      8.0748      2.4270     -0.0156     13.5173     26.6995    101.5620
  1953.6000      8.0748      2.3839      0.0173     16.1285     27.8175    104.7717
  1953.7000      8.0748      2.3361     -0.0622     19.0264     29.0815    111.0571
  1953.8000      8.0779      2.2992     -0.0883     21.2604     30.1582    117.2561
  1953.9000      8.0779      2.2847     -0.0498     22.1385     30.6087    123.6739
  1954.0000      8.0829      2.2803      0.0075     22.4054     30.3560    132.0967
  1954.1000      8.0829      2.2718     -0.0234     22.9220     29.8313    135.7882
  1954.2000      8.0829      2.2607      0.0052     23.5924     29.6106    128.6003
  1954.3000      8.0855      2.2526      0.0216     24.0825     29.7150    118.0061
  1954.4000      8.0855      2.2559      0.0553     23.8829     29.8704    113.5895
  1954.5000      8.0799      2.2805      0.0477     22.3927     30.1511    115.5968
  1954.6000      8.0799      2.3263      0.1144     19.6208     30.3113    120.3451
  1954.7000      8.0799      2.3791      0.1338     16.4192     29.8730    126.3675
  1954.8000      8.0748      2.4296      0.1597     13.3594     29.0935    135.4942
  1954.9000      8.0748      2.4821      0.1535     10.1742     28.5227    146.3963
  1955.0000      8.0789      2.5373      0.1813      6.8312     28.3712    150.4761
  1955.1000      8.0789      2.5849      0.1421      3.9435     28.3653    146.4236
  1955.2000      8.0789      2.6221      0.1255      1.6926     28.3046    143.2653
  1955.3000      8.0901      2.6461      0.1314      0.2346     28.4153    142.3930
  1955.4000      8.0901      2.6406      0.1545      0.5693     28.5006    138.5934
  1955.5000      8.1049      2.6080      0.0826      2.5476     28.3598    132.7917
  1955.6000      8.1049      2.5870      0.0291      3.8161     28.5841    128.6098
  1955.7000      8.1049      2.5924      0.0540      3.4907     29.3626    125.0454
  1955.8000      8.1187      2.5945      0.0590      3.3613     29.6713    123.4489
  1955.9000      8.1187      2.5786      0.0437      4.3284     29.0759    125.4386
  1956.0000      8.1188      2.5580      0.0179      5.5760     28.6491    125.8061
  1956.1000      8.1188      2.5423      0.0418      6.5273     28.8093    124.4354
  1956.2000      8.1188      2.5319     -0.0122      7.1597     28.8019    125.3035
  1956.3000      8.0978      2.5241      0.0214      7.6299     28.2262    124.8096
  1956.4000      8.0978      2.5167      0.0312      8.0806     27.4681    121.8123
  1956.5000      8.0634      2.5149      0.0363      8.1872     27.1750    121.8784
  1956.6000      8.0634      2.5238      0.0683      7.6457     27.4133    125.2026
  1956.7000      8.0634      2.5420      0.0597      6.5442     27.4630    126.0514
  1956.8000      8.0331      2.5675      0.0648      4.9995     27.1370    120.8435
  1956.9000      8.0331      2.5958      0.0594      3.2824     26.9222    112.0438
  1957.0000      8.0203      2.6180      0.0920      1.9417     27.0799    107.7554
  1957.1000      8.0203      2.6226      0.1071      1.6593     27.4837    110.7527
  1957.2000      8.0203      2.6073      0.1011      2.5868     27.9068    115.4409
  1957.3000      8.0183      2.5852      0.0469      3.9288     28.0709    117.6379
  1957.4000      8.0183      2.5711      0.0747      4.7832     28.2470    118.6279
  1957.5000      8.0179      2.5674      0.0435      5.0040     28.8550    120.3989
  1957.6000      8.0179      2.5717      0.0310      4.7455     29.3032    121.2879
  1957.7000      8.0179      2.5777      0.0574      4.3844     28.8389    118.0995
  1957.8000      8.0176      2.5734      0.0271      4.6404     27.7606    111.6297
  1957.9000      8.0176      2.5578      0.0218      5.5868     26.8756    106.2081
  1958.0000      8.0193      2.5443     -0.0078      6.4069     26.6153    104.8074
  1958.1000      8.0193      2.5420     -0.0027      6.5461     26.7369    106.9209
  1958.2000      8.0193      2.5430      0.0469      6.4819     27.0677    110.3782
  1958.3000      8.0251      2.5370      0.0546      6.8512     27.6304    114.7938
  1958.4000      8.0251      2.5332     -0.0031      7.0800     28.0347    119.0965
  1958.5000      8.0318      2.5370      0.0931      6.8488     27.8538    121.3202
  1958.6000      8.0318      2.5286      0.0518      7.3600     27.2409    123.0233
  1958.7000      8.0318      2.5108      0.0014      8.4386     26.8580    124.8892
  1958.8000      8.0349      2.5087      0.0272      8.5607     26.5915    127.5192
  1958.9000      8.0349      2.5207      0.0674      7.8371     26.1414    131.2756
  1959.0000      8.0323      2.5302      0.0437      7.2631     26.2708    135.4082
  1959.1000      8.0323      2.5338      0.0564      7.0400     27.1185    141.2510
  1959.2000      8.0323      2.5316      0.0455      7.1766     27.8353    143.2746
  1959.3000      8.0252      2.5199      0.0722      7.8868     28.0281    138.5389
  1959.4000      8.0252      2.5056      0.0286      8.7492     27.8812    133.8270
  1959.5000      8.0189      2.5110      0.0459      8.4217     27.9068    129.8224
  1959.6000      8.0189      2.5426      0.0690      6.5109     28.4157    124.6810
  1959.7000      8.0189      2.5785      0.1001      4.3357     28.8886    122.8670
  1959.8000      8.0169      2.5914      0.1166      3.5513     28.6915    127.0356
  1959.9000      8.0169      2.5723      0.0823      4.7075     28.0297    130.8223
  1960.0000      8.0162      2.5364      0.0413      6.8831     27.8205    128.8747
  1960.1000      8.0162      2.5083      0.0254      8.5864     28.3934    125.6100
  1960.2000      8.0162      2.5017      0.0446      8.9865     28.9984    126.2840
  1960.3000      8.0157      2.5075      0.0620      8.6344     28.8241    129.7432
  1960.4000      8.0157      2.5144      0.0310      8.2211     27.9030    134.4370
  1960.5000      8.0175      2.5240      0.0707      7.6393     27.1442    143.4442
