~Version Information
VERS.                      2.0: CWLS Log ASCII Standard - VERSION 2.0
WRAP.                       NO: One line per depth step
~Well Information Block
STRT.FT                 0.0000: 
STOP.FT               988.7500: 
STEP.FT                 0.2500: 
NULL.                -999.2500: 
COMP.          Pioneer Natural Resources: COMPANY
WELL.             Quartz 13-22: WELL
FLD.           Purgatoire River: FIELD
LOC.           1933' FSL & 675' FWL --------: LOCATION
PROV.                 Colorado: PROVINCE
CNTY.               Las Animas: COUNTRY
SRVC.                         : SERVICE COMPANY
DATE.          Thu Dec 22 09:29:32 2005: LOG DATE
UWI.                          : UNIQUE WELL ID
~Curve Information Block
DEPT.FT            0 000 00 00: Depth
CCL.                          : Casing Collar Locator
TT3.usec                      : CBL 3' Travel Time
AMP3.mV                       : CBL 3' Amplitude
AMP5.mV                       : CBL 5' Amplitude
GR.GAPI                       : Gamma Ray
~Parameter Information Block
~A  Depth       CCL         TT3         AMP3        AMP5         GR     
# ...
   392.0000      0.0000    728.8797     11.6094      2.9633    109.8094
   392.2500      0.0000    727.6362     11.5280      3.1958    106.7508
   392.5000      0.0000    727.1772     11.4673      3.2890    102.6945
   392.7500      0.0000    726.9903     11.4466      3.3159     98.9672
   393.0000      0.0000    726.8613     11.4717      3.3481     97.7529
   393.2500      0.0000    726.7186     11.5320      3.3794    100.5674
   393.5000      0.0000    726.5486     11.6080      3.3853    106.6714
   393.7500      0.0000    726.3837     11.6709      3.3812    113.4117
   394.0000      0.0000    726.2842     11.6825      3.3839    118.3421
   394.2500      0.0000    726.2905     11.6179      3.3660    120.8380
   394.5000      0.0000    726.4099     11.4995      3.2942    121.6638
   394.7500      0.0000    726.6763     11.3933      3.1704    121.4699
   395.0000      0.0000    727.2637     11.3613      3.0156    120.1562
   395.2500      0.0000    728.5923     11.4211      2.8590    117.4993
   395.5000      0.0000    731.2890     11.5517      2.7612    113.8591
   395.7500      0.0000    735.7708     11.7161      2.7858    110.1094
   396.0000      0.0000    741.6257     11.8709      2.9323    107.0695
   396.2500      0.0000    747.6066     11.9710      3.1398    104.9939
   396.5000      0.0000    752.6407     11.9862      3.3529    103.4874
   396.7500      0.0000    756.6843     11.9154      3.5328    102.0823
   397.0000      0.0000    760.1650     11.7819      3.6249    100.9906
   397.2500      0.0000    762.8199     11.6227      3.5876    101.0675
   397.5000      0.0000    763.6260     11.4836      3.4617    102.9263
   397.7500      0.0000    761.7979     11.4079      3.3452    106.1115
   398.0000      0.0000    757.4983     11.4145      3.2711    109.2081
   398.2500      0.0000    751.6073     11.4903      3.1519    110.9118
   398.5000      0.0000    745.0971     11.6021      2.8911    111.0842
   398.7500      0.0000    738.7898     11.7101      2.5271    110.6646
   399.0000      0.0000    733.4467     11.7722      2.2207    110.5166
   399.2500      0.0000    729.6376     11.7566      2.0944    110.4354
   399.5000      0.0000    727.4418     11.6645      2.1197    109.2928
   399.7500      0.0000    726.4637     11.5368      2.1823    106.2665
   400.0000      0.0000    726.1776     11.4285      2.2323    102.1484
   400.2500      0.0000    726.2032     11.3701      2.3299     99.1894
   400.5000      0.0000    726.3505     11.3506      2.5355     99.1371
   400.7500      0.0000    726.5337     11.3343      2.7990    101.5120
   401.0000      0.0000    726.6919     11.2944      3.0078    104.1758
   401.2500      0.0000    726.7680     11.2318      3.1234    105.4978
   401.5000      0.0000    726.7520     11.1615      3.2072    105.6555
   401.7500      0.0000    726.7032     11.0862      3.3072    105.9371
   402.0000      0.0000    726.7057     10.9922      3.3870    107.2460
   402.2500      0.0000    726.7968     10.8746      3.3934    109.3991
   402.5000      0.0000    726.9565     10.7542      3.3351    111.5350
   402.7500      0.0000    727.1516     10.6638      3.2499    113.0663
   403.0000      0.0000    727.3488     10.6244      3.1444    114.3272
   403.2500      0.0000    727.4947     10.6346      3.0179    116.0914
   403.5000      0.0000    727.5419     10.6737      2.9063    118.3630
   403.7500      0.0000    727.5051     10.7134      2.8325    120.1411
   404.0000      0.0000    727.4477     10.7352      2.7432    120.7142
   404.2500      0.0000    727.4036     10.7428      2.5666    120.6827
   404.5000      0.0000    727.3523     10.7589      2.3338    121.2439
   404.7500      0.0000    727.2726     10.8046      2.1842    122.8517
   405.0000      0.0000    727.1805     10.8825      2.2316    125.0128
   405.2500      0.0000    727.1044     10.9819      2.4433    126.9038
   405.5000      0.0000    727.0518     11.0940      2.6526    127.5817
   405.7500      0.0000    727.0079     11.2183      2.6891    126.1484
   406.0000      0.0000    726.9557     11.3539      2.5179    122.6601
   406.2500      0.0000    726.8928     11.4903      2.2722    118.7503
   406.5000      0.0000    726.8322     11.6121      2.1445    116.5438
   406.7500      0.0000    726.7905     11.7141      2.2297    116.9374
   407.0000      0.0000    726.7691     11.8157      2.4566    119.3825
   407.2500      0.0000    726.7367     11.9617      2.6668    122.8070
   407.5000      0.0000    726.6315     12.1926      2.7672    125.9243
   407.7500      0.0000    726.3963     12.5002      2.8067    127.2080
   408.0000      0.0000    726.0336     12.8140      2.8990    125.5718
   408.2500      0.0000    725.6326     13.0509      3.0828    120.9218
   408.5000      0.0000    725.3298     13.1826      3.2743    113.6393
   408.7500      0.0000    725.2580     13.2438      3.3525    104.1202
   409.0000      0.0000    725.5650     13.2795      3.2755     93.3965
   409.2500      0.0000    726.5108     13.3047      3.1058     83.5269
   409.5000      0.0000    728.4041     13.3153      2.9270     76.3408
   409.7500      0.0000    731.1589     13.3103      2.7698     71.9489
   410.0000      0.0000    733.8459     13.2998      2.6492     69.1893
   410.2500      0.0000    735.0608     13.3044      2.6408     67.3223
   410.5000      0.0000    734.0956     13.3464      2.8420     66.5475
   410.7500      0.0000    731.6094     13.4284      3.2463     67.1082
   411.0000      0.0000    728.9691     13.5267      3.6954     68.8553
   411.2500      0.0000    727.1527     13.6173      3.9799     71.9111
   411.5000      0.0000    726.4191     13.6990      3.9907     76.8966
   411.7500      0.0000    726.7390     13.7764      3.7871     83.7221
   412.0000      0.0000    728.3157     13.8330      3.5438     90.5673
   412.2500      0.0000    731.7217     13.8436      3.4363     95.1284
   412.5000      0.0000    737.4811     13.8078      3.5458     97.0267
   412.7500      0.0000    745.3072     13.7569      3.8259     98.3477
   413.0000      0.0000    753.7510     13.7277      4.1295    101.4545
   413.2500      0.0000    760.8971     13.7363      4.2823    106.4595
   413.5000      0.0000    765.5602     13.7723      4.1777    111.0324
   413.7500      0.0000    767.7958     13.8098      3.8398    112.7606
   414.0000      0.0000    768.3787     13.8273      3.4005    111.5292
   414.2500      0.0000    768.0014     13.8245      2.9909    109.4586
   414.5000      0.0000    766.8491     13.8190      2.6490    108.8161
   414.7500      0.0000    764.6902     13.8122      2.3407    110.3712
   415.0000      0.0000    761.3681     13.7463      2.0585    113.5870
   415.2500      0.0000    757.3763     13.4939      1.8631    117.5986
   415.5000      0.0000    754.0546     12.9115      1.8140    121.3472
   415.7500      0.0000    753.2593     11.9445      1.8820    123.1669
   416.0000      0.0000    757.0532     10.7137      1.9517    121.4674
   416.2500      0.0000    767.3256      9.4861      1.9089    116.3130
   416.5000      0.0000    784.4380      8.5248      1.7236    109.7913
   416.7500      0.0000    805.7830      7.9519      1.4638    104.6090
   417.0000      0.0000    827.3295      7.7272      1.2409    102.5709
   417.2500      0.0000    847.3265      7.7183      1.1416    104.0335
   417.5000      0.0000    866.3879      7.7791      1.1948    107.9488
   417.7500     -2.0000    883.3984      7.8009      1.3756    112.3433
   418.0000      0.0000    894.1880      7.7364      1.6154    115.4135
   418.2500      0.0000    894.6528      7.6318      1.8223    116.5740
   418.5000      0.0000    882.7533      7.6596      1.9303    116.4038
   418.7500      0.0000    858.7993      8.0635      1.9454    115.6213
   419.0000      0.0000    826.8590      8.9586      1.9362    114.2030
   419.2500      0.0000    794.5390     10.1509      1.9815    111.3788
   419.5000      0.0000    768.6094     11.2271      2.1302    106.5314
   419.7500      0.0000    751.1062     11.8709      2.3984    100.2811
