~Version Information
VERS.                      2.0: CWLS Log ASCII Standard - VERSION 2.0
WRAP.                       NO: One line per depth step
~Well Information Block
STRT.FT                -5.0000: 
STOP.FT               912.2500: 
STEP.FT                 0.2500: 
NULL.                -999.2500: 
COMP.          Pioneer Natural Resources: COMPANY
WELL.               Ernie 31-6: WELL
FLD.           Purgatoire River: FIELD
LOC.           681' FNL & 2138' FEL: LOCATION
CNTY.               Las Animas: COUNTY
SRVC.                         : SERVICE COMPANY
DATE.          Tue Jun 27 10:36:58 2006: LOG DATE
UWI.           05 071 08716 00: UNIQUE WELL ID
STAT.                       CO: STATE
~Curve Information Block
DEPT.FT            0 000 00 00: Depth
GR.GAPI                       : Gamma Ray
CCL.                          : Casing Collar Locator
TT3.usec                      : CBL 3' Travel Time
AMP3.mV                       : CBL 3' Amplitude
~Parameter Information Block
~A  Depth        GR         CCL         TT3         AMP3    
# ...
   464.0000     95.7003      0.0000    772.8212      5.1616
   464.2500    100.7005      0.0000    769.5337      5.3480
   464.5000    106.7350      0.0000    766.9882      5.5136
   464.7500    114.4195      0.0000    762.6858      5.6314
   465.0000    123.1931      0.0000    755.1770      5.7054
   465.2500    131.1790      0.0000    746.8201      5.7555
   465.5000    136.0990      0.0000    742.2744      5.7919
   465.7500    136.9811      0.0000    743.9261      5.8091
   466.0000    135.1722      0.0000    749.6453      5.8002
   466.2500    133.2104      0.0000    755.2146      5.7733
   466.5000    132.6588      0.0000    757.8567      5.7474
   466.7500    133.4671      0.0000    757.2082      5.7298
   467.0000    135.0709      0.0000    754.7653      5.7090
   467.2500    137.2564      0.0000    753.4949      5.6764
   467.5000    140.0382      0.0000    756.3584      5.6481
   467.7500    143.2544      0.0000    763.6877      5.6549
   468.0000    146.1778      0.0000    772.6814      5.7119
   468.2500    147.3509      0.0000    780.0585      5.8000
   468.5000    145.2654      0.0000    784.6145      5.8763
   468.7500    139.7321      0.0000    787.2419      5.9064
   469.0000    132.5829      0.0000    789.4200      5.8909
   469.2500    126.7600      0.0000    791.9044      5.8633
   469.5000    124.4700      0.0000    794.2277      5.8601
   469.7500    126.0154      0.0000    795.2237      5.8926
   470.0000    130.0146      0.0000    794.2765      5.9465
   470.2500    134.3638      0.0000    792.0301      6.0000
   470.5000    137.3184      0.0000    789.6846      6.0403
   470.7500    138.4066      0.0000    787.7770      6.0688
   471.0000    138.4501      0.0000    785.7585      6.0947
   471.2500    138.4193      0.0000    782.5784      6.1299
   471.5000    138.4917      0.0000    777.7586      6.1881
   471.7500    138.5440      0.0000    772.1290      6.2798
   472.0000    138.9553      0.0000    767.2995      6.3979
   472.2500    140.2245      0.0000    764.1747      6.5138
   472.5000    141.9919      0.0000    762.1920      6.6007
   472.7500    142.9472      0.0000    759.8173      6.6600
   473.0000    141.8120      0.0000    755.2405      6.7171
   473.2500    138.3439      0.0000    747.2536      6.7919
   473.5000    133.5548      0.0000    736.5547      6.8809
   473.7500    129.1646      0.0000    725.8187      6.9581
   474.0000    126.7935      0.0000    717.7678      6.9859
   474.2500    127.2872      0.0000    713.4734      6.9318
   474.5000    130.2256      0.0000    712.6774      6.7912
   474.7500    133.8099      0.0000    714.9295      6.6020
   475.0000    135.7691      0.0000    719.7363      6.4273
   475.2500    135.0229      0.0000    726.0323      6.3133
   475.5000    132.3060      0.0000    732.5410      6.2645
   475.7500    128.9451      0.0000    738.8743      6.2552
   476.0000    125.3653      0.0000    745.4653      6.2568
   476.2500    121.2097      0.0000    752.2970      6.2545
   476.5000    116.7114      0.0000    758.7861      6.2491
   476.7500    113.2754      0.0000    764.9220      6.2535
   477.0000    112.1864      0.0000    771.1833      6.2852
   477.2500    113.0514      0.0000    777.2835      6.3568
   477.5000    114.2263      0.0000    782.1232      6.4686
   477.7500    114.7600      0.0000    784.9514      6.6094
   478.0000    115.2338      0.0000    785.8104      6.7637
   478.2500    116.4688      0.0000    784.8748      6.9113
   478.5000    117.9596      0.0000    781.9779      7.0236
   478.7500    118.1172      0.0000    777.0649      7.0745
   479.0000    116.0728      0.0000    770.7823      7.0566
   479.2500    112.9304      0.0000    763.8804      6.9827
   479.5000    111.0310      0.0000    755.8990      6.8715
   479.7500    112.0143      0.0000    745.4173      6.7440
   480.0000    115.5951      0.0000    732.2518      6.6318
   480.2500    120.0317      0.0000    718.6975      6.5723
   480.5000    123.5515      0.0000    708.0807      6.5819
   480.7500    125.4630      0.0000    702.4254      6.6376
   481.0000    126.2584      0.0000    701.4514      6.6945
   481.2500    126.7342      0.0000    703.2537      6.7204
   481.5000    126.9131      0.0000    705.7655      6.7104
   481.7500    125.9940      0.0000    707.7829      6.6809
   482.0000    123.3634      0.0000    708.8224      6.6565
   482.2500    119.1907      0.0000    708.2877      6.6612
   482.5000    114.0138      0.0000    704.8922      6.7101
   482.7500    108.3714      0.0000    697.2112      6.8020
   483.0000    102.8016      0.0000    685.6534      6.9157
   483.2500     97.5346      0.0000    674.2266      7.0163
   483.5000     92.2525      0.0000    668.8984      7.0743
   483.7500     86.6422      0.0000    672.5864      7.0870
   484.0000     81.0041      0.0000    682.3209      7.0785
   484.2500     75.9174      0.0000    692.3079      7.0698
   484.5000     71.5424      0.0000    698.9364      7.0508
   484.7500     67.6260      0.0000    702.2733      6.9942
   485.0000     64.0784      0.0000    704.2631      6.8931
   485.2500     61.1747      0.0000    706.8184      6.7741
   485.5000     59.2065      0.0000    710.8800      6.6760
   485.7500     58.2687      0.0000    715.9494      6.6310
   486.0000     58.4326      0.0000    720.3452      6.6592
   486.2500     59.8919      0.0000    722.7371      6.7594
   486.5000     63.0656      0.0000    723.5854      6.8990
   486.7500     68.8581      0.0000    724.4269      7.0231
   487.0000     78.4524      0.0000    725.5851      7.0871
   487.2500     92.0331      0.0000    725.5141      7.0846
   487.5000    107.6605      0.0000    722.8584      7.0503
   487.7500    122.0519      0.0000    718.3284      7.0301
   488.0000    132.6720      0.0000    713.9566      7.0387
   488.2500    138.7968      0.0000    711.1505      7.0493
   488.5000    140.8174      0.0000    709.9610      7.0313
   488.7500    139.2587      0.0000    709.6897      6.9897
   489.0000    134.7725      0.0000    709.6104      6.9569
   489.2500    128.6003      0.0000    709.1870      6.9555
   489.5000    122.4295      0.0000    707.8768      6.9792
   489.7500    117.6437      0.0000    704.9058      7.0082
   490.0000    114.8371      0.0000    699.5132      7.0323
   490.2500    113.9456      0.0000    691.7927      7.0546
   490.5000    114.6658      0.0000    683.2905      7.0728
   490.7500    116.8428      0.0000    676.4708      7.0576
   491.0000    120.5540      0.0000    673.3409      6.9544
   491.2500    125.5637      0.0000    674.5153      6.7154
   491.5000    130.6182      0.0000    679.4294      6.3328
   491.7500    133.7644      0.0000    687.7466      5.8472
   492.0000    133.7267      0.0000    700.8176      5.3382
   492.2500    130.8448      0.0000    720.7123      4.9096
   492.5000    126.6361      0.0000    746.3038      4.6592
   492.7500    122.7081      0.0000    771.6490      4.6308
   493.0000    120.1059      0.0000    790.8373      4.7798
   493.2500    119.3763      0.0000    803.2609      4.9922
   493.5000    120.7673      0.0000    811.3182      5.1483
   493.7500    123.8911     -2.0000    815.1793      5.1821
   494.0000    127.2669      0.0000    813.8731      5.1064
   494.2500    128.9668      0.0000    809.4737      4.9967
   494.5000    128.1660      0.0000    805.5344      4.9319
   494.7500    125.8238      0.0000    802.2767      4.9310
   495.0000    123.8258      0.0000    796.8122      4.9518
   495.2500    123.6951      0.0000    787.6882      4.9540
   495.5000    125.7156      0.0000    776.9976      4.9449
   495.7500    128.5225      0.0000    768.3442      4.9588
   496.0000    129.6897      0.0000    763.9965      5.0126
   496.2500    127.4777      0.0000    763.6210      5.0936
   496.5000    122.1785      0.0000    764.3558      5.1771
   496.7500    115.6677      0.0000    762.0048      5.2432
   497.0000    109.9905      0.0000    753.4975      5.2845
   497.2500    106.4293      0.0000    739.3384      5.3109
