~Version Information
VERS.                      2.0: CWLS Log ASCII Standard - VERSION 2.0
WRAP.                       NO: One line per depth step
~Well Information Block
STRT.FT               460.0000: 
STOP.FT              2811.5000: 
STEP.FT                 0.1000: 
NULL.                -999.2500: 
COMP.          Pioneer Natural Resources: COMPANY
WELL.           Dolzanie 34-12: WELL
FLD.           Purgatoire River: FIELD
LOC.           1001' FSL & 1750' FEL--: LOCATION
PROV.                 Colorado: PROVINCE
CNTY.               Las Animas: COUNTRY
SRVC.                Patterson: SERVICE COMPANY
DATE.          Wed Jul 20 07:56:24 2005: LOG DATE
UWI.           05 071 08439 00: UNIQUE WELL ID
~Curve Information Block
DEPT.FT            0 000 00 00: Depth
DCAL.in                       : CDL Caliper
DPOR.pu                       : CDL Density Porosity
NPOR.pu                       : Neutron Porosity
RHOB.g/cc                     : CDL Bulk Density
RHOC.g/cc                     : CDL Density Correction
GR.GAPI                       : Gamma Ray
~Parameter Information Block
~A  Depth       DCAL        DPOR        NPOR        RHOB        RHOC         GR     
# ...
  1708.0000      0.0000      0.0000      0.0000      0.0000      0.0000    121.5458
  1708.1000      0.0000      0.0000      0.0000      0.0000      0.0000    125.0362
  1708.2000      0.0000      0.0000      0.0000      0.0000      0.0000    126.5030
  1708.3000      0.0000      0.0000      0.0000      0.0000      0.0000    124.8283
  1708.4000      0.0000      0.0000      0.0000      0.0000      0.0000    124.1896
  1708.5000      0.0000      0.0000      0.0000      0.0000      0.0000    125.8737
  1708.6000      0.0000      0.0000      0.0000      0.0000      0.0000    125.9265
  1708.7000      0.0000      0.0000      0.0000      0.0000      0.0000    123.0312
  1708.8000      0.0000      0.0000      0.0000      0.0000      0.0000    120.8827
  1708.9000      0.0000      0.0000      0.0000      0.0000      0.0000    119.4416
  1709.0000      0.0000      0.0000      0.0000      0.0000      0.0000    113.1504
  1709.1000      0.0000      0.0000      0.0000      0.0000      0.0000    104.2055
  1709.2000      0.0000      0.0000      0.0000      0.0000      0.0000    103.9299
  1709.3000      0.0000      0.0000      0.0000      0.0000      0.0000    117.4176
  1709.4000      0.0000      0.0000      0.0000      0.0000      0.0000    132.8985
  1709.5000      0.0000      0.0000      0.0000      0.0000      0.0000    137.7618
  1709.6000      0.0000      0.0000      0.0000      0.0000      0.0000    133.1234
  1709.7000      0.0000      0.0000      0.0000      0.0000      0.0000    123.2716
  1709.8000      0.0000      0.0000      0.0000      0.0000      0.0000    114.3517
  1709.9000      0.0000      0.0000      0.0000      0.0000      0.0000    109.7618
  1710.0000      0.0000      0.0000      0.0000      0.0000      0.0000    104.2139
  1710.1000      0.0000      0.0000      0.0000      0.0000      0.0000     96.7371
  1710.2000      0.0000      0.0000      0.0000      0.0000      0.0000     94.3364
  1710.3000      0.0000      0.0000      0.0000      0.0000      0.0000    101.3337
  1710.4000      0.0000      0.0000      0.0000      0.0000      0.0000    112.9465
  1710.5000      0.0000      0.0000      0.0000      0.0000      0.0000    120.6955
  1710.6000      0.0000      0.0000      0.0000      0.0000      0.0000    123.9459
  1710.7000      0.0000      0.0000      0.0000      0.0000      0.0000    127.4575
  1710.8000      0.0000      0.0000      0.0000      0.0000      0.0000    131.4917
  1710.9000      0.0000      0.0000      0.0000      0.0000      0.0000    132.4554
  1711.0000      0.0000      0.0000      0.0000      0.0000      0.0000    132.6367
  1711.1000      0.0000      0.0000      0.0000      0.0000      0.0000    134.3847
  1711.2000      0.0000      0.0000      0.0000      0.0000      0.0000    132.8914
  1711.3000      0.0000      0.0000      0.0000      0.0000      0.0000    128.3694
  1711.4000      0.0000      0.0000      0.0000      0.0000      0.0000    128.0985
  1711.5000      0.0000      0.0000      0.0000      0.0000      0.0000    131.4651
  1711.6000      0.0000      0.0000      0.0000      0.0000      0.0000    130.2595
  1711.7000      0.0000      0.0000      0.0000      0.0000      0.0000    121.8981
  1711.8000      0.0000      0.0000      0.0000      0.0000      0.0000    110.6130
  1711.9000      0.0000      0.0000      0.0000      0.0000      0.0000    104.1196
  1712.0000      0.0000      0.0000      0.0000      0.0000      0.0000    107.8434
  1712.1000      0.0000      0.0000      0.0000      0.0000      0.0000    120.1131
  1712.2000      0.0000      0.0000      0.0000      0.0000      0.0000    130.2740
  1712.3000      0.0000      0.0000      0.0000      0.0000      0.0000    130.6470
  1712.4000      0.0000      0.0000      0.0000      0.0000      0.0000    126.9361
  1712.5000      0.0000      0.0000      0.0000      0.0000      0.0000    124.4519
  1712.6000      0.0000      0.0000      0.0000      0.0000      0.0000    121.7126
  1712.7000      0.0000      0.0000      0.0000      0.0000      0.0000    119.0624
  1712.8000      0.0000      0.0000      0.0000      0.0000      0.0000    120.2362
  1712.9000      0.0000      0.0000      0.0000      0.0000      0.0000    124.2143
  1713.0000      0.0000      0.0000      0.0000      0.0000      0.0000    127.7376
  1713.1000      0.0000      0.0000      0.0000      0.0000      0.0000    132.1575
  1713.2000      0.0000      0.0000      0.0000      0.0000      0.0000    139.0396
  1713.3000      0.0000      0.0000      0.0000      0.0000      0.0000    146.3351
  1713.4000      0.0000      0.0000      0.0000      0.0000      0.0000    152.6816
  1713.5000      0.0000      0.0000      0.0000      0.0000      0.0000    156.7660
  1713.6000      0.0000      0.0000      0.0000      0.0000      0.0000    153.9453
  1713.7000      0.0000      0.0000      0.0000      0.0000      0.0000    144.8177
  1713.8000      0.0000      0.0000      0.0000      0.0000      0.0000    136.6944
  1713.9000      0.0000      0.0000      0.0000      0.0000      0.0000    132.3198
  1714.0000      0.0000      0.0000      0.0000      0.0000      0.0000    129.7925
  1714.1000      0.0000      0.0000      0.0000      0.0000      0.0000    127.5459
  1714.2000      0.0000      0.0000      0.0000      0.0000      0.0000    123.7043
  1714.3000      0.0000      0.0000      0.0000      0.0000      0.0000    116.7651
  1714.4000      0.0000      0.0000      0.0000      0.0000      0.0000    110.4807
  1714.5000      0.0000      0.0000      0.0000      0.0000      0.0000    111.7223
  1714.6000      0.0000      0.0000      0.0000      0.0000      0.0000    119.6337
  1714.7000      0.0000      0.0000      0.0000      0.0000      0.0000    126.0457
  1714.8000      0.0000      0.0000      0.0000      0.0000      0.0000    126.6960
  1714.9000      0.0000      0.0000      0.0000      0.0000      0.0000    122.7871
  1715.0000      0.0000      0.0000      0.0000      0.0000      0.0000    118.4956
  1715.1000      0.0000      0.0000      0.0000      0.0000      0.0000    120.2755
  1715.2000      0.0000      0.0000      0.0000      0.0000      0.0000    126.9398
  1715.3000      0.0000      0.0000      0.0000      0.0000      0.0000    127.6509
  1715.4000      0.0000      0.0000      0.0000      0.0000      0.0000    120.1578
  1715.5000      0.0000      0.0000      0.0000      0.0000      0.0000    117.5542
  1715.6000      0.0000      0.0000      0.0000      0.0000      0.0000    128.7608
  1715.7000      0.0000      0.0000      0.0000      0.0000      0.0000    143.1030
  1715.8000      0.0000      0.0000      0.0000      0.0000      0.0000    149.4252
  1715.9000      0.0000      0.0000      0.0000      0.0000      0.0000    145.9936
  1716.0000      0.0000      0.0000      0.0000      0.0000      0.0000    136.9047
  1716.1000      0.0000      0.0000      0.0000      0.0000      0.0000    134.4868
  1716.2000      0.0000      0.0000      0.0000      0.0000      0.0000    141.1913
  1716.3000      0.0000      0.0000      0.0000      0.0000      0.0000    144.9130
  1716.4000      0.0000      0.0000      0.0000      0.0000      0.0000    141.3720
  1716.5000      0.0000      0.0000      0.0000      0.0000      0.0000    136.7701
  1716.6000      0.0000      0.0000      0.0000      0.0000      0.0000    136.2925
  1716.7000      0.0000      0.0000      0.0000      0.0000      0.0000    138.3809
  1716.8000      0.0000      0.0000      0.0000      0.0000      0.0000    140.5800
  1716.9000      0.0000      0.0000      0.0000      0.0000      0.0000    142.7455
  1717.0000      0.0000      0.0000      0.0000      0.0000      0.0000    142.6026
  1717.1000      0.0000      0.0000      0.0000      0.0000      0.0000    140.4917
  1717.2000      0.0000      0.0000      0.0000      0.0000      0.0000    137.9331
  1717.3000      0.0000      0.0000      0.0000      0.0000      0.0000    134.5349
  1717.4000      0.0000      0.0000      0.0000      0.0000      0.0000    131.9444
  1717.5000      0.0000      0.0000      0.0000      0.0000      0.0000    131.6401
