~Version Information
VERS.                      2.0: CWLS Log ASCII Standard - VERSION 2.0
WRAP.                       NO: One line per depth step
~Well Information Block
STRT.FT               262.8000: 
STOP.FT              1134.7000: 
STEP.FT                 0.1000: 
NULL.                -999.2500: 
COMP.          Pioneer Natural Resources: COMPANY
WELL.          Black Cat 13-32 Tr: WELL
FLD.           Purgatoire River: FIELD
LOC.           1679' FSL & 1150' FWL--: LOCATION
CNTY.               Las Animas: COUNTY
SRVC.                Patterson: SERVICE COMPANY
DATE.          Tue Mar 07 12:42:54 2006: LOG DATE
UWI.           05 071 08721 00: UNIQUE WELL ID
STAT.                 Colorado: STATE
~Curve Information Block
DEPT.FT            0 000 00 00: Depth
DCAL.in                       : CDL Caliper
RHOB.g/cc                     : CDL Bulk Density
RHOC.g/cc                     : CDL Density Correction
DPOR.pu                       : CDL Density Porosity
GR.GAPI                       : Gamma Ray
~Parameter Information Block
~A  Depth       DCAL        RHOB        RHOC        DPOR         GR     
# ...
   498.0000      7.9183      2.6117      0.0609      2.3206    128.6153
   498.1000      7.9183      2.5909     -0.0017      3.5821    130.1108
   498.2000      7.9183      2.5703      0.0085      4.8300    124.7794
   498.3000      7.9199      2.5497      0.0126      6.0787    119.7260
   498.4000      7.9199      2.5274     -0.0146      7.4284    119.4526
   498.5000      7.9217      2.5085     -0.0522      8.5756    121.0715
   498.6000      7.9217      2.4937     -0.0167      9.4732    120.1266
   498.7000      7.9217      2.4857     -0.0133      9.9576    118.8795
   498.8000      7.9288      2.4881      0.0003      9.8107    121.8755
   498.9000      7.9288      2.4878      0.0179      9.8328    124.9801
   499.0000      7.9358      2.4753      0.0016     10.5863    124.2452
   499.1000      7.9358      2.4670     -0.0073     11.0930    124.3488
   499.2000      7.9358      2.4772      0.0364     10.4755    129.4451
   499.3000      7.9324      2.4951      0.0517      9.3892    136.1187
   499.4000      7.9324      2.5059      0.0589      8.7310    139.9316
   499.5000      7.9222      2.5155      0.0160      8.1486    138.3729
   499.6000      7.9222      2.5384      0.0849      6.7615    130.4475
   499.7000      7.9222      2.5736      0.1234      4.6329    121.7459
   499.8000      7.9154      2.6033      0.1927      2.8294    120.1162
   499.9000      7.9154      2.6087      0.1399      2.5042    125.2440
   500.0000      7.9138      2.5895      0.0229      3.6671    131.5924
   500.1000      7.9138      2.5625      0.0319      5.3042    136.8025
   500.2000      7.9138      2.5431      0.0163      6.4787    142.1102
   500.3000      7.9154      2.5472     -0.0522      6.2275    146.8751
   500.4000      7.9154      2.5753      0.0302      4.5264    149.4836
   500.5000      7.9162      2.5925      0.0593      3.4871    150.0591
   500.6000      7.9162      2.5710      0.0247      4.7908    146.2685
   500.7000      7.9162      2.5218      0.0104      7.7674    141.1915
   500.8000      7.9154      2.4819     -0.0678     10.1854    141.8994
   500.9000      7.9154      2.4857     -0.0286      9.9583    143.8786
   501.0000      7.9156      2.5241      0.0221      7.6326    139.7684
   501.1000      7.9156      2.5554      0.0549      5.7310    134.4947
   501.2000      7.9156      2.5598      0.0474      5.4656    135.1547
   501.3000      7.9176      2.5515      0.0271      5.9706    138.3180
   501.4000      7.9176      2.5490      0.0345      6.1225    138.3162
   501.5000      7.9199      2.5583      0.0264      5.5552    134.9383
   501.6000      7.9199      2.5728      0.0734      4.6812    129.9107
   501.7000      7.9199      2.5842      0.0637      3.9866    126.2886
   501.8000      7.9210      2.5919      0.0982      3.5210    126.9165
   501.9000      7.9210      2.5900      0.1165      3.6343    129.1182
   502.0000      7.9209      2.5772      0.0397      4.4119    128.2603
   502.1000      7.9209      2.5651      0.0716      5.1485    123.0238
   502.2000      7.9209      2.5579      0.0402      5.5798    112.3869
   502.3000      7.9214      2.5503      0.0718      6.0434     99.6565
   502.4000      7.9214      2.5343      0.0566      7.0129     93.2483
   502.5000      7.9210      2.5124      0.0404      8.3383     96.5997
   502.6000      7.9210      2.4984      0.0297      9.1901    103.4353
   502.7000      7.9210      2.4982      0.0314      9.2024    104.4207
   502.8000      7.9191      2.5022      0.0752      8.9572     98.4016
   502.9000      7.9191      2.5023     -0.0041      8.9515     91.6030
   503.0000      7.9168      2.5088      0.0257      8.5594     88.9042
   503.1000      7.9168      2.5302      0.0664      7.2596     88.3993
   503.2000      7.9168      2.5578      0.0699      5.5900     85.2047
   503.3000      7.9165      2.5755      0.0928      4.5146     78.9184
   503.4000      7.9165      2.5725      0.1121      4.6962     73.6309
   503.5000      7.9177      2.5567      0.0623      5.6551     71.4411
   503.6000      7.9177      2.5505      0.0570      6.0289     69.3912
   503.7000      7.9177      2.5549      0.1232      5.7651     67.5036
   503.8000      7.9178      2.5509      0.1068      6.0042     70.7968
   503.9000      7.9178      2.5397      0.0719      6.6870     78.6839
   504.0000      7.9157      2.5316      0.0753      7.1784     83.0535
   504.1000      7.9157      2.5191      0.0949      7.9325     78.9637
   504.2000      7.9157      2.5004      0.0173      9.0682     73.2478
   504.3000      7.9135      2.4913      0.0329      9.6182     74.6853
   504.4000      7.9135      2.4949      0.0207      9.4001     82.6375
   504.5000      7.9140      2.5007      0.0565      9.0461     90.0874
   504.6000      7.9140      2.5040      0.0319      8.8481     91.7978
   504.7000      7.9140      2.5095      0.0512      8.5138     89.5203
   504.8000      7.9140      2.5253      0.0639      7.5598     87.5048
   504.9000      7.9140      2.5504      0.0437      6.0385     87.9164
   505.0000      7.9132      2.5679      0.0983      4.9782     90.1538
   505.1000      7.9132      2.5676      0.0399      4.9910     90.2089
   505.2000      7.9132      2.5622      0.0388      5.3190     87.5973
   505.3000      7.9141      2.5579      0.0700      5.5847     86.5944
   505.4000      7.9141      2.5512      0.0346      5.9883     88.2215
   505.5000      7.9164      2.5494      0.0508      6.0949     90.2890
   505.6000      7.9164      2.5543      0.0263      5.8012     91.4055
   505.7000      7.9164      2.5555      0.0513      5.7284     93.3632
   505.8000      7.9184      2.5505      0.0066      6.0323     98.0814
   505.9000      7.9184      2.5496     -0.0264      6.0856    102.0661
   506.0000      7.9180      2.5523      0.0321      5.9215    102.2459
   506.1000      7.9180      2.5505      0.0038      6.0312    101.2838
   506.2000      7.9180      2.5513      0.0036      5.9806    101.4799
   506.3000      7.9170      2.5545      0.0332      5.7887    102.4599
   506.4000      7.9170      2.5453      0.0118      6.3466    105.0702
   506.5000      7.9176      2.5328     -0.0350      7.1042    109.4971
   506.6000      7.9176      2.5364      0.0167      6.8871    111.4674
   506.7000      7.9176      2.5433      0.0272      6.4695    108.6733
   506.8000      7.9176      2.5370      0.0152      6.8460    104.3744
   506.9000      7.9176      2.5381     -0.0416      6.7795    103.2706
   507.0000      7.9173      2.5720     -0.0016      4.7252    106.8366
   507.1000      7.9173      2.6187      0.0750      1.9000    109.9222
   507.2000      7.9173      2.6370      0.0353      0.7891    109.4669
   507.3000      7.9174      2.6211      0.0323      1.7541    106.1048
   507.4000      7.9174      2.5906      0.0045      3.6004     97.3127
   507.5000      7.9170      2.5630     -0.0367      5.2697     85.0065
   507.6000      7.9170      2.5457      0.0172      6.3220     77.1281
   507.7000      7.9170      2.5380     -0.0317      6.7891     75.4852
   507.8000      7.9117      2.5401     -0.0057      6.6621     76.8987
   507.9000      7.9117      2.5448     -0.0033      6.3771     80.7430
   508.0000      7.9010      2.5470     -0.0291      6.2449     85.4641
   508.1000      7.9010      2.5518     -0.0045      5.9541     87.0163
   508.2000      7.9010      2.5565      0.0044      5.6657     86.1992
   508.3000      7.8927      2.5575     -0.0209      5.6088     88.2063
   508.4000      7.8927      2.5578     -0.0229      5.5895     92.9040
   508.5000      7.8911      2.5571     -0.0030      5.6325     95.8808
   508.6000      7.8911      2.5568     -0.0446      5.6510     96.3237
   508.7000      7.8911      2.5560      0.0559      5.6979     95.4188
   508.8000      7.8950      2.5398      0.0337      6.6783     92.6281
   508.9000      7.8950      2.5131     -0.0306      8.2958     88.7071
   509.0000      7.9038      2.5025     -0.0072      8.9409     84.7880
   509.1000      7.9038      2.5081      0.0623      8.6030     80.6254
