~Version Information
VERS.                      2.0: CWLS Log ASCII Standard - VERSION 2.0
WRAP.                       NO: One line per depth step
~Well Information Block
STRT.FT               615.0000: 
STOP.FT              1609.0000: 
STEP.FT                 0.2500: 
NULL.                -999.2500: 
COMP.          Pioneer Natural Resources: COMPANY
WELL.          Galloway 32-13 Tr: WELL
FLD.           Purgatoire River: FIELD
LOC.           1910' FNL & 2002' FEL: LOCATION
PROV.                 Colorado: PROVINCE
CNTY.               Las Animas: COUNTRY
SRVC.                Patterson: SERVICE COMPANY
DATE.          Sat Nov 12 20:19:28 2005: LOG DATE
UWI.           05 071 08608 00: UNIQUE WELL ID
~Curve Information Block
DEPT.FT            0 000 00 00: Depth
SN.Ohm-m                      : IEL Short Normal
SP.mV                         : IEL Spontaneous Potential
DIR.Ohm-m                     : IEL Induction Resistivity
GR.GAPI                       : Gamma Ray
~Parameter Information Block
~A  Depth        SN          SP         DIR          GR     
# ...
  1318.5000     20.4142     65.8179     14.7151    107.6066
  1318.7500     20.4483     65.9159     14.2295    112.5777
  1319.0000     20.0093     66.0293     13.8109    122.9795
  1319.2500     19.0596     66.1476     13.4553    130.6931
  1319.5000     17.6568     66.2573     13.1444    142.0499
  1319.7500     15.9376     66.3438     12.8554    149.1020
  1320.0000     14.1479     66.3948     12.5682    158.4597
  1320.2500     12.5891     66.4048     12.2693    163.3829
  1320.5000     11.4957     66.3764     11.9540    167.5738
  1320.7500     10.9884     66.3168     11.6286    167.8068
  1321.0000     11.0855     66.2326     11.3125    164.8833
  1321.2500     11.6404     66.1246     11.0342    161.7627
  1321.5000     12.3367     65.9881     10.8217    157.3326
  1321.7500     12.8933     65.8167     10.6915    155.4602
  1322.0000     13.2634     65.6073     10.6436    154.9850
  1322.2500     13.5859     65.3635     10.6660    155.9789
  1322.5000     13.9557     65.0954     10.7447    157.9978
  1322.7500     14.2891     64.8174     10.8743    158.7582
  1323.0000     14.4520     64.5428     11.0616    158.3488
  1323.2500     14.4519     64.2826     11.3201    157.2693
  1323.5000     14.4365     64.0453     11.6621    155.0524
  1323.7500     14.5650     63.8341     12.0933    153.2503
  1324.0000     14.9306     63.6421     12.6161    149.6496
  1324.2500     15.5363     63.4506     13.2366    146.2887
  1324.5000     16.3264     63.2399     13.9669    139.2831
  1324.7500     17.3112     63.0053     14.8161    133.1913
  1325.0000     18.5328     62.7663     15.7764    122.3050
  1325.2500     19.9391     62.5581     16.8141    114.4497
  1325.5000     21.5454     62.4130     17.8793    102.9899
  1325.7500     23.5357     62.3439     18.9246     96.2000
  1326.0000     25.9937     62.3410     19.9171     88.1334
  1326.2500     28.7150     62.3822     20.8361     84.5101
  1326.5000     31.3309     62.4453     21.6678     81.8007
  1326.7500     33.5231     62.5122     22.4105     81.4649
  1327.0000     35.1222     62.5676     23.0729     82.1114
  1327.2500     36.0791     62.5980     23.6500     82.7717
  1327.5000     36.4016     62.5951     24.0845     83.8389
  1327.7500     36.1133     62.5610     24.2580     84.8666
  1328.0000     35.2654     62.5076     24.0482     87.7274
  1328.2500     33.9886     62.4530     23.4240     90.9715
  1328.5000     32.4712     62.4143     22.4880     98.1007
  1328.7500     30.8265     62.3984     21.4201    104.0934
  1329.0000     29.0448     62.3942     20.3817    114.0135
  1329.2500     27.1409     62.3748     19.4625    120.7294
  1329.5000     25.2601     62.3120     18.6873    130.3484
  1329.7500     23.5790     62.1932     18.0471    136.1086
  1330.0000     22.1766     62.0290     17.5215    142.9189
  1330.2500     21.0216     61.8478     17.0848    145.7752
  1330.5000     20.0298     61.6836     16.7056    147.2858
  1330.7500     19.1547     61.5663     16.3550    146.5467
  1331.0000     18.4380     61.5182     16.0232    142.8154
  1331.2500     17.9689     61.5543     15.7282    138.4598
  1331.5000     17.7938     61.6832     15.5063    129.8062
  1331.7500     17.8193     61.9061     15.3897    124.0144
  1332.0000     17.8254     62.2173     15.3884    118.2652
  1332.2500     17.7038     62.6047     15.4868    117.1050
  1332.5000     17.6207     63.0527     15.6544    117.5717
  1332.7500     17.8282     63.5442     15.8591    117.2614
  1333.0000     18.4290     64.0631     16.0728    113.0953
  1333.2500     19.3296     64.5973     16.2661    107.6507
  1333.5000     20.2877     65.1391     16.4050     97.6299
  1333.7500     21.0760     65.6829     16.4597     91.8179
  1334.0000     21.6406     66.2244     16.4197     87.9621
  1334.2500     21.9712     66.7631     16.2991     89.8933
  1334.5000     21.9230     67.3025     16.1230     99.3155
  1334.7500     21.3640     67.8418     15.9088    108.3959
  1335.0000     20.4198     68.3651     15.6580    122.1172
  1335.2500     19.4474     68.8420     15.3644    129.0691
  1335.5000     18.7092     69.2423     15.0272    134.4214
  1335.7500     18.1949     69.5513     14.6549    135.2509
  1336.0000     17.7966     69.7738     14.2575    135.2953
  1336.2500     17.4371     69.9272     13.8368    136.0268
  1336.5000     17.0403     70.0331     13.3888    138.9140
  1336.7500     16.5729     70.1129     12.9160    141.5372
  1337.0000     16.0953     70.1861     12.4357    145.3003
  1337.2500     15.6774     70.2699     11.9743    147.2838
  1337.5000     15.2897     70.3753     11.5508    149.4216
  1337.7500     14.8796     70.5022     11.1674    150.3797
  1338.0000     14.5271     70.6376     10.8145    151.1275
  1338.2500     14.3768     70.7620     10.4874    151.2804
  1338.5000     14.4058     70.8618     10.1953    151.7468
  1338.7500     14.3467     70.9392      9.9554    152.6737
  1339.0000     13.8807     71.0107      9.7771    154.9026
  1339.2500     12.9207     71.0972      9.6517    156.5146
  1339.5000     11.7236     71.2154      9.5541    158.8014
  1339.7500     10.7002     71.3748      9.4551    160.3432
  1340.0000     10.1336     71.5783      9.3363    162.1648
  1340.2500     10.1014     71.8188      9.1988    162.1635
  1340.5000     10.5419     72.0763      9.0609    159.4488
  1340.7500     11.2766     72.3236      8.9480    156.5733
  1341.0000     12.0155     72.5364      8.8826    153.4789
  1341.2500     12.5146     72.7006      8.8788    153.5106
  1341.5000     12.7366     72.8163      8.9411    156.6381
  1341.7500     12.7642     72.8977      9.0651    159.5794
  1342.0000     12.6485     72.9693      9.2398    162.6109
  1342.2500     12.3760     73.0588      9.4515    162.4816
  1342.5000     11.8699     73.1888      9.6896    158.3116
  1342.7500     11.1327     73.3700      9.9511    153.4657
  1343.0000     10.4680     73.5951     10.2425    145.5294
  1343.2500     10.3469     73.8387     10.5776    141.2967
  1343.5000     11.0329     74.0679     10.9753    137.6139
  1343.7500     12.4495     74.2575     11.4555    136.5393
  1344.0000     14.2850     74.3970     12.0339    135.7818
  1344.2500     16.1791     74.4873     12.7164    135.3183
  1344.5000     17.8725     74.5350     13.4934    133.6919
  1344.7500     19.2375     74.5480     14.3401    131.2068
  1345.0000     20.2823     74.5316     15.2239    124.6670
  1345.2500     21.1618     74.4872     16.1185    118.8599
  1345.5000     22.1219     74.4148     17.0159    109.5733
  1345.7500     23.3530     74.3173     17.9268    103.7764
  1346.0000     24.8760     74.2030     18.8685     96.2763
  1346.2500     26.5881     74.0834     19.8493     92.1374
  1346.5000     28.3306     73.9678     20.8620     87.1658
  1346.7500     29.9067     73.8602     21.8832     84.6073
  1347.0000     31.2053     73.7609     22.8688     81.7378
  1347.2500     32.2608     73.6682     23.7440     80.3588
  1347.5000     33.1030     73.5791     24.4050     78.9542
  1347.7500     33.6890     73.4862     24.7442     78.4487
  1348.0000     33.9635     73.3760     24.6878     78.3787
  1348.2500     33.8725     73.2316     24.2177     78.7853
  1348.5000     33.3805     73.0432     23.3724     80.1091
  1348.7500     32.4950     72.8187     22.2411     81.7032
  1349.0000     31.2697     72.5846     20.9509     86.0720
  1349.2500     29.7839     72.3741     19.6396     90.8487
  1349.5000     28.0715     72.2091     18.4188    101.1019
  1349.7500     26.1312     72.0893     17.3513    109.7963
  1350.0000     24.0575     71.9940     16.4512    125.0157
  1350.2500     22.0502     71.8966     15.7028    135.9429
  1350.5000     20.2858     71.7795     15.0829    151.2422
  1350.7500     18.8323     71.6416     14.5749    159.0953
  1351.0000     17.6360     71.4950     14.1707    165.7756
  1351.2500     16.5765     71.3562     13.8660    166.9696
  1351.5000     15.6240     71.2360     13.6557    165.0002
  1351.7500     14.9268     71.1352     13.5342    161.8930
