~Version Information
VERS.                      2.0: CWLS Log ASCII Standard - VERSION 2.0
WRAP.                       NO: One line per depth step
~Well Information Block
STRT.FT                 0.0000: 
STOP.FT               988.7500: 
STEP.FT                 0.2500: 
NULL.                -999.2500: 
COMP.          Pioneer Natural Resources: COMPANY
WELL.             Quartz 13-22: WELL
FLD.           Purgatoire River: FIELD
LOC.           1933' FSL & 675' FWL --------: LOCATION
PROV.                 Colorado: PROVINCE
CNTY.               Las Animas: COUNTRY
SRVC.                         : SERVICE COMPANY
DATE.          Thu Dec 22 09:29:32 2005: LOG DATE
UWI.                          : UNIQUE WELL ID
~Curve Information Block
DEPT.FT            0 000 00 00: Depth
CCL.                          : Casing Collar Locator
TT3.usec                      : CBL 3' Travel Time
AMP3.mV                       : CBL 3' Amplitude
AMP5.mV                       : CBL 5' Amplitude
GR.GAPI                       : Gamma Ray
~Parameter Information Block
~A  Depth       CCL         TT3         AMP3        AMP5         GR     
# ...
   756.0000      0.0000    754.1110      5.8621      1.2489     95.8224
   756.2500      0.0000    736.1836      6.2137      1.3312     96.8233
   756.5000      0.0000    717.1931      6.7760      1.3946     98.8364
   756.7500      0.0000    695.4833      7.3595      1.3786    100.5566
   757.0000      0.0000    666.0410      7.8044      1.2740    100.6779
   757.2500      0.0000    623.1594      8.1137      1.1403     99.3758
   757.5000      0.0000    566.1899      8.3796      1.0643     98.1795
   757.7500      0.0000    503.6391      8.6369      1.0980     98.7380
   758.0000      0.0000    449.1171      8.8342      1.2208    101.6260
   758.2500      0.0000    411.8477      8.9162      1.3601    105.6125
   758.5000      0.0000    391.8672      8.8863      1.4558    108.0595
   758.7500      0.0000    383.3630      8.7943      1.5033    106.8241
   759.0000      0.0000    380.3840      8.6897      1.5294    102.0420
   759.2500      0.0000    379.4379      8.6005      1.5453     95.8366
   759.5000      0.0000    379.1370      8.5415      1.5418     90.5440
   759.7500      0.0000    379.1839      8.5241      1.5197     87.4866
   760.0000      0.0000    379.9404      8.5530      1.4941     86.7651
   760.2500      0.0000    382.6819      8.6206      1.4687     87.3496
   760.5000      0.0000    390.3739      8.7083      1.4332     87.6518
   760.7500      0.0000    407.8965      8.7909      1.3887     87.0376
   761.0000      0.0000    439.9090      8.8407      1.3526     86.8544
   761.2500      0.0000    486.3610      8.8355      1.3350     89.0005
   761.5000      0.0000    540.0326      8.7653      1.3302     93.3232
   761.7500      0.0000    590.4074      8.6306      1.3380     97.4898
   762.0000      0.0000    630.6758      8.4349      1.3765     99.7409
   762.2500      0.0000    660.1381      8.1819      1.4601    100.6868
   762.5000      0.0000    680.7873      7.8837      1.5749    101.9374
   762.7500      0.0000    694.1301      7.5768      1.6848    103.9822
   763.0000      0.0000    701.5634      7.3195      1.7636    105.8257
   763.2500      0.0000    705.4206      7.1610      1.8172    105.8521
   763.5000      0.0000    708.0643      7.1050      1.8664    102.7481
   763.7500      0.0000    710.4783      7.1103      1.9140     96.5239
   764.0000      0.0000    712.4097      7.1316      1.9364     89.2170
   764.2500      0.0000    713.4943      7.1531      1.9087     84.1092
   764.5000      0.0000    713.8554      7.1756      1.8315     83.5147
   764.7500      0.0000    713.8734      7.1833      1.7294     86.8646
   765.0000      0.0000    713.8254      7.1495      1.6294     90.8633
   765.2500      0.0000    713.8082      7.0746      1.5507     92.0627
   765.5000      0.0000    713.8484      6.9969      1.5123     89.8288
   765.7500      0.0000    713.9599      6.9578      1.5329     86.6045
   766.0000      0.0000    714.1262      6.9638      1.6061     85.1997
   766.2500      0.0000    714.3137      6.9929      1.6863     86.4001
   766.5000      0.0000    714.5358      7.0331      1.7143     89.3354
   766.7500      0.0000    714.8484      7.1113      1.6590     93.3334
   767.0000      0.0000    715.2601      7.2743      1.5378     98.5954
   767.2500      0.0000    715.6863      7.5295      1.4020    105.1203
   767.5000      0.0000    716.0144      7.8092      1.3053    111.5663
   767.7500      0.0000    716.2266      8.0156      1.2761    115.8034
   768.0000      0.0000    716.4861      8.1069      1.3109    116.8715
   768.2500      0.0000    717.0549      8.1227      1.3848    116.0079
   768.5000      0.0000    717.8192      8.1223      1.4661    115.3510
   768.7500      0.0000    717.4299      8.1212      1.5338    116.0272
   769.0000      0.0000    713.0424      8.1023      1.5884    117.7587
   769.2500      0.0000    702.3199      8.0716      1.6450    119.6844
   769.5000      0.0000    687.1353      8.0762      1.7084    121.0088
   769.7500      0.0000    674.4869      8.1608      1.7638    121.1853
   770.0000      0.0000    671.3288      8.3191      1.7951    119.9325
   770.2500      0.0000    677.5392      8.4984      1.8029    117.1079
   770.5000      0.0000    684.5881      8.6467      1.7968    112.6738
   770.7500      0.0000    680.6875      8.7470      1.7731    107.1010
   771.0000      0.0000    656.9645      8.8137      1.7088    101.5785
   771.2500      0.0000    611.4808      8.8685      1.5896     97.2893
   771.5000      0.0000    551.2661      8.9261      1.4515     94.4719
   771.7500      0.0000    490.9491      8.9939      1.3784     92.4703
   772.0000      0.0000    446.7191      9.0730      1.4362     90.5068
   772.2500      0.0000    429.0193      9.1582      1.6086     88.1083
   772.5000      0.0000    438.8982      9.2388      1.8098     85.1240
   772.7500      0.0000    468.9555      9.3035      1.9571     81.8785
   773.0000      0.0000    507.3683      9.3436      2.0203     79.1201
   773.2500      0.0000    543.6462      9.3526      2.0121     77.2716
   773.5000      0.0000    573.0359      9.3293      1.9541     75.8568
   773.7500      0.0000    595.9091      9.2809      1.8602     74.1671
   774.0000      0.0000    613.1590      9.2208      1.7427     72.3192
   774.2500      0.0000    623.2004      9.1608      1.6236     71.1484
   774.5000      0.0000    623.9647      9.1050      1.5300     71.1563
   774.7500      0.0000    616.6978      9.0514      1.4743     71.8334
   775.0000      0.0000    606.2139      8.9996      1.4439     72.0042
   775.2500      0.0000    597.3633      8.9566      1.4200     71.0073
   775.5000      0.0000    592.2584      8.9333      1.4057     69.6295
   775.7500      0.0000    590.7835      8.9333      1.4294     69.4853
   776.0000      0.0000    592.7137      8.9480      1.5170     71.2539
   776.2500      0.0000    598.9180      8.9615      1.6578     73.8490
   776.5000      0.0000    610.7589      8.9590      1.8023     75.5177
   776.7500      0.0000    628.3232      8.9276      1.8979     75.4895
   777.0000      0.0000    649.1922      8.8577      1.9257     74.3134
   777.2500      0.0000    669.1087      8.7508      1.9058     72.7398
   777.5000      0.0000    683.6701      8.6271      1.8747     70.7374
   777.7500      0.0000    689.4102      8.5184      1.8601     67.8458
   778.0000      0.0000    684.7538      8.4504      1.8619     64.2028
   778.2500      0.0000    671.6219      8.4295      1.8542     60.7874
   778.5000      0.0000    655.4624      8.4419      1.8072     58.5851
   778.7500      0.0000    641.6342      8.4640      1.7097     57.7579
   779.0000      0.0000    631.4596      8.4783      1.5729     57.7811
   779.2500      0.0000    622.9904      8.4818      1.4262     58.1655
   779.5000      0.0000    615.0894      8.4834      1.3130     58.6931
   779.7500      0.0000    608.7615      8.4951      1.2746     58.9786
   780.0000      0.0000    604.5461      8.5242      1.3259     58.3466
   780.2500      0.0000    600.4221      8.5714      1.4497     56.4521
   780.5000      0.0000    593.3141      8.6314      1.6108     53.8160
   780.7500      0.0000    582.7294      8.6970      1.7657     51.5538
   781.0000      0.0000    573.0324      8.7625      1.8669     50.5332
   781.2500      0.0000    571.2135      8.8250      1.8864     50.6304
   781.5000      0.0000    580.6085      8.8824      1.8433     50.8941
   781.7500      0.0000    597.2316      8.9275      1.7957     50.7298
   782.0000      0.0000    614.2074      8.9436      1.7896     50.8164
   782.2500      0.0000    628.9216      8.9080      1.8175     52.4532
   782.5000      0.0000    643.2742      8.8107      1.8271     56.0762
   782.7500      0.0000    657.5284      8.6731      1.7698     60.8654
   783.0000      0.0000    667.1258      8.5442      1.6403     65.7903
   783.2500      0.0000    666.9802      8.4713      1.4776     70.6685
   783.5000      0.0000    657.7343      8.4665      1.3355     76.1463
   783.7500      0.0000    646.4865      8.4996      1.2504     82.7825
