~Version Information
VERS.                      2.0: CWLS Log ASCII Standard - VERSION 2.0
WRAP.                       NO: One line per depth step
~Well Information Block
STRT.FT               240.0000: 
STOP.FT              1159.2000: 
STEP.FT                 0.1000: 
NULL.                -999.2500: 
COMP.          Pioneer Natural Resources: COMPANY
WELL.               Ryan 41-17: WELL
FLD.           Purgatoire River: FIELD
LOC.           822' FNL & 532' FEL--: LOCATION
CNTY.               Las Animas: COUNTY
SRVC.                Patterson: SERVICE COMPANY
DATE.          Fri Mar 17 07:19:36 2006: LOG DATE
UWI.           05 071 08719 00: UNIQUE WELL ID
STAT.                 Colorado: STATE
~Curve Information Block
DEPT.FT            0 000 00 00: Depth
DCAL.in                       : CDL Caliper
RHOB.g/cc                     : CDL Bulk Density
RHOC.g/cc                     : CDL Density Correction
DPOR.pu                       : CDL Density Porosity
NPOR.pu                       : Neutron Porosity
GR.GAPI                       : Gamma Ray
~Parameter Information Block
~A  Depth       DCAL        RHOB        RHOC        DPOR        NPOR         GR     
# ...
   835.2000      7.8467      2.5184      0.0283      7.9736     24.1042     62.7624
   835.3000      7.8528      2.5313      0.0377      7.1926     24.3695     65.6795
   835.4000      7.8528      2.5413      0.0288      6.5868     24.4246     64.6893
   835.5000      7.8597      2.5397      0.0457      6.6863     23.6300     64.3096
   835.6000      7.8597      2.5431      0.0188      6.4790     22.3164     66.9081
   835.7000      7.8597      2.5691      0.0837      4.9034     21.2427     69.4676
   835.8000      7.8601      2.6005      0.1201      2.9979     20.7153     68.3104
   835.9000      7.8601      2.6122      0.1017      2.2892     20.6365     63.3869
   836.0000      7.8547      2.6051      0.0885      2.7195     20.7239     57.6843
   836.1000      7.8547      2.5888      0.1104      3.7081     20.8200     52.0433
   836.2000      7.8547      2.5653      0.0868      5.1319     20.9170     46.8317
   836.3000      7.8519      2.5425      0.0551      6.5165     20.9659     46.5062
   836.4000      7.8519      2.5335      0.0412      7.0579     20.9779     54.4090
   836.5000      7.8588      2.5400      0.0608      6.6695     21.1876     65.2002
   836.6000      7.8588      2.5530      0.0477      5.8816     21.6554     72.7989
   836.7000      7.8588      2.5666      0.0734      5.0544     21.8344     77.2081
   836.8000      7.8694      2.5733      0.0823      4.6514     21.6265     77.7588
   836.9000      7.8694      2.5691      0.0502      4.9022     21.6119     72.3683
   837.0000      7.8769      2.5632      0.0394      5.2621     21.8671     64.5328
   837.1000      7.8769      2.5589      0.0749      5.5203     22.0191     59.3763
   837.2000      7.8769      2.5516      0.0285      5.9609     22.1883     59.5128
   837.3000      7.8734      2.5499      0.0067      6.0644     22.7845     63.7529
   837.4000      7.8734      2.5581      0.0692      5.5715     23.5662     66.2969
   837.5000      7.8621      2.5615      0.0533      5.3634     23.8739     66.5113
   837.6000      7.8621      2.5580      0.0562      5.5772     23.5014     68.6734
   837.7000      7.8621      2.5598      0.0760      5.4666     22.8425     71.1618
   837.8000      7.8587      2.5671      0.0845      5.0252     22.5325     70.4367
   837.9000      7.8587      2.5710      0.0902      4.7866     22.6582     68.3359
   838.0000      7.8714      2.5684      0.0601      4.9440     22.9245     66.3740
   838.1000      7.8714      2.5627      0.0541      5.2923     23.0608     64.0309
   838.2000      7.8714      2.5554      0.0786      5.7342     22.8271     61.5981
   838.3000      7.8871      2.5445      0.0665      6.3931     22.3036     60.4407
   838.4000      7.8871      2.5318      0.0448      7.1618     21.9124     63.6670
   838.5000      7.8931      2.5192      0.0514      7.9267     22.0829     70.0209
   838.6000      7.8931      2.5074      0.0247      8.6435     22.7755     72.2436
   838.7000      7.8931      2.5017      0.0393      8.9884     23.3520     68.8472
   838.8000      7.8949      2.5052      0.0421      8.7766     23.3838     66.7146
   838.9000      7.8949      2.5166      0.0818      8.0860     23.1076     68.6103
   839.0000      7.8954      2.5256      0.1142      7.5415     22.8481     69.4569
   839.1000      7.8954      2.5208      0.0587      7.8326     22.6531     66.7682
   839.2000      7.8954      2.5068      0.0369      8.6814     22.5111     65.7035
   839.3000      7.8965      2.4914      0.0333      9.6146     22.7291     69.5541
   839.4000      7.8965      2.4760      0.0556     10.5453     23.3979     73.1001
   839.5000      7.8999      2.4731      0.0093     10.7196     23.9353     74.3797
   839.6000      7.8999      2.5019      0.0368      8.9788     24.1291     75.1210
   839.7000      7.8999      2.5531      0.0510      5.8734     24.0072     71.7075
   839.8000      7.9020      2.5922      0.1131      3.5002     23.4423     63.9489
   839.9000      7.9020      2.5980      0.0947      3.1532     22.6483     57.5684
   840.0000      7.9018      2.5806      0.0635      4.2057     21.6625     55.8766
   840.1000      7.9018      2.5622      0.0427      5.3190     20.5178     57.1429
   840.2000      7.9018      2.5502      0.0644      6.0457     19.5318     58.2379
   840.3000      7.9013      2.5422      0.0498      6.5314     18.9588     57.6994
   840.4000      7.9013      2.5450      0.0530      6.3644     19.0493     54.5211
   840.5000      7.9004      2.5626      0.0687      5.2985     19.6413     48.6583
   840.6000      7.9004      2.5808      0.0857      4.1946     19.9669     44.4560
   840.7000      7.9004      2.5882      0.0785      3.7442     19.7572     45.0758
   840.8000      7.9000      2.5901      0.0751      3.6277     19.4073     47.2490
   840.9000      7.9000      2.5896      0.0749      3.6621     19.2014     46.9470
   841.0000      7.8983      2.5739      0.1120      4.6124     19.4156     44.4877
   841.1000      7.8983      2.5400      0.0332      6.6682     20.2331     41.0572
   841.2000      7.8983      2.5115      0.0324      8.3932     21.1695     38.0484
   841.3000      7.8936      2.5079     -0.0031      8.6113     21.6338     39.0428
   841.4000      7.8936      2.5194      0.0671      7.9126     21.7623     43.0056
   841.5000      7.8935      2.5270      0.0326      7.4576     21.9387     46.4232
   841.6000      7.8935      2.5342      0.0411      7.0178     22.1570     49.5815
   841.7000      7.8935      2.5428      0.0850      6.4971     22.1337     50.4911
   841.8000      7.8986      2.5349      0.0727      6.9734     21.7915     46.7977
   841.9000      7.8986      2.5087      0.0245      8.5630     21.3035     43.7612
   842.0000      7.9009      2.4777      0.0446     10.4435     20.9512     43.8129
   842.1000      7.9009      2.4500      0.0210     12.1240     21.1495     42.7746
   842.2000      7.9009      2.4365     -0.0114     12.9364     21.9035     41.2763
   842.3000      7.8993      2.4375      0.0035     12.8767     22.7298     42.4482
   842.4000      7.8993      2.4187      0.0845     14.0192     23.6636     44.6520
   842.5000      7.8922      2.3484      0.0034     18.2759     25.1524     45.8123
   842.6000      7.8922      2.2363     -0.0090     25.0737     27.0643     47.1178
   842.7000      7.8922      2.1074     -0.1121     32.8859     28.9328     47.3631
   842.8000      7.8776      1.9779     -0.1180     40.7325     30.4913     44.8697
   842.9000      7.8776      1.8534     -0.1442     48.2813     31.4350     41.4487
   843.0000      7.8635      1.7418     -0.2006     55.0417     31.6729     38.7069
   843.1000      7.8635      1.6628     -0.2017     59.8320     31.6940     39.1980
   843.2000      7.8635      1.6292     -0.1262     61.8655     31.7208     46.7421
   843.3000      7.8589      1.6398     -0.0565     61.2266     31.4392     58.7610
   843.4000      7.8589      1.6944      0.0158     57.9170     30.8595     67.1356
   843.5000      7.8686      1.7895      0.1346     52.1516     30.3653     70.2954
   843.6000      7.8686      1.9070      0.2126     45.0288     30.0328     74.7329
   843.7000      7.8686      2.0271      0.2127     37.7541     29.8926     84.9774
   843.8000      7.8828      2.1356      0.2558     31.1745     29.9287     97.2651
   843.9000      7.8828      2.2263      0.2246     25.6779     29.7083    107.3157
   844.0000      7.8857      2.2999      0.2450     21.2163     28.9234    112.9740
   844.1000      7.8857      2.3543      0.2123     17.9193     28.0909    109.4078
   844.2000      7.8857      2.3901      0.1704     15.7539     27.8814    101.4267
   844.3000      7.8817      2.4139      0.1446     14.3092     27.9189     99.7624
   844.4000      7.8817      2.4334      0.0810     13.1257     27.6152    105.9816
   844.5000      7.8840      2.4506      0.1150     12.0851     27.2306    119.7525
   844.6000      7.8840      2.4612      0.0780     11.4440     26.9909    139.1303
   844.7000      7.8840      2.4683      0.0644     11.0094     26.7605    154.2465
