~Version Information
VERS.                      2.0: CWLS Log ASCII Standard - VERSION 2.0
WRAP.                       NO: One line per depth step
~Well Information Block
STRT.FT               -14.7500: 
STOP.FT              1106.0000: 
STEP.FT                 0.2500: 
NULL.                -999.2500: 
COMP.          Pioneer Natural Resources: COMPANY
WELL.          Black Cat 13-32 Tr: WELL
FLD.           Purgatorie River: FIELD
LOC.           1679' FSL & 1150' FWL--: LOCATION
CNTY.               Las Animas: COUNTY
SRVC.          Patterson Wireline: SERVICE COMPANY
DATE.          Wed Mar 15 15:59:24 2006: LOG DATE
UWI.           05 071 08721 00: UNIQUE WELL ID
STAT.                       CO: STATE
~Curve Information Block
DEPT.FT            0 000 00 00: Depth
CCL.                          : Casing Collar Locator
TT3.usec                      : CBL 3' Travel Time
AMP3.mV                       : CBL 3' Amplitude
GR.GAPI                       : Gamma Ray
~Parameter Information Block
~A  Depth       CCL         TT3         AMP3         GR     
# ...
   990.2500      0.0000    703.1572      3.7939     69.3989
   990.5000      0.0000    707.6128      3.7014     75.9400
   990.7500      0.0000    706.6913      3.7623     83.9427
   991.0000      0.0000    705.0443      3.9326     92.4521
   991.2500      0.0000    704.3613      4.1352    101.4422
   991.5000      0.0000    703.7775      4.3087    111.3204
   991.7500      0.0000    701.4996      4.4238    121.7122
   992.0000      0.0000    696.4111      4.4773    131.0616
   992.2500      0.0000    688.2466      4.4780    137.4022
   992.5000      0.0000    676.2914      4.4368    139.4309
   992.7500      0.0000    658.5323      4.3663    137.2308
   993.0000      0.0000    632.4307      4.2840    132.3050
   993.2500      0.0000    597.1871      4.2107    126.7595
   993.5000      0.0000    557.2803      4.1625    122.2182
   993.7500      0.0000    524.9168      4.1465    119.4904
   994.0000      0.0000    515.4903      4.1668    118.9424
   994.2500      0.0000    535.2132      4.2306    120.4697
   994.5000      0.0000    571.9620      4.3412    122.8742
   994.7500      0.0000    600.8112      4.4816    124.0888
   995.0000      0.0000    600.9722      4.6114    122.7833
   995.2500      0.0000    570.0060      4.6836    119.5460
   995.5000      0.0000    524.9821      4.6723    116.0623
   995.7500      0.0000    490.5645      4.5875    113.3785
   996.0000      0.0000    482.1927      4.4674    111.3505
   996.2500      0.0000    495.6307      4.3522    109.5682
   996.5000      0.0000    510.9376      4.2605    108.1005
   996.7500      0.0000    508.8453      4.1865    107.0143
   997.0000      0.0000    485.8983      4.1178    105.7417
   997.2500      0.0000    454.2178      4.0512    103.6823
   997.5000      0.0000    428.3366      3.9941    101.2972
   997.7500      0.0000    414.5582      3.9532     99.8172
   998.0000      0.0000    410.9823      3.9266     99.6225
   998.2500      0.0000    413.0796      3.9083     99.4019
   998.5000      0.0000    417.9234      3.8976     97.2569
   998.7500      0.0000    425.5414      3.8991     92.5596
   999.0000      0.0000    437.6425      3.9133     86.6006
   999.2500      0.0000    454.2741      3.9339     81.4442
   999.5000      0.0000    471.5816      3.9525     78.2320
   999.7500      0.0000    484.6658      3.9610     76.6463
  1000.0000      0.0000    493.7584      3.9484     75.8386
  1000.2500      0.0000    505.3264      3.9019     75.5544
  1000.5000      0.0000    524.8788      3.8168     76.1819
  1000.7500      0.0000    550.4443      3.7083     77.9515
  1001.0000      0.0000    575.6149      3.6093     80.5140
  1001.2500      0.0000    597.3276      3.5557     83.4249
  1001.5000      0.0000    617.7471      3.5676     86.7432
  1001.7500      0.0000    639.2264      3.6437     90.9371
  1002.0000      0.0000    659.5284      3.7663     96.3964
  1002.2500      0.0000    672.6857      3.9086    103.1556
  1002.5000      0.0000    674.8185      4.0394    110.6974
  1002.7500      0.0000    669.2399      4.1305    117.8519
  1003.0000      0.0000    664.5781      4.1631    123.5070
  1003.2500      0.0000    667.1238      4.1333    127.8504
  1003.5000      0.0000    675.8654      4.0539    132.4520
  1003.7500      0.0000    684.6834      3.9492    138.8296
  1004.0000      0.0000    686.5236      3.8444    146.8862
  1004.2500      0.0000    674.7096      3.7570    154.4219
  1004.5000      0.0000    644.3813      3.6980    158.3480
  1004.7500      0.0000    596.8108      3.6759    157.2151
  1005.0000      0.0000    541.9345      3.6942    152.5196
  1005.2500      0.0000    493.7704      3.7458    147.0170
  1005.5000      0.0000    462.4524      3.8140    142.2114
  1005.7500      0.0000    451.7169      3.8826    138.0454
  1006.0000      0.0000    462.9294      3.9432    134.3138
  1006.2500      0.0000    497.6793      3.9952    131.4967
  1006.5000      0.0000    553.6030      4.0396    130.3754
  1006.7500      0.0000    619.3015      4.0770    131.3018
  1007.0000      0.0000    677.5342      4.1089    133.9175
  1007.2500      0.0000    715.2722      4.1389    137.5884
  1007.5000      0.0000    730.0808      4.1737    141.9540
  1007.7500      0.0000    728.0261      4.2219    146.8252
  1008.0000      0.0000    717.9000      4.2876    151.6156
  1008.2500      0.0000    707.0344      4.3605    155.2386
  1008.5000      0.0000    699.5630      4.4129    156.6105
  1008.7500      0.0000    696.4396      4.4141    155.2478
  1009.0000      0.0000    696.6551      4.3558    151.5689
  1009.2500      0.0000    698.5683      4.2597    146.6395
  1009.5000      0.0000    700.2419      4.1600    141.4384
  1009.7500      0.0000    698.8052      4.0806    136.4164
  1010.0000      0.0000    690.8550      4.0266    131.6307
  1010.2500      0.0000    675.8334      3.9930    126.9797
  1010.5000      0.0000    659.4412      3.9752    122.5060
  1010.7500      0.0000    650.6973      3.9734    118.9571
  1011.0000      0.0000    652.7117      3.9862    117.7213
  1011.2500      0.0000    658.2892      4.0014    119.6187
  1011.5000      0.0000    658.1241      3.9978    124.0400
  1011.7500      0.0000    652.4338      3.9561    129.7244
  1012.0000      0.0000    650.9166      3.8687    135.9749
  1012.2500      0.0000    661.0450      3.7455    142.6206
  1012.5000      0.0000    679.8126      3.6116    148.9409
  1012.7500      0.0000    698.0267      3.4953    153.1094
  1013.0000      0.0000    709.4109      3.4115    153.0455
  1013.2500      0.0000    713.8137      3.3573    148.1301
  1013.5000      0.0000    714.4189      3.3232    140.1758
  1013.7500      0.0000    714.3417      3.3068    132.5172
  1014.0000      0.0000    715.1837      3.3155    127.9467
  1014.2500      0.0000    717.1034      3.3556    127.3937
  1014.5000      0.0000    719.5352      3.4178    130.0717
  1014.7500      0.0000    721.7882      3.4779    134.3063
  1015.0000      0.0000    723.1886      3.5131    138.4335
  1015.2500      0.0000    723.4454      3.5163    141.5683
  1015.5000      0.0000    723.0794      3.4957    143.7791
  1015.7500      0.0000    722.9272      3.4662    145.4558
  1016.0000      0.0000    723.1036      3.4448    146.5515
  1016.2500      0.0000    723.2356      3.4472    146.4180
  1016.5000      0.0000    723.7941      3.4825    144.4153
  1016.7500      0.0000    726.0583      3.5512    140.7508
  1017.0000      0.0000    730.2765      3.6454    136.6565
  1017.2500      0.0000    734.7930      3.7524    133.6126
  1017.5000      0.0000    737.7397      3.8580    132.4747
  1017.7500      0.0000    738.9511      3.9499    133.3340
  1018.0000      0.0000    739.3440      4.0198    135.7608
  1018.2500      0.0000    738.9086      4.0654    138.8451
  1018.5000      0.0000    736.5233      4.0935    141.1496
  1018.7500      0.0000    731.5365      4.1159    141.0874
  1019.0000      0.0000    724.1073      4.1363    137.9227
  1019.2500      0.0000    713.3105      4.1424    132.6548
  1019.5000      0.0000    696.2445      4.1168    127.6911
  1019.7500      0.0000    671.2033      4.0558    125.3615
  1020.0000      0.0000    642.7882      3.9735    126.7081
  1020.2500      0.0000    622.3446      3.8879    131.3066
  1020.5000      0.0000    620.7869      3.8093    137.3784
  1020.7500      0.0000    640.0460      3.7420    141.9107
  1021.0000      0.0000    671.5173      3.6906    141.8622
  1021.2500      0.0000    702.2381      3.6612    136.3235
  1021.5000      0.0000    722.5361      3.6594    127.2916
  1021.7500      0.0000    729.1503      3.6830    117.8634
  1022.0000      0.0000    722.9127      3.7207    109.9397
  1022.2500      0.0000    705.0333      3.7586    103.8581
  1022.5000      0.0000    676.2622      3.7890     99.5402
  1022.7500      0.0000    639.1570      3.8103     97.1509
  1023.0000      0.0000    599.9266      3.8219     96.6928
  1023.2500      0.0000    566.3619      3.8251     97.5280
  1023.5000      0.0000    543.2441      3.8256     98.6116
