~Version Information
VERS.                      2.0: CWLS Log ASCII Standard - VERSION 2.0
WRAP.                       NO: One line per depth step
~Well Information Block
STRT.FT               240.0000: 
STOP.FT              1677.0000: 
STEP.FT                 0.1000: 
NULL.                -999.2500: 
COMP.          Pioneer Natural Resources: COMPANY
WELL.          Lorencito 8-1-34-67: WELL
FLD.           Purgatoire River: FIELD
LOC.           1567' FNL & 500' FEL: LOCATION
STAT.                 Colorado: State
CTRY. USA : Country 
CNTY.               Las Animas: COUNTY
SECT. 1 : Section 
TOWN. 34S : Township
RANG. 67W : Range
SRVC.                Patterson: SERVICE COMPANY
DATE.          Fri Aug 26 09:30:14 2005: LOG DATE
API.           05 071 08506 00: UNIQUE WELL ID
~Curve Information Block
DEPT.FT            0 000 00 00: Depth
DCAL.in                       : CDL Caliper
RHOB.g/cc                     : CDL Bulk Density
RHOC.g/cc                     : CDL Density Correction
DPOR.pu                       : CDL Density Porosity
GR.GAPI                       : Gamma Ray
NPOR.pu                       : Neutron Porosity
~Parameter Information Block
~A  Depth       DCAL        RHOB        RHOC        DPOR         GR         NPOR    
   240.0000      8.2806      2.4113     -0.3967     14.4654    106.8057     22.0658
   240.1000      8.2806      2.4407     -0.3864     12.6855     96.1711     21.1247
   240.2000      8.2806      2.4155     -0.4916     14.2092     86.1206     20.9200
   240.3000      8.2811      2.3687     -0.4408     17.0490     80.2193     21.4203
   240.4000      8.2811      2.3128     -0.4495     20.4380     79.1251     21.8474
   240.5000      8.2821      2.2379     -0.5018     24.9772     87.4233     21.5896
   240.6000      8.2821      2.1637     -0.5476     29.4715    102.9290     21.1249
   240.7000      8.2821      2.1252     -0.4916     31.8034    112.2133     20.5487
   240.8000      8.2825      2.1229     -0.4842     31.9446    112.7923     19.7361
   240.9000      8.2825      2.1326     -0.4823     31.3595    114.3162     19.5173
   241.0000      8.2840      2.1430     -0.4738     30.7246    121.1273     20.1211
   241.1000      8.2840      2.1468     -0.4187     30.4971    132.7553     21.1227
   241.2000      8.2840      2.1358     -0.5285     31.1621    143.8865     22.2798
   241.3000      8.2843      2.1192     -0.5203     32.1670    146.9374     22.7781
   241.4000      8.2843      2.1020     -0.4595     33.2125    147.9724     22.7337
   241.5000      8.2822      2.0849     -0.4680     34.2486    152.3977     23.5028
   241.6000      8.2822      2.0757     -0.5676     34.8074    153.5864     24.7280
   241.7000      8.2822      2.0657     -0.4855     35.4133    149.4643     25.0627
   241.8000      8.2834      2.0377     -0.5353     37.1072    146.5307     24.5243
   241.9000      8.2834      2.0069     -0.5932     38.9771    147.2335     23.4618
   242.0000      8.2859      2.0043     -0.5857     39.1356    147.5742     22.1961
   242.1000      8.2859      2.0355     -0.5341     37.2421    142.9732     21.9074
   242.2000      8.2859      2.0857     -0.5544     34.1975    135.8219     22.9173
   242.3000      8.2942      2.1288     -0.4231     31.5892    132.3196     24.0016
   242.4000      8.2942      2.1410     -0.4757     30.8456    132.7269     24.1674
   242.5000      8.2851      2.1278     -0.4216     31.6473    132.1355     23.5934
   242.6000      8.2851      2.1034     -0.4903     33.1265    128.5546     23.1819
   242.7000      8.2851      2.0752     -0.5355     34.8350    127.9956     22.9724
   242.8000      8.2809      2.0551     -0.5775     36.0562    129.9356     22.5898
   242.9000      8.2809      2.0553     -0.5400     36.0399    127.1807     22.3330
   243.0000      8.2811      2.0716     -0.5199     35.0521    121.5461     22.3415
   243.1000      8.2811      2.0927     -0.5103     33.7761    118.1451     22.6030
   243.2000      8.2811      2.1108     -0.5365     32.6803    117.7583     23.0377
   243.3000      8.2835      2.1198     -0.4866     32.1352    119.8600     23.2421
   243.4000      8.2835      2.1272     -0.4530     31.6831    122.7838     22.9132
   243.5000      8.2955      2.1413     -0.4735     30.8297    123.4069     22.2775
   243.6000      8.2955      2.1454     -0.4272     30.5828    122.4250     21.7060
   243.7000      8.2955      2.1325     -0.5253     31.3617    123.0581     20.9580
   243.8000      8.2835      2.1269     -0.4631     31.7041    125.0483     20.1822
   243.9000      8.2835      2.1349     -0.4600     31.2192    127.3012     20.0334
   244.0000      8.2819      2.1404     -0.4462     30.8839    131.2845     20.4600
   244.1000      8.2819      2.1465     -0.5044     30.5142    136.6185     20.9424
   244.2000      8.2819      2.1679     -0.4957     29.2191    138.5167     21.3368
   244.3000      8.2837      2.1879     -0.4288     28.0061    135.5051     21.6421
   244.4000      8.2837      2.1752     -0.4802     28.7758    136.0494     21.5847
   244.5000      8.2862      2.1324     -0.4823     31.3684    143.5493     21.3598
   244.6000      8.2862      2.0905     -0.5859     33.9091    145.4794     21.7119
   244.7000      8.2862      2.0692     -0.5075     35.2014    133.8763     22.4999
   244.8000      8.2832      2.0630     -0.4544     35.5776    120.0205     22.8440
   244.9000      8.2832      2.0673     -0.5126     35.3155    115.9244     22.5897
   245.0000      8.2856      2.0784     -0.4859     34.6427    121.1260     21.8570
   245.1000      8.2856      2.0797     -0.4933     34.5650    129.3213     21.2110
   245.2000      8.2856      2.0721     -0.5120     35.0261    133.2415     21.6878
   245.3000      8.2826      2.0678     -0.4742     35.2830    133.2871     22.8236
   245.4000      8.2826      2.0646     -0.4929     35.4801    135.8829     23.3589
   245.5000      8.2845      2.0624     -0.5029     35.6130    139.2822     23.4326
   245.6000      8.2845      2.0638     -0.5067     35.5274    139.9251     23.7062
   245.7000      8.2845      2.0636     -0.5171     35.5380    141.6681     23.9538
   245.8000      8.2826      2.0543     -0.4575     36.1038    146.6668     23.6392
   245.9000      8.2826      2.0420     -0.5567     36.8485    151.4152     23.1603
   246.0000      8.2852      2.0308     -0.4521     37.5279    150.4878     23.3225
   246.1000      8.2852      2.0038     -0.5492     39.1614    143.9648     23.6156
   246.2000      8.2852      1.9744     -0.6041     40.9453    140.3915     23.4422
   246.3000      8.2805      1.9761     -0.5561     40.8442    143.4859     23.4414
   246.4000      8.2805      2.0039     -0.5373     39.1568    149.8560     23.7435
   246.5000      8.2835      2.0256     -0.4597     37.8452    156.1895     23.9125
   246.6000      8.2835      2.0178     -0.4668     38.3136    160.1895     23.8428
   246.7000      8.2835      1.9916     -0.5462     39.9016    160.0332     23.5511
   246.8000      8.2837      1.9790     -0.5683     40.6653    156.1003     23.2551
   246.9000      8.2837      1.9816     -0.5185     40.5073    155.7928     23.1846
   247.0000      8.2840      1.9709     -0.4855     41.1578    161.6073     23.0814
   247.1000      8.2840      1.9379     -0.5333     43.1593    165.4533     22.7462
   247.2000      8.2840      1.8998     -0.5280     45.4653    152.1781     22.4560
   247.3000      8.2804      1.8688     -0.5405     47.3452    145.1429     22.2843
   247.4000      8.2804      1.8440     -0.5598     48.8470    134.4628     22.4920
   247.5000      8.2842      1.8210     -0.5895     50.2445    125.8517     23.3499
   247.6000      8.2842      1.7965     -0.5798     51.7262    123.1270     24.2687
   247.7000      8.2842      1.7724     -0.6356     53.1861    119.3560     24.6078
   247.8000      8.2854      1.7637     -0.7252     53.7169    111.8361     24.4282
   247.9000      8.2854      1.7753     -0.5948     53.0150    107.8630     24.2682
   248.0000      8.2866      1.7831     -0.6121     52.5400    107.3908     24.6530
   248.1000      8.2866      1.7775     -0.5995     52.8761    102.4384     25.2832
   248.2000      8.2866      1.7744     -0.5578     53.0644     87.7952     25.8284
   248.3000      8.2846      1.7985     -0.7217     51.6065     85.0722     26.7481
   248.4000      8.2846      1.8474     -0.5132     48.6420     85.0462     27.3694
   248.5000      8.2850      1.8703     -0.5454     47.2533     84.3433     26.1775
   248.6000      8.2850      1.8496     -0.6626     48.5063     84.0977     23.9770
   248.7000      8.2850      1.8174     -0.5986     50.4610     83.6342     22.9245
   248.8000      8.2803      1.7921     -0.7018     51.9923     84.9570     23.3194
   248.9000      8.2803      1.7673     -0.6552     53.4971     89.6960     24.1322
   249.0000      8.2825      1.7183     -0.6279     56.4681     91.9936     24.8842
   249.1000      8.2825      1.6408     -0.7485     61.1617     88.5843     24.9858
   249.2000      8.2825      1.5666     -0.7742     65.6604     76.3286     24.0548
   249.3000      8.2832      1.5141     -0.7568     68.8442     72.9448     22.8001
   249.4000      8.2832      1.4838     -0.7934     70.6808     73.3084     22.0959
   249.5000      8.2853      1.4815     -0.7704     70.8155     74.6150     22.2525
