~Version Information
VERS.                      2.0: CWLS Log ASCII Standard - VERSION 2.0
WRAP.                       NO: One line per depth step
~Well Information Block
STRT.FT                -6.7500: 
STOP.FT              1544.5000: 
STEP.FT                 0.2500: 
NULL.                -999.2500: 
COMP.          Pioneer Natural Resources: COMPANY
WELL.          Lorencito 10-36-33-67: WELL
FLD.           Purgatorie River: FIELD
LOC.           2130' FSL & 2362' FEL--: LOCATION
STAT.                       CO: State
CNTY.               Las Animas: COUNTY
CTRY. USA : Country
SECT. 36 : Section
TOWN. 33S : Township
RANG. 67W : Range
SRVC.          Patterson Wireline: SERVICE COMPANY
DATE.          Fri Sep 02 09:21:42 2005: LOG DATE
API.           05 071 08501 00: UNIQUE WELL ID
~Curve Information Block
DEPT.FT            0 000 00 00: Depth
CCL.                          : Casing Collar Locator
TT3.usec                      : CBL 3' Travel Time
AMP3.mV                       : CBL 3' Amplitude
GR.GAPI                       : Gamma Ray
~Parameter Information Block
~A  Depth       CCL         TT3         AMP3         GR     
# ...
   696.7500      0.0000    776.1203     10.8870    155.7627
   697.0000      0.0000    789.2040     10.9128    158.4923
   697.2500      0.0000    802.5700     10.9041    159.2571
   697.5000      0.0000    813.8483     10.8649    157.3318
   697.7500      0.0000    822.7324     10.8061    153.4532
   698.0000      0.0000    829.6097     10.7375    149.2780
   698.2500      0.0000    834.4086     10.6661    146.5096
   698.5000      0.0000    836.9902     10.6006    145.8716
   698.7500      0.0000    837.5536     10.5489    146.4083
   699.0000      0.0000    836.4160     10.5117    146.3819
   699.2500      0.0000    833.9196     10.4847    145.3070
   699.5000      0.0000    830.6358     10.4663    144.4411
   699.7500      0.0000    827.1693     10.4551    144.9045
   700.0000      0.0000    823.6336     10.4412    146.0782
   700.2500      0.0000    819.8125     10.4078    146.3531
   700.5000      0.0000    816.0594     10.3485    144.7653
   700.7500      0.0000    813.5521     10.2785    141.4684
   701.0000      0.0000    813.4143     10.2280    137.0955
   701.2500      0.0000    815.6996     10.2244    131.9008
   701.5000      0.0000    819.3622     10.2760    125.3143
   701.7500      0.0000    823.6027     10.3654    116.6775
   702.0000      0.0000    829.8405     10.4551    106.7243
   702.2500      0.0000    841.1445     10.5071     97.8436
   702.5000      0.0000    857.3801     10.5014     92.4969
   702.7500      0.0000    871.0190     10.4408     91.6024
   703.0000      0.0000    871.1344     10.3412     94.4170
   703.2500      0.0000    853.6351     10.2227     99.5123
   703.5000      0.0000    825.7752     10.1088    105.6257
   703.7500      0.0000    799.3536     10.0255    111.6696
   704.0000      0.0000    781.4529      9.9888    116.3529
   704.2500      0.0000    772.3091      9.9926    118.5658
   704.5000      0.0000    769.1524     10.0118    118.3973
   704.7500      0.0000    769.9680     10.0207    117.2101
   705.0000      0.0000    774.5499     10.0103    116.4636
   705.2500      0.0000    783.4538      9.9893    116.9028
   705.5000      0.0000    796.2211      9.9721    118.8052
   705.7500      0.0000    810.4176      9.9704    122.1399
   706.0000      0.0000    822.6556      9.9915    126.1160
   706.2500      0.0000    830.5766     10.0376    129.2376
   706.5000      0.0000    833.7380     10.1034    130.3998
   706.7500      0.0000    832.9735     10.1755    129.9729
   707.0000      0.0000    829.7416     10.2400    129.5278
   707.2500      0.0000    826.1569     10.2910    130.3138
   707.5000      0.0000    824.5124     10.3327    132.1388
   707.7500      0.0000    825.7048     10.3730    134.0306
   708.0000      0.0000    828.1749     10.4150    135.7563
   708.2500      0.0000    828.8328     10.4579    137.9636
   708.5000      0.0000    825.0280     10.5033    140.8058
   708.7500      0.0000    815.9825     10.5573    143.2172
   709.0000      0.0000    803.3924     10.6236    143.7745
   709.2500      0.0000    791.3099     10.6927    141.8292
   709.5000      0.0000    784.7460     10.7412    138.1440
   709.7500      0.0000    786.8786     10.7467    134.7928
   710.0000      0.0000    796.6039     10.7040    133.8203
   710.2500      0.0000    809.0341     10.6274    135.5888
   710.5000      0.0000    819.0896     10.5367    138.7453
   710.7500      0.0000    824.9255     10.4449    141.7097
   711.0000      0.0000    828.0236     10.3618    143.7229
   711.2500      0.0000    830.5510     10.3040    144.7759
   711.5000      0.0000    833.1824     10.2949    145.2201
   711.7500      0.0000    835.1265     10.3448    145.3516
   712.0000      0.0000    835.2031     10.4305    145.0750
   712.2500      0.0000    832.5466     10.5029    144.2359
   712.5000      0.0000    827.1393     10.5225    143.2515
   712.7500      0.0000    820.4933     10.4880    142.8498
   713.0000      0.0000    815.3197     10.4260    143.1779
   713.2500      0.0000    813.4257     10.3606    143.6479
   713.5000      0.0000    813.9864     10.3016    143.8770
   713.7500      0.0000    814.6385     10.2552    144.5452
   714.0000      0.0000    813.8976     10.2310    146.9423
   714.2500      0.0000    811.4537     10.2366    151.6548
   714.5000      0.0000    806.5638     10.2679    158.0005
   714.7500      0.0000    797.9667     10.3028    164.4485
   715.0000      0.0000    786.2292     10.3098    168.9357
   715.2500      0.0000    775.1051     10.2694    169.2650
   715.5000      0.0000    769.2336     10.1892    164.7008
   715.7500      0.0000    770.6896     10.0945    157.6439
   716.0000      0.0000    778.5648     10.0060    152.7101
   716.2500      0.0000    790.8715      9.9262    153.2202
   716.5000      0.0000    805.0634      9.8452    158.5666
   716.7500      0.0000    817.3678      9.7576    165.0648
   717.0000      0.0000    823.6691      9.6737    169.0866
   717.2500      0.0000    821.7944      9.6108    169.4358
   717.5000      0.0000    813.0853      9.5748    167.3097
   717.7500      0.0000    801.9634      9.5538    164.4239
   718.0000      0.0000    792.9636      9.5347    161.5098
   718.2500      0.0000    786.7688      9.5200    158.8472
   718.5000      0.0000    779.7126      9.5227    157.3489
   718.7500      0.0000    768.4719      9.5494    157.8264
   719.0000      0.0000    754.8754      9.5919    159.5875
   719.2500      0.0000    745.1624      9.6334    161.0546
   719.5000      0.0000    744.9231      9.6583    161.5654
   719.7500      0.0000    754.9971      9.6612    161.4751
   720.0000      0.0000    771.2077      9.6491    160.9657
   720.2500      0.0000    787.2405      9.6359    159.9658
   720.5000      0.0000    798.3995      9.6327    159.0098
   720.7500      0.0000    803.6738      9.6415    158.9256
   721.0000      0.0000    804.7278      9.6554    159.4759
   721.2500      0.0000    803.3940      9.6658    159.1600
   721.5000      0.0000    800.8012      9.6695    156.8008
   721.7500      0.0000    798.4907      9.6725    152.9867
   722.0000      0.0000    798.4874      9.6867    149.8894
   722.2500      0.0000    801.3175      9.7186    149.7355
   722.5000      0.0000    805.2444      9.7610    152.8915
   722.7500      0.0000    808.3956      9.7965    156.8350
   723.0000      0.0000    810.8007      9.8152    157.3742
   723.2500      0.0000    813.9017      9.8232    151.7246
   723.5000      0.0000    818.7627      9.8341    140.5031
   723.7500      0.0000    824.9584      9.8570    126.5492
   724.0000      0.0000    830.9020      9.8963    112.4463
   724.2500      0.0000    835.0748      9.9562     99.6862
   724.5000      0.0000    836.8065     10.0381     89.3430
   724.7500      0.0000    835.8561     10.1362     82.1481
   725.0000      0.0000    831.6631     10.2404     77.6842
   725.2500      0.0000    823.6980     10.3430     74.3832
   725.5000      0.0000    813.0444     10.4427     71.0556
   725.7500      0.0000    803.3846     10.5417     68.3675
   726.0000      0.0000    799.3813     10.6390     68.4715
   726.2500      0.0000    803.1958     10.7255     73.0085
   726.5000      0.0000    812.6019     10.7777     81.5382
   726.7500      0.0000    822.7922     10.7498     92.0901
   727.0000      0.0000    829.7473     10.5712    103.2933
   727.2500      0.0000    831.9323     10.1847    115.5826
   727.5000      0.0000    829.8870      9.6277    129.8206
   727.7500      0.0000    825.8960      9.0586    144.8320
   728.0000      0.0000    824.7390      8.6388    156.9444
   728.2500      0.0000    833.4568      8.3837    162.1514
   728.5000      0.0000    857.8592      8.1931    158.5050
   728.7500      0.0000    897.7751      8.0121    147.0600
   729.0000      0.0000    945.7716      7.8841    131.4285
   729.2500      0.0000    990.1714      7.8586    116.1893
   729.5000     -2.0000   1019.4040      7.9241    104.7949
   729.7500      0.0000   1026.4099      8.0378     98.3036
   730.0000      0.0000   1011.5634      8.1879     95.6332
