~Version Information
VERS.                      2.0: CWLS Log ASCII Standard - VERSION 2.0
WRAP.                       NO: One line per depth step
~Well Information Block
STRT.FT               580.0000: 
STOP.FT              1179.0000: 
STEP.FT                 0.1000: 
NULL.                -999.2500: 
COMP.          Pioneer Natural Resources: COMPANY
WELL.          Tin Barn 14-20 TR: WELL
FLD.           Purgatorie River: FIELD
LOC.           925 FSL & 1151 FWL: LOCATION
PROV.                 Colorado: PROVINCE
CNTY.               Las Animas: COUNTRY
SRVC.                Patterson: SERVICE COMPANY
DATE.          Thu Jan 12 12:02:37 2006: LOG DATE
UWI.                          : UNIQUE WELL ID
~Curve Information Block
DEPT.FT            0 000 00 00: Depth
DCAL.in                       : CDL Caliper
RHOB.g/cc                     : CDL Bulk Density
RHOC.g/cc                     : CDL Density Correction
DPOR.pu                       : CDL Density Porosity
GR.GAPI                       : Gamma Ray
~Parameter Information Block
~A  Depth       DCAL        RHOB        RHOC        DPOR         GR     
# ...
   613.6000      8.0836      2.3623      0.0220     17.4353    123.9622
   613.7000      8.0836      2.3911      0.0589     15.6935    125.8416
   613.8000      8.0234      2.4345      0.0480     13.0606    124.1727
   613.9000      8.0234      2.4818      0.0556     10.1942    120.1280
   614.0000      7.9967      2.5288      0.0792      7.3466    117.3761
   614.1000      7.9967      2.5737      0.1581      4.6262    117.8910
   614.2000      7.9967      2.6086      0.2210      2.5085    120.4122
   614.3000      7.9683      2.6260      0.1908      1.4566    122.8857
   614.4000      7.9683      2.6294      0.2023      1.2509    124.9444
   614.5000      7.9780      2.6245      0.2278      1.5433    126.1424
   614.6000      7.9780      2.6069      0.1157      2.6093    124.5480
   614.7000      7.9780      2.5635      0.1287      5.2404    120.6727
   614.8000      7.9873      2.4903      0.1166      9.6814    119.3063
   614.9000      7.9873      2.4195      0.0640     13.9685    122.0165
   615.0000      7.9853      2.3883      0.0774     15.8634    124.2504
   615.1000      7.9853      2.3835      0.1020     16.1497    125.0917
   615.2000      7.9853      2.3778      0.0083     16.4971    128.3444
   615.3000      7.9999      2.3758      0.0396     16.6180    133.4779
   615.4000      7.9999      2.3856      0.0395     16.0270    136.0647
   615.5000      7.9998      2.3966      0.1094     15.3581    133.8939
   615.6000      7.9998      2.4016      0.1152     15.0554    128.8354
   615.7000      7.9998      2.3985      0.2023     15.2431    125.8875
   615.8000      8.0003      2.3742      0.2069     16.7168    126.8356
   615.9000      8.0003      2.3302      0.0886     19.3809    127.6327
   616.0000      8.0114      2.3005      0.0081     21.1831    125.3555
   616.1000      8.0114      2.3103      0.0171     20.5861    122.5394
   616.2000      8.0114      2.3409      0.1296     18.7354    122.4773
   616.3000      7.9968      2.3540      0.1302     17.9379    124.4210
   616.4000      7.9968      2.3365      0.0894     19.0023    124.4146
   616.5000      7.9988      2.2944      0.1112     21.5505    119.8832
   616.6000      7.9988      2.2260      0.1232     25.6940    111.9390
   616.7000      7.9988      2.1240      0.0827     31.8809    105.2655
   616.8000      8.0247      1.9920      0.0157     39.8779    102.6266
   616.9000      8.0247      1.8478     -0.0454     48.6182    100.6784
   617.0000      8.0444      1.7137     -0.1235     56.7430     97.3552
   617.1000      8.0444      1.6062     -0.0932     63.2606     94.0916
   617.2000      8.0444      1.5300     -0.1020     67.8792     91.4703
   617.3000      8.0691      1.4947     -0.0818     70.0192     89.5109
   617.4000      8.0691      1.5188     -0.0479     68.5602     86.5181
   617.5000      8.1396      1.6023      0.0921     63.4983     80.9008
   617.6000      8.1396      1.7116      0.1696     56.8729     75.8995
   617.7000      8.1396      1.8025      0.2403     51.3611     75.4645
   617.8000      8.1888      1.8504      0.2478     48.4633     77.6557
   617.9000      8.1888      1.8585      0.1958     47.9705     78.5464
   618.0000      8.0826      1.8442      0.1523     48.8363     77.9008
   618.1000      8.0826      1.8166      0.1305     50.5090     76.7423
   618.2000      8.0826      1.7692      0.0725     53.3818     75.3633
   618.3000      8.0446      1.6969     -0.0814     57.7642     74.5257
   618.4000      8.0446      1.6099     -0.1272     63.0379     73.5654
   618.5000      8.0407      1.5246     -0.1167     68.2068     69.7290
   618.6000      8.0407      1.4557     -0.0809     72.3837     63.3312
   618.7000      8.0407      1.4074      0.0514     75.3097     58.1829
   618.8000      8.0540      1.3652      0.1199     77.8664     54.6840
   618.9000      8.0540      1.3180      0.0899     80.7269     49.8120
   619.0000      8.0949      1.2774      0.0487     83.1861     43.4344
   619.1000      8.0949      1.2587      0.0315     84.3227     38.1318
   619.2000      8.0949      1.2596      0.0322     84.2690     35.0838
   619.3000      8.1523      1.2711      0.0143     83.5686     33.5490
   619.4000      8.1523      1.2905      0.0454     82.3960     32.9909
   619.5000      8.1423      1.3140      0.0895     80.9688     34.0233
   619.6000      8.1423      1.3336      0.1267     79.7813     36.3917
   619.7000      8.1423      1.3415      0.1340     79.3027     38.4692
   619.8000      8.1682      1.3322      0.1485     79.8663     39.6062
   619.9000      8.1682      1.3087      0.0925     81.2899     40.7925
   620.0000      8.2121      1.2879      0.0556     82.5495     42.7042
   620.1000      8.2121      1.2827      0.0445     82.8637     44.3465
   620.2000      8.2121      1.2891      0.0540     82.4762     44.1151
   620.3000      8.1934      1.2992      0.0592     81.8639     43.4344
   620.4000      8.1934      1.3142      0.0362     80.9583     46.6078
   620.5000      8.1411      1.3383      0.0842     79.4988     53.3532
   620.6000      8.1411      1.3758      0.1108     77.2262     58.9887
   620.7000      8.1411      1.4413      0.1023     73.2546     61.7654
   620.8000      8.0981      1.5425      0.2120     67.1190     62.6198
   620.9000      8.0981      1.6556      0.2518     60.2687     63.5296
   621.0000      8.1084      1.7501      0.2595     54.5380     66.4763
   621.1000      8.1084      1.8187      0.2652     50.3798     70.9631
   621.2000      8.1084      1.8652      0.2237     47.5651     74.9540
   621.3000      8.0950      1.8833      0.2594     46.4686     78.7011
   621.4000      8.0950      1.8645      0.2014     47.6064     83.9005
   621.5000      8.0741      1.8187      0.1181     50.3807     89.9473
   621.6000      8.0741      1.7629      0.0404     53.7643     94.1520
   621.7000      8.0741      1.7053     -0.0154     57.2531     94.2147
   621.8000      8.0005      1.6589     -0.0372     60.0690     90.9844
   621.9000      8.0005      1.6510     -0.0061     60.5458     88.5744
   622.0000      7.9864      1.7023      0.0809     57.4380     90.0884
   622.1000      7.9864      1.7993      0.1866     51.5605     93.6451
   622.2000      7.9864      1.9093      0.2533     44.8908     95.6076
   622.3000      8.0195      2.0186      0.2746     38.2653     95.7847
   622.4000      8.0195      2.1296      0.3296     31.5376     96.2284
   622.5000      8.1116      2.2352      0.3042     25.1376     99.2595
   622.6000      8.1116      2.3212      0.2675     19.9287    104.1098
   622.7000      8.1116      2.3825      0.1789     16.2101    108.3244
   622.8000      8.0414      2.4236      0.1180     13.7241    112.5024
   622.9000      8.0414      2.4510      0.0036     12.0602    116.3435
   623.0000      7.9560      2.4793     -0.0030     10.3480    116.2022
   623.1000      7.9560      2.5111      0.0479      8.4211    112.2293
   623.2000      7.9560      2.5314      0.0558      7.1855    108.7113
   623.3000      7.9439      2.5431      0.0456      6.4804    105.4866
   623.4000      7.9439      2.5619      0.0778      5.3374    100.7718
   623.5000      7.9299      2.5855      0.0717      3.9066     96.2630
   623.6000      7.9299      2.6061      0.0939      2.6636     92.7256
   623.7000      7.9299      2.6240      0.0879      1.5734     89.1015
   623.8000      7.9225      2.6371      0.1083      0.7789     85.9479
   623.9000      7.9225      2.6464      0.1038      0.2211     83.9098
   624.0000      7.9111      2.6605      0.1329     -0.6350     82.7418
   624.1000      7.9111      2.6746      0.1653     -1.4897     83.1437
   624.2000      7.9111      2.6722      0.1451     -1.3460     84.1745
   624.3000      7.9048      2.6531      0.1033     -0.1858     83.7642
   624.4000      7.9048      2.6303      0.0788      1.1927     83.6994
   624.5000      7.9068      2.6065      0.0572      2.6377     85.9691
   624.6000      7.9068      2.5777      0.0228      4.3807     88.0991
   624.7000      7.9068      2.5540     -0.0348      5.8180     88.2599
