~Version Information
VERS.                      2.0: CWLS Log ASCII Standard - VERSION 2.0
WRAP.                       NO: One line per depth step
~Well Information Block
STRT.FT               440.0000: 
STOP.FT              1702.7000: 
STEP.FT                 0.1000: 
NULL.                -999.2500: 
COMP.          Pioneer Natural Resources: COMPANY
WELL.          Culver 14-12 Tr: WELL
FLD.           Purgatoire River: FIELD
LOC.           915' FSL & 1048' FWL--: LOCATION
STAT.                 Colorado: State
CNTY.               Las Animas: COUNTY
CTRY. USA : Country
SECT. 12 : Section
TOWN. 32S : Township
RANG. 66W : Range
SRVC.                Patterson: SERVICE COMPANY
DATE.          Wed Sep 28 10:00:59 2005: LOG DATE
API.           05 071 08520 00: UNIQUE WELL ID
~Curve Information Block
DEPT.FT            0 000 00 00: Depth
DCAL.in                       : CDL Caliper
RHOB.g/cc                     : CDL Bulk Density
RHOC.g/cc                     : CDL Density Correction
DPOR.pu                       : CDL Density Porosity
NPOR.pu                       : Neutron Porosity
GR.GAPI                       : Gamma Ray
~Parameter Information Block
~A  Depth       DCAL        RHOB        RHOC        DPOR        NPOR         GR     
# ...
  1419.2000      7.9930      2.6300      0.0264      1.2118     16.5121     50.0636
  1419.3000      7.9925      2.6385      0.0726      0.6949     16.9103     50.4514
  1419.4000      7.9925      2.6326      0.0627      1.0571     17.2138     49.6890
  1419.5000      7.9922      2.6046      0.0241      2.7506     17.6610     47.9378
  1419.6000      7.9922      2.5834     -0.0277      4.0388     18.5752     47.4678
  1419.7000      7.9922      2.5913      0.0193      3.5586     20.2811     50.6595
  1419.8000      7.9982      2.6081      0.0642      2.5370     22.5800     56.4958
  1419.9000      7.9982      2.6019      0.0675      2.9141     24.5797     62.5335
  1420.0000      8.0118      2.5771      0.0146      4.4181     26.0026     69.8138
  1420.1000      8.0118      2.5516      0.0156      5.9628     27.4290     77.8572
  1420.2000      8.0118      2.5196      0.0348      7.9044     28.8296     85.3767
  1420.3000      8.0259      2.4784     -0.0344     10.4027     29.7389     91.6931
  1420.4000      8.0259      2.4486     -0.0536     12.2064     30.3919     95.9357
  1420.5000      8.0448      2.4407      0.0107     12.6825     31.1483    100.8133
  1420.6000      8.0448      2.4420      0.0180     12.6037     31.7726    107.4046
  1420.7000      8.0448      2.4399      0.0247     12.7341     32.0762    111.4962
  1420.8000      8.0968      2.4344      0.0354     13.0692     32.4092    111.4281
  1420.9000      8.0968      2.4366      0.0235     12.9364     32.9298    111.9502
  1421.0000      8.1899      2.4505      0.0801     12.0934     33.2790    118.7088
  1421.1000      8.1899      2.4542      0.1220     11.8686     33.1974    128.5395
  1421.2000      8.1899      2.4230      0.1180     13.7579     32.9609    131.9023
  1421.3000      8.2740      2.3617      0.0412     17.4701     33.2489    130.0651
  1421.4000      8.2740      2.2929      0.0176     21.6440     34.1599    128.7374
  1421.5000      8.3215      2.2263      0.0144     25.6814     35.0745    124.9253
  1421.6000      8.3215      2.1571      0.0229     29.8722     35.5876    119.1777
  1421.7000      8.3215      2.0769     -0.0012     34.7352     35.9745    118.0316
  1421.8000      8.3817      1.9704     -0.0412     41.1850     36.7307    120.9869
  1421.9000      8.3817      1.8247     -0.0774     50.0166     37.7464    121.2918
  1422.0000      8.5015      1.6598     -0.1513     60.0097     38.3399    116.5985
  1422.1000      8.5015      1.5207     -0.1522     68.4449     38.3544    112.2004
  1422.2000      8.5015      1.4280     -0.1153     74.0589     37.9951    112.1667
  1422.3000      8.7335      1.3777     -0.0337     77.1098     37.2903    113.5163
  1422.4000      8.7335      1.3829     -0.0613     76.7963     36.7088    110.9716
  1422.5000      9.1806      1.4620      0.0711     71.9970     36.2304    103.6192
  1422.6000      9.1806      1.5939      0.1805     64.0048     35.3504     98.5731
  1422.7000      9.1806      1.7419      0.2174     55.0379     34.6366    102.7495
  1422.8000      9.8282      1.8853      0.2753     46.3449     34.6669    114.9089
  1422.9000      9.8282      2.0076      0.3296     38.9346     34.8100    125.4302
  1423.0000     10.4371      2.1051      0.3229     33.0249     34.3304    126.6800
  1423.1000     10.4371      2.1979      0.3167     27.3984     33.2570    119.7506
  1423.2000     10.4371      2.2946      0.3353     21.5411     32.0952    111.8783
  1423.3000     10.4128      2.3707      0.3467     16.9290     31.6156    110.9047
  1423.4000     10.4128      2.4018      0.2887     15.0400     31.9915    117.6971
  1423.5000      9.6742      2.3934      0.1964     15.5540     32.4600    124.4181
  1423.6000      9.6742      2.3737      0.1732     16.7431     32.3910    124.8023
  1423.7000      9.6742      2.3761      0.1493     16.6006     32.1807    124.6387
  1423.8000      9.2610      2.4122      0.2425     14.4111     32.3576    129.1737
  1423.9000      9.2610      2.4542      0.2718     11.8655     32.5917    133.2533
  1424.0000      9.5193      2.4576      0.2862     11.6605     32.7120    133.6815
  1424.1000      9.5193      2.3987      0.2339     15.2327     32.8603    134.9514
  1424.2000      9.5193      2.2851      0.1833     22.1155     32.8015    139.3067
  1424.3000      9.9664      2.1414      0.1249     30.8268     32.5160    141.4110
  1424.4000      9.9664      1.9955      0.0820     39.6642     32.3815    138.4772
  1424.5000     10.1279      1.8776      0.0453     46.8139     32.4971    136.4252
  1424.6000     10.1279      1.8191     -0.0047     50.3581     32.4654    136.8331
  1424.7000     10.1279      1.8420      0.0119     48.9677     32.0227    133.8844
  1424.8000      9.9607      1.9451      0.1310     42.7202     31.5058    127.3625
  1424.9000      9.9607      2.1024      0.2730     33.1871     31.5124    120.9315
  1425.0000      9.7090      2.2744      0.3865     22.7641     32.0740    116.4788
  1425.1000      9.7090      2.4214      0.4489     13.8561     32.6655    114.0981
  1425.2000      9.7090      2.5126      0.4788      8.3281     32.8940    113.3722
  1425.3000      9.3516      2.5358      0.4432      6.9234     32.7415    116.5340
  1425.4000      9.3516      2.4981      0.3768      9.2070     32.7079    123.2816
  1425.5000      8.8669      2.4109      0.3113     14.4936     33.2635    126.2972
  1425.6000      8.8669      2.2892      0.1683     21.8657     34.1287    125.0391
  1425.7000      8.8669      2.1607      0.0947     29.6561     34.7755    124.5094
  1425.8000      8.5196      2.0591      0.0573     35.8144     35.0302    122.4840
  1425.9000      8.5196      2.0181      0.0608     38.2987     35.1365    116.5082
  1426.0000      8.5586      2.0530      0.1543     36.1823     35.3959    111.6702
  1426.1000      8.5586      2.1407      0.2893     30.8663     36.0095    111.0248
  1426.2000      8.5586      2.2350      0.3719     25.1499     36.7044    110.3525
  1426.3000      9.0158      2.2962      0.3835     21.4411     36.8968    107.8042
  1426.4000      9.0158      2.3004      0.3837     21.1900     36.4902    106.6607
  1426.5000      9.8394      2.2314      0.3706     25.3680     36.0092    109.6344
  1426.6000      9.8394      2.0892      0.3077     33.9878     35.9237    114.0876
  1426.7000      9.8394      1.9002      0.2314     45.4440     35.9598    113.4308
  1426.8000     10.9709      1.6963      0.1472     57.8002     36.0526    109.4759
  1426.9000     10.9709      1.5063      0.0538     69.3124     36.3912    108.9945
  1427.0000     12.1227      1.3683     -0.0207     77.6767     36.7777    111.1777
  1427.1000     12.1227      1.3119     -0.0324     81.0986     36.9922    112.5107
  1427.2000     12.1227      1.3395      0.0058     79.4220     36.9758    113.3962
  1427.3000     12.9422      1.4339      0.0944     73.7010     36.6912    115.7469
  1427.4000     12.9422      1.5690      0.1445     65.5168     36.1193    118.3366
  1427.5000     13.2302      1.7165      0.2153     56.5781     35.5057    118.0508
  1427.6000     13.2302      1.8518      0.2842     48.3729     35.2109    116.3235
  1427.7000     13.2302      1.9610      0.2950     41.7606     35.3500    115.1184
  1427.8000     13.2014      2.0300      0.3350     37.5769     35.7686    113.0055
  1427.9000     13.2014      2.0292      0.3459     37.6252     36.3081    109.0723
  1428.0000     13.2995      1.9320      0.2776     43.5132     36.6004    104.1531
  1428.1000     13.2995      1.7613      0.1391     53.8624     36.3225    103.0735
  1428.2000     13.2995      1.5916      0.0338     64.1448     35.8822    108.7803
  1428.3000     13.2693      1.4902     -0.0158     70.2926     35.5932    115.1300
  1428.4000     13.2693      1.4873     -0.0783     70.4654     35.0879    117.5521
  1428.5000     12.7789      1.5905     -0.0244     64.2128     34.1906    117.9175
  1428.6000     12.7789      1.7826      0.0636     52.5670     33.2107    115.2911
  1428.7000     12.7789      2.0209      0.2933     38.1267     32.3364    106.6268
