~Version Information
VERS.                      2.0: CWLS Log ASCII Standard - VERSION 2.0
WRAP.                       NO: One line per depth step
~Well Information Block
STRT.FT               260.0000: 
STOP.FT               713.2000: 
STEP.FT                 0.1000: 
NULL.                -999.2500: 
COMP.          Pioneer Natural Resources: COMPANY
WELL.           Quintessa 23-7: WELL
FLD.           Purgatoire River: FIELD
LOC.           1964' FSL & 2589' FWL--: LOCATION
PROV.                 Colorado: PROVINCE
CNTY.               Las Animas: COUNTRY
SRVC.                Patterson: SERVICE COMPANY
DATE.          Sat Nov 19 09:15:07 2005: LOG DATE
UWI.           05 071 08558 00: UNIQUE WELL ID
~Curve Information Block
DEPT.FT            0 000 00 00: Depth
DCAL.in                       : CDL Caliper
RHOB.g/cc                     : CDL Bulk Density
RHOC.g/cc                     : CDL Density Correction
DPOR.pu                       : CDL Density Porosity
NPOR.pu                       : Neutron Porosity
GR.GAPI                       : Gamma Ray
~Parameter Information Block
~A  Depth       DCAL        RHOB        RHOC        DPOR        NPOR         GR     
   260.0000      8.1640      2.3722     -0.1856     16.8362     44.9797     77.5068
   260.1000      8.1640      2.3711     -0.2118     16.9037     44.8331     79.0687
   260.2000      8.1640      2.3700     -0.1640     16.9690     44.9776     77.9389
   260.3000      8.1642      2.3583     -0.2085     17.6772     45.3752     77.8444
   260.4000      8.1642      2.3438     -0.2583     18.5552     45.5788     80.9755
   260.5000      8.1666      2.3410     -0.1854     18.7291     45.5258     86.1702
   260.6000      8.1666      2.3478     -0.2392     18.3169     45.3242     89.3846
   260.7000      8.1666      2.3585     -0.2126     17.6653     45.0323     89.8537
   260.8000      8.1691      2.3624     -0.2027     17.4297     44.9140     91.4508
   260.9000      8.1691      2.3551     -0.2155     17.8724     45.0952     93.4985
   261.0000      8.1706      2.3468     -0.1671     18.3769     45.3220     90.9638
   261.1000      8.1706      2.3506     -0.2190     18.1448     45.4839     82.9818
   261.2000      8.1706      2.3700     -0.1884     16.9706     45.6889     73.5255
   261.3000      8.1707      2.3909     -0.1705     15.7044     45.9901     66.7423
   261.4000      8.1707      2.3957     -0.1530     15.4094     46.2781     62.2914
   261.5000      8.1701      2.3820     -0.1525     16.2451     46.4023     59.1435
   261.6000      8.1701      2.3670     -0.2450     17.1536     46.3929     60.0460
   261.7000      8.1701      2.3708     -0.2248     16.9230     46.2760     65.0449
   261.8000      8.1698      2.3915     -0.1757     15.6638     45.8685     69.8681
   261.9000      8.1698      2.4105     -0.1635     14.5128     45.3005     72.5922
   262.0000      8.1691      2.4157     -0.1802     14.2019     45.2723     75.2793
   262.1000      8.1691      2.4078     -0.1874     14.6807     45.8795     77.5317
   262.2000      8.1691      2.3892     -0.1852     15.8045     46.0521     77.2308
   262.3000      8.1671      2.3674     -0.2390     17.1245     45.3618     77.3118
   262.4000      8.1671      2.3572     -0.2276     17.7484     44.7481     79.9597
   262.5000      8.1647      2.3585     -0.2120     17.6675     44.6387     82.0456
   262.6000      8.1647      2.3613     -0.2269     17.4997     44.6503     82.4545
   262.7000      8.1647      2.3642     -0.2060     17.3229     44.8955     82.8194
   262.8000      8.1651      2.3656     -0.1452     17.2356     45.4611     84.7621
   262.9000      8.1651      2.3621     -0.2140     17.4459     46.0415     89.2554
   263.0000      8.1668      2.3594     -0.1793     17.6112     46.5533     93.9149
   263.1000      8.1668      2.3634     -0.2176     17.3699     46.7665     94.8165
   263.2000      8.1668      2.3687     -0.1687     17.0502     46.4840     92.7796
   263.3000      8.1667      2.3688     -0.2765     17.0405     46.1221     90.9821
   263.4000      8.1667      2.3789     -0.2172     16.4322     46.2452     90.0860
   263.5000      8.1648      2.4040     -0.1771     14.9113     46.8196     87.8758
   263.6000      8.1648      2.4231     -0.1582     13.7522     47.2356     84.9356
   263.7000      8.1648      2.4225     -0.1939     13.7867     47.3738     85.6690
   263.8000      8.1651      2.4030     -0.1741     14.9721     47.5521     88.5948
   263.9000      8.1651      2.3739     -0.2206     16.7315     47.6263     90.5541
   264.0000      8.1688      2.3502     -0.1900     18.1716     47.2763     93.8257
   264.1000      8.1688      2.3298     -0.2047     19.4079     46.6682     99.7495
   264.2000      8.1688      2.2946     -0.2059     21.5405     46.2066    106.3950
   264.3000      8.1733      2.2367     -0.2648     25.0499     45.8032    111.1080
   264.4000      8.1733      2.1663     -0.2324     29.3145     45.0798    112.3084
   264.5000      8.1757      2.1054     -0.3282     33.0031     43.8843    111.3470
   264.6000      8.1757      2.0778     -0.2938     34.6759     42.2703    111.0730
   264.7000      8.1757      2.0857     -0.2832     34.1995     40.3987    111.2771
   264.8000      8.1804      2.1123     -0.2753     32.5888     38.3843    111.8999
   264.9000      8.1804      2.1474     -0.2207     30.4629     35.9478    113.6377
   265.0000      8.1905      2.1927     -0.1908     27.7130     32.5804    115.6171
   265.1000      8.1905      2.2332     -0.0879     25.2636     28.5534    116.3186
   265.2000      8.1905      2.2376     -0.0578     24.9918     24.9289    115.2568
   265.3000      8.2092      2.2135     -0.0975     26.4526     22.0429    113.1254
   265.4000      8.2092      2.2094     -0.0584     26.7030     19.5573    108.4091
   265.5000      8.2445      2.2504      0.0996     24.2189     17.4811    100.1781
   265.6000      8.2445      2.3095      0.2295     20.6355     16.1985     92.4294
   265.7000      8.2445      2.3487      0.2481     18.2607     15.7348     89.1571
   265.8000      8.2834      2.3538      0.2311     17.9521     15.4467     89.1879
   265.9000      8.2834      2.3295      0.2096     19.4263     15.0496     87.5152
   266.0000      8.3052      2.2917      0.1767     21.7179     14.8860     82.8410
   266.1000      8.3052      2.2637      0.1533     23.4145     15.1042     78.2182
   266.2000      8.3052      2.2666      0.1581     23.2341     15.5393     73.7896
   266.3000      8.3106      2.3057      0.2049     20.8672     16.3198     68.0753
   266.4000      8.3106      2.3635      0.2373     17.3613     17.4835     63.3623
   266.5000      8.3104      2.4138      0.3122     14.3124     18.5890     61.9428
   266.6000      8.3104      2.4478      0.2860     12.2522     19.4119     61.7524
   266.7000      8.3104      2.4741      0.3080     10.6603     19.7062     60.8250
   266.8000      8.3149      2.4926      0.3092      9.5413     19.6269     60.3501
   266.9000      8.3149      2.5017      0.2753      8.9860     20.0509     60.4034
   267.0000      8.3257      2.5066      0.2950      8.6909     21.0243     59.7376
   267.1000      8.3257      2.5064      0.2738      8.7047     21.6118     59.3172
   267.2000      8.3257      2.4990      0.2349      9.1528     21.4124     62.7376
   267.3000      8.3329      2.4885      0.2107      9.7902     21.1701     71.4360
   267.4000      8.3329      2.4806      0.1992     10.2660     21.5604     80.9290
   267.5000      8.3266      2.4776      0.1845     10.4464     21.9572     86.8324
   267.6000      8.3266      2.4739      0.2241     10.6710     21.5215     89.4400
   267.7000      8.3266      2.4653      0.2050     11.1927     20.6994     91.0855
   267.8000      8.3045      2.4591      0.1740     11.5670     20.4186     95.7893
   267.9000      8.3045      2.4545      0.2071     11.8505     20.8338    106.2121
   268.0000      8.2777      2.4415      0.1872     12.6364     21.3582    116.6884
   268.1000      8.2777      2.4240      0.1688     13.6974     21.4441    120.2998
   268.2000      8.2777      2.4104      0.1516     14.5218     21.2751    118.6309
   268.3000      8.2586      2.4033      0.1594     14.9510     21.2089    117.3847
   268.4000      8.2586      2.4046      0.1676     14.8705     21.2071    119.5169
   268.5000      8.2501      2.4163      0.1490     14.1664     21.3440    121.5065
   268.6000      8.2501      2.4321      0.1684     13.2086     21.7748    120.2028
   268.7000      8.2501      2.4382      0.1830     12.8388     22.2423    118.5294
   268.8000      8.2477      2.4366      0.1675     12.9307     22.4440    119.2852
   268.9000      8.2477      2.4438      0.1656     12.4961     22.1201    123.0684
   269.0000      8.2455      2.4605      0.2107     11.4856     21.3631    128.6334
   269.1000      8.2455      2.4737      0.2003     10.6862     20.8123    132.6488
   269.2000      8.2455      2.4738      0.1953     10.6804     20.8535    135.1391
   269.3000      8.2388      2.4609      0.1691     11.4630     21.3103    138.6528
   269.4000      8.2388      2.4488      0.1397     12.1952     21.7147    140.8010
   269.5000      8.2296      2.4476      0.1739     12.2666     21.8663    138.7492
