~Version Information
VERS.                      2.0: CWLS Log ASCII Standard - VERSION 2.0
WRAP.                       NO: One line per depth step
~Well Information Block
STRT.FT               -10.0000: 
STOP.FT              1703.5000: 
STEP.FT                 0.2500: 
NULL.                -999.2500: 
COMP.          Pioneer Natural Resources: COMPANY
WELL.          Parrothead 31-31 Tr: WELL
FLD.           Purgatoire River: FIELD
LOC.           496' FNL & 1546' FEL--: LOCATION
PROV.                       CO: PROVINCE
CNTY.               Las Animas: COUNTRY
SRVC.          Patterson Wireline: SERVICE COMPANY
DATE.          Mon Nov 14 09:44:02 2005: LOG DATE
UWI.           05 071 08610 00: UNIQUE WELL ID
~Curve Information Block
DEPT.FT            0 000 00 00: Depth
CCL.                          : Casing Collar Locator
TT3.usec                      : CBL 3' Travel Time
AMP3.mV                       : CBL 3' Amplitude
GR.GAPI                       : Gamma Ray
~Parameter Information Block
~A  Depth       CCL         TT3         AMP3         GR     
# ...
  1229.5000      0.0000    724.3479      9.6305    130.9652
  1229.7500      0.0000    733.5998      9.7194    123.8779
  1230.0000      0.0000    737.9392      9.8186    119.2197
  1230.2500      0.0000    739.4424      9.8826    117.0473
  1230.5000      0.0000    739.7715      9.9006    117.1190
  1230.7500      0.0000    739.7435      9.8803    118.8261
  1231.0000      0.0000    739.6600      9.8260    121.1179
  1231.2500      0.0000    739.5934      9.7401    122.8402
  1231.5000      0.0000    739.4628      9.6413    123.4690
  1231.7500      0.0000    738.8519      9.5658    123.7710
  1232.0000      0.0000    736.5520      9.5454    125.3826
  1232.2500      0.0000    729.7747      9.5943    129.2186
  1232.5000      0.0000    713.8193      9.7157    134.3857
  1232.7500      0.0000    683.8191      9.9083    138.9142
  1233.0000      0.0000    638.6591     10.1584    141.4020
  1233.2500      0.0000    583.5861     10.4319    141.9748
  1233.5000      0.0000    528.1828     10.6837    141.9925
  1233.7500      0.0000    481.7131     10.8765    142.6849
  1234.0000      0.0000    449.9792     10.9917    143.6902
  1234.2500      0.0000    433.7686     11.0355    143.2410
  1234.5000      0.0000    428.0489     11.0415    140.2554
  1234.7500      0.0000    424.3015     11.0577    135.8802
  1235.0000      0.0000    416.5934     11.1131    132.6000
  1235.2500      0.0000    406.3998     11.1903    132.1937
  1235.5000      0.0000    401.9185     11.2326    134.8346
  1235.7500      0.0000    412.9610     11.1804    139.6530
  1236.0000      0.0000    444.2025     11.0037    145.6622
  1236.2500      0.0000    489.2972     10.7131    152.2340
  1236.5000      0.0000    531.3837     10.3463    158.8321
  1236.7500      0.0000    554.0701      9.9481    164.4361
  1237.0000      0.0000    554.8092      9.5603    167.6366
  1237.2500      0.0000    546.7671      9.2223    167.7821
  1237.5000      0.0000    548.0526      8.9556    166.0092
  1237.7500      0.0000    569.8044      8.7420    164.5749
  1238.0000      0.0000    610.9905      8.5354    164.5688
  1238.2500      0.0000    660.1798      8.3077    164.3505
  1238.5000      0.0000    702.8124      8.0720    160.7759
  1238.7500      0.0000    729.9008      7.8623    152.0524
  1239.0000      0.0000    741.6067      7.7084    138.9998
  1239.2500      0.0000    743.7963      7.6341    123.6316
  1239.5000      0.0000    742.4680      7.6619    107.3710
  1239.7500      0.0000    740.9146      7.8137     90.9956
  1240.0000      0.0000    740.0468      8.1068     75.6461
  1240.2500      0.0000    739.7693      8.5347     62.9339
  1240.5000      0.0000    739.8673      9.0334     53.9048
  1240.7500      0.0000    740.2766      9.4877     48.5236
  1241.0000      0.0000    741.1088      9.8023     46.3219
  1241.2500      0.0000    742.7283      9.9663     46.9911
  1241.5000      0.0000    745.7656     10.0373     50.1357
  1241.7500      0.0000    750.7986     10.0777     54.8930
  1242.0000      0.0000    757.6261     10.1218     60.0859
  1242.2500      0.0000    764.7339     10.1879     64.7445
  1242.5000      0.0000    769.8466     10.2882     68.4955
  1242.7500      0.0000    771.4087     10.4228     71.5838
  1243.0000      0.0000    769.6420     10.5756     74.5645
  1243.2500      0.0000    766.1068     10.7198     77.8555
  1243.5000      0.0000    762.2452     10.8284     81.4820
  1243.7500      0.0000    758.4014     10.8839     85.2016
  1244.0000      0.0000    754.1834     10.8820     88.8851
  1244.2500      0.0000    749.5201     10.8247     92.7091
  1244.5000      0.0000    745.1044     10.7139     97.0343
  1244.7500      0.0000    741.8069     10.5561    102.1907
  1245.0000      0.0000    739.9211     10.3683    108.3900
  1245.2500      0.0000    739.1130     10.1722    115.5148
  1245.5000      0.0000    738.9186      9.9806    122.4468
  1245.7500      0.0000    739.1462      9.7976    126.7392
  1246.0000      0.0000    739.9863      9.6276    126.0158
  1246.2500      0.0000    741.9058      9.4807    120.3475
  1246.5000      0.0000    745.3231      9.3673    112.6441
  1246.7500      0.0000    750.1120      9.2961    106.1158
  1247.0000      0.0000    755.3267      9.2742    101.7784
  1247.2500      0.0000    759.4081      9.2929     98.6599
  1247.5000      0.0000    760.7791      9.3113     95.4434
  1247.7500      0.0000    758.6985      9.2722     91.2882
  1248.0000      0.0000    753.9501      9.1528     85.9156
  1248.2500      0.0000    748.5034      8.9912     79.7637
  1248.5000      0.0000    744.1642      8.8540     74.0269
  1248.7500      0.0000    741.5626      8.7843     70.0769
  1249.0000      0.0000    740.3165      8.7898     68.5242
  1249.2500      0.0000    739.7620      8.8669     68.8359
  1249.5000      0.0000    739.4244      9.0163     70.0955
  1249.7500      0.0000    739.0991      9.2288     72.1238
  1250.0000      0.0000    738.7379      9.4634     75.6100
  1250.2500      0.0000    738.2592      9.6412     81.1756
  1250.5000      0.0000    737.3920      9.6605     88.4044
  1250.7500      0.0000    735.7630      9.4298     95.6544
  1251.0000      0.0000    733.3650      8.9366    100.8174
  1251.2500      0.0000    731.2601      8.3251    102.5900
  1251.5000      0.0000    731.8474      7.8659    101.2353
  1251.7500      0.0000    737.8964      7.7575     98.0138
  1252.0000      0.0000    750.3308      7.9494     93.8691
  1252.2500      0.0000    766.2586      8.2261     88.9230
  1252.5000      0.0000    779.6319      8.4382     83.2310
  1252.7500      0.0000    785.0416      8.5755     77.5498
  1253.0000      0.0000    781.8145      8.6599     73.1138
  1253.2500      2.0000    774.7801      8.6719     70.8394
  1253.5000      0.0000    770.8883      8.5867     71.0236
  1253.7500      0.0000    774.1262      8.4309     73.7580
  1254.0000      0.0000    782.6715      8.2911     78.9543
  1254.2500      0.0000    790.8055      8.2729     85.5250
  1254.5000      0.0000    793.7522      8.4324     91.1746
  1254.7500      0.0000    790.9543      8.7405     93.8663
  1255.0000      0.0000    785.4117      9.1281     93.4659
  1255.2500      0.0000    780.4880      9.5431     91.6041
  1255.5000      0.0000    777.3956      9.9328     90.0535
  1255.7500      0.0000    775.4594     10.2149     89.2973
  1256.0000      0.0000    774.0707     10.3316     88.4581
  1256.2500      0.0000    773.5788     10.3198     86.6064
  1256.5000      0.0000    774.3104     10.2836     84.1148
  1256.7500      0.0000    775.4451     10.2975     82.4404
  1257.0000      0.0000    775.3232     10.3610     82.6831
  1257.2500      0.0000    772.7466     10.4339     84.7188
  1257.5000      0.0000    767.9614     10.4875     87.5249
  1257.7500      0.0000    762.4331     10.5205     89.9080
  1258.0000      0.0000    757.5376     10.5434     91.1878
  1258.2500      0.0000    753.5579     10.5643     91.6037
  1258.5000      0.0000    750.1979     10.5864     91.8429
  1258.7500      0.0000    747.8129     10.6132     92.0446
  1259.0000      0.0000    747.5998     10.6508     91.6368
  1259.2500      0.0000    750.4755     10.7008     90.2451
  1259.5000      0.0000    755.8499     10.7519     88.3947
  1259.7500      0.0000    761.4825     10.7813     87.2645
  1260.0000      0.0000    764.8947     10.7701     87.9011
  1260.2500      0.0000    765.3899     10.7215     90.5427
  1260.5000      0.0000    764.5828     10.6610     94.5203
  1260.7500      0.0000    764.4819     10.6153     98.8506
  1261.0000      0.0000    765.1025     10.5906    102.8211
  1261.2500      0.0000    764.4154     10.5707    105.8366
  1261.5000      0.0000    760.6326     10.5295    107.1430
  1261.7500      0.0000    754.0585     10.4432    106.4145
  1262.0000      0.0000    746.6804     10.2977    104.4910
  1262.2500      0.0000    740.6758     10.0929    102.7475
  1262.5000      0.0000    737.6051      9.8482    101.5877
  1262.7500      0.0000    738.0887      9.6066    100.1989
