~Version Information
VERS.                      2.0: CWLS Log ASCII Standard - VERSION 2.0
WRAP.                       NO: One line per depth step
~Well Information Block
STRT.FT               597.2500: 
STOP.FT              1567.2500: 
STEP.FT                 0.2500: 
NULL.                -999.2500: 
COMP.          Pioneer Natural Resources: COMPANY
WELL.           Butch 33-10 Tr: WELL
FLD.           Purgatoire River: FIELD
LOC.           2309' FSL & 1337' FEL--: LOCATION
PROV.                 Colorado: PROVINCE
CNTY.               Las Animas: COUNTRY
SRVC.                Patterson: SERVICE COMPANY
DATE.          Sat Jan 14 05:18:29 2006: LOG DATE
UWI.           05 071 08649 00: UNIQUE WELL ID
~Curve Information Block
DEPT.FT            0 000 00 00: Depth
SN.Ohm-m                      : IEL Short Normal
SP.mV                         : IEL Spontaneous Potential
DIR.Ohm-m                     : IEL Induction Resistivity
GR.GAPI                       : Gamma Ray
~Parameter Information Block
~A  Depth        SN          SP         DIR          GR     
# ...
  1535.2500     11.7840     91.4963      9.7290    149.9704
  1535.5000     11.5759     92.3467      9.9289    143.1227
  1535.7500     11.5344     93.3436     10.1317    139.5244
  1536.0000     11.8222     94.4578     10.3597    137.8450
  1536.2500     12.5400     95.6367     10.6369    139.9698
  1536.5000     13.6721     96.8117     10.9788    147.2700
  1536.7500     15.0805     97.9094     11.3852    153.1843
  1537.0000     16.5592     98.8625     11.8397    159.8067
  1537.2500     17.9236     99.6190     12.3165    161.0352
  1537.5000     19.0809    100.1474     12.7935    157.2752
  1537.7500     20.0423    100.4383     13.2646    151.4973
  1538.0000     20.8786    100.5030     13.7433    139.4486
  1538.2500     21.6660    100.3709     14.2585    130.3294
  1538.5000     22.4588    100.0853     14.8453    116.9532
  1538.7500     23.2871     99.6995     15.5352    108.6230
  1539.0000     24.1549     99.2727     16.3430     95.6126
  1539.2500     25.0302     98.8650     17.2518     85.0969
  1539.5000     25.8448     98.5323     18.1998     65.0878
  1539.7500     26.5097     98.3211     19.0800     49.7569
  1540.0000     26.9292     98.2649     19.7582     27.8635
  1540.2500     27.0031     98.3815     20.1053     16.4911
  1540.5000     26.6387     98.6734     20.0334      5.9479
  1540.7500     25.7848     99.1297     19.5220      2.5508
  1541.0000     24.4671     99.7290     18.6267      0.5492
  1541.2500     22.7945    100.4429     17.4650      0.1636
  1541.5000     20.9379    101.2383     16.1803      0.0189
  1541.7500     19.0867    102.0796     14.9004      0.0026
  1542.0000     17.3939    102.9295     13.7128   -999.2500
  1542.2500     15.9392    103.7509     12.6615   -999.2500
  1542.5000     14.7329    104.5084     11.7568   -999.2500
  1542.7500     13.7537    105.1704     10.9884   -999.2500
  1543.0000     12.9776    105.7122     10.3348   -999.2500
  1543.2500     12.3801    106.1182      9.7712   -999.2500
  1543.5000     11.9255    106.3828      9.2758   -999.2500
  1543.7500     11.5650    106.5122      8.8337   -999.2500
  1544.0000     11.2473    106.5231      8.4383   -999.2500
  1544.2500     10.9328    106.4416      8.0890   -999.2500
  1544.5000     10.5988    106.3006      7.7877   -999.2500
  1544.7500     10.2373    106.1354      7.5359   -999.2500
  1545.0000      9.8524    105.9786      7.3341   -999.2500
  1545.2500      9.4627    105.8547      7.1816   -999.2500
  1545.5000      9.1005    105.7746      7.0776   -999.2500
  1545.7500      8.8023    105.7329      7.0210   -999.2500
  1546.0000      8.5968    105.7079      7.0110   -999.2500
  1546.2500      8.5010    105.6661      7.0471   -999.2500
  1546.5000      8.5231    105.5696      7.1297   -999.2500
  1546.7500      8.6685    105.3856      7.2591   -999.2500
  1547.0000      8.9430    105.0950      7.4353   -999.2500
  1547.2500      9.3492    104.6986      7.6564   -999.2500
  1547.5000      9.8720    104.2184      7.9183   -999.2500
  1547.7500     10.4674    103.6940      8.2135   -999.2500
  1548.0000     11.0678    103.1742      8.5303   -999.2500
  1548.2500     11.6067    102.7062      8.8518   -999.2500
  1548.5000     12.0434    102.3240      9.1574   -999.2500
  1548.7500     12.3712    102.0398      9.4284   -999.2500
  1549.0000     12.6113    101.8399      9.6554   -999.2500
  1549.2500     12.7995    101.6873      9.8439   -999.2500
  1549.5000     12.9732    101.5310     10.0141   -999.2500
  1549.7500     13.1587    101.3178     10.1928   -999.2500
  1550.0000     13.3617    101.0064     10.4023   -999.2500
  1550.2500     13.5678    100.5775     10.6515   -999.2500
  1550.5000     13.7524    100.0388     10.9320   -999.2500
  1550.7500     13.8939     99.4245     11.2201   -999.2500
  1551.0000     13.9828     98.7881     11.4843   -999.2500
  1551.2500     14.0246     98.1923     11.6940   -999.2500
  1551.5000     14.0356     97.6973     11.8269   -999.2500
  1551.7500     14.0340     97.3499     11.8712   -999.2500
  1552.0000     14.0289     97.1756     11.8238   -999.2500
  1552.2500     14.0124     97.1746     11.6866   -999.2500
  1552.5000     13.9564     97.3230     11.4644   -999.2500
  1552.7500     13.8218     97.5785     11.1649   -999.2500
  1553.0000     13.5797     97.8883     10.8009   -999.2500
  1553.2500     13.2351     98.1980     10.3940   -999.2500
  1553.5000     12.8345     98.4592      9.9756   -999.2500
  1553.7500     12.4502     98.6345      9.5846   -999.2500
  1554.0000     12.1512     98.6997      9.2611   -999.2500
  1554.2500     11.9799     98.6433      9.0752   -999.2500
  1554.5000     11.9403     98.4666      8.9819   -999.2500
  1554.7500     11.9979     98.1817      9.0305   -999.2500
  1555.0000     12.0920     97.8120      9.2151   -999.2500
  1555.2500     12.1588     97.3895      9.5068   -999.2500
  1555.5000     12.1588     96.9532      9.8524   -999.2500
  1555.7500     12.0913     96.5441     10.1830   -999.2500
  1556.0000     11.9885     96.1993     10.4336   -999.2500
  1556.2500     11.8955     95.9461     10.5687   -999.2500
  1556.5000     11.8440     95.7976     10.6014   -999.2500
  1556.7500     11.8336     95.7504     10.6010   -999.2500
  1557.0000     11.8282     95.7867     10.6945   -999.2500
  1557.2500     11.7759     95.8783     11.0712   -999.2500
  1557.5000     11.6414     95.9919     12.0111   -999.2500
  1557.7500     11.4276     96.0948     13.8817   -999.2500
  1558.0000     11.1729     96.1579     17.7238   -999.2500
  1558.2500     10.9295     96.1566     25.5063   -999.2500
  1558.5000     10.7441     96.0672     42.9568   -999.2500
  1558.7500     10.6496     95.8670     92.5358   -999.2500
  1559.0000     10.6673     95.5259    401.9167   -999.2500
  1559.2500     10.8108     95.0022 100000.0000   -999.2500
  1559.5000     11.0881     94.2369 100000.0000   -999.2500
  1559.7500     11.5061     93.1488 100000.0000   -999.2500
  1560.0000     12.0778     91.6322 100000.0000   -999.2500
  1560.2500     12.8228     89.5575 100000.0000   -999.2500
  1560.5000     13.7601     86.7789 100000.0000   -999.2500
  1560.7500     14.9050     83.1485 100000.0000   -999.2500
  1561.0000     16.2746     78.5418 100000.0000   -999.2500
  1561.2500     17.8900     72.8891 100000.0000   -999.2500
  1561.5000     19.7291     66.2106 100000.0000   -999.2500
  1561.7500     21.6074     58.6429 100000.0000   -999.2500
  1562.0000     23.0216     50.4474 100000.0000   -999.2500
  1562.2500     23.1290     41.9911 100000.0000   -999.2500
  1562.5000     21.1073     33.6994 100000.0000   -999.2500
  1562.7500     16.8457     25.9901 100000.0000   -999.2500
  1563.0000     11.3420     19.2055 100000.0000   -999.2500
  1563.2500      6.1930     13.5624 100000.0000   -999.2500
  1563.5000      2.5485      9.1314 100000.0000   -999.2500
  1563.7500      0.5661      5.8499 100000.0000   -999.2500
  1564.0000     -0.2680      3.5598 100000.0000   -999.2500
  1564.2500     -0.5403      2.0543 100000.0000   -999.2500
  1564.5000     -0.6095      1.1228 100000.0000   -999.2500
  1564.7500     -0.6231      0.5803 100000.0000   -999.2500
  1565.0000   -999.2500      0.2831 100000.0000   -999.2500
  1565.2500   -999.2500      0.1300 100000.0000   -999.2500
  1565.5000   -999.2500      0.0559 100000.0000   -999.2500
  1565.7500   -999.2500      0.0222   5453.1104   -999.2500
  1566.0000   -999.2500      0.0079   3359.0042   -999.2500
  1566.2500   -999.2500      0.0021   2895.6851   -999.2500
  1566.5000   -999.2500   -999.2500   2760.6692   -999.2500
  1566.7500   -999.2500   -999.2500   2722.3308   -999.2500
  1567.0000   -999.2500   -999.2500   2712.6331   -999.2500
  1567.2500   -999.2500   -999.2500 100000.0000   -999.2500
