~Version Information
VERS.                      2.0: CWLS Log ASCII Standard - VERSION 2.0
WRAP.                       NO: One line per depth step
~Well Information Block
STRT.FT                -4.0000: 
STOP.FT              1544.0000: 
STEP.FT                 0.2500: 
NULL.                -999.2500: 
COMP.          Pioneer Natural Resources: COMPANY
WELL.           Screamin 12-29: WELL
FLD.           Purgatoire River: FIELD
LOC.           2038' FNL & 612' FWL--: LOCATION
CNTY.               Las Animas: COUNTY
SRVC.                Patterson: SERVICE COMPANY
DATE.          Fri Apr 14 00:36:42 2006: LOG DATE
UWI.           05 071 08661 00: UNIQUE WELL ID
STAT.                 Colorado: STATE
~Curve Information Block
DEPT.FT            0 000 00 00: Depth
GR.GAPI                       : Gamma Ray
CCL.                          : Casing Collar Locator
TT3.usec                      : CBL 3' Travel Time
AMP3.mV                       : CBL 3' Amplitude
~Parameter Information Block
~A  Depth        GR         CCL         TT3         AMP3    
# ...
  1403.0000     90.9740      0.0000    724.5984      7.0442
  1403.2500     92.0237      0.0000    725.1518      6.9989
  1403.5000     96.1714      0.0000    719.7267      6.9349
  1403.7500     99.5669      0.0000    712.6146      6.8772
  1404.0000    103.7282      0.0000    699.1213      6.7543
  1404.2500    105.1429      0.0000    690.2784      6.6600
  1404.5000    105.1085      0.0000    680.1942      6.5301
  1404.7500    104.3405      0.0000    676.1162      6.4551
  1405.0000    103.4878      0.0000    672.9311      6.3402
  1405.2500    103.1949      0.0000    671.8214      6.2477
  1405.5000    101.9529      0.0000    670.6861      6.0746
  1405.7500     99.9969      0.0000    670.1224      5.9372
  1406.0000     95.7412      0.0000    669.4694      5.7010
  1406.2500     92.6934      0.0000    669.0833      5.5248
  1406.5000     88.2927      0.0000    668.8653      5.2471
  1406.7500     85.1184      0.0000    669.7026      5.0709
  1407.0000     79.2909      0.0000    674.3287      4.8479
  1407.2500     74.9060      0.0000    680.2764      4.7281
  1407.5000     69.0029      0.0000    691.9700      4.5675
  1407.7500     66.1997      0.0000    699.1227      4.4556
  1408.0000     63.4524      0.0000    704.0103      4.2673
  1408.2500     62.0006      0.0000    701.8217      4.1331
  1408.5000     60.3731      0.0000    691.4808      3.9445
  1408.7500     60.4334      0.0000    682.2534      3.8460
  1409.0000     63.2935      0.0000    670.0328      3.7695
  1409.2500     66.7011      0.0000    665.8030      3.7763
  1409.5000     72.2386      0.0000    668.5721      3.8692
  1409.7500     75.1936      0.0000    676.2415      3.9708
  1410.0000     77.7309      0.0000    691.2424      4.1505
  1410.2500     78.3656      0.0000    699.2280      4.2768
  1410.5000     79.1330      0.0000    703.9897      4.4715
  1410.7500     80.6418      0.0000    703.3330      4.6050
  1411.0000     85.7993      0.0000    701.2626      4.8071
  1411.2500     91.2083      0.0000    700.8173      4.9433
  1411.5000    100.8431      0.0000    700.8144      5.1701
  1411.7500    106.9128      0.0000    700.1846      5.3582
  1412.0000    113.4538      0.0000    698.5192      5.7314
  1412.2500    115.6187      0.0000    698.2324      6.0541
  1412.5000    115.7323      0.0000    700.6262      6.6585
  1412.7500    113.9306      0.0000    703.8089      7.1336
  1413.0000    108.8802      0.0000    709.4706      7.8954
  1413.2500    104.6142      0.0000    713.1356      8.3755
  1413.5000     98.7040      0.0000    717.0928      8.9481
  1413.7500     96.0054      0.0000    717.5205      9.1993
  1414.0000     94.0172      0.0000    713.5965      9.3982
  1414.2500     93.3040      0.0000    708.7316      9.4498
  1414.5000     91.3677      0.0000    701.9706      9.4733
  1414.7500     89.0061      0.0000    700.1566      9.4841
  1415.0000     84.6024      0.0000    702.5776      9.5309
  1415.2500     81.8505      0.0000    706.0829      9.5911
  1415.5000     78.3345      0.0000    709.7200      9.7093
  1415.7500     76.0079      0.0000    709.0612      9.7856
  1416.0000     72.1105      0.0000    703.0079      9.8544
  1416.2500     69.5374      0.0000    696.9765      9.8483
  1416.5000     66.8142      0.0000    688.1068      9.7445
  1416.7500     66.3196      0.0000    683.4012      9.6226
  1417.0000     67.6375      0.0000    677.6038      9.4057
  1417.2500     69.1391      0.0000    673.1550      9.2699
  1417.5000     70.1025      0.0000    663.1378      9.1339
  1417.7500     68.9625      0.0000    654.3280      9.1164
  1418.0000     65.2111      0.0000    642.7921      9.2083
  1418.2500     62.8237      0.0000    640.5931      9.3144
  1418.5000     61.8815      0.0000    648.6861      9.4387
  1418.7500     63.5630      0.0000    658.4328      9.4469
  1419.0000     68.6662      0.0000    669.4382      9.3192
  1419.2500     72.4764      0.0000    670.5373      9.1607
  1419.5000     76.2072      0.0000    663.6298      8.8875
  1419.7500     76.4292      0.0000    656.4097      8.7302
  1420.0000     73.5732      0.0000    646.9846      8.5805
  1420.2500     70.5035      0.0000    643.6094      8.5352
  1420.5000     66.0407      0.0000    644.1414      8.5081
  1420.7500     63.8059      0.0000    647.7714      8.4934
  1421.0000     61.6145      0.0000    655.5820      8.4488
  1421.2500     60.7216      0.0000    660.4536      8.3904
  1421.5000     60.3946      0.0000    665.1936      8.2401
  1421.7500     61.1957      0.0000    666.4648      8.0957
  1422.0000     64.0649      0.0000    665.5862      7.8360
  1422.2500     66.6042      0.0000    662.8785      7.6639
  1422.5000     69.9042      0.0000    655.7482      7.4761
  1422.7500     70.9946      0.0000    649.9756      7.4340
  1423.0000     70.3918      0.0000    642.4871      7.5145
  1423.2500     68.7343      0.0000    639.5262      7.6384
  1423.5000     65.6914      0.0000    639.1350      7.8353
  1423.7500     64.3923      0.0000    641.8520      7.9109
  1424.0000     65.2591      0.0000    650.9775      7.8645
  1424.2500     68.1114      0.0000    660.5995      7.7226
  1424.5000     74.7102      0.0000    679.0817      7.4124
  1424.7500     79.0594      0.0000    692.0926      7.2012
  1425.0000     82.5639      0.0000    708.2380      6.9488
  1425.2500     82.1797      0.0000    714.9792      6.8304
  1425.5000     78.9287      0.0000    718.9485      6.7084
  1425.7500     76.6408      0.0000    718.8243      6.6539
  1426.0000     75.0985      0.0000    717.0626      6.5924
  1426.2500     75.5199      0.0000    715.4845      6.5453
  1426.5000     77.6127      0.0000    711.8045      6.4328
  1426.7500     79.5979      0.0000    707.7529      6.3283
  1427.0000     83.0500      0.0000    698.9808      6.1607
  1427.2500     85.3031      0.0000    691.5166      6.0713
  1427.5000     87.8460      0.0000    677.4855      6.0137
  1427.7500     88.8501      0.0000    665.8292      6.0384
  1428.0000     89.7183      0.0000    646.1727      6.1610
  1428.2500     90.0930      0.0000    633.9440      6.2757
  1428.5000     90.4420      0.0000    621.4127      6.4276
  1428.7500     90.6535      0.0000    618.5680      6.4689
  1429.0000     91.4215      0.0000    623.3413      6.3953
  1429.2500     92.3954      0.0000    631.9187      6.2675
  1429.5000     94.0316      0.0000    649.3395      6.0275
  1429.7500     94.5234      0.0000    660.7474      5.8760
  1430.0000     93.2581      0.0000    673.2961      5.6969
  1430.2500     90.9251      0.0000    678.8291      5.6120
  1430.5000     85.6463      0.0000    687.0362      5.5214
  1430.7500     81.2966      0.0000    694.3483      5.4677
  1431.0000     74.1504      0.0000    706.7532      5.3662
  1431.2500     69.4847      0.0000    713.3839      5.2816
  1431.5000     63.6506      0.0000    717.5461      5.1617
  1431.7500     60.9459      0.0000    716.4397      5.1092
  1432.0000     58.7146      0.0000    711.5356      5.0764
  1432.2500     58.1404      0.0000    707.9996      5.0681
  1432.5000     58.0298      0.0000    704.0897      5.0500
  1432.7500     58.4145      0.0000    702.1514      5.0358
  1433.0000     60.4002      0.0000    699.1536      5.0518
  1433.2500     63.1298      0.0000    697.3880      5.1353
  1433.5000     68.9091      0.0000    696.8688      5.4774
  1433.7500     72.6982      0.0000    697.9816      5.9017
  1434.0000     75.9531      0.0000    698.1205      6.8426
  1434.2500     76.0816      0.0000    693.9928      7.6321
  1434.5000     74.7712      0.0000    678.6650      8.9540
  1434.7500     74.3478      0.0000    663.6423      9.8563
  1435.0000     75.6510      0.0000    639.6708     11.1030
  1435.2500     77.3224      0.0000    626.1686     11.8016
  1435.5000     78.9781      0.0000    612.6543     12.6524
  1435.7500     78.6478      0.0000    607.8292     13.1380
  1436.0000     76.3023      0.0000    603.8862     13.8274
  1436.2500     74.4737      2.0000    601.3029     14.2921
