~Version Information
VERS.                      2.0: CWLS Log ASCII Standard - VERSION 2.0
WRAP.                       NO: One line per depth step
~Well Information Block
STRT.FT               710.0000: 
STOP.FT              1983.0000: 
STEP.FT                 0.1000: 
NULL.                -999.2500: 
COMP.          Petrogulf Corporation: COMPANY
WELL.           State 16-23R-X: WELL
FLD.           Purgatorie River: FIELD
LOC.           2381' FSL & 2072' FWL: LOCATION
PROV.                 Colorado: PROVINCE
CNTY.               Las Animas: COUNTRY
SRVC.                Patterson: SERVICE COMPANY
DATE.          Mon Aug 08 07:36:34 2005: LOG DATE
UWI.                          : UNIQUE WELL ID
~Curve Information Block
DEPT.FT            0 000 00 00: Depth
DCAL.in                       : CDL Caliper
RHOB.g/cc                     : CDL Bulk Density
RHOC.g/cc                     : CDL Density Correction
DPOR.pu                       : CDL Density Porosity
GR.GAPI                       : Gamma Ray
NPOR.pu                       : Neutron Porosity
~Parameter Information Block
~A  Depth       DCAL        RHOB        RHOC        DPOR         GR         NPOR    
# ...
  1286.0000      7.8507      2.4198      0.0654     13.9529    157.8925     26.3467
  1286.1000      7.8507      2.4151      0.0869     14.2366    161.3569     26.1617
  1286.2000      7.8507      2.4453      0.1193     12.4087    161.9673     26.0648
  1286.3000      7.8359      2.4911      0.1684      9.6297    162.3532     25.9326
  1286.4000      7.8359      2.5320      0.1906      7.1486    163.4712     25.7925
  1286.5000      7.8413      2.5615      0.2107      5.3641    162.8045     25.7137
  1286.6000      7.8413      2.5815      0.1948      4.1523    160.1031     25.7280
  1286.7000      7.8413      2.5916      0.2023      3.5408    156.1544     25.7976
  1286.8000      7.8528      2.5826      0.2105      4.0865    152.4000     25.9580
  1286.9000      7.8528      2.5482      0.1562      6.1689    151.5000     26.4032
  1287.0000      7.8325      2.5027      0.1139      8.9270    151.0524     27.1604
  1287.1000      7.8325      2.4756      0.0148     10.5671    148.1368     27.8438
  1287.2000      7.8325      2.4882      0.0488      9.8083    146.8303     28.1218
  1287.3000      7.7935      2.5342      0.0947      7.0190    149.8698     28.2094
  1287.4000      7.7935      2.5904      0.1074      3.6121    152.7168     28.4326
  1287.5000      7.7859      2.6287      0.1743      1.2910    152.1649     28.7124
  1287.6000      7.7859      2.6322      0.1445      1.0817    149.0421     28.8361
  1287.7000      7.7859      2.6151      0.1199      2.1137    146.3420     28.8253
  1287.8000      7.7662      2.6014      0.1234      2.9463    147.6194     28.7772
  1287.9000      7.7662      2.5945      0.0680      3.3634    152.6964     28.5770
  1288.0000      7.7664      2.5799      0.1321      4.2464    157.0154     28.1714
  1288.1000      7.7664      2.5567      0.0100      5.6560    156.4938     27.7984
  1288.2000      7.7664      2.5493      0.0170      6.1004    152.4923     27.6659
  1288.3000      7.7863      2.5611      0.0777      5.3871    148.8602     27.8231
  1288.4000      7.7863      2.5699      0.1000      4.8543    147.6681     28.2165
  1288.5000      7.7807      2.5730      0.0775      4.6661    149.1797     28.7402
  1288.6000      7.7807      2.5883      0.0831      3.7420    150.7279     29.2565
  1288.7000      7.7807      2.6271      0.0814      1.3856    148.1100     29.7047
  1288.8000      7.7731      2.6825      0.1121     -1.9716    140.8537     30.2079
  1288.9000      7.7731      2.7305      0.1333     -4.8801    133.2666     30.9392
  1289.0000      7.7562      2.7437      0.1308     -5.6760    128.4833     31.7253
  1289.1000      7.7562      2.7147      0.0663     -3.9238    125.6441     32.1861
  1289.2000      7.7562      2.6587      0.0373     -0.5291    123.6388     32.3228
  1289.3000      7.7776      2.5936     -0.0415      3.4168    122.6648     32.3343
  1289.4000      7.7776      2.5397     -0.0513      6.6835    121.2347     32.2077
  1289.5000      7.7742      2.5167     -0.1477      8.0793    118.0841     32.0744
  1289.6000      7.7742      2.5261     -0.0974      7.5082    115.6825     32.0639
  1289.7000      7.7742      2.5526     -0.0779      5.9023    115.4586     31.9364
  1289.8000      7.7706      2.5907      0.0072      3.5967    116.3817     31.5952
  1289.9000      7.7706      2.6355      0.1674      0.8774    117.2908     31.1697
  1290.0000      7.7543      2.6665      0.2308     -0.9997    116.8859     30.6521
  1290.1000      7.7543      2.6714      0.2268     -1.2968    114.6820     29.8191
  1290.2000      7.7543      2.6535      0.2268     -0.2151    112.9574     28.3200
  1290.3000      7.7159      2.6223      0.1595      1.6798    112.3144     26.4507
  1290.4000      7.7159      2.5905      0.0968      3.6060    110.3072     25.1741
  1290.5000      7.7506      2.5624      0.0455      5.3062    106.1248     24.8190
  1290.6000      7.7506      2.5400      0.0202      6.6638    101.7027     24.8411
  1290.7000      7.7506      2.5332      0.0053      7.0814    100.8988     24.7758
  1290.8000      7.7836      2.5414      0.0198      6.5817    103.9168     24.5974
  1290.9000      7.7836      2.5480      0.0580      6.1831    106.2872     24.3816
  1291.0000      7.7906      2.5455     -0.0113      6.3309    105.2230     24.2245
  1291.1000      7.7906      2.5439      0.0305      6.4331    102.6306     24.1424
  1291.2000      7.7906      2.5532      0.0019      5.8651     99.7101     24.0692
  1291.3000      7.7825      2.5711      0.0763      4.7847     96.4196     23.9707
  1291.4000      7.7825      2.5782      0.1036      4.3516     94.7057     23.8362
  1291.5000      7.7539      2.5707      0.0527      4.8049     94.6880     23.7115
  1291.6000      7.7539      2.5720      0.0362      4.7293     93.8289     23.5192
  1291.7000      7.7539      2.5947      0.0885      3.3493     91.7624     23.1493
  1291.8000      7.7319      2.6194      0.1446      1.8530     89.4125     22.6561
  1291.9000      7.7319      2.6276      0.0982      1.3562     88.1208     22.3344
  1292.0000      7.7552      2.6274      0.0940      1.3717     90.1254     22.4283
  1292.1000      7.7552      2.6267      0.1002      1.4142     95.2544     22.7074
  1292.2000      7.7552      2.6195      0.1081      1.8461     99.9571     22.8350
  1292.3000      7.7503      2.6019      0.1039      2.9166    102.2753     22.8922
  1292.4000      7.7503      2.5813      0.0526      4.1644    103.5182     23.2692
  1292.5000      7.7558      2.5665      0.0451      5.0630    104.4699     23.9229
  1292.6000      7.7558      2.5558      0.0364      5.7089    105.0880     24.3461
  1292.7000      7.7558      2.5466      0.0146      6.2692    106.6803     24.4246
  1292.8000      7.7796      2.5443     -0.0122      6.4088    110.1650     24.4452
  1292.9000      7.7796      2.5530      0.0194      5.8798    112.8012     24.5137
  1293.0000      7.7992      2.5657      0.0525      5.1114    112.4638     24.5717
  1293.1000      7.7992      2.5761      0.0391      4.4760    113.3698     24.7694
  1293.2000      7.7992      2.5834      0.0735      4.0338    117.8794     25.1709
  1293.3000      7.7992      2.5812      0.0761      4.1701    122.2047     25.5146
  1293.4000      7.7992      2.5644      0.0656      5.1897    123.1338     25.6913
  1293.5000      7.8020      2.5447      0.0019      6.3801    121.4711     25.7328
  1293.6000      7.8020      2.5402      0.0173      6.6540    121.9390     25.8166
  1293.7000      7.8020      2.5474      0.0508      6.2180    125.8381     26.1328
  1293.8000      7.8090      2.5520      0.0390      5.9386    129.1909     26.6199
  1293.9000      7.8090      2.5549      0.0358      5.7627    130.4282     26.9380
  1294.0000      7.8274      2.5598      0.0799      5.4686    130.0804     26.8606
  1294.1000      7.8274      2.5616      0.0314      5.3579    128.7134     26.5323
  1294.2000      7.8274      2.5617      0.0459      5.3509    127.0431     26.3327
  1294.3000      7.8191      2.5639      0.0759      5.2169    124.0180     26.5405
  1294.4000      7.8191      2.5698      0.0255      4.8599    121.4191     26.9191
  1294.5000      7.8318      2.5828      0.0493      4.0739    122.6376     27.2333
  1294.6000      7.8318      2.5994      0.0562      3.0697    125.8417     27.7784
  1294.7000      7.8318      2.6092      0.0486      2.4735    126.1284     28.4992
  1294.8000      7.8237      2.6058      0.0729      2.6798    123.4389     28.9178
  1294.9000      7.8237      2.5953      0.0417      3.3156    122.4793     28.9810
  1295.0000      7.8150      2.5948      0.0173      3.3430    123.6526     28.9325
  1295.1000      7.8150      2.6099      0.0952      2.4286    125.3533     28.9270
  1295.2000      7.8150      2.6276      0.0722      1.3585    128.2166     28.9586
  1295.3000      7.8154      2.6438      0.1010      0.3752    130.8055     29.0544
  1295.4000      7.8154      2.6637      0.0972     -0.8279    129.5025     29.3206
  1295.5000      7.8056      2.6809      0.0975     -1.8727    122.7226     29.5507
