~Version Information
VERS.                      2.0: CWLS Log ASCII Standard - VERSION 2.0
WRAP.                       NO: One line per depth step
~Well Information Block
STRT.FT               400.0000: 
STOP.FT              1804.7000: 
STEP.FT                 0.1000: 
NULL.                -999.2500: 
COMP.          Pioneer Natural Resources: COMPANY
WELL.           Lynch 43-30 Tr: WELL
FLD.           Purgatoire River: FIELD
LOC.           1431' FSL & 296' FEL--: LOCATION
PROV.                 Colorado: PROVINCE
CNTY.               Las Animas: COUNTRY
SRVC.                Patterson: SERVICE COMPANY
DATE.          Thu Jul 28 10:43:37 2005: LOG DATE
UWI.           05 071 08447 00: UNIQUE WELL ID
~Curve Information Block
DEPT.FT            0 000 00 00: Depth
DCAL.in                       : CDL Caliper
RHOB.g/cc                     : CDL Bulk Density
RHOC.g/cc                     : CDL Density Correction
DPOR.pu                       : CDL Density Porosity
NPOR.pu                       : Neutron Porosity
GR.GAPI                       : Gamma Ray
~Parameter Information Block
~A  Depth       DCAL        RHOB        RHOC        DPOR        NPOR         GR     
# ...
  1043.2000      8.1569      2.5571     -0.0003      5.6313     24.4518    101.8908
  1043.3000      8.1566      2.5479     -0.0062      6.1849     24.5030    102.6768
  1043.4000      8.1566      2.5496      0.0314      6.0868     25.0966    106.2125
  1043.5000      8.1574      2.5429      0.0046      6.4900     25.4922    108.3689
  1043.6000      8.1574      2.5372     -0.0042      6.8354     25.3501    110.6612
  1043.7000      8.1574      2.5472      0.0151      6.2324     25.2017    114.1962
  1043.8000      8.1592      2.5640      0.0205      5.2150     25.5182    114.2367
  1043.9000      8.1592      2.5744      0.0256      4.5843     26.0995    109.8133
  1044.0000      8.1612      2.5746      0.0258      4.5716     26.3120    104.6815
  1044.1000      8.1612      2.5702      0.0199      4.8366     26.0991     98.7441
  1044.2000      8.1612      2.5740      0.0106      4.6062     26.0351     93.8427
  1044.3000      8.1624      2.5908      0.0319      3.5878     26.0317     93.9156
  1044.4000      8.1624      2.6117      0.0317      2.3203     25.9416     96.0354
  1044.5000      8.1620      2.6304      0.0380      1.1852     26.1722     98.4180
  1044.6000      8.1620      2.6468      0.0417      0.1913     26.7523    101.5864
  1044.7000      8.1620      2.6595      0.0464     -0.5759     27.4553    103.1439
  1044.8000      8.1613      2.6636      0.0472     -0.8268     27.8602    103.1202
  1044.9000      8.1613      2.6546      0.0514     -0.2801     27.6439    102.9405
  1045.0000      8.1609      2.6385      0.0228      0.7000     27.1374    103.4813
  1045.1000      8.1609      2.6278      0.0388      1.3479     26.8357    106.8633
  1045.2000      8.1609      2.6252      0.0238      1.5028     26.7314    112.5688
  1045.3000      8.1594      2.6229      0.0443      1.6412     26.5593    115.0843
  1045.4000      8.1594      2.6082      0.0359      2.5326     26.5227    112.1559
  1045.5000      8.1562      2.5781      0.0276      4.3564     26.9794    109.0002
  1045.6000      8.1562      2.5461      0.0138      6.2972     27.3519    111.3804
  1045.7000      8.1562      2.5313      0.0036      7.1967     27.0355    117.3938
  1045.8000      8.1540      2.5383      0.0263      6.7719     26.6566    118.6645
  1045.9000      8.1540      2.5518      0.0354      5.9487     26.7521    115.1757
  1046.0000      8.1556      2.5583      0.0358      5.5592     26.7862    113.6168
  1046.1000      8.1556      2.5555      0.0465      5.7260     26.5237    114.1267
  1046.2000      8.1556      2.5522      0.0278      5.9296     26.5006    113.2464
  1046.3000      8.1588      2.5607      0.0385      5.4140     26.4988    111.2038
  1046.4000      8.1588      2.5770      0.0587      4.4214     26.0899    110.8086
  1046.5000      8.1613      2.5893      0.0478      3.6764     25.9069    109.8358
  1046.6000      8.1613      2.5985      0.0584      3.1220     26.3387    106.2377
  1046.7000      8.1613      2.6133      0.0492      2.2220     26.9173    104.9382
  1046.8000      8.1621      2.6373      0.0596      0.7671     27.2641    107.5110
  1046.9000      8.1621      2.6556      0.0876     -0.3402     27.4920    110.7516
  1047.0000      8.1611      2.6534      0.0558     -0.2031     27.9511    112.4820
  1047.1000      8.1611      2.6372      0.0617      0.7743     28.2749    112.0513
  1047.2000      8.1611      2.6179      0.0430      1.9431     27.9231    109.7560
  1047.3000      8.1594      2.6042      0.0359      2.7766     27.3819    106.9336
  1047.4000      8.1594      2.6049      0.0287      2.7336     27.0806    106.4617
  1047.5000      8.1582      2.6213      0.0400      1.7368     26.8737    108.0640
  1047.6000      8.1582      2.6432      0.0405      0.4095     27.1632    109.3851
  1047.7000      8.1582      2.6537      0.0644     -0.2260     28.3099    109.2135
  1047.8000      8.1585      2.6472      0.0264      0.1697     29.6870    106.8048
  1047.9000      8.1585      2.6344      0.0424      0.9480     30.4507    105.0860
  1048.0000      8.1584      2.6218      0.0226      1.7077     30.5688    106.6198
  1048.1000      8.1584      2.6144      0.0239      2.1586     30.7530    108.9307
  1048.2000      8.1584      2.6185      0.0144      1.9088     31.2091    109.6776
  1048.3000      8.1573      2.6293      0.0394      1.2545     31.4323    108.3099
  1048.4000      8.1573      2.6337      0.0338      0.9888     31.3661    106.9128
  1048.5000      8.1528      2.6312      0.0291      1.1414     31.2800    110.1167
  1048.6000      8.1528      2.6239      0.0392      1.5828     31.0139    118.9923
  1048.7000      8.1528      2.5981      0.0562      3.1432     30.3377    127.0344
  1048.8000      8.1445      2.5497      0.0127      6.0772     29.4186    127.1772
  1048.9000      8.1445      2.4977      0.0261      9.2278     28.5545    122.2348
  1049.0000      8.1376      2.4612      0.0074     11.4431     27.7808    119.8635
  1049.1000      8.1376      2.4505      0.0143     12.0887     26.8307    121.5782
  1049.2000      8.1376      2.4512      0.0660     12.0498     25.5974    125.9472
  1049.3000      8.1354      2.4337      0.0539     13.1075     24.4474    132.7337
  1049.4000      8.1354      2.3978      0.0576     15.2875     23.7761    140.7961
  1049.5000      8.1502      2.3653      0.0513     17.2524     23.4317    144.9485
  1049.6000      8.1502      2.3476      0.0705     18.3285     23.1288    141.8094
  1049.7000      8.1502      2.3309      0.0870     19.3412     23.0868    136.4401
  1049.8000      8.2019      2.2932      0.0956     21.6256     23.4006    134.6238
  1049.9000      8.2019      2.2393      0.0637     24.8909     23.7037    137.8527
  1050.0000      8.2656      2.2070      0.0477     26.8491     23.7231    141.8095
  1050.1000      8.2656      2.2215      0.0738     25.9681     23.3451    140.3818
  1050.2000      8.2656      2.2691      0.1010     23.0833     22.7752    135.4858
  1050.3000      8.2547      2.3252      0.1106     19.6860     22.4755    131.6863
  1050.4000      8.2547      2.3728      0.1401     16.8022     22.5788    129.2318
  1050.5000      8.1689      2.4020      0.1327     15.0317     22.6866    128.8677
  1050.6000      8.1689      2.4195      0.1231     13.9726     22.4107    130.9949
  1050.7000      8.1689      2.4408      0.1232     12.6770     22.0191    129.8379
  1050.8000      8.1086      2.4757      0.1132     10.5646     22.1373    123.4643
  1050.9000      8.1086      2.5228      0.1311      7.7078     22.9680    119.5127
  1051.0000      8.0917      2.5699      0.1263      4.8517     24.0409    120.3096
  1051.1000      8.0917      2.6011      0.1395      2.9644     24.9129    120.1949
  1051.2000      8.0917      2.6090      0.1196      2.4841     25.9243    118.1395
  1051.3000      8.0889      2.6071      0.0921      2.6003     27.1805    115.6290
  1051.4000      8.0889      2.6084      0.1008      2.5202     28.1709    112.1883
  1051.5000      8.0887      2.6064      0.0947      2.6446     28.7956    111.5685
  1051.6000      8.0887      2.5984      0.0632      3.1281     29.4474    115.9253
  1051.7000      8.0887      2.5884      0.0843      3.7362     30.1679    121.1717
  1051.8000      8.0881      2.5738      0.0520      4.6179     30.4610    124.7839
  1051.9000      8.0881      2.5594      0.0538      5.4937     30.2402    125.8474
  1052.0000      8.0897      2.5529      0.0436      5.8819     30.1816    123.8451
  1052.1000      8.0897      2.5553      0.0436      5.7424     30.7196    121.9920
  1052.2000      8.0897      2.5554      0.0589      5.7340     31.5650    121.6404
  1052.3000      8.0925      2.5434      0.0429      6.4578     32.0496    120.7327
  1052.4000      8.0925      2.5310      0.0246      7.2119     31.6307    122.0073
  1052.5000      8.0939      2.5313      0.0408      7.1919     30.5660    128.1545
  1052.6000      8.0939      2.5368      0.0438      6.8619     29.6885    134.2547
  1052.7000      8.0939      2.5370      0.0415      6.8490     29.6042    134.7411
