~Version Information
VERS.                      2.0: CWLS Log ASCII Standard - VERSION 2.0
WRAP.                       NO: One line per depth step
~Well Information Block
STRT.FT                -6.7500: 
STOP.FT              2027.0000: 
STEP.FT                 0.2500: 
NULL.                -999.2500: 
COMP.          Pioneer Natural Resources: COMPANY
WELL.             Fleming 11-2: WELL
FLD.           Purgatorie River: FIELD
LOC.           534' FNL & 160' FWL--: LOCATION
CNTY.               Las Animas: COUNTY
SRVC.          Patterson Wireline: SERVICE COMPANY
DATE.          Thu Jul 13 10:28:00 2006: LOG DATE
UWI.           05 071 08491 00: UNIQUE WELL ID
STAT.                       CO: STATE
~Curve Information Block
DEPT.FT            0 000 00 00: Depth
CCL.                          : Casing Collar Locator
TT3.usec                      : CBL 3' Travel Time
AMP3.mV                       : CBL 3' Amplitude
GR.GAPI                       : Gamma Ray
~Parameter Information Block
~A  Depth       CCL         TT3         AMP3         GR     
# ...
  1735.2500      0.0000    582.9404      4.1239     95.4052
  1735.5000      0.0000    615.7089      4.0935     96.6499
  1735.7500      0.0000    643.2969      4.0844     99.3531
  1736.0000      0.0000    658.2803      4.0974    101.4583
  1736.2500      0.0000    659.5583      4.1228    101.5415
  1736.5000      0.0000    649.6578      4.1441     99.9172
  1736.7500      0.0000    631.1445      4.1461     98.0739
  1737.0000      0.0000    606.2443      4.1208     97.3220
  1737.2500      0.0000    578.0424      4.0688     97.8570
  1737.5000      0.0000    550.3613      3.9998     98.9058
  1737.7500      0.0000    526.9429      3.9312     99.6274
  1738.0000      0.0000    510.6387      3.8832     99.6495
  1738.2500      0.0000    501.8237      3.8734     98.4678
  1738.5000      0.0000    498.0475      3.9081     94.6804
  1738.7500      0.0000    496.6372      3.9789     86.8361
  1739.0000      0.0000    496.6738      4.0665     75.3844
  1739.2500      0.0000    497.1480      4.1506     63.0845
  1739.5000      0.0000    495.0714      4.2166     53.1183
  1739.7500      0.0000    487.5458      4.2588     47.1949
  1740.0000      0.0000    474.0264      4.2813     45.4961
  1740.2500      0.0000    455.4753      4.2970     47.5024
  1740.5000      0.0000    434.4438      4.3203     52.0874
  1740.7500      0.0000    416.5612      4.3587     57.2814
  1741.0000      0.0000    408.0228      4.4074     61.0272
  1741.2500      0.0000    409.9386      4.4531     62.5983
  1741.5000      0.0000    416.3590      4.4818     62.9049
  1741.7500      0.0000    418.5368      4.4866     63.1748
  1742.0000      0.0000    411.4269      4.4683     63.6476
  1742.2500      0.0000    396.7572      4.4301     63.6915
  1742.5000      0.0000    380.4511      4.3749     62.7367
  1742.7500      0.0000    367.6265      4.3089     60.8637
  1743.0000      0.0000    359.9622      4.2462     58.7705
  1743.2500      0.0000    356.5084      4.2021     57.2505
  1743.5000      0.0000    355.5965      4.1829     56.5436
  1743.7500      0.0000    355.9716      4.1823     56.2757
  1744.0000      0.0000    356.9772      4.1882     56.0952
  1744.2500      0.0000    358.4243      4.1899     56.1734
  1744.5000      0.0000    360.4800      4.1800     57.0648
  1744.7500      0.0000    363.4596      4.1541     59.2783
  1745.0000      0.0000    367.2921      4.1143     62.9450
  1745.2500      0.0000    371.0616      4.0735     67.7044
  1745.5000      0.0000    373.3972      4.0524     72.7546
  1745.7500      0.0000    373.6820      4.0657     77.0583
  1746.0000      0.0000    372.8029      4.1108     79.7745
  1746.2500      0.0000    372.4834      4.1702     80.8088
  1746.5000      0.0000    373.9066      4.2227     80.8503
  1746.7500      0.0000    376.9465      4.2513     80.5410
  1747.0000      0.0000    380.3956      4.2463     79.6967
  1747.2500      0.0000    382.6476      4.2094     77.7449
  1747.5000      0.0000    382.3221      4.1562     74.7108
  1747.7500      0.0000    378.8838      4.1092     71.2691
  1748.0000      0.0000    373.1712      4.0817     68.1849
  1748.2500      0.0000    367.0958      4.0706     66.3421
  1748.5000      0.0000    362.4137      4.0642     66.8352
  1748.7500      0.0000    359.7938      4.0542     70.0215
  1749.0000      0.0000    359.0923      4.0357     74.5840
  1749.2500      0.0000    360.4649      4.0001     78.3847
  1749.5000      0.0000    365.4315      3.9369     80.2464
  1749.7500      0.0000    377.1846      3.8509     80.3450
  1750.0000      0.0000    399.3551      3.7717     79.2031
  1750.2500      0.0000    432.7307      3.7330     77.1471
  1750.5000      0.0000    471.8873      3.7408     74.6613
  1750.7500      0.0000    506.3573      3.7756     72.4867
  1751.0000      0.0000    527.2764      3.8355     71.0818
  1751.2500      0.0000    532.3971      3.9584     70.2933
  1751.5000      0.0000    524.1782      4.1764     69.7218
  1751.7500      0.0000    506.6227      4.4577     69.3316
  1752.0000     -2.0000    486.5941      4.7129     69.6578
  1752.2500      2.0000    474.1500      4.8525     71.3304
  1752.5000      0.0000    477.1908      4.8337     74.2494
  1752.7500      0.0000    496.1687      4.6722     77.3139
  1753.0000      0.0000    523.9734      4.4306     79.1840
  1753.2500      0.0000    548.6533      4.1875     79.4180
  1753.5000      0.0000    557.2450      4.0069     78.9492
  1753.7500      0.0000    542.4520      3.9331     79.5675
  1754.0000      0.0000    508.8223      3.9932     82.6461
  1754.2500      0.0000    470.3344      4.1818     87.8336
  1754.5000      0.0000    439.9454      4.4508     92.9189
  1754.7500      0.0000    422.0318      4.7353     95.2496
  1755.0000      0.0000    413.8258      4.9902     93.4846
  1755.2500      0.0000    410.9419      5.2055     88.2445
  1755.5000      0.0000    410.8271      5.3967     81.5219
  1755.7500      0.0000    413.3602      5.5857     75.6293
  1756.0000      0.0000    420.4187      5.7845     72.2549
  1756.2500      0.0000    434.2980      5.9924     71.9351
  1756.5000      0.0000    454.3318      6.2031     74.1892
  1756.7500      0.0000    474.1183      6.4122     78.1870
  1757.0000      0.0000    484.1452      6.6141     83.4856
  1757.2500      0.0000    479.5418      6.7979     90.3483
  1757.5000      0.0000    464.6437      6.9517     99.3163
  1757.7500      0.0000    448.6833      7.0743    110.1859
  1758.0000      0.0000    438.0693      7.1760    121.2501
  1758.2500      0.0000    433.5450      7.2621    129.7017
  1758.5000      0.0000    432.6864      7.3194    133.0629
  1758.7500      0.0000    433.0081      7.3276    130.4504
  1759.0000      0.0000    433.1102      7.2805    122.8049
  1759.2500      0.0000    432.5350      7.1899    112.3181
  1759.5000      0.0000    431.5014      7.0685    101.6978
  1759.7500      0.0000    430.7859      6.9188     93.3394
  1760.0000      0.0000    431.5888      6.7396     88.3923
  1760.2500      0.0000    435.0854      6.5373     86.3844
  1760.5000      0.0000    441.8185      6.3285     85.8995
  1760.7500      0.0000    451.2940      6.1302     85.7474
  1761.0000      0.0000    462.0932      5.9511     85.5126
  1761.2500      0.0000    472.6064      5.7919     85.0748
  1761.5000      0.0000    482.6312      5.6551     83.8405
  1761.7500      0.0000    495.2242      5.5501     80.7718
  1762.0000      0.0000    516.2007      5.4848     75.3526
  1762.2500      0.0000    549.5132      5.4531     68.3230
  1762.5000      0.0000    591.9898      5.4353     61.3050
  1762.7500      0.0000    633.6132      5.4113     55.7913
  1763.0000      0.0000    664.1822      5.3739     52.4169
  1763.2500      0.0000    680.0746      5.3311     50.8096
  1763.5000      0.0000    685.1825      5.2971     49.9747
  1763.7500      0.0000    686.4570      5.2825     49.0267
  1764.0000      0.0000    688.7298      5.2878     47.7836
  1764.2500      0.0000    692.7765      5.3047     46.6483
  1764.5000      0.0000    696.9759      5.3222     45.8358
  1764.7500      0.0000    699.9040      5.3318     44.9131
  1765.0000      0.0000    701.6357      5.3301     43.3866
  1765.2500      0.0000    703.4391      5.3198     41.7283
  1765.5000      0.0000    706.7338      5.3068     41.4153
  1765.7500      0.0000    711.9919      5.2965     43.6420
  1766.0000      0.0000    717.9565      5.2914     48.0378
  1766.2500      0.0000    721.8111      5.2938     52.7656
  1766.5000      0.0000    720.8332      5.3092     55.8589
  1766.7500      0.0000    714.2115      5.3435     56.5225
  1767.0000      0.0000    703.1060      5.3961     55.3650
  1767.2500      0.0000    689.6528      5.4571     53.6979
  1767.5000      0.0000    676.7225      5.5131     52.7881
  1767.7500      0.0000    667.9883      5.5539     53.4540
  1768.0000      0.0000    667.0026      5.5722     55.7998
  1768.2500      0.0000    675.5019      5.5589     59.2283
  1768.5000      0.0000    691.5723      5.5025     62.9657
