~Version Information
VERS.                      2.0: CWLS Log ASCII Standard - VERSION 2.0
WRAP.                       NO: One line per depth step
~Well Information Block
STRT.FT                10.0000: 
STOP.FT              1665.0000: 
STEP.FT                 0.1000: 
NULL.                -999.2500: 
COMP.          Pioneer Natural Resources: COMPANY
WELL.          Stock Canyon 34-33: WELL
FLD.           Purgatorie River: FIELD
LOC.           980' FSL & 2191' FEL: LOCATION
PROV.                 Colorado: PROVINCE
CNTY.               Las Animas: COUNTRY
SRVC.                Patterson: SERVICE COMPANY
DATE.          Mon Dec 05 10:33:50 2005: LOG DATE
UWI.                          : UNIQUE WELL ID
~Curve Information Block
DEPT.FT            0 000 00 00: Depth
DCAL.in                       : CDL Caliper
RHOB.g/cc                     : CDL Bulk Density
RHOC.g/cc                     : CDL Density Correction
DPOR.pu                       : CDL Density Porosity
GR.GAPI                       : Gamma Ray
NPOR.pu                       : Neutron Porosity
~Parameter Information Block
~A  Depth       DCAL        RHOB        RHOC        DPOR         GR         NPOR    
# ...
   998.8000      8.0897      2.5492      0.1662      6.1081    158.6400     27.1070
   998.9000      8.0897      2.5108      0.0708      8.4342    162.1432     26.7986
   999.0000      8.0887      2.4893      0.0511      9.7416    161.4636     26.4187
   999.1000      8.0887      2.4875      0.0751      9.8458    157.5290     26.0951
   999.2000      8.0887      2.4886      0.0605      9.7816    153.5885     26.2595
   999.3000      8.0893      2.4834      0.0792     10.0962    153.7031     26.7931
   999.4000      8.0893      2.4748      0.0636     10.6206    160.2244     27.1875
   999.5000      8.1029      2.4680      0.0790     11.0315    166.1828     27.3618
   999.6000      8.1029      2.4654      0.0387     11.1857    164.9851     27.5038
   999.7000      8.1029      2.4625      0.0813     11.3630    159.8939     27.4276
   999.8000      8.1292      2.4503      0.0416     12.1013    157.4684     27.0606
   999.9000      8.1292      2.4299      0.0535     13.3404    159.7973     26.6943
  1000.0000      8.1349      2.4067      0.0364     14.7484    162.8907     26.4649
  1000.1000      8.1349      2.3779      0.0845     16.4881    163.6079     26.4812
  1000.2000      8.1349      2.3447      0.0198     18.5011    165.4809     26.8634
  1000.3000      8.1439      2.3213      0.0068     19.9234    170.8692     27.5478
  1000.4000      8.1439      2.3096      0.0719     20.6298    173.3352     28.3244
  1000.5000      8.1403      2.2938      0.0600     21.5856    168.8431     28.8433
  1000.6000      8.1403      2.2666      0.0511     23.2355    163.0294     28.8476
  1000.7000      8.1403      2.2337      0.0424     25.2300    159.5842     28.6032
  1000.8000      8.1260      2.2024      0.0937     27.1253    155.9445     28.7523
  1000.9000      8.1260      2.1738      0.0896     28.8589    149.4042     29.3792
  1001.0000      8.1213      2.1483      0.0677     30.4044    141.8197     29.9756
  1001.1000      8.1213      2.1302      0.1405     31.5015    136.8946     30.1711
  1001.2000      8.1213      2.1215      0.1344     32.0279    134.5245     30.1206
  1001.3000      8.1209      2.1196      0.1407     32.1452    131.9780     30.0806
  1001.4000      8.1209      2.1129      0.1568     32.5506    127.8382     30.0346
  1001.5000      8.1012      2.0896      0.0808     33.9635    124.0195     29.9609
  1001.6000      8.1012      2.0524      0.0979     36.2165    122.5664     29.8901
  1001.7000      8.1012      2.0096      0.0802     38.8124    121.8274     29.8728
  1001.8000      8.0671      1.9688      0.0230     41.2857    119.8314     29.9726
  1001.9000      8.0671      1.9400     -0.0330     43.0285    118.0443     30.1113
  1002.0000      8.0785      1.9275      0.0218     43.7881    119.5977     30.1018
  1002.1000      8.0785      1.9296     -0.0056     43.6601    122.5437     30.0555
  1002.2000      8.0785      1.9549      0.0764     42.1272    121.3109     30.2531
  1002.3000      8.1601      2.0121      0.1812     38.6579    117.0218     30.6627
  1002.4000      8.1601      2.0929      0.3093     33.7619    118.1558     30.9405
  1002.5000      8.4189      2.1846      0.3253     28.2038    126.7508     30.8906
  1002.6000      8.4189      2.2812      0.3631     22.3518    133.4339     30.8599
  1002.7000      8.4189      2.3729      0.3962     16.7925    133.1589     31.2259
  1002.8000      8.9622      2.4529      0.3442     11.9426    131.8312     31.7022
  1002.9000      8.9622      2.5175      0.3435      8.0321    134.7914     31.7884
  1003.0000      9.0184      2.5575      0.3121      5.6059    141.0951     31.6536
  1003.1000      9.0184      2.5767      0.2933      4.4400    147.4664     31.5345
  1003.2000      9.0184      2.5842      0.3157      3.9892    151.9747     31.2058
  1003.3000      8.8628      2.5701      0.3422      4.8400    155.0199     30.5720
  1003.4000      8.8628      2.5282      0.2475      7.3827    157.1958     29.7649
  1003.5000      8.6184      2.4832      0.1264     10.1102    156.8792     29.1375
  1003.6000      8.6184      2.4649      0.0868     11.2155    154.7983     28.9367
  1003.7000      8.6184      2.4734      0.0993     10.7019    154.8356     28.8726
  1003.8000      8.1586      2.4898      0.0987      9.7106    158.1788     28.5314
  1003.9000      8.1586      2.4964      0.1224      9.3107    161.4303     27.8259
  1004.0000      8.0793      2.4807      0.0919     10.2616    161.5027     27.2545
  1004.1000      8.0793      2.4414      0.0721     12.6430    160.2885     27.3021
  1004.2000      8.0793      2.3875      0.0487     15.9118    160.4068     27.7126
  1004.3000      8.0709      2.3302      0.0142     19.3848    158.8877     27.9561
  1004.4000      8.0709      2.2718      0.0118     22.9219    151.8893     27.8557
  1004.5000      8.0648      2.2048      0.0095     26.9809    139.7251     27.6796
  1004.6000      8.0648      2.1269      0.0032     31.7039    127.1926     27.7975
  1004.7000      8.0648      2.0374     -0.0122     37.1297    119.3745     28.2322
  1004.8000      8.0536      1.9259     -0.0073     43.8843    113.6278     28.7888
  1004.9000      8.0536      1.7930     -0.0728     51.9405    106.4490     29.4099
  1005.0000      8.0911      1.6660     -0.0832     59.6341    100.1897     30.0513
  1005.1000      8.0911      1.5687     -0.0917     65.5307     95.5729     30.5753
  1005.2000      8.0911      1.5046     -0.0584     69.4163     91.6409     30.9968
  1005.3000      8.0171      1.4710      0.0111     71.4572     90.7132     31.3955
  1005.4000      8.0171      1.4663      0.0179     71.7422     93.5701     31.7593
  1005.5000      8.0067      1.4954      0.0299     69.9779     95.5978     32.0764
  1005.6000      8.0067      1.5654      0.0153     65.7325     92.4596     32.2695
  1005.7000      8.0067      1.6731      0.0827     59.2071     87.0662     32.4365
  1005.8000      8.0807      1.8009      0.1470     51.4612     86.7370     32.8467
  1005.9000      8.0807      1.9284      0.1764     43.7308     93.8475     33.4201
  1006.0000      8.1252      2.0420      0.1944     36.8512    105.4060     33.6788
  1006.1000      8.1252      2.1334      0.2234     31.3081    117.6271     33.3725
  1006.2000      8.1252      2.2052      0.1496     26.9551    127.9913     32.7269
  1006.3000      8.1670      2.2657      0.1821     23.2897    135.7415     32.1650
  1006.4000      8.1670      2.3086      0.1362     20.6918    140.4989     31.8033
  1006.5000      8.1238      2.3308     -0.0023     19.3454    144.1238     31.2795
  1006.6000      8.1238      2.3531     -0.0328     17.9939    148.1634     30.4297
  1006.7000      8.1238      2.3805      0.0609     16.3325    150.2044     29.6743
  1006.8000      8.0571      2.3902      0.0945     15.7462    147.9838     29.1907
  1006.9000      8.0571      2.3918      0.0160     15.6456    144.6272     28.7085
  1007.0000      8.0162      2.4147      0.1439     14.2608    146.5720     28.1160
  1007.1000      8.0162      2.4473      0.1626     12.2852    151.8466     27.5113
  1007.2000      8.0162      2.4708      0.1215     10.8609    151.7665     27.1668
  1007.3000      7.9971      2.4943      0.0909      9.4365    145.9185     27.3219
  1007.4000      7.9971      2.5229      0.1302      7.7025    140.1405     27.6523
  1007.5000      7.9974      2.5404      0.1312      6.6431    137.1797     27.4772
  1007.6000      7.9974      2.5395      0.1081      6.6964    135.9513     26.6803
  1007.7000      7.9974      2.5370      0.1047      6.8510    133.2657     25.7343
  1007.8000      7.9843      2.5493      0.0783      6.1026    127.5706     24.9946
  1007.9000      7.9843      2.5728      0.0763      4.6774    120.8086     24.3125
  1008.0000      7.9726      2.5888      0.1034      3.7108    114.9967     23.5761
  1008.1000      7.9726      2.5898      0.0503      3.6473    110.9681     22.9905
  1008.2000      7.9726      2.5904      0.0418      3.6133    109.9922     22.6104
  1008.3000      7.9655      2.5985      0.0398      3.1236    111.7088     22.3020
