~Version Information
VERS.                      2.0: CWLS Log ASCII Standard - VERSION 2.0
WRAP.                       NO: One line per depth step
~Well Information Block
STRT.FT                -7.0000: 
STOP.FT              3030.2500: 
STEP.FT                 0.2500: 
NULL.                -999.2500: 
COMP.          Pioneer Natural Resources: COMPANY
WELL.            Cleaver 24-12: WELL
FLD.           Purgatorie River: FIELD
LOC.           204' FSL & 2351' FWL--: LOCATION
CNTY.               Las Animas: COUNTY
SRVC.          Patterson Wireline: SERVICE COMPANY
DATE.          Thu Feb 02 12:17:57 2006: LOG DATE
UWI.           05 071 08634 00: UNIQUE WELL ID
STAT.                       CO: STATE
~Curve Information Block
DEPT.FT            0 000 00 00: Depth
CCL.                          : Casing Collar Locator
TT3.usec                      : CBL 3' Travel Time
AMP3.mV                       : CBL 3' Amplitude
GR.GAPI                       : Gamma Ray
~Parameter Information Block
~A  Depth       CCL         TT3         AMP3         GR     
# ...
   596.0000      0.0000    263.5813     71.7991     58.0716
   596.2500      0.0000    263.5905     71.8316     60.7096
   596.5000      0.0000    263.6021     71.8223     64.1015
   596.7500      0.0000    263.6142     71.7728     70.1178
   597.0000      0.0000    263.6245     71.7045     80.4622
   597.2500      0.0000    263.6306     71.6468     94.9904
   597.5000      0.0000    263.6317     71.6203    111.4714
   597.7500      0.0000    263.6288     71.6284    126.7039
   598.0000      0.0000    263.6240     71.6621    137.9353
   598.2500      0.0000    263.6181     71.7101    144.0616
   598.5000      0.0000    263.6108     71.7626    146.0513
   598.7500      0.0000    263.6031     71.8078    145.8477
   599.0000      0.0000    263.5984     71.8284    144.6909
   599.2500      0.0000    263.6014     71.8064    142.7975
   599.5000      0.0000    263.6135     71.7372    140.2293
   599.7500      0.0000    263.6314     71.6381    137.1324
   600.0000      0.0000    263.6485     71.5419    133.4717
   600.2500      0.0000    263.6592     71.4777    129.5163
   600.5000      0.0000    263.6609     71.4555    126.1994
   600.7500      0.0000    263.6546     71.4649    124.1649
   601.0000      0.0000    263.6435     71.4850    122.9938
   601.2500      0.0000    263.6315     71.4931    122.1806
   601.5000      0.0000    263.6223     71.4687    122.4798
   601.7500      0.0000    263.6182     71.3963    125.2925
   602.0000      0.0000    263.6203     71.2706    130.6865
   602.2500      0.0000    263.6280     71.1015    136.7790
   602.5000      0.0000    263.6392     70.9131    141.2936
   602.7500      0.0000    263.6511     70.7333    143.2822
   603.0000      0.0000    263.6615     70.5748    143.1082
   603.2500      0.0000    263.6700     70.4246    141.0966
   603.5000      0.0000    263.6768     70.2509    136.8905
   603.7500      0.0000    263.6810     70.0182    130.5566
   604.0000      0.0000    263.6812     69.6995    123.9212
   604.2500      0.0000    263.6769     69.2840    120.0910
   604.5000      0.0000    263.6700     68.7760    121.3801
   604.7500      0.0000    263.6657     68.1762    127.5737
   605.0000      0.0000    263.6717     67.4653    135.7749
   605.2500      0.0000    263.6952     66.6316    141.9071
   605.5000      0.0000    263.7395     65.7415    143.1705
   605.7500      0.0000    263.8008     64.9630    139.6531
   606.0000      0.0000    263.8683     64.4699    133.6866
   606.2500      0.0000    263.9277     64.2993    127.7860
   606.5000      0.0000    263.9681     64.3207    123.2125
   606.7500      0.0000    263.9855     64.3521    120.0149
   607.0000      0.0000    263.9822     64.2921    117.8681
   607.2500      0.0000    263.9647     64.1515    116.6217
   607.5000      0.0000    263.9403     63.9941    116.1123
   607.7500      0.0000    263.9139     63.8662    115.7413
   608.0000      0.0000    263.8866     63.7811    114.4613
   608.2500      0.0000    263.8584     63.7592    111.2117
   608.5000      0.0000    263.8319     63.8582    105.5322
   608.7500      0.0000    263.8138     64.1333     98.0322
   609.0000      0.0000    263.8114     64.5583     90.1792
   609.2500      0.0000    263.8270     65.0036     83.3568
   609.5000      0.0000    263.8573     65.3103     78.0793
   609.7500      0.0000    263.8955     65.3851     74.0874
   610.0000      0.0000    263.9344     65.2321     70.9944
   610.2500      0.0000    263.9685     64.9144     68.7496
   610.5000      0.0000    263.9952     64.5002     67.5107
   610.7500      0.0000    264.0151     64.0338     67.1559
   611.0000      0.0000    264.0313     63.5388     67.0959
   611.2500      0.0000    264.0464     63.0350     66.5815
   611.5000      0.0000    264.0627     62.5466     65.1566
   611.7500      0.0000    264.0826     62.0912     63.1008
   612.0000      0.0000    264.1087     61.6672     61.6312
   612.2500      0.0000    264.1435     61.2569     62.1922
   612.5000      0.0000    264.1869     60.8457     64.9674
   612.7500      0.0000    264.2352     60.4392     68.2455
   613.0000      0.0000    264.2811     60.0622     69.7151
   613.2500      0.0000    264.3158     59.7419     68.3264
   613.5000      0.0000    264.3320     59.4927     64.7797
   613.7500      0.0000    264.3274     59.3189     60.7153
   614.0000      0.0000    264.3062     59.2222     57.9310
   614.2500      0.0000    264.2776     59.1959     57.8324
   614.5000      0.0000    264.2523     59.2097     60.5842
   614.7500      0.0000    264.2394     59.2076     64.5969
   615.0000      0.0000    264.2455     59.1169     67.4640
   615.2500      0.0000    264.2769     58.8554     67.7632
   615.5000      0.0000    264.3418     58.3392     65.9341
   615.7500      0.0000    264.4482     57.5130     63.5193
   616.0000      0.0000    264.5973     56.4046     61.7336
   616.2500      0.0000    264.7743     55.1705     60.5821
   616.5000      0.0000    264.9473     54.0718     59.1765
   616.7500      0.0000    265.0798     53.3534     56.9797
   617.0000      0.0000    265.1507     53.0949     54.7235
   617.2500      0.0000    265.1658     53.1581     53.9797
   617.5000      0.0000    265.1501     53.2875     56.0441
   617.7500      0.0000    265.1287     53.2792     61.4789
   618.0000      0.0000    265.1127     53.0817     70.3556
   618.2500      0.0000    265.0998     52.7747     82.1045
   618.5000      0.0000    265.0870     52.4665     94.6877
   618.7500      0.0000    265.0908     52.1981    104.4136
   619.0000      0.0000    265.1981     51.9022    107.6650
   619.2500      0.0000    265.6703     51.4180    103.4168
   619.5000      0.0000    267.0735     50.5035     93.9668
   619.7500      0.0000    270.2421     48.8360     83.2277
   620.0000      0.0000    275.8220     46.1387     74.4539
   620.2500      0.0000    283.5207     42.5211     69.1331
   620.5000      0.0000    291.8333     38.7076     67.0687
   620.7500      0.0000    298.8401     35.6878     66.9394
   621.0000      0.0000    303.4391     34.0027     67.2210
   621.2500      0.0000    305.7828     33.4452     67.2282
   621.5000     -2.0000    306.6762     33.4237     67.2476
   621.7500      2.0000    306.7793     33.4578     67.5228
   622.0000      0.0000    306.2403     33.3917     67.5945
   622.2500      0.0000    304.7417     33.4030     66.9858
   622.5000      0.0000    301.8018     33.9120     66.0134
   622.7500      0.0000    297.1978     35.3524     65.4178
   623.0000      0.0000    291.2108     37.9159     65.6189
   623.2500      0.0000    284.5048     41.4844     66.8760
   623.5000      0.0000    277.9071     45.6563     69.8558
   623.7500      0.0000    272.2702     49.7449     75.2111
   624.0000      0.0000    268.2231     52.9562     82.2959
   624.2500      0.0000    265.8674     54.8074     88.8125
   624.5000      0.0000    264.7967     55.3610     92.1699
   624.7500      0.0000    264.4488     55.0314     91.0499
   625.0000      0.0000    264.4124     54.2496     85.7152
   625.2500      0.0000    264.4910     53.3002     77.4368
   625.5000      0.0000    264.6196     52.3264     67.9088
   625.7500      0.0000    264.7808     51.3763     58.7992
   626.0000      0.0000    264.9580     50.4418     51.4816
   626.2500      0.0000    265.1327     49.4833     46.9432
   626.5000      0.0000    265.2964     48.4475     45.5387
   626.7500      0.0000    265.4548     47.3054     46.5914
   627.0000      0.0000    265.6114     46.1076     48.5433
   627.2500      0.0000    265.7518     45.0052     49.9010
   627.5000      0.0000    265.8453     44.1983     50.1145
   627.7500      0.0000    265.8641     43.8538     49.5892
   628.0000      0.0000    265.7990     44.0523     49.0750
   628.2500      0.0000    265.6627     44.7786     48.9893
   628.5000      0.0000    265.4798     45.9375     49.1072
   628.7500      0.0000    265.2766     47.3667     49.0425
   629.0000      0.0000    265.0791     48.8381     49.1585
   629.2500      0.0000    264.9154     50.0806     50.5843
