~Version Information
VERS.                      2.0: CWLS Log ASCII Standard - VERSION 2.0
WRAP.                       NO: One line per depth step
~Well Information Block
STRT.FT               345.0000: 
STOP.FT              2167.7000: 
STEP.FT                 0.1000: 
NULL.                -999.2500: 
COMP.          Pioneer Natural Resources: COMPANY
WELL.          Hemisphere 32-24: WELL
FLD.           Purgatoire River: FIELD
LOC.           1850' FNL & 2284' FEL--: LOCATION
PROV.                 Colorado: PROVINCE
CNTY.               Las Animas: COUNTRY
SRVC.                Patterson: SERVICE COMPANY
DATE.          Mon Aug 15 07:19:13 2005: LOG DATE
UWI.           05 071 08440 00: UNIQUE WELL ID
~Curve Information Block
DEPT.FT            0 000 00 00: Depth
DCAL.in                       : CDL Caliper
RHOB.g/cc                     : CDL Bulk Density
RHOC.g/cc                     : CDL Density Correction
DPOR.pu                       : CDL Density Porosity
NPOR.pu                       : Neutron Porosity
GR.GAPI                       : Gamma Ray
~Parameter Information Block
~A  Depth       DCAL        RHOB        RHOC        DPOR        NPOR         GR     
# ...
  1420.2000      7.9849      2.5253      0.0822      7.5583     22.4158    139.4871
  1420.3000      7.9861      2.5213      0.0856      7.7981     22.7031    139.6150
  1420.4000      7.9861      2.5125      0.0355      8.3308     23.0455    135.1317
  1420.5000      7.9873      2.5206      0.0244      7.8410     23.2169    130.7598
  1420.6000      7.9873      2.5473      0.0661      6.2212     23.6297    131.6022
  1420.7000      7.9873      2.5785      0.0636      4.3318     24.2921    137.7513
  1420.8000      7.9869      2.5989      0.1075      3.0950     24.6152    140.7768
  1420.9000      7.9869      2.5988      0.0740      3.1037     24.5601    133.4018
  1421.0000      7.9859      2.5890      0.0318      3.6989     24.7510    122.6856
  1421.1000      7.9859      2.5870      0.0280      3.8205     25.5454    120.1653
  1421.2000      7.9859      2.5866      0.0933      3.8406     26.5101    124.1801
  1421.3000      7.9858      2.5797      0.0225      4.2582     27.0325    125.9514
  1421.4000      7.9858      2.5733      0.0821      4.6488     27.0646    121.8104
  1421.5000      7.9870      2.5608      0.0490      5.4051     26.8503    116.6509
  1421.6000      7.9870      2.5439      0.0042      6.4295     26.6035    116.8215
  1421.7000      7.9870      2.5410      0.0108      6.6061     26.4563    122.5851
  1421.8000      7.9888      2.5516      0.0309      5.9643     26.3565    131.0772
  1421.9000      7.9888      2.5677      0.0302      4.9883     26.1817    137.1745
  1422.0000      7.9905      2.5880      0.0411      3.7599     25.8865    137.4109
  1422.1000      7.9905      2.6003      0.0608      3.0149     25.7389    134.9794
  1422.2000      7.9905      2.5943      0.0825      3.3772     25.9203    133.6804
  1422.3000      7.9903      2.5807      0.0493      4.1987     25.9835    136.0009
  1422.4000      7.9903      2.5690      0.0712      4.9115     25.5332    141.2597
  1422.5000      7.9885      2.5501      0.0795      6.0565     24.8466    142.8702
  1422.6000      7.9885      2.5180      0.0499      8.0023     24.2563    140.5237
  1422.7000      7.9885      2.4817      0.0371     10.2011     23.9461    142.5665
  1422.8000      7.9865      2.4589      0.0044     11.5820     23.9827    151.0002
  1422.9000      7.9865      2.4608      0.0258     11.4666     23.9382    157.7174
  1423.0000      7.9877      2.4785      0.0196     10.3923     23.3861    156.1691
  1423.1000      7.9877      2.4956      0.0449      9.3591     22.5562    150.7954
  1423.2000      7.9877      2.5042      0.0605      8.8335     21.8784    147.5907
  1423.3000      7.9903      2.5053      0.0712      8.7702     21.6445    143.4838
  1423.4000      7.9903      2.5062      0.0544      8.7177     21.8049    135.8629
  1423.5000      7.9911      2.5227      0.0323      7.7179     21.8448    131.5242
  1423.6000      7.9911      2.5599      0.1295      5.4617     21.5138    132.8317
  1423.7000      7.9911      2.5937      0.1250      3.4129     21.1890    133.4535
  1423.8000      7.9907      2.6002      0.0922      3.0170     21.3222    129.9144
  1423.9000      7.9907      2.5861      0.0493      3.8701     22.0420    124.6815
  1424.0000      7.9870      2.5799      0.0073      4.2463     22.9305    122.3392
  1424.1000      7.9870      2.5901      0.0960      3.6299     23.1741    122.3720
  1424.2000      7.9870      2.6031      0.0023      2.8437     22.6748    121.6989
  1424.3000      7.9774      2.6188      0.0477      1.8933     22.1228    122.6330
  1424.4000      7.9774      2.6317      0.0633      1.1064     21.8048    128.1336
  1424.5000      7.9665      2.6317      0.0459      1.1104     21.4112    133.8512
  1424.6000      7.9665      2.6256      0.0624      1.4771     20.7543    133.2533
  1424.7000      7.9665      2.6217      0.0658      1.7122     20.1180    125.8553
  1424.8000      7.9603      2.6260      0.0373      1.4538     19.8445    115.8426
  1424.9000      7.9603      2.6439      0.0730      0.3683     19.9101    105.9016
  1425.0000      7.9582      2.6649      0.1079     -0.9029     20.1886     98.4592
  1425.1000      7.9582      2.6756      0.0446     -1.5519     20.6548     94.6089
  1425.2000      7.9582      2.6742      0.1050     -1.4695     21.0769     90.7162
  1425.3000      7.9558      2.6660      0.0358     -0.9709     21.1984     84.5343
  1425.4000      7.9558      2.6588      0.0414     -0.5313     21.1347     78.9231
  1425.5000      7.9521      2.6468      0.0462      0.1933     20.9040     74.6945
  1425.6000      7.9521      2.6278      0.0160      1.3433     20.5331     71.4725
  1425.7000      7.9521      2.6166      0.0023      2.0235     20.3766     69.9329
  1425.8000      7.9508      2.6136      0.0794      2.2043     20.4879     68.8690
  1425.9000      7.9508      2.6146      0.0137      2.1451     20.3975     67.2406
  1426.0000      7.9513      2.6340      0.0125      0.9670     20.0750     65.9254
  1426.1000      7.9513      2.6669      0.0853     -1.0265     20.0671     65.9330
  1426.2000      7.9513      2.6808      0.1074     -1.8648     20.4534     66.4419
  1426.3000      7.9508      2.6642      0.0677     -0.8633     20.8183     68.8458
  1426.4000      7.9508      2.6358      0.0414      0.8622     21.0220     75.1850
  1426.5000      7.9501      2.6072      0.0591      2.5959     21.2950     82.8074
  1426.6000      7.9501      2.5751      0.0407      4.5377     21.8541     87.1424
  1426.7000      7.9501      2.5426      0.0118      6.5085     22.5019     85.1806
  1426.8000      7.9502      2.5218      0.0021      7.7705     22.9268     79.2086
  1426.9000      7.9502      2.5153      0.0185      8.1647     23.2368     75.3492
  1427.0000      7.9488      2.5103      0.0317      8.4637     23.6288     76.0783
  1427.1000      7.9488      2.4959      0.0194      9.3398     23.8979     80.2579
  1427.2000      7.9488      2.4732     -0.0101     10.7156     23.8796     87.7687
  1427.3000      7.9472      2.4492      0.0131     12.1676     23.8489     97.3667
  1427.4000      7.9472      2.4246      0.0309     13.6630     23.8135    104.8142
  1427.5000      7.9465      2.3970      0.0135     15.3357     23.5014    111.2219
  1427.6000      7.9465      2.3693      0.0792     17.0111     22.9004    118.6045
  1427.7000      7.9465      2.3454      0.0655     18.4632     22.3076    122.8092
  1427.8000      7.9461      2.3259      0.0763     19.6423     22.0343    124.0788
  1427.9000      7.9461      2.3091      0.1197     20.6618     21.7564    128.3787
  1428.0000      7.9468      2.2973      0.0895     21.3732     21.0221    135.4842
  1428.1000      7.9468      2.2997      0.0837     21.2323     20.1559    139.4087
  1428.2000      7.9468      2.3271      0.0108     19.5714     19.5476    138.6041
  1428.3000      7.9466      2.3814      0.0572     16.2761     19.0736    137.6725
  1428.4000      7.9466      2.4444      0.1134     12.4576     18.4777    139.3743
  1428.5000      7.9452      2.5001      0.1462      9.0861     17.6161    140.2067
  1428.6000      7.9452      2.5503      0.1434      6.0411     16.8711    137.2854
  1428.7000      7.9452      2.5975      0.1700      3.1795     16.7301    130.7071
  1428.8000      7.9471      2.6320      0.1836      1.0885     17.1346    119.6840
  1428.9000      7.9471      2.6413      0.2211      0.5283     17.6997    105.3421
  1429.0000      7.9513      2.6352      0.1312      0.8981     18.1922     94.4290
  1429.1000      7.9513      2.6410      0.0960      0.5430     18.6926     90.5959
  1429.2000      7.9513      2.6567      0.1329     -0.4043     19.2863     88.7516
  1429.3000      7.9549      2.6549      0.0688     -0.2995     19.9583     84.8328
  1429.4000      7.9549      2.6321      0.0496      1.0843     20.3825     81.9889
  1429.5000      7.9564      2.6146      0.0126      2.1481     20.5202     82.0630
  1429.6000      7.9564      2.6237      0.0164      1.5954     20.8346     81.6486
  1429.7000      7.9564      2.6382      0.1329      0.7165     21.2804     78.3807
