~Version Information
 VERS.                                  2.0 : CWLS LAS VERSION
 WRAP.                                   NO : WRAPING MODE
 SWARE .                 MController 2.5.0N : SOFTWARE VERSION
~Well Information
 WELL.                        Avant 14-3 Tr : WELL
 COMP.  Pioneer Natural Resources USA, Inc. : COMPANY
 FLD.                      Purgatoire River : FIELD
 LOC.               SW/SW Sec 3 T33S  R67W  : LOCATION
 DATE.                             08/18/05 : DATE(S) LOGGED
 SRVC.       BLANCO Geological Services LLC : SERVICE COMPANY
 STAT.                                   CO : STATE
 CNTY.                           Las Animas : COUNTY
 CTRY.                                  USA : COUNTRY
 API.                       05 071 08463 00 : API NUMBER
 STRT.FT                             585.00 : START DEPTH
 STOP.FT                            1345.00 : STOP DEPTH
 STEP.FT                               1.00 : DEPTH INCREMENT
 NULL.                                -9999 : NULL VALUE
~Curve information
 DEPTH.FT                                   :
 ROP.MIN/FT                                 :
 GAS.UNITS                                  :
~ASCII Log data
# ...
       985.0         0.30          0.8 
       986.0         1.65          1.9 
       987.0         0.57          2.0 
       988.0         0.47          1.9 
       989.0         0.20          2.0 
       990.0         0.33          2.0 
       991.0         0.33          2.1 
       992.0         0.20          1.8 
       993.0         0.27          2.2 
       994.0         0.13          2.3 
       995.0         0.22          2.2 
       996.0         0.13          2.8 
       997.0         0.20          2.7 
       998.0         0.17          2.8 
       999.0         0.17          3.0 
      1000.0         0.17          3.4 
      1001.0         0.27          3.5 
      1002.0         0.20          3.5 
      1003.0         0.20          3.1 
      1004.0         0.20          3.1 
      1005.0         0.23          2.1 
      1006.0         0.20          2.3 
      1007.0         0.17          2.0 
      1008.0         0.20          2.0 
      1009.0         0.17          1.6 
      1010.0         0.17          0.9 
      1011.0         0.17          1.4 
      1012.0         0.18          1.3 
      1013.0         0.23          1.2 
      1014.0         0.30          1.3 
      1015.0         0.23          1.2 
      1016.0         2.30          1.3 
      1017.0         0.32          1.0 
      1018.0         0.27          0.9 
      1019.0         0.27          0.9 
      1020.0         0.27          0.3 
      1021.0         0.20          0.5 
      1022.0         0.20          0.6 
      1023.0         0.20          0.5 
      1024.0         2.52          1.1 
      1025.0         0.20          1.8 
      1026.0         0.23          1.8 
      1027.0         0.23          1.2 
      1028.0         0.23          1.8 
      1029.0         0.20          2.0 
      1030.0         0.23          1.6 
      1031.0         0.20          1.8 
      1032.0         0.20          2.1 
      1033.0         0.23          1.6 
      1034.0         0.20          1.8 
      1035.0         0.20          2.4 
      1036.0         0.23          2.2 
      1037.0         0.22          1.8 
      1038.0         0.20          1.5 
      1039.0         0.20          1.7 
      1040.0         0.17          1.5 
      1041.0         0.17          0.8 
      1042.0         0.17          1.5 
      1043.0         0.17          1.6 
      1044.0         0.20          1.5 
      1045.0         0.17          1.3 
      1046.0         2.38          1.5 
      1047.0         0.63          1.4 
      1048.0         0.33          1.5 
      1049.0         0.37          1.2 
      1050.0         0.27          1.3 
      1051.0         0.33          1.3 
      1052.0         0.30          1.3 
      1053.0         0.27          1.4 
      1054.0         0.28          1.2 
      1055.0         0.23          1.2 
      1056.0         0.27          0.8 
      1057.0         0.20          0.9 
      1058.0         0.27          1.4 
      1059.0         0.20          1.0 
      1060.0         0.23          1.3 
      1061.0         0.23          1.4 
      1062.0         0.20          1.3 
      1063.0         0.23          1.6 
      1064.0         0.23          1.5 
      1065.0         0.20          2.0 
      1066.0         0.20          1.3 
      1067.0         0.20          1.9 
      1068.0         0.20          1.9 
      1069.0         0.20          1.9 
      1070.0         0.22          1.9 
      1071.0         0.20          1.5 
      1072.0         0.20          1.5 
      1073.0         0.20          1.7 
      1074.0         0.27          2.2 
      1075.0         0.20          2.2 
      1076.0         0.97          2.2 
      1077.0         0.30          2.2 
      1078.0         0.10          1.9 
      1079.0         0.23          2.3 
      1080.0         0.27          2.2 
      1081.0         0.48          2.1 
      1082.0         0.30          1.9 
      1083.0         0.30          1.8 
      1084.0         0.27          1.6 
      1085.0         0.27          1.9 
      1086.0         0.37          2.1 
      1087.0         0.13          1.9 
      1088.0         0.23          1.9 
      1089.0         0.23          2.0 
      1090.0         0.23          1.9 
      1091.0         0.23          1.4 
      1092.0         0.23          2.0 
      1093.0         0.23          1.9 
      1094.0         0.45          2.0 
      1095.0         0.17          1.3 
      1096.0         0.13          1.7 
      1097.0         0.13          1.4 
      1098.0         0.23          1.7 
      1099.0         0.33          1.7 
      1100.0         0.30          1.5 
      1101.0         0.13          1.7 
      1102.0         0.17          1.7 
      1103.0         0.27          1.6 
      1104.0         0.20          1.3 
      1105.0         0.10          2.0 
      1106.0         3.42          6.6 
      1107.0         0.43          9.2 
      1108.0         0.28          8.0 
      1109.0         0.27          4.5 
      1110.0         0.17          6.3 
      1111.0         0.23          5.6 
      1112.0         0.20          4.0 
      1113.0         0.20          3.5 
      1114.0         0.20          3.9 
      1115.0         0.23          4.3 
      1116.0         0.23          4.4 
      1117.0         0.27          4.8 
      1118.0         0.30          4.4 
      1119.0         0.23          4.9 
      1120.0         0.23          4.6 
      1121.0         0.20          4.6 
      1122.0         0.25          4.1 
      1123.0         0.20          4.6 
      1124.0         0.23          4.6 
      1125.0         0.27          4.5 
      1126.0         0.23          5.2 
      1127.0         0.33          6.5 
      1128.0         0.23          7.2 
      1129.0         0.27          7.7 
      1130.0         0.23          7.7 
      1131.0         0.23          8.0 
      1132.0         0.20          8.0 
      1133.0         0.27          7.9 
      1134.0         0.23          7.8 
      1135.0         0.20          7.4 
      1136.0         3.08         39.0 
      1137.0         0.43         25.9 
      1138.0         0.42         19.0 
      1139.0         0.40         13.7 
      1140.0         0.40         12.0 
      1141.0         0.40         11.6 
      1142.0         0.57         10.6 
      1143.0         0.30         10.8 
      1144.0         0.23         10.9 
      1145.0         0.27         11.5 
      1146.0         0.30         11.2 
      1147.0         0.25         11.1 
      1148.0         0.27         11.0 
      1149.0         0.23         10.8 
      1150.0         0.17         10.6 
      1151.0         0.17         10.3 
      1152.0         0.27         10.6 
      1153.0         0.23          9.9 
      1154.0         0.27          9.9 
      1155.0         0.30          9.5 
      1156.0         0.27          9.6 
      1157.0         0.27          9.2 
      1158.0         0.30          8.8 
      1159.0         0.23          8.4 
      1160.0         0.28          9.0 
      1161.0         0.23          9.2 
      1162.0         0.23          8.5 
      1163.0         0.20          8.3 
      1164.0         0.23          8.1 
      1165.0         0.20          9.0 
      1166.0         1.83         32.0 
      1167.0         0.48         52.6 
      1168.0         0.50         56.3 
      1169.0         0.37         49.2 
      1170.0         0.50         34.1 
      1171.0         0.43         21.4 
      1172.0         0.23         14.7 
      1173.0         0.27         12.7 
      1174.0         0.30         12.9 
      1175.0         0.27         14.0 
      1176.0         0.25         16.1 
      1177.0         0.17         17.7 
      1178.0         0.13         18.1 
      1179.0         0.30         18.4 
      1180.0         0.10         17.6 
      1181.0         0.50         17.0 
      1182.0         0.23         14.0 
      1183.0         0.23         12.9 
      1184.0         0.30         11.9 
