~Version Information
VERS.                      2.0: CWLS Log ASCII Standard - VERSION 2.0
WRAP.                       NO: One line per depth step
~Well Information Block
STRT.FT                 0.0000: 
STOP.FT              1871.2500: 
STEP.FT                 0.2500: 
NULL.                -999.2500: 
COMP.          Petrogulf Corporation: COMPANY
WELL.             Norton 9-14R: WELL
FLD.           Purgatorie River: FIELD
LOC.           725' FSL & 1103' FWL: LOCATION
STAT.                 Colorado: State
CNTY.               Las Animas: COUNTY
CTRY. USA : Country
SECT. 9 : Section
TOWN. 33S : Township
RANG. 67W : Range
SRVC.                Patterson: SERVICE COMPANY
DATE.          Thu Nov 10 13:05:53 2005: LOG DATE
API. 05-071-08444                         : UNIQUE WELL ID
~Curve Information Block
DEPT.FT            0 000 00 00: Depth
CCL.                          : Casing Collar Locator
TT3.usec                      : CBL 3' Travel Time
AMP3.mV                       : CBL 3' Amplitude
GR.GAPI                       : Gamma Ray
~Parameter Information Block
~A  Depth       CCL         TT3         AMP3         GR     
     0.0000      0.0000   1197.0000      0.9295     52.3057
     0.2500      0.0000   1197.0000      0.8727     66.1936
     0.5000      0.0000   1197.0000      0.8878     72.4636
     0.7500      0.0000   1197.0000      0.8984     77.3767
     1.0000      0.0000   1197.0000      0.8828     81.5845
     1.2500      0.0000   1197.0000      0.8447     85.8167
     1.5000      0.0000   1197.0000      0.7988     89.7239
     1.7500      0.0000   1197.0000      0.7730     91.9866
     2.0000      0.0000   1197.0000      0.7790     91.7050
     2.2500      0.0000   1197.0000      0.8094     89.4177
     2.5000      0.0000   1197.0000      0.8497     86.4910
     2.7500      0.0000   1197.0000      0.8668     83.6887
     3.0000      0.0000   1197.0000      0.8506     80.7189
     3.2500      0.0000   1197.0000      0.8376     77.2308
     3.5000      0.0000   1197.0000      0.8465     73.8328
     3.7500      0.0000   1197.0000      0.8688     71.7563
     4.0000      0.0000   1197.0000      0.9064     71.5717
     4.2500      0.0000   1197.0000      0.9413     72.5525
     4.5000      0.0000   1197.0000      0.9388     73.3912
     4.7500      0.0000   1197.0000      0.9109     73.4323
     5.0000      0.0000   1197.0000      0.8855     73.1888
     5.2500      0.0000   1197.0000      0.8590     73.6296
     5.5000      0.0000   1197.0000      0.8415     75.0077
     5.7500      0.0000   1197.0000      0.8547     76.5595
     6.0000      0.0000   1197.0000      0.8744     77.2560
     6.2500      0.0000   1197.0000      0.8762     76.5893
     6.5000      0.0000   1197.0000      0.8795     74.8469
     6.7500      0.0000   1197.0000      0.8826     72.8348
     7.0000      0.0000   1197.0000      0.8562     71.0297
     7.2500      0.0000   1197.0000      0.8140     68.9578
     7.5000      0.0000   1197.0000      0.7937     65.8432
     7.7500      0.0000   1197.0000      0.7928     61.7555
     8.0000      0.0000   1196.9163      0.8084     57.6252
     8.2500      0.0000   1195.9519      0.9241     54.2839
     8.5000      0.0000   1188.8254      1.5222     51.9778
     8.7500      0.0000   1155.0626      3.9925     50.7629
     9.0000      0.0000   1052.4994     11.2196     50.9653
     9.2500      0.0000    852.7308     25.1418     53.0257
     9.5000      0.0000    603.2449     42.4485     56.8617
     9.7500      0.0000    403.4669     56.2759     61.5283
    10.0000      0.0000    300.8963     63.3998     65.7510
    10.2500      0.0000    267.1262     65.8325     68.8179
    10.5000      0.0000    259.9723     66.4733     70.8133
    10.7500      0.0000    258.9573     66.6623     72.1459
    11.0000      0.0000    258.8286     66.6967     73.2452
    11.2500      0.0000    258.8139     66.6471     74.6825
    11.5000      0.0000    258.8311     66.6200     76.9593
    11.7500      0.0000    258.8613     66.6836     79.8143
    12.0000      0.0000    258.8769     66.7696     82.1663
    12.2500      0.0000    258.8655     66.7870     83.1684
    12.5000      0.0000    258.8373     66.7773     83.0750
    12.7500      0.0000    258.8059     66.8392     82.8340
    13.0000      0.0000    258.7728     66.9925     83.0490
    13.2500      0.0000    258.7388     67.1973     83.4948
    13.5000      0.0000    258.7088     67.4392     83.4181
    13.7500      0.0000    258.6807     67.7210     82.1291
    14.0000      0.0000    258.6559     67.9987     79.5139
    14.2500      0.0000    258.6522     68.2262     76.3188
    14.5000      0.0000    258.6796     68.4151     73.9159
    14.7500      0.0000    258.7257     68.5681     73.4156
    15.0000      0.0000    258.7825     68.6271     74.7348
    15.2500      0.0000    258.8921     68.4657     76.5113
    15.5000      0.0000    259.3257     67.6593     76.9773
    15.7500      0.0000    261.0178     65.1919     75.1535
    16.0000      0.0000    265.3653     60.3147     71.5452
    16.2500      0.0000    271.8055     54.5652     67.7688
    16.5000      0.0000    276.1797     50.9582     65.4575
    16.7500      0.0000    275.3628     49.8420     65.4462
    17.0000      0.0000    271.6470     48.9694     67.5230
    17.2500      0.0000    268.7297     47.5763     70.3551
    17.5000      0.0000    267.4540     46.4724     71.8717
    17.7500      0.0000    267.0378     45.9644     70.5875
    18.0000     -2.0000    266.9043     45.8558     66.8086
    18.2500      2.0000    267.0118     45.9668     62.2201
    18.5000      0.0000    267.9115     46.2008     58.3682
    18.7500      0.0000    270.3961     46.7117     55.7043
    19.0000      0.0000    273.6447     48.2979     53.8181
    19.2500      0.0000    274.2210     51.8207     52.2682
    19.5000      0.0000    270.0746     56.4710     51.1602
    19.7500      0.0000    264.0339     60.5836     50.9356
    20.0000      0.0000    259.9013     63.9438     51.6344
    20.2500      0.0000    258.2835     66.7571     52.5592
    20.5000      0.0000    257.8997     68.5615     52.8417
    20.7500      0.0000    257.8213     69.3063     52.2118
    21.0000      0.0000    257.7929     69.5390     51.0735
    21.2500      0.0000    257.8048     69.6629     50.0175
    21.5000      0.0000    257.8433     69.7468     49.5192
    21.7500      0.0000    257.8813     69.7930     49.9350
    22.0000      0.0000    257.9076     69.8479     51.2607
    22.2500      0.0000    257.9169     69.9072     52.7370
    22.5000      0.0000    257.9099     69.9394     53.1844
    22.7500      0.0000    257.9023     69.9736     52.1272
    23.0000      0.0000    257.9081     70.0496     50.3600
    23.2500      0.0000    257.9233     70.1506     49.0608
    23.5000      0.0000    257.9349     70.2454     48.5719
    23.7500      0.0000    257.9341     70.3343     48.4161
    24.0000      0.0000    257.9193     70.4301     48.2285
    24.2500      0.0000    257.8977     70.5254     48.1336
    24.5000      0.0000    257.8814     70.5904     48.4216
    24.7500      0.0000    257.8778     70.6169     49.4920
    25.0000      0.0000    257.8813     70.6512     52.1277
    25.2500      0.0000    257.8833     70.7459     57.3495
    25.5000      0.0000    257.8864     70.8975     65.7857
    25.7500      0.0000    257.8991     71.0414     76.9978
    26.0000      0.0000    257.9153     71.1027     89.1893
    26.2500      0.0000    257.9203     71.0584     99.7458
    26.5000      0.0000    257.9143     70.9668    106.6896
    26.7500      0.0000    257.9091     70.9348    109.9526
    27.0000      0.0000    257.9031     71.0179    110.9779
    27.2500      0.0000    257.8847     71.1818    111.0357
    27.5000      0.0000    257.8625     71.3950    110.3236
    27.7500      0.0000    257.8562     71.6392    108.5694
    28.0000      0.0000    257.8665     71.8366    105.6732
    28.2500      0.0000    257.8780     71.9119    101.6470
    28.5000      0.0000    257.8809     71.9042     96.8535
    28.7500      0.0000    257.8782     71.9225     92.6719
    29.0000      0.0000    257.8794     72.0140     91.1239
    29.2500      0.0000    257.8881     72.1315     93.1567
    29.5000      0.0000    257.8971     72.2185     97.4734
    29.7500      0.0000    257.8971     72.2613    101.2795
    30.0000      0.0000    257.8837     72.2558    102.2205
    30.2500      0.0000    257.8621     72.1892     99.9058
    30.5000      0.0000    257.8482     72.0685     95.9951
    30.7500      0.0000    257.8570     71.9533     92.8234
    31.0000      0.0000    257.8865     71.9320     91.6940
    31.2500      0.0000    257.9191     72.0381     92.1089
    31.5000      0.0000    257.9367     72.2241     92.2859
    31.7500      0.0000    257.9339     72.4268     90.7179
    32.0000      0.0000    257.9162     72.6152     87.7970
    32.2500      0.0000    257.8900     72.7774     85.7678
    32.5000      0.0000    257.8567     72.8968     86.5587
    32.7500      0.0000    257.8222     72.9529     89.7834
    33.0000      0.0000    257.8010     72.9343     93.2171
    33.2500      0.0000    257.7997     72.8475     94.9399
