~Version Information
VERS.                      2.0: CWLS Log ASCII Standard - VERSION 2.0
WRAP.                       NO: One line per depth step
~Well Information Block
STRT.FT               529.2000: 
STOP.FT              1325.2000: 
STEP.FT                 0.1000: 
NULL.                -999.2500: 
COMP.          Pioneer Natural Resources: COMPANY
WELL.            Erin 21-15 Tr: WELL
FLD.           Purgatoire River: FIELD
LOC.           1217' FNL & 2284' FWL--: LOCATION
CNTY.               Las Animas: COUNTY
SRVC.                Patterson: SERVICE COMPANY
DATE.          Mon Mar 06 14:26:48 2006: LOG DATE
UWI.           05 071 08712 00: UNIQUE WELL ID
STAT.                 Colorado: STATE
~Curve Information Block
DEPT.FT            0 000 00 00: Depth
DCAL.in                       : CDL Caliper
RHOB.g/cc                     : CDL Bulk Density
RHOC.g/cc                     : CDL Density Correction
DPOR.pu                       : CDL Density Porosity
GR.GAPI                       : Gamma Ray
~Parameter Information Block
~A  Depth       DCAL        RHOB        RHOC        DPOR         GR     
# ...
   842.8000      7.9779      2.5786      0.0374      4.3259    103.8818
   842.9000      7.9779      2.5782      0.0650      4.3534    103.5472
   843.0000      7.9786      2.5840      0.0473      3.9971    100.4212
   843.1000      7.9786      2.5864      0.0950      3.8534     95.7145
   843.2000      7.9786      2.5800      0.0462      4.2448     93.4026
   843.3000      7.9817      2.5692      0.0183      4.8979     94.0659
   843.4000      7.9817      2.5566      0.0256      5.6616     97.9483
   843.5000      7.9859      2.5416      0.0344      6.5669    106.4941
   843.6000      7.9859      2.5271      0.0107      7.4472    115.9751
   843.7000      7.9859      2.5168      0.0217      8.0728    120.6181
   843.8000      7.9883      2.5157      0.0186      8.1371    121.1487
   843.9000      7.9883      2.5242      0.0450      7.6253    118.7447
   844.0000      7.9884      2.5276      0.0547      7.4189    110.9151
   844.1000      7.9884      2.5148     -0.0027      8.1945    100.3668
   844.2000      7.9884      2.4976     -0.0129      9.2353     93.5112
   844.3000      7.9895      2.4832      0.0333     10.1061     91.3980
   844.4000      7.9895      2.4676      0.0230     11.0539     89.4882
   844.5000      7.9924      2.4652     -0.0051     11.2025     84.1791
   844.6000      7.9924      2.4931      0.0393      9.5077     79.5363
   844.7000      7.9924      2.5342      0.0994      7.0209     80.8173
   844.8000      7.9964      2.5591      0.0840      5.5103     84.4098
   844.9000      7.9964      2.5652      0.0699      5.1390     84.9596
   845.0000      8.0001      2.5603      0.0705      5.4374     84.4641
   845.1000      8.0001      2.5450      0.0508      6.3652     85.7012
   845.2000      8.0001      2.5283      0.0219      7.3783     88.1392
   845.3000      8.0018      2.5237      0.0384      7.6557     91.6520
   845.4000      8.0018      2.5289      0.0208      7.3421     94.9867
   845.5000      7.9997      2.5307      0.0477      7.2331     93.9425
   845.6000      7.9997      2.5203      0.0651      7.8607     89.7202
   845.7000      7.9997      2.5058      0.0064      8.7409     88.6946
   845.8000      7.9966      2.4984      0.0657      9.1861     90.0792
   845.9000      7.9966      2.4924      0.0885      9.5505     88.5784
   846.0000      7.9965      2.4786      0.0794     10.3875     82.5796
   846.1000      7.9965      2.4612      0.0228     11.4449     74.4778
   846.2000      7.9965      2.4510      0.0316     12.0620     67.2155
   846.3000      7.9973      2.4476      0.0710     12.2656     63.3117
   846.4000      7.9973      2.4449      0.0699     12.4289     63.3853
   846.5000      7.9985      2.4463      0.0645     12.3470     63.9198
   846.6000      7.9985      2.4591      0.0404     11.5676     63.5811
   846.7000      7.9985      2.4868      0.0606      9.8909     63.2340
   846.8000      8.0011      2.5209      0.0695      7.8269     61.2952
   846.9000      8.0011      2.5416      0.1146      6.5710     59.2723
   847.0000      8.0026      2.5394      0.1039      6.7055     60.3583
   847.1000      8.0026      2.5288      0.0610      7.3442     61.6776
   847.2000      8.0026      2.5241      0.0745      7.6303     60.1784
   847.3000      8.0032      2.5212      0.0790      7.8082     59.7050
   847.4000      8.0032      2.5130      0.0900      8.3007     61.8855
   847.5000      8.0038      2.4965      0.0597      9.3007     61.4855
   847.6000      8.0038      2.4741      0.0247     10.6584     57.4775
   847.7000      8.0038      2.4576      0.0076     11.6577     55.1721
   847.8000      8.0027      2.4520      0.0171     11.9987     58.2246
   847.9000      8.0027      2.4465      0.0618     12.3360     64.5592
   848.0000      8.0007      2.4389      0.0106     12.7935     68.7075
   848.1000      8.0007      2.4418      0.0415     12.6185     66.9827
   848.2000      8.0007      2.4504      0.0945     12.0982     61.5438
   848.3000      8.0006      2.4508      0.0509     12.0715     57.9411
   848.4000      8.0006      2.4442      0.0669     12.4733     57.0885
   848.5000      8.0008      2.4334      0.0490     13.1271     56.5280
   848.6000      8.0008      2.4235      0.0033     13.7295     54.7840
   848.7000      8.0008      2.4225      0.0327     13.7905     51.7071
   848.8000      8.0010      2.4253      0.0361     13.6160     49.7155
   848.9000      8.0010      2.4192      0.0220     13.9869     51.2256
   849.0000      8.0023      2.4019      0.0051     15.0385     56.1240
   849.1000      8.0023      2.3853     -0.0183     16.0421     60.8764
   849.2000      8.0023      2.3818     -0.0163     16.2554     62.1230
   849.3000      8.0030      2.3935     -0.0125     15.5477     61.7680
   849.4000      8.0030      2.4150      0.0295     14.2451     61.5389
   849.5000      8.0012      2.4343      0.0404     13.0741     60.1218
   849.6000      8.0012      2.4474      0.0122     12.2772     57.5950
   849.7000      8.0012      2.4636      0.0482     11.2991     54.5034
   849.8000      7.9980      2.4800      0.0610     10.3001     51.0817
   849.9000      7.9980      2.4826      0.0579     10.1467     48.3499
   850.0000      7.9976      2.4694      0.0268     10.9432     46.3910
   850.1000      7.9976      2.4542      0.0231     11.8687     44.7672
   850.2000      7.9976      2.4465      0.0339     12.3363     45.1910
   850.3000      8.0004      2.4441      0.0565     12.4815     48.0420
   850.4000      8.0004      2.4427      0.0671     12.5633     51.4995
   850.5000      8.0028      2.4462      0.0097     12.3544     57.0484
   850.6000      8.0028      2.4598      0.0393     11.5293     63.2835
   850.7000      8.0028      2.4767      0.0826     10.5030     66.4648
   850.8000      8.0035      2.4858      0.0873      9.9523     67.9861
   850.9000      8.0035      2.4836      0.0621     10.0828     67.0179
   851.0000      8.0015      2.4767      0.0571     10.5040     60.7555
   851.1000      8.0015      2.4760      0.0519     10.5455     54.5450
   851.2000      8.0015      2.4854      0.0725      9.9750     54.4073
   851.3000      7.9997      2.5053      0.0463      8.7681     59.4438
   851.4000      7.9997      2.5364      0.0293      6.8854     66.4861
   851.5000      8.0014      2.5634      0.0803      5.2514     73.8719
   851.6000      8.0014      2.5577      0.0903      5.5951     80.7157
   851.7000      8.0014      2.5042      0.0412      8.8345     85.8350
   851.8000      8.0032      2.4081      0.0127     14.6621     88.6988
   851.9000      8.0032      2.2917     -0.0497     21.7138     89.0290
   852.0000      8.0029      2.1846     -0.0426     28.2050     89.4533
   852.1000      8.0029      2.1091     -0.1186     32.7802     91.5717
   852.2000      8.0029      2.0802     -0.1729     34.5316     90.9484
   852.3000      8.0009      2.0925     -0.0705     33.7883     90.6429
   852.4000      8.0009      2.1253     -0.0960     31.7999     96.8630
   852.5000      7.9982      2.1689     -0.0040     29.1557    101.7198
   852.6000      7.9982      2.2229      0.0551     25.8874     96.2580
   852.7000      7.9982      2.2983      0.1071     21.3171     87.0935
   852.8000      7.9990      2.4055      0.2189     14.8159     83.0859
   852.9000      7.9990      2.5193      0.3418      7.9240     85.1520
   853.0000      8.0083      2.5999      0.2286      3.0388     91.6845
   853.1000      8.0083      2.6353      0.1795      0.8888     98.5642
   853.2000      8.0083      2.6357      0.1485      0.8637     99.9814
   853.3000      8.0123      2.6292      0.0469      1.2610     94.9837
   853.4000      8.0123      2.6406      0.0800      0.5695     89.3728
   853.5000      7.9936      2.6629      0.1111     -0.7829     86.9975
   853.6000      7.9936      2.6794      0.0868     -1.7829     88.0843
   853.7000      7.9936      2.6763      0.1250     -1.5946     93.1074
   853.8000      7.9751      2.6449      0.0830      0.3066     99.0275
   853.9000      7.9751      2.6080      0.0101      2.5425     99.9595
