~Version Information
VERS.                      2.0: CWLS Log ASCII Standard - VERSION 2.0
WRAP.                       NO: One line per depth step
~Well Information Block
STRT.FT               530.0000: 
STOP.FT              1298.0000: 
STEP.FT                 0.1000: 
NULL.                -999.2500: 
COMP.          Pioneer Natural Resources: COMPANY
WELL.            Keiko 14-6 Tr: WELL
FLD.           Purgatoire River: FIELD
LOC.           462' FSL & 1202' FWL: LOCATION
PROV.                 Colorado: PROVINCE
CNTY.               Las Animas: COUNTRY
SRVC.                Patterson: SERVICE COMPANY
DATE.          Fri Dec 30 07:26:03 2005: LOG DATE
UWI.           05 071 08629 00: UNIQUE WELL ID
~Curve Information Block
DEPT.FT            0 000 00 00: Depth
DCAL.in                       : CDL Caliper
RHOB.g/cc                     : CDL Bulk Density
RHOC.g/cc                     : CDL Density Correction
DPOR.pu                       : CDL Density Porosity
GR.GAPI                       : Gamma Ray
~Parameter Information Block
~A  Depth       DCAL        RHOB        RHOC        DPOR         GR     
# ...
  1090.0000      7.9578      2.5665      0.0793      5.0627     88.9177
  1090.1000      7.9578      2.5514      0.0408      5.9757     89.4511
  1090.2000      7.9578      2.5226      0.0080      7.7235     90.0535
  1090.3000      7.9568      2.5116     -0.0196      8.3884     88.5060
  1090.4000      7.9568      2.5262     -0.0168      7.5007     84.3587
  1090.5000      7.9573      2.5432      0.0206      6.4741     83.7504
  1090.6000      7.9573      2.5441      0.0239      6.4158     87.1776
  1090.7000      7.9573      2.5345      0.0175      6.9979     89.7268
  1090.8000      7.9558      2.5316     -0.0191      7.1770     90.1991
  1090.9000      7.9558      2.5486     -0.0159      6.1452     89.9421
  1091.0000      7.9591      2.5823      0.0219      4.1044     90.3055
  1091.1000      7.9591      2.6121      0.0772      2.2990     92.2291
  1091.2000      7.9591      2.6174      0.0672      1.9741     96.3626
  1091.3000      7.9590      2.6014      0.0358      2.9443    102.0003
  1091.4000      7.9590      2.5785      0.0374      4.3353    105.9040
  1091.5000      7.9581      2.5498      0.0318      6.0734    107.6831
  1091.6000      7.9581      2.5240     -0.0485      7.6345    111.0298
  1091.7000      7.9581      2.5197     -0.0280      7.8963    114.4394
  1091.8000      7.9633      2.5323     -0.0029      7.1321    112.9697
  1091.9000      7.9633      2.5398      0.0521      6.6759    112.0890
  1092.0000      7.9563      2.5341     -0.0024      7.0246    118.9198
  1092.1000      7.9563      2.5310     -0.0257      7.2138    128.5098
  1092.2000      7.9563      2.5392      0.0206      6.7178    133.7553
  1092.3000      7.9562      2.5469      0.0134      6.2465    135.1777
  1092.4000      7.9562      2.5495      0.0180      6.0906    135.0904
  1092.5000      7.9577      2.5548      0.0429      5.7696    134.4249
  1092.6000      7.9577      2.5654      0.0388      5.1282    133.8657
  1092.7000      7.9577      2.5759      0.0399      4.4879    133.6805
  1092.8000      7.9587      2.5859      0.0349      3.8820    131.7855
  1092.9000      7.9587      2.5958      0.0762      3.2857    126.0164
  1093.0000      7.9562      2.5919      0.1209      3.5189    119.6356
  1093.1000      7.9562      2.5659      0.0743      5.0973    116.1702
  1093.2000      7.9562      2.5435      0.0272      6.4540    116.5056
  1093.3000      7.9550      2.5551      0.0714      5.7493    121.2959
  1093.4000      7.9550      2.5929      0.1071      3.4633    127.1443
  1093.5000      7.9648      2.6290      0.1496      1.2744    127.7717
  1093.6000      7.9648      2.6507      0.1392     -0.0415    122.5325
  1093.7000      7.9648      2.6632      0.1448     -0.7983    117.1461
  1093.8000      7.9575      2.6722      0.1789     -1.3450    114.0249
  1093.9000      7.9575      2.6815      0.1455     -1.9088    112.2646
  1094.0000      7.9567      2.6980      0.1089     -2.9088    112.6221
  1094.1000      7.9567      2.7162      0.1582     -4.0139    115.4542
  1094.2000      7.9567      2.7170      0.1837     -4.0580    120.9029
  1094.3000      7.9552      2.6972      0.1116     -2.8619    127.5261
  1094.4000      7.9552      2.6769      0.0897     -1.6283    131.0717
  1094.5000      7.9545      2.6698      0.1028     -1.2002    130.1007
  1094.6000      7.9545      2.6767      0.0884     -1.6206    127.8446
  1094.7000      7.9545      2.6920      0.0959     -2.5439    126.9609
  1094.8000      7.9554      2.7017      0.0943     -3.1346    128.6410
  1094.9000      7.9554      2.7017      0.0614     -3.1344    132.4018
  1095.0000      7.9559      2.7023      0.0837     -3.1694    134.7919
  1095.1000      7.9559      2.7085      0.1017     -3.5437    133.3452
  1095.2000      7.9559      2.7153      0.0754     -3.9560    129.5299
  1095.3000      7.9549      2.7084      0.1206     -3.5390    128.9553
  1095.4000      7.9549      2.6719      0.0634     -1.3259    134.2171
  1095.5000      7.9558      2.6132      0.0331      2.2297    142.5529
  1095.6000      7.9558      2.5577      0.0339      5.5961    152.4531
  1095.7000      7.9558      2.5253      0.0079      7.5603    163.2087
  1095.8000      7.9569      2.5218      0.0501      7.7713    169.0366
  1095.9000      7.9569      2.5377      0.0238      6.8069    165.8382
  1096.0000      7.9577      2.5589      0.0635      5.5233    161.9088
  1096.1000      7.9577      2.5687      0.0558      4.9297    166.6919
  1096.2000      7.9577      2.5645      0.0255      5.1833    177.8102
  1096.3000      7.9589      2.5619      0.0418      5.3423    187.2249
  1096.4000      7.9589      2.5649      0.0564      5.1565    189.7505
  1096.5000      7.9600      2.5654      0.0275      5.1258    183.6906
  1096.6000      7.9600      2.5596      0.0587      5.4761    172.3344
  1096.7000      7.9600      2.5470      0.0272      6.2413    162.0246
  1096.8000      7.9589      2.5331      0.0017      7.0853    156.1180
  1096.9000      7.9589      2.5270      0.0247      7.4571    155.8532
  1097.0000      7.9575      2.5240      0.0208      7.6391    161.1091
  1097.1000      7.9575      2.5138     -0.0085      8.2575    170.1823
  1097.2000      7.9575      2.5075     -0.0353      8.6351    179.1212
  1097.3000      7.9551      2.5195     -0.0191      7.9104    183.0522
  1097.4000      7.9551      2.5355      0.0061      6.9382    184.1709
  1097.5000      7.9575      2.5354      0.0311      6.9438    187.5853
  1097.6000      7.9575      2.5187      0.0154      7.9566    188.4123
  1097.7000      7.9575      2.4988      0.0032      9.1617    185.5053
  1097.8000      7.9564      2.4910      0.0278      9.6344    183.3401
  1097.9000      7.9564      2.4963      0.0488      9.3165    177.3526
  1098.0000      7.9563      2.5032      0.0730      8.8955    166.5943
  1098.1000      7.9563      2.5128      0.0450      8.3175    155.8261
  1098.2000      7.9563      2.5319      0.0720      7.1579    143.4086
  1098.3000      7.9568      2.5532      0.0839      5.8646    128.7592
  1098.4000      7.9568      2.5653      0.1047      5.1312    117.3258
  1098.5000      7.9552      2.5688      0.0504      4.9242    110.6696
  1098.6000      7.9552      2.5815      0.0765      4.1510    104.9159
  1098.7000      7.9552      2.6178      0.1199      1.9521     98.5132
  1098.8000      7.9472      2.6646      0.1305     -0.8874     92.1705
  1098.9000      7.9472      2.6935      0.1834     -2.6375     85.8403
  1099.0000      7.9449      2.6923      0.1201     -2.5636     84.1010
  1099.1000      7.9449      2.6727      0.1375     -1.3732     88.5949
  1099.2000      7.9449      2.6505      0.0979     -0.0307     91.5506
  1099.3000      7.9483      2.6364      0.0873      0.8243     88.8769
  1099.4000      7.9483      2.6244      0.0716      1.5510     83.0607
  1099.5000      7.9603      2.6047      0.0392      2.7457     78.5240
  1099.6000      7.9603      2.5870      0.0010      3.8194     78.0803
  1099.7000      7.9603      2.5859      0.0014      3.8851     80.2531
  1099.8000      7.9642      2.5995      0.0296      3.0597     83.3116
  1099.9000      7.9642      2.6169      0.0396      2.0053     86.0883
  1100.0000      7.9642      2.6286      0.0720      1.2961     88.6411
  1100.1000      7.9642      2.6294      0.0550      1.2504     91.8984
  1100.2000      7.9642      2.6213      0.0433      1.7369     91.1783
  1100.3000      7.9602      2.6048      0.0657      2.7400     85.2100
  1100.4000      7.9602      2.5790     -0.0167      4.3001     80.2672
  1100.5000      7.9649      2.5547     -0.0046      5.7777     78.4168
  1100.6000      7.9649      2.5454     -0.0064      6.3368     76.8576
  1100.7000      7.9649      2.5623      0.0114      5.3168     74.0800
  1100.8000      7.9631      2.6005      0.0807      3.0018     71.5296
  1100.9000      7.9631      2.6335      0.0829      0.9970     71.5244
  1101.0000      7.9658      2.6446      0.0805      0.3300     74.0311
  1101.1000      7.9658      2.6368      0.1191      0.8015     79.6900
