~Version Information
VERS.                      2.0: CWLS Log ASCII Standard - VERSION 2.0
WRAP.                       NO: One line per depth step
~Well Information Block
STRT.FT               410.0000: 
STOP.FT              1252.0000: 
STEP.FT                 0.2500: 
NULL.                -999.2500: 
COMP.          Petrogulf Corporation: COMPANY
WELL.           Parsons 15-23R: WELL
FLD.           Purgatorie River: FIELD
LOC.           2244' FSL & 1932' FWL: LOCATION
PROV.                 Colorado: PROVINCE
CNTY.               Las Animas: COUNTRY
SRVC.                Patterson: SERVICE COMPANY
DATE.          Mon Sep 12 10:30:11 2005: LOG DATE
UWI.                          : UNIQUE WELL ID
~Curve Information Block
DEPT.FT            0 000 00 00: Depth
SP.mV                         : DIL Spontaneous Potential
RILD.Ohm-m                    : DIL Deep Resistivity
RILM.Ohm-m                    : DIL Medium Resistivity
RLL3.Ohm-m                    : DIL Shallow Resistivity
GR.GAPI                       : Gamma Ray
~Parameter Information Block
~A  Depth        SP         RILD        RILM        RLL3         GR     
# ...
   746.0000    212.7823      6.6824      6.2590      8.7619     95.6833
   746.2500    211.2663      7.0123      6.5128      8.7358     94.2586
   746.5000    209.7379      7.4153      6.9428      8.6315    118.7245
   746.7500    208.8899      7.9198      7.5781      9.2391    122.8198
   747.0000    208.3344      8.3934      8.4599     11.8584     99.3040
   747.2500    207.6587      8.7192      9.5223     15.5026     89.7700
   747.5000    207.0163      9.3085     10.4100     23.0550     75.2802
   747.7500    206.3785      9.6988     11.3568     33.1569     77.5123
   748.0000    205.8368     10.1823     12.4570     40.1350    101.8984
   748.2500    205.0882     10.6829     13.4915     44.5888     78.7431
   748.5000    204.6955     11.4166     14.5323     41.5092     89.9425
   748.7500    204.2270     12.5712     15.3842     35.1797    111.2251
   749.0000    203.6149     13.3830     16.4086     27.5031    127.2350
   749.2500    202.5535     14.7078     17.2909     21.4512    118.5511
   749.5000    201.5595     15.6528     18.8698     20.3823    106.9045
   749.7500    200.4430     16.2878     21.1517     25.6715    108.7097
   750.0000    199.4107     16.4410     24.0799     40.9611     97.0759
   750.2500    198.3892     16.4486     25.4910     68.6103     75.6953
   750.5000    197.8579     16.0546     27.0975     99.2844     76.6434
   750.7500    197.4291     15.6071     27.0516    102.8106     74.7479
   751.0000    197.1247     15.1400     25.8049     81.1859     91.5768
   751.2500    197.0310     14.4426     23.3002     53.3714     87.4407
   751.5000    197.2632     13.8950     21.2763     33.5690    117.3111
   751.7500    197.3275     13.5199     19.0545     29.3360    122.5590
   752.0000    197.5853     13.0640     16.6753     27.4750    127.6099
   752.2500    197.7839     12.5828     14.7131     19.9171    163.8136
   752.5000    197.5396     12.5658     12.9270     13.3562    150.1895
   752.7500    197.2911     12.1320     12.0539     10.8304    148.0255
   753.0000    196.6562     11.8705     11.2285     10.8214    151.7990
   753.2500    195.7355     11.5925     10.8327     10.3306    147.9514
   753.5000    194.5628     11.6200     10.6507     10.8486    151.0381
   753.7500    193.8946     11.6555     10.7159     11.2087    147.4054
   754.0000    193.1179     11.6360     10.7363     11.9653    151.7208
   754.2500    192.2479     11.5923     11.0881     12.0350    155.3296
   754.5000    191.5915     11.6655     11.5195     13.5558    119.9549
   754.7500    191.3459     11.8404     12.1310     17.8288    117.5045
   755.0000    191.1311     12.0234     12.7264     23.3749    110.6566
   755.2500    191.2311     12.5148     13.4908     22.3975    104.5388
   755.5000    191.5030     12.7625     14.6779     17.4162    113.8337
   755.7500    192.0360     13.0802     15.8569     18.8541    114.8261
   756.0000    192.8482     13.7680     17.8529     27.4793    117.4602
   756.2500    193.8621     14.5104     19.0155     40.0384    104.4531
   756.5000    195.1084     14.6827     20.4048     53.0664     94.8439
   756.7500    196.4760     15.5734     21.3822     61.6491    101.6639
   757.0000    197.5456     16.1109     22.3868     59.6592     94.6448
   757.2500    198.4769     16.4446     22.4013     47.0853    101.4645
   757.5000    199.0219     16.2974     21.9152     33.8232    114.6769
   757.7500    199.1756     16.8791     21.0909     26.8330    124.0793
   758.0000    198.9364     16.7883     20.4281     25.6867    132.0007
   758.2500    198.4026     16.3052     20.0615     25.1934    129.0339
   758.5000    197.8845     16.2952     19.5104     22.3134    108.4179
   758.7500    197.3121     15.4976     18.8711     21.0285    120.9446
   759.0000    196.6785     15.7329     17.9190     23.2633    135.3606
   759.2500    196.2670     15.7361     17.2747     21.9468    125.4139
   759.5000    195.8570     15.6558     16.9282     15.4665    142.1353
   759.7500    195.4599     15.6665     16.6563     12.9875    153.3666
   760.0000    195.2740     15.3012     16.4916     14.4475    129.0730
   760.2500    195.0821     15.1207     17.4923     17.6655    131.4455
   760.5000    195.5532     14.8754     17.4574     22.3291    104.1257
   760.7500    196.1134     14.6536     18.2245     27.0010     95.1939
   761.0000    196.9028     14.2415     18.0644     29.5270     76.3673
   761.2500    198.0260     14.4431     18.2589     36.0722     88.2535
   761.5000    198.9912     14.7828     17.6217     39.6823    107.7970
   761.7500    200.0780     15.0078     17.2551     31.8630     99.6938
   762.0000    201.1756     15.3173     17.4932     23.2570    112.8208
   762.2500    201.7737     15.6699     17.6483     18.0664    137.9283
   762.5000    202.1515     15.7672     18.8954     16.8230    126.8704
   762.7500    202.3269     15.8838     18.9451     21.6734    117.7069
   763.0000    202.5072     15.5505     20.0300     30.7695     92.3519
   763.2500    203.1700     15.4124     20.2192     34.7565    100.1195
   763.5000    203.9680     14.9666     19.8678     28.9759     98.0117
   763.7500    204.9608     14.3530     19.3166     26.4340    109.5994
   764.0000    205.5452     13.6391     18.1991     28.0719     95.2118
   764.2500    206.1633     13.2994     16.9992     25.9957     97.6475
   764.5000    206.5235     12.5265     15.7518     19.3645    122.8684
   764.7500    206.9808     12.2078     14.8732     15.5103    137.6994
   765.0000    207.0750     11.9659     13.4841     14.7272    135.6491
   765.2500    207.3369     11.6810     12.4964     12.5187    135.4647
   765.5000    207.6887     11.2103     11.8038     10.3997    150.4373
   765.7500    207.6853     11.0197     11.1892     10.0113    142.0499
   766.0000    207.7992     10.5527     10.6307      9.9979    131.7458
   766.2500    207.8391     10.2159     10.1964      9.7527    141.0537
   766.5000    207.9896      9.8179     10.0139      9.5446    154.6790
   766.7500    207.8717      9.4117      9.8586     10.0798    170.4384
   767.0000    208.0303      9.0628      9.6362     10.3689    152.5650
   767.2500    208.0306      8.8475      9.4886     10.4324    167.3951
   767.5000    207.8120      8.5415      9.1995     10.6649    160.7206
   767.7500    207.8746      8.0893      8.9793     10.5160    173.8475
   768.0000    208.0011      8.0213      8.7151     10.1937    164.2240
   768.2500    208.0949      7.7455      8.5570      9.9589    167.6521
   768.5000    208.2787      7.6991      8.2916      9.2911    154.7451
   768.7500    208.4337      7.5389      7.9619      9.1332    159.7444
   769.0000    208.4889      7.4050      7.6292      8.8661    191.7405
   769.2500    208.5705      7.2763      7.3994      8.6477    191.2052
   769.5000    208.7334      7.2542      7.1522      7.7563    165.1635
   769.7500    209.2521      7.1016      7.0111      7.2872    170.1340
   770.0000    209.7655      6.9790      6.8878      7.5554    171.6425
   770.2500    209.9318      6.7889      6.8265      7.8266    172.8834
   770.5000    209.9985      6.6623      6.6938      7.6437    168.1293
   770.7500    210.0627      6.5659      6.5803      7.0696    155.4626
   771.0000    209.9355      6.3973      6.4858      6.9276    154.5312
   771.2500    209.6367      6.3067      6.4229      7.2497    159.9317
   771.5000    209.3877      6.1668      6.3788      7.7024    193.1550
   771.7500    208.7633      6.2227      6.2697      8.1666    179.8421
   772.0000    208.2771      6.2774      6.2402      8.2911    139.9118
   772.2500    207.4909      6.2667      6.1435      7.7413    150.5216
   772.5000    206.4875      6.3292      6.1736      7.4083    160.4211
   772.7500    205.4131      6.3916      6.2112      7.0401    170.7833
   773.0000    204.5407      6.4958      6.2539      6.8396    192.1986
   773.2500    203.9731      6.5517      6.3797      6.5139    149.9248
   773.5000    203.4896      6.5361      6.6318      6.9965    147.3537
   773.7500    203.6602      6.4600      6.9449      8.6128    151.7601
