~Version Information
VERS.                      2.0: CWLS Log ASCII Standard - VERSION 2.0
WRAP.                       NO: One line per depth step
~Well Information Block
STRT.FT               330.0000: 
STOP.FT              1876.2000: 
STEP.FT                 0.1000: 
NULL.                -999.2500: 
COMP.          Pioneer Natural Resources: COMPANY
WELL.          Cooper 11-13 Tr: WELL
FLD.           Purgatoire River: FIELD
LOC.           476' FNL & 738' FWL: LOCATION
STAT.                 Colorado: State
CNTY.               Las Animas: COUNTY
CTRY. USA : Country
SECT. 13 : Section
TOWN. 32S : Township
RANG. 67W : Range 
SRVC.                Patterson: SERVICE COMPANY
DATE.          Mon Sep 26 10:28:17 2005: LOG DATE
API.           05 071 08525 00: UNIQUE WELL ID
~Curve Information Block
DEPT.FT            0 000 00 00: Depth
DCAL.in                       : CDL Caliper
RHOB.g/cc                     : CDL Bulk Density
RHOC.g/cc                     : CDL Density Correction
DPOR.pu                       : CDL Density Porosity
NPOR.pu                       : Neutron Porosity
GR.GAPI                       : Gamma Ray
~Parameter Information Block
~A  Depth       DCAL        RHOB        RHOC        DPOR        NPOR         GR     
   330.0000      8.1020      2.3078     -0.2608     20.7379     40.6428     39.4036
   330.1000      8.1020      2.3129     -0.2524     20.4313     40.3629     39.6073
   330.2000      8.1020      2.3503     -0.1772     18.1618     40.4646     38.6753
   330.3000      8.1033      2.3820     -0.1369     16.2414     40.8281     34.7678
   330.4000      8.1033      2.3829     -0.1603     16.1904     41.2185     30.0091
   330.5000      8.1049      2.3651     -0.1766     17.2680     41.3773     27.2730
   330.6000      8.1049      2.3497     -0.2094     18.2009     41.2799     27.9978
   330.7000      8.1049      2.3456     -0.1863     18.4460     41.1213     30.1871
   330.8000      8.1036      2.3558     -0.2251     17.8318     40.9050     30.4795
   330.9000      8.1036      2.3732     -0.1677     16.7771     40.6957     28.5431
   331.0000      8.1027      2.3828     -0.1775     16.1957     40.7527     27.3696
   331.1000      8.1027      2.3813     -0.2092     16.2865     40.9288     28.7569
   331.2000      8.1027      2.3777     -0.2325     16.5041     40.8654     30.5061
   331.3000      8.1033      2.3713     -0.1853     16.8908     40.6935     29.8001
   331.4000      8.1033      2.3588     -0.2051     17.6513     40.7937     27.3697
   331.5000      8.1050      2.3577     -0.2639     17.7172     41.0210     25.7635
   331.6000      8.1050      2.3760     -0.1841     16.6039     41.0941     26.8899
   331.7000      8.1050      2.3890     -0.1780     15.8195     40.9399     28.9078
   331.8000      8.1056      2.3862     -0.2042     15.9898     40.5262     28.8456
   331.9000      8.1056      2.3780     -0.2047     16.4834     39.9731     29.7349
   332.0000      8.1029      2.3663     -0.2052     17.1944     39.6688     34.1386
   332.1000      8.1029      2.3569     -0.2449     17.7666     39.8713     38.7923
   332.2000      8.1029      2.3568     -0.1996     17.7720     40.3006     39.6414
   332.3000      8.1002      2.3573     -0.2306     17.7424     40.5661     37.2227
   332.4000      8.1002      2.3540     -0.2357     17.9413     40.5234     35.4325
   332.5000      8.1014      2.3512     -0.2224     18.1100     40.2622     35.5574
   332.6000      8.1014      2.3539     -0.2612     17.9471     39.9599     36.6651
   332.7000      8.1014      2.3628     -0.1934     17.4090     39.7556     37.8873
   332.8000      8.1053      2.3635     -0.1817     17.3650     39.7028     39.2272
   332.9000      8.1053      2.3525     -0.2622     18.0323     39.6128     40.6017
   333.0000      8.1077      2.3491     -0.2386     18.2340     39.4507     41.5511
   333.1000      8.1077      2.3582     -0.2005     17.6828     39.4571     43.1966
   333.2000      8.1077      2.3627     -0.1752     17.4133     39.7675     45.6936
   333.3000      8.1075      2.3536     -0.2131     17.9653     40.0939     46.8257
   333.4000      8.1075      2.3386     -0.2157     18.8724     40.1118     46.3388
   333.5000      8.1059      2.3287     -0.2657     19.4737     40.2057     45.3921
   333.6000      8.1059      2.3317     -0.2677     19.2920     40.7898     45.4300
   333.7000      8.1059      2.3449     -0.1882     18.4915     41.5648     46.7846
   333.8000      8.1044      2.3614     -0.2316     17.4897     42.2241     47.6424
   333.9000      8.1044      2.3814     -0.1899     16.2788     42.6437     47.9806
   334.0000      8.1042      2.3969     -0.1279     15.3394     42.7839     49.4881
   334.1000      8.1042      2.4007     -0.2083     15.1108     42.8474     52.5018
   334.2000      8.1042      2.4033     -0.2031     14.9497     42.9768     58.2479
   334.3000      8.1036      2.4140     -0.1741     14.3016     43.1965     66.7139
   334.4000      8.1036      2.4275     -0.1750     13.4830     43.4465     74.3557
   334.5000      8.1017      2.4291     -0.1366     13.3856     43.8492     79.8923
   334.6000      8.1017      2.4133     -0.2126     14.3437     44.5335     84.3398
   334.7000      8.1017      2.4025     -0.1941     15.0023     45.0699     87.7604
   334.8000      8.1019      2.4230     -0.2288     13.7599     45.3449     89.3327
   334.9000      8.1019      2.4769     -0.1709     10.4900     45.5407     91.2375
   335.0000      8.1040      2.5356     -0.1200      6.9332     45.4477     96.5068
   335.1000      8.1040      2.5601     -0.0700      5.4512     44.8200    103.9292
   335.2000      8.1040      2.5416     -0.1386      6.5685     43.9967    111.3836
   335.3000      8.1038      2.5113     -0.1416      8.4053     43.7383    117.0253
   335.4000      8.1038      2.5127     -0.1737      8.3216     44.0648    119.7129
   335.5000      8.1005      2.5778     -0.1871      4.3773     44.4714    122.6410
   335.6000      8.1005      2.6910     -0.0515     -2.4853     45.0017    126.3637
   335.7000      8.1005      2.7917     -0.0385     -8.5893     45.7724    127.5443
   335.8000      8.0910      2.8323     -0.0079    -11.0489     46.5386    126.3082
   335.9000      8.0910      2.7792     -0.0104     -7.8314     47.1167    125.3120
   336.0000      8.0714      2.6041     -0.1053      2.7810     47.5690    124.0563
   336.1000      8.0714      2.3408     -0.3147     18.7406     48.1903    120.9664
   336.2000      8.0714      2.1048     -0.5505     33.0403     48.9500    119.2286
   336.3000      8.0494      1.9905     -0.5408     39.9722     49.3938    121.4745
   336.4000      8.0494      1.9752     -0.5206     40.8984     49.2512    123.8854
   336.5000      8.0371      1.9773     -0.5912     40.7715     48.4192    124.8986
   336.6000      8.0371      1.9636     -0.8590     41.6017     46.8772    126.3934
   336.7000      8.0371      1.9486     -0.7895     42.5092     44.6299    129.4370
   336.8000      8.0556      1.9210     -0.5793     44.1830     41.5087    134.4831
   336.9000      8.0556      1.8715     -0.5239     47.1792     37.7223    140.4583
   337.0000      8.1487      1.8790     -0.5097     46.7297     34.1250    147.0776
   337.1000      8.1487      2.0325     -0.1048     37.4221     31.1419    152.7159
   337.2000      8.1487      2.2765      0.3822     22.6393     28.7137    152.6809
   337.3000      8.4094      2.4712      0.4564     10.8375     26.7758    148.5252
   337.4000      8.4094      2.5562      0.4430      5.6869     25.4228    146.8630
   337.5000      8.9152      2.5513      0.4301      5.9820     24.7430    149.7718
   337.6000      8.9152      2.4978      0.3170      9.2253     24.4989    154.8569
   337.7000      8.9152      2.4434      0.2453     12.5202     24.4921    157.0347
   337.8000      9.5571      2.4205      0.2039     13.9106     24.7692    154.4501
   337.9000      9.5571      2.4321      0.1918     13.2038     25.1863    150.5808
   338.0000     10.0935      2.4653      0.1880     11.1937     25.4193    148.2408
   338.1000     10.0935      2.5017      0.2484      8.9875     25.3505    146.0539
   338.2000     10.0935      2.5245      0.2546      7.6087     25.0984    141.6427
   338.3000     10.3771      2.5281      0.2607      7.3857     24.8132    137.5370
   338.4000     10.3771      2.5296      0.1835      7.2987     24.6718    137.7917
   338.5000     10.4977      2.5557      0.1738      5.7123     24.7946    142.5426
   338.6000     10.4977      2.6016      0.2129      2.9312     25.0189    151.1964
   338.7000     10.4977      2.6321      0.2445      1.0848     25.2779    156.7763
   338.8000     10.5803      2.6282      0.2086      1.3236     25.7241    152.9281
   338.9000     10.5803      2.6018      0.1743      2.9209     26.1846    147.8486
   339.0000     10.6389      2.5735      0.1181      4.6362     26.2754    145.9027
   339.1000     10.6389      2.5511      0.1113      5.9942     25.9874    141.5019
   339.2000     10.6389      2.5322      0.0884      7.1395     25.6386    136.6699
   339.3000     10.6559      2.5193      0.0497      7.9197     25.5542    137.6990
   339.4000     10.6559      2.5175      0.0510      8.0279     25.7567    143.0142
   339.5000     10.6531      2.5220      0.0354      7.7591     25.8668    144.9642
