~Version Information
VERS.                      2.0: CWLS Log ASCII Standard - VERSION 2.0
WRAP.                       NO: One line per depth step
~Well Information Block
STRT.FT                10.0000: 
STOP.FT              1458.0000: 
STEP.FT                 0.1000: 
NULL.                -999.2500: 
COMP.          Pioneer Natural Resources: COMPANY
WELL.            Bordeaux 42-2: WELL
FLD.           Purgatorie River: FIELD
LOC.           1963' FNL & 1148' FEL: LOCATION
PROV.                 Colorado: PROVINCE
CNTY.               Las Animas: COUNTRY
SRVC.                Patterson: SERVICE COMPANY
DATE.          Tue Nov 29 07:11:03 2005: LOG DATE
UWI.                          : UNIQUE WELL ID
~Curve Information Block
DEPT.FT            0 000 00 00: Depth
DCAL.in                       : CDL Caliper
RHOB.g/cc                     : CDL Bulk Density
RHOC.g/cc                     : CDL Density Correction
DPOR.pu                       : CDL Density Porosity
GR.GAPI                       : Gamma Ray
NPOR.pu                       : Neutron Porosity
~Parameter Information Block
~A  Depth       DCAL        RHOB        RHOC        DPOR         GR         NPOR    
# ...
  1344.4000      7.8196      2.4842      0.0757     10.0506     77.9312     21.6286
  1344.5000      7.8092      2.5120      0.0877      8.3636     79.8410     20.5882
  1344.6000      7.8092      2.5251      0.0266      7.5695     78.3042     19.9802
  1344.7000      7.8092      2.5328      0.0631      7.1058     74.3158     19.9812
  1344.8000      7.8110      2.5403      0.0232      6.6456     72.0441     20.4803
  1344.9000      7.8110      2.5397      0.0919      6.6855     74.0028     21.0914
  1345.0000      7.8096      2.5224      0.0331      7.7314     78.0506     21.5179
  1345.1000      7.8096      2.4954      0.0123      9.3712     79.0111     21.6622
  1345.2000      7.8096      2.4715     -0.0178     10.8207     75.3773     21.5289
  1345.3000      7.8055      2.4604     -0.0297     11.4909     73.0448     21.3100
  1345.4000      7.8055      2.4671      0.0009     11.0843     75.0045     21.2100
  1345.5000      7.8231      2.4843      0.0021     10.0417     78.4080     21.1991
  1345.6000      7.8231      2.4993      0.0284      9.1345     79.7260     21.2400
  1345.7000      7.8231      2.5031      0.0182      8.9056     77.2061     21.4391
  1345.8000      7.8418      2.4939      0.0311      9.4603     73.5135     21.6024
  1345.9000      7.8418      2.4813      0.0394     10.2261     71.3774     21.4876
  1346.0000      7.8573      2.4793      0.0281     10.3431     69.7677     21.4222
  1346.1000      7.8573      2.4904      0.0300      9.6718     68.9005     21.6012
  1346.2000      7.8573      2.5048      0.0341      8.7998     69.7649     21.6968
  1346.3000      7.8502      2.5107      0.0736      8.4449     70.5411     21.5136
  1346.4000      7.8502      2.4971      0.0197      9.2680     70.4098     21.4299
  1346.5000      7.8369      2.4738     -0.0588     10.6816     71.9585     21.7129
  1346.6000      7.8369      2.4592     -0.0142     11.5624     76.4601     21.9269
  1346.7000      7.8369      2.4498      0.0104     12.1353     80.9428     21.6597
  1346.8000      7.8431      2.4380     -0.0196     12.8456     82.7810     21.3179
  1346.9000      7.8431      2.4285     -0.0022     13.4227     83.1244     21.3281
  1347.0000      7.8431      2.4248      0.0059     13.6514     82.5667     21.3910
  1347.1000      7.8431      2.4275      0.0232     13.4837     80.5535     21.3552
  1347.2000      7.8431      2.4383      0.0069     12.8306     78.0278     21.4314
  1347.3000      7.8475      2.4525      0.0391     11.9719     75.5303     21.6366
  1347.4000      7.8475      2.4598      0.0465     11.5274     73.1396     21.7617
  1347.5000      7.8321      2.4613      0.0312     11.4351     72.7842     21.6648
  1347.6000      7.8321      2.4644      0.0319     11.2507     74.6248     21.4089
  1347.7000      7.8321      2.4695      0.0272     10.9373     74.6191     21.0255
  1347.8000      7.8462      2.4800      0.0305     10.3032     70.5701     20.5617
  1347.9000      7.8462      2.4968      0.0680      9.2858     66.1746     20.2609
  1348.0000      7.8491      2.5031      0.0644      8.9025     64.5611     20.1399
  1348.1000      7.8491      2.4880      0.0014      9.8168     64.7197     19.9007
  1348.2000      7.8491      2.4697      0.0034     10.9257     65.2343     19.6143
  1348.3000      7.8560      2.4658      0.0371     11.1615     66.5048     19.6945
  1348.4000      7.8560      2.4725      0.0717     10.7588     69.3022     20.0371
  1348.5000      7.8663      2.4831      0.0356     10.1173     72.8098     20.1485
  1348.6000      7.8663      2.4983      0.0189      9.1923     74.9909     20.1114
  1348.7000      7.8663      2.5143      0.0578      8.2269     75.0061     20.3462
  1348.8000      7.8480      2.5219      0.0526      7.7610     73.4043     20.7082
  1348.9000      7.8480      2.5198      0.0335      7.8881     70.6527     20.7284
  1349.0000      7.8494      2.5128      0.0321      8.3180     68.2739     20.6321
  1349.1000      7.8494      2.5066      0.0479      8.6926     68.7916     21.0259
  1349.2000      7.8494      2.5076      0.0234      8.6279     72.3513     21.6476
  1349.3000      7.8428      2.5142      0.0275      8.2306     76.2993     21.7255
  1349.4000      7.8428      2.5118      0.0396      8.3769     78.6002     21.1472
  1349.5000      7.8428      2.5030     -0.0215      8.9097     79.2900     20.6244
  1349.6000      7.8428      2.5048      0.0091      8.7979     79.9369     20.7352
  1349.7000      7.8428      2.5122      0.0036      8.3536     80.8975     21.1820
  1349.8000      7.8506      2.5117      0.0324      8.3799     80.2666     21.4697
  1349.9000      7.8506      2.5055      0.0279      8.7594     79.0202     21.6129
  1350.0000      7.8555      2.5063      0.0021      8.7073     79.0459     21.8593
  1350.1000      7.8555      2.5179      0.0357      8.0081     78.6218     22.2377
  1350.2000      7.8555      2.5253      0.0294      7.5566     77.1875     22.3530
  1350.3000      7.8549      2.5230      0.0157      7.6959     75.8044     21.9968
  1350.4000      7.8549      2.5248     -0.0306      7.5872     74.1506     21.6526
  1350.5000      7.8610      2.5379      0.0510      6.7933     72.9652     21.6012
  1350.6000      7.8610      2.5567      0.0177      5.6573     73.1405     21.3540
  1350.7000      7.8610      2.5815      0.0611      4.1544     73.9376     20.5869
  1350.8000      7.8575      2.6116      0.0418      2.3252     74.4087     19.8184
  1350.9000      7.8575      2.6367      0.0902      0.8081     74.9711     19.6475
  1351.0000      7.8682      2.6392      0.0861      0.6542     75.4733     20.1130
  1351.1000      7.8682      2.6079      0.0282      2.5512     73.9007     20.7773
  1351.2000      7.8682      2.5594      0.0211      5.4918     70.3516     21.0425
  1351.3000      7.8612      2.5317     -0.0606      7.1703     67.7331     20.8846
  1351.4000      7.8612      2.5427     -0.0046      6.5046     66.8992     20.7523
  1351.5000      7.8424      2.5698      0.0034      4.8636     66.9650     20.6086
  1351.6000      7.8424      2.5818      0.0252      4.1360     68.2498     20.1815
  1351.7000      7.8424      2.5660      0.0148      5.0910     69.0476     19.5950
  1351.8000      7.8456      2.5384     -0.0150      6.7660     68.0827     19.2211
  1351.9000      7.8456      2.5269      0.0121      7.4621     67.3532     19.3780
  1352.0000      7.8499      2.5278      0.0561      7.4055     68.0778     19.9379
  1352.1000      7.8499      2.5171      0.0125      8.0518     69.8055     20.3783
  1352.2000      7.8499      2.5009     -0.0216      9.0357     72.0174     20.4805
  1352.3000      7.8469      2.5005      0.0346      9.0635     74.3100     20.3837
  1352.4000      7.8469      2.5078      0.0426      8.6209     76.4038     20.1140
  1352.5000      7.8514      2.5036      0.0277      8.8740     77.0345     19.6854
  1352.6000      7.8514      2.4900      0.0417      9.6961     76.0455     19.1716
  1352.7000      7.8514      2.4777      0.0413     10.4450     73.8623     18.7727
  1352.8000      7.8574      2.4777     -0.0372     10.4419     70.4448     18.8577
  1352.9000      7.8574      2.4938      0.0911      9.4684     67.6898     19.3966
  1353.0000      7.8459      2.5129      0.0469      8.3118     66.5625     19.7240
  1353.1000      7.8459      2.5266      0.0871      7.4794     66.6885     19.5335
  1353.2000      7.8459      2.5317      0.0773      7.1693     68.6559     19.3166
  1353.3000      7.8529      2.5260      0.0639      7.5164     71.2306     19.4456
  1353.4000      7.8529      2.5156      0.0018      8.1484     71.6558     19.7451
  1353.5000      7.8646      2.5032      0.0675      8.8946     70.7351     19.9151
  1353.6000      7.8646      2.4838      0.0105     10.0723     72.2111     19.8934
  1353.7000      7.8646      2.4670     -0.0056     11.0908     76.0954     19.8243
  1353.8000      7.8630      2.4644      0.0159     11.2472     78.5083     20.0118
  1353.9000      7.8630      2.4678      0.0129     11.0435     77.6653     20.6094
