~Version Information
 VERS.                                  2.0 : CWLS LAS VERSION
 WRAP.                                   NO : WRAPING MODE
 SWARE .                  MController 2.5.1 : SOFTWARE VERSION
~Well Information
 WELL.                   Touchstone 11-32Tr : WELL
 COMP.  Pioneer Natural Resources USA, Inc. : COMPANY
 FLD.                      Purgatoire River : FIELD
 LOC.             NW/NW Sec. 32, T32S, R67W : LOCATION
 DATE.                02/24/2006-02/25/2006 : DATE(S) LOGGED
 SRVC.                  Entrada GeoSciences : SERVICE COMPANY
 STAT.                             Colorado : STATE
 CNTY.                           Las Animas : COUNTY
 CTRY.                        United States : COUNTRY
 API.                          05-071-08626 : API NUMBER
 STRT.FT                             393.00 : START DEPTH
 STOP.FT                            1800.00 : STOP DEPTH
 STEP.FT                               1.00 : DEPTH INCREMENT
 NULL.                                -9999 : NULL VALUE
~Curve information
 DEPTH.FT                                   :
 ROP.MIN/FT                                 :
 GAS.UNITS                                  :
~ASCII Log data
# ...
     1393.00         0.37          5.3 
     1394.00         0.37          5.7 
     1395.00         0.37          5.2 
     1396.00         0.33          4.9 
     1397.00         0.38          5.5 
     1398.00         0.37          5.1 
     1399.00         0.30         67.3 
     1400.00         0.37         62.1 
     1401.00         0.30         60.8 
     1402.00         0.27         47.5 
     1403.00         0.20         36.6 
     1404.00         0.20         30.4 
     1405.00         0.27         30.2 
     1406.00         0.33         29.7 
     1407.00         0.28         25.5 
     1408.00         0.37         24.0 
     1409.00         0.33         21.6 
     1410.00         0.30         20.0 
     1411.00         0.30         18.3 
     1412.00         0.40         16.9 
     1413.00         0.33         15.7 
     1414.00         0.30         15.0 
     1415.00         0.33         14.6 
     1416.00         0.20         14.5 
     1417.00         0.27         14.2 
     1418.00         0.42         13.1 
     1419.00         0.27         13.1 
     1420.00         0.33         12.0 
     1421.00         0.30         11.8 
     1422.00         0.30         11.7 
     1423.00         0.37         11.7 
     1424.00         0.37         11.6 
     1425.00         0.30         11.5 
     1426.00         0.30         12.0 
     1427.00         0.30         10.8 
     1428.00         0.32         10.4 
     1429.00         0.27        137.5 
     1430.00         0.30        107.9 
     1431.00         0.30         98.5 
     1432.00         0.33         65.9 
     1433.00         0.30         38.8 
     1434.00         0.27         22.5 
     1435.00         0.30         21.6 
     1436.00         0.27         17.2 
     1437.00         0.30         12.5 
     1438.00         0.33         12.2 
     1439.00         0.33         10.6 
     1440.00         0.33          9.8 
     1441.00         0.37          9.1 
     1442.00         0.33          9.3 
     1443.00         0.30          8.5 
     1444.00         0.30          8.5 
     1445.00         0.32          8.4 
     1446.00         0.27          8.0 
     1447.00         0.43          7.9 
     1448.00         0.37          7.8 
     1449.00         0.37          7.4 
     1450.00         0.37          7.6 
     1451.00         0.30          7.5 
     1452.00         0.37          8.1 
     1453.00         0.33          8.2 
     1454.00         0.32          8.1 
     1455.00         0.33          8.5 
     1456.00         0.30          9.2 
     1457.00         0.17          9.2 
     1458.00         0.23          8.4 
     1459.00         0.27         68.2 
     1460.00         0.20         68.2 
     1461.00         0.33         68.0 
     1462.00         0.37         52.2 
     1463.00         0.33         30.7 
     1464.00         0.33         22.3 
     1465.00         0.30         16.5 
     1466.00         0.38         12.3 
     1467.00         0.43          8.9 
     1468.00         0.30          8.4 
     1469.00         0.30          9.2 
     1470.00         0.30          8.6 
     1471.00         0.27          9.9 
     1472.00         0.23         10.5 
     1473.00         0.25         10.0 
     1474.00         0.20         10.0 
     1475.00         0.23          8.7 
     1476.00         0.20          9.0 
     1477.00         0.23          8.8 
     1478.00         0.20          7.7 
     1479.00         0.23          8.1 
     1480.00         0.30          7.9 
     1481.00         0.23          8.1 
     1482.00         0.30          8.9 
     1483.00         0.27         11.2 
     1484.00         0.27         14.9 
     1485.00         0.27         79.7 
     1486.00         0.23         79.7 
     1487.00         0.13         85.0 
     1488.00         0.15         84.2 
     1489.00         0.13         84.2 
     1490.00         0.23         80.2 
     1491.00         0.27         37.4 
     1492.00         0.10         37.4 
     1493.00         0.17         31.8 
     1494.00         0.23         25.4 
     1495.00         0.27         18.3 
     1496.00         0.33         13.7 
     1497.00         0.27         11.6 
     1498.00         0.27          9.6 
     1499.00         0.35          9.4 
     1500.00         0.33          7.5 
     1501.00         0.37          7.8 
     1502.00         0.40          8.0 
     1503.00         0.37          7.3 
     1504.00         0.30          6.3 
     1505.00         0.30          6.7 
     1506.00         0.30          6.8 
     1507.00         0.37          7.0 
     1508.00         0.37          7.0 
     1509.00         0.38          6.0 
     1510.00         0.33          4.9 
     1511.00         0.40          7.1 
     1512.00         0.40          8.0 
     1513.00         0.33          7.7 
     1514.00         0.27          8.2 
     1515.00         0.30          8.2 
     1516.00         0.27          7.9 
     1517.00         0.27          7.9 
     1518.00         0.27         64.9 
     1519.00         0.32         74.8 
     1520.00         0.30        107.8 
     1521.00         0.30        113.2 
     1522.00         0.40         96.8 
     1523.00         0.33         56.4 
     1524.00         0.27         31.3 
     1525.00         0.27         19.9 
     1526.00         0.30         14.0 
     1527.00         0.35         10.2 
     1528.00         0.40          6.9 
     1529.00         0.37          5.3 
     1530.00         0.37          6.9 
     1531.00         0.37          6.4 
     1532.00         0.33          6.1 
     1533.00         0.33          6.5 
     1534.00         0.30          6.8 
     1535.00         0.27          6.3 
     1536.00         0.30          5.5 
     1537.00         0.28          5.3 
     1538.00         0.27          5.7 
     1539.00         0.30          5.9 
     1540.00         0.27          5.1 
     1541.00         0.30          5.5 
     1542.00         0.33          5.5 
     1543.00         0.30          5.1 
     1544.00         0.43          5.6 
     1545.00         0.30          4.5 
     1546.00         0.30          5.0 
     1547.00         0.35          5.1 
     1548.00         0.30          4.5 
     1549.00         0.30         71.6 
     1550.00         0.30         50.7 
     1551.00         0.30         47.6 
     1552.00         0.33         30.7 
     1553.00         0.37         19.4 
     1554.00         0.33         13.7 
     1555.00         0.33         11.1 
     1556.00         0.27          8.7 
     1557.00         0.38          7.4 
     1558.00         0.40          6.7 
     1559.00         0.40          9.0 
     1560.00         0.37         10.8 
     1561.00         0.37         10.8 
     1562.00         0.27         12.6 
     1563.00         0.20         16.6 
     1564.00         0.23         16.7 
     1565.00         0.27         25.2 
     1566.00         0.27         26.1 
     1567.00         0.17         26.5 
     1568.00         0.10         26.5 
     1569.00         0.15         25.5 
     1570.00         0.13         23.5 
     1571.00         0.13         23.5 
     1572.00         0.17         22.8 
     1573.00         0.33         21.9 
     1574.00         0.43         19.4 
     1575.00         0.47         17.9 
     1576.00         0.57         16.7 
     1577.00         0.43         14.7 
     1578.00         0.43         12.8 
     1579.00         0.42         11.0 
     1580.00         0.53        105.5 
     1581.00         0.53        143.1 
     1582.00         0.50        140.4 
     1583.00         0.40         60.1 
     1584.00         0.27         53.4 
     1585.00         0.33         34.9 
     1586.00         0.50         21.0 
     1587.00         0.43         11.4 
     1588.00         0.47         11.1 
     1589.00         0.47         17.3 
     1590.00         0.27         19.9 
     1591.00         0.23         20.1 
     1592.00         0.20         21.4 
