~Version Information
VERS.                      2.0: CWLS Log ASCII Standard - VERSION 2.0
WRAP.                       NO: One line per depth step
~Well Information Block
STRT.FT               585.0000: 
STOP.FT              2277.5000: 
STEP.FT                 0.1000: 
NULL.                -999.2500: 
COMP.          Pioneer Natural Resources: COMPANY
WELL.          Interceptor 43-13 Tr: WELL
FLD.           Purgatoire River: FIELD
LOC.           2006' FSL & 438' FEL: LOCATION
PROV.                 Colorado: PROVINCE
CNTY.               Las Animas: COUNTRY
SRVC.                Patterson: SERVICE COMPANY
DATE.          Mon Oct 17 07:15:06 2005: LOG DATE
UWI.           05 071 08549 00: UNIQUE WELL ID
~Curve Information Block
DEPT.FT            0 000 00 00: Depth
DCAL.in                       : CDL Caliper
RHOB.g/cc                     : CDL Bulk Density
RHOC.g/cc                     : CDL Density Correction
DPOR.pu                       : CDL Density Porosity
GR.GAPI                       : Gamma Ray
NPOR.pu                       : Neutron Porosity
~Parameter Information Block
~A  Depth       DCAL        RHOB        RHOC        DPOR         GR         NPOR    
# ...
  1477.8000      7.9290      2.3379      0.0260     18.9147    157.5197     27.3340
  1477.9000      7.9290      2.3321      0.0840     19.2677    157.8096     27.0035
  1478.0000      7.9582      2.3360      0.0661     19.0296    159.4742     26.2201
  1478.1000      7.9582      2.3674      0.0555     17.1252    156.4424     25.4923
  1478.2000      7.9582      2.4227      0.1939     13.7742    150.6317     25.1564
  1478.3000      7.8617      2.4644      0.2538     11.2474    143.3434     25.4749
  1478.4000      7.8617      2.4817      0.1816     10.1983    137.9908     26.4139
  1478.5000      7.8255      2.4952      0.2484      9.3799    140.1828     27.2799
  1478.6000      7.8255      2.5057      0.2579      8.7453    144.3607     27.4847
  1478.7000      7.8255      2.5004      0.2311      9.0685    141.1018     27.3084
  1478.8000      8.0110      2.4870      0.1317      9.8765    133.5025     27.1279
  1478.9000      8.0110      2.4838      0.0620     10.0734    128.1991     26.9383
  1479.0000      8.1214      2.4941      0.0307      9.4506    123.8748     27.0017
  1479.1000      8.1214      2.5049      0.0056      8.7948    118.2866     27.6304
  1479.2000      8.1214      2.4952      0.0048      9.3794    111.7467     28.3488
  1479.3000      8.1203      2.4668     -0.0750     11.1002    107.0453     28.2563
  1479.4000      8.1203      2.4534     -0.0793     11.9162    108.0430     27.5455
  1479.5000      8.0938      2.4685     -0.0331     11.0027    111.3860     27.0484
  1479.6000      8.0938      2.4950     -0.0430      9.3932    111.6619     26.5855
  1479.7000      8.0938      2.5152      0.0168      8.1693    111.4525     25.5202
  1479.8000      8.0747      2.5197      0.0254      7.8985    116.6524     24.1153
  1479.9000      8.0747      2.5181      0.0149      7.9937    122.5181     23.2841
  1480.0000      7.9748      2.5249      0.0430      7.5821    119.9130     23.3288
  1480.1000      7.9748      2.5369      0.0452      6.8524    111.8313     23.6258
  1480.2000      7.9748      2.5412      0.0853      6.5967    105.2388     23.7004
  1480.3000      7.9247      2.5371      0.0341      6.8415     99.1005     23.7097
  1480.4000      7.9247      2.5391      0.0841      6.7223     88.2776     23.9740
  1480.5000      7.8584      2.5538      0.0785      5.8325     76.2816     24.1821
  1480.6000      7.8584      2.5751      0.0958      4.5376     71.2991     23.7226
  1480.7000      7.8584      2.5896      0.1174      3.6611     73.8939     23.0858
  1480.8000      7.8573      2.5885      0.1126      3.7294     80.4852     23.4094
  1480.9000      7.8573      2.5878      0.0909      3.7715     86.6922     24.5844
  1481.0000      7.8321      2.6051      0.1244      2.7202     88.1102     25.4518
  1481.1000      7.8321      2.6321      0.0950      1.0879     85.0742     25.5653
  1481.2000      7.8321      2.6553      0.1288     -0.3191     82.4104     25.4060
  1481.3000      7.8181      2.6768      0.0893     -1.6261     81.3766     25.2823
  1481.4000      7.8181      2.7093      0.1355     -3.5951     78.9945     24.9781
  1481.5000      7.7941      2.7471      0.1506     -5.8829     73.0463     24.2954
  1481.6000      7.7941      2.7664      0.1314     -7.0531     65.3219     23.4899
  1481.7000      7.7941      2.7568      0.1301     -6.4702     61.2748     22.8527
  1481.8000      7.8173      2.7252      0.1150     -4.5578     61.8262     22.3216
  1481.9000      7.8173      2.6835      0.0655     -2.0298     62.0897     21.7743
  1482.0000      7.8230      2.6430      0.0451      0.4248     59.9966     21.2745
  1482.1000      7.8230      2.6155      0.0083      2.0938     58.7880     20.7746
  1482.2000      7.8230      2.6113     -0.0181      2.3455     59.8751     20.1888
  1482.3000      7.8359      2.6320      0.0154      1.0932     59.3993     19.7700
  1482.4000      7.8359      2.6667      0.0207     -1.0126     56.3242     19.6091
  1482.5000      7.8670      2.6894      0.0724     -2.3877     53.0320     19.3669
  1482.6000      7.8670      2.6880     -0.0236     -2.3039     49.7032     18.8841
  1482.7000      7.8670      2.6885      0.0451     -2.3316     46.9026     18.5296
  1482.8000      7.8802      2.6983      0.0672     -2.9243     46.8115     18.6883
  1482.9000      7.8802      2.6905      0.0877     -2.4517     50.3519     18.9483
  1483.0000      7.9143      2.6596      0.0574     -0.5836     55.8325     18.7770
  1483.1000      7.9143      2.6314      0.0408      1.1283     59.3588     18.4273
  1483.2000      7.9143      2.6191      0.0433      1.8734     59.6286     18.2042
  1483.3000      7.8903      2.6054      0.0750      2.7005     58.8148     18.1119
  1483.4000      7.8903      2.5795      0.0070      4.2739     56.9010     18.0530
  1483.5000      7.8780      2.5614     -0.0125      5.3707     53.0797     17.9305
  1483.6000      7.8780      2.5667     -0.0045      5.0500     50.1065     17.8377
  1483.7000      7.8780      2.5805      0.0106      4.2127     49.7806     17.8968
  1483.8000      7.9232      2.5813      0.0225      4.1636     51.6262     17.8699
  1483.9000      7.9232      2.5656      0.0140      5.1137     54.8048     17.5548
  1484.0000      7.9431      2.5417     -0.0053      6.5618     57.9108     17.1623
  1484.1000      7.9431      2.5197     -0.0189      7.8940     60.3083     16.9318
  1484.2000      7.9431      2.5145      0.0212      8.2150     62.7726     16.6607
  1484.3000      7.9250      2.5357      0.0140      6.9243     64.2943     16.3110
  1484.4000      7.9250      2.5705      0.1102      4.8185     62.9002     16.2885
  1484.5000      7.8962      2.5965      0.0759      3.2440     58.2332     16.6621
  1484.6000      7.8962      2.6081      0.1183      2.5364     51.8708     17.0796
  1484.7000      7.8962      2.6086      0.0833      2.5104     48.2499     17.2475
  1484.8000      7.8446      2.6002      0.0792      3.0159     49.0554     17.1512
  1484.9000      7.8446      2.5864      0.0474      3.8542     51.4154     17.1074
  1485.0000      7.8222      2.5734      0.0430      4.6404     52.7412     17.3169
  1485.1000      7.8222      2.5689      0.0272      4.9122     51.2086     17.5250
  1485.2000      7.8222      2.5763      0.0667      4.4654     48.6956     17.6106
  1485.3000      7.8584      2.5939      0.0458      3.4006     47.4676     17.6372
  1485.4000      7.8584      2.6153      0.0495      2.1004     46.5911     17.6733
  1485.5000      7.8828      2.6298      0.0690      1.2225     46.0911     17.6915
  1485.6000      7.8828      2.6354      0.0312      0.8829     47.0036     17.5723
  1485.7000      7.8828      2.6318      0.0602      1.1051     47.4532     17.3659
  1485.8000      7.8823      2.6080      0.0480      2.5463     45.8363     17.1661
  1485.9000      7.8823      2.5730     -0.0436      4.6692     43.4969     17.0259
  1486.0000      7.9004      2.5498     -0.0072      6.0757     42.2059     17.1624
  1486.1000      7.9004      2.5415     -0.0134      6.5780     43.5453     17.7728
  1486.2000      7.9004      2.5483     -0.0616      6.1646     48.1555     18.6120
  1486.3000      7.9155      2.5653      0.0653      5.1361     55.5339     19.3379
  1486.4000      7.9155      2.5712      0.0537      4.7771     61.3909     19.9407
  1486.5000      7.9088      2.5695      0.0357      4.8804     61.6279     20.7182
  1486.6000      7.9088      2.5819      0.0066      4.1282     58.2599     21.7705
  1486.7000      7.9088      2.5932      0.0829      3.4424     55.7130     22.6861
  1486.8000      7.9029      2.5665      0.0856      5.0613     57.3094     23.2089
  1486.9000      7.9029      2.5059     -0.0179      8.7314     64.6530     23.6147
  1487.0000      7.9030      2.4508     -0.0846     12.0702     75.1958     24.3449
  1487.1000      7.9030      2.4225     -0.0528     13.7886     85.5528     25.5382
  1487.2000      7.9030      2.4177     -0.0297     14.0770     96.4902     26.6147
  1487.3000      7.9071      2.4323     -0.0279     13.1922    108.0467     26.8484
