~Version Information
VERS.                      2.0: CWLS Log ASCII Standard - VERSION 2.0
WRAP.                       NO: One line per depth step
~Well Information Block
STRT.FT                 2.0000: 
STOP.FT               698.7500: 
STEP.FT                 0.2500: 
NULL.                -999.2500: 
COMP.          XTO Energy Inc.: COMPANY
WELL.          Golden Eagle 20-14: WELL
FLD.           Purgatrorie River: FIELD
LOC.           587' FSL & 2478' FWL--: LOCATION
STAT.                       CO: State
CNTY.               Las Animas: COUNTY
CTRY. USA : Country
SECT. 20 : Section
TOWN. 33S : Township
RANG. 67W : Range
SRVC.          Patterson Wireline: SERVICE COMPANY
DATE.          Sat Dec 10 16:49:08 2005: LOG DATE
API.           05 071 08614 00: UNIQUE WELL ID
~Curve Information Block
DEPT.FT            0 000 00 00: Depth
MINMK.                        : Magnetic Mark Ticks
TEMP.degF                     : Downhole Temperature
DTMP.degF                     : Delta Temperature
~Parameter Information Block
~A  Depth      MINMK        TEMP        DTMP    
# ...
   210.7500      0.0000     55.7097      0.0753
   211.0000      0.0000     55.7326      0.0776
   211.2500      0.0000     55.7508      0.0753
   211.5000      0.0000     55.7690      0.0751
   211.7500      0.0000     55.7872      0.0750
   212.0000      0.0000     55.8055      0.0748
   212.2500      0.0000     55.8237      0.0748
   212.5000      0.0000     55.8416      0.0746
   212.7500      0.0000     55.8596      0.0745
   213.0000      0.0000     55.8822      0.0743
   213.2500      0.0000     55.9003      0.0743
   213.5000      0.0000     55.9182      0.0743
   213.7500      0.0000     55.9361      0.0744
   214.0000      0.0000     55.9542      0.0722
   214.2500      0.0000     55.9723      0.0722
   214.5000      0.0000     55.9902      0.0724
   214.7500      0.0000     56.0083      0.0749
   215.0000      0.0000     56.0265      0.0751
   215.2500      0.0000     56.0446      0.0753
   215.5000      0.0000     56.0630      0.0756
   215.7500      0.0000     56.0859      0.0759
   216.0000      0.0000     56.1044      0.0785
   216.2500      0.0000     56.1229      0.0787
   216.5000      0.0000     56.1415      0.0789
   216.7500      0.0000     56.1601      0.0767
   217.0000      0.0000     56.1835      0.0769
   217.2500      0.0000     56.2021      0.0769
   217.5000      0.0000     56.2207      0.0769
   217.7500      0.0000     56.2394      0.0769
   218.0000      0.0000     56.2581      0.0769
   218.2500      0.0000     56.2767      0.0769
   218.5000      0.0000     56.2953      0.0768
   218.7500      0.0000     56.3139      0.0768
   219.0000      0.0000     56.3372      0.0767
   219.2500      0.0000     56.3559      0.0765
   219.5000      0.0000     56.3744      0.0764
   219.7500      0.0000     56.3930      0.0762
   220.0000      0.0000     56.4114      0.0737
   220.2500      0.0000     56.4298      0.0734
   220.5000      0.0000     56.4481      0.0753
   220.7500      0.0000     56.4663      0.0748
   221.0000      0.0000     56.4845      0.0745
   221.2500      0.0000     56.5026      0.0741
   221.5000      0.0000     56.5249      0.0736
   221.7500      0.0000     56.5426      0.0732
   222.0000      1.0000     56.5603      0.0748
   222.2500      1.0000     56.5780      0.0742
   222.5000      1.0000     56.5953      0.0715
   222.7500      1.0000     56.6126      0.0710
   223.0000      0.0000     56.6340      0.0703
   223.2500      0.0000     56.6510      0.0697
   223.5000      0.0000     56.6679      0.0691
   223.7500      0.0000     56.6846      0.0685
   224.0000      0.0000     56.7010      0.0676
   224.2500      0.0000     56.7174      0.0668
   224.5000      0.0000     56.7336      0.0661
   224.7500      0.0000     56.7496      0.0653
   225.0000      0.0000     56.7692      0.0645
   225.2500      0.0000     56.7847      0.0637
   225.5000      0.0000     56.8001      0.0629
   225.7500      0.0000     56.8153      0.0620
   226.0000      0.0000     56.8301      0.0592
   226.2500      0.0000     56.8448      0.0583
   226.5000      0.0000     56.8593      0.0574
   226.7500      0.0000     56.8736      0.0566
   227.0000      0.0000     56.8876      0.0574
   227.2500      0.0000     56.9014      0.0566
   227.5000      0.0000     56.9150      0.0556
   227.7500      0.0000     56.9284      0.0548
   228.0000      0.0000     56.9449      0.0554
   228.2500      0.0000     56.9579      0.0546
   228.5000      0.0000     56.9706      0.0537
   228.7500      0.0000     56.9832      0.0527
   229.0000      0.0000     56.9985      0.0501
   229.2500      0.0000     57.0106      0.0492
   229.5000      0.0000     57.0223      0.0483
   229.7500      0.0000     57.0339      0.0473
   230.0000      0.0000     57.0452      0.0448
   230.2500      0.0000     57.0563      0.0438
   230.5000      0.0000     57.0672      0.0442
   230.7500      0.0000     57.0777      0.0432
   231.0000      0.0000     57.0881      0.0423
   231.2500      0.0000     57.0983      0.0414
   231.5000      0.0000     57.1107      0.0406
   231.7500      0.0000     57.1203      0.0398
   232.0000      0.0000     57.1298      0.0390
   232.2500      0.0000     57.1392      0.0383
   232.5000      0.0000     57.1484      0.0364
   232.7500      0.0000     57.1574      0.0369
   233.0000      0.0000     57.1662      0.0363
   233.2500      0.0000     57.1749      0.0357
   233.5000      0.0000     57.1835      0.0351
   233.7500      0.0000     57.1941      0.0346
   234.0000      0.0000     57.2024      0.0341
   234.2500      0.0000     57.2105      0.0336
   234.5000      0.0000     57.2186      0.0331
   234.7500      0.0000     57.2266      0.0325
   235.0000      0.0000     57.2344      0.0321
   235.2500      0.0000     57.2422      0.0317
   235.5000      0.0000     57.2498      0.0312
   235.7500      0.0000     57.2591      0.0308
   236.0000      0.0000     57.2665      0.0304
   236.2500      0.0000     57.2738      0.0308
   236.5000      0.0000     57.2810      0.0304
   236.7500      0.0000     57.2881      0.0290
   237.0000      0.0000     57.2951      0.0286
   237.2500      0.0000     57.3037      0.0282
   237.5000      0.0000     57.3105      0.0279
   237.7500      0.0000     57.3172      0.0275
   238.0000      0.0000     57.3238      0.0271
   238.2500      0.0000     57.3303      0.0259
   238.5000      0.0000     57.3367      0.0255
   238.7500      0.0000     57.3431      0.0252
   239.0000      0.0000     57.3493      0.0256
   239.2500      0.0000     57.3555      0.0252
   239.5000      0.0000     57.3616      0.0249
   239.7500      0.0000     57.3676      0.0246
   240.0000      0.0000     57.3750      0.0244
   240.2500      0.0000     57.3808      0.0241
   240.5000      0.0000     57.3866      0.0239
   240.7500      0.0000     57.3924      0.0237
   241.0000      0.0000     57.3981      0.0228
   241.2500      0.0000     57.4037      0.0233
   241.5000      0.0000     57.4094      0.0232
   241.7500      0.0000     57.4150      0.0231
   242.0000      0.0000     57.4205      0.0230
   242.2500      0.0000     57.4275      0.0237
   242.5000      0.0000     57.4331      0.0229
   242.7500      0.0000     57.4386      0.0236
   243.0000      0.0000     57.4441      0.0236
   243.2500      0.0000     57.4511      0.0229
   243.5000      0.0000     57.4552      0.0230
   243.7500      0.0000     57.4622      0.0230
   244.0000      0.0000     57.4677      0.0231
   244.2500      0.0000     57.4734      0.0224
   244.5000      0.0000     57.4790      0.0232
   244.7500      0.0000     57.4846      0.0233
   245.0000      0.0000     57.4902      0.0234
   245.2500      0.0000     57.4959      0.0235
   245.5000      0.0000     57.5016      0.0236
   245.7500      0.0000     57.5088      0.0237
   246.0000      0.0000     57.5145      0.0246
   246.2500      0.0000     57.5203      0.0248
   246.5000      0.0000     57.5261      0.0249
   246.7500      0.0000     57.5321      0.0243
   247.0000      0.0000     57.5395      0.0244
   247.2500      0.0000     57.5454      0.0245
   247.5000      0.0000     57.5514      0.0246
   247.7500      0.0000     57.5574      0.0253
   248.0000      0.0000     57.5633      0.0245
   248.2500      0.0000     57.5693      0.0245
   248.5000      0.0000     57.5753      0.0244
   248.7500      0.0000     57.5826      0.0243
   249.0000      0.0000     57.5886      0.0242
   249.2500      0.0000     57.5944      0.0241
   249.5000      0.0000     57.6003      0.0240
   249.7500      0.0000     57.6061      0.0231
   250.0000      0.0000     57.6118      0.0230
   250.2500      0.0000     57.6176      0.0229
   250.5000      0.0000     57.6233      0.0227
   250.7500      0.0000     57.6289      0.0226
   251.0000      0.0000     57.6346      0.0232
   251.2500      0.0000     57.6402      0.0230
   251.5000      0.0000     57.6457      0.0229
   251.7500      0.0000     57.6513      0.0228
   252.0000      0.0000     57.6581      0.0227
   252.2500      0.0000     57.6636      0.0233
