~Version Information
VERS.                      2.0: CWLS Log ASCII Standard - VERSION 2.0
WRAP.                       NO: One line per depth step
~Well Information Block
STRT.FT                -6.0000: 
STOP.FT               783.7500: 
STEP.FT                 0.2500: 
NULL.                -999.2500: 
COMP.          Pioneer Natural Resources: COMPANY
WELL.           Weissach 32-32: WELL
FLD.           Purgatorie River: FIELD
LOC.           --2193' FNL & 2256' FEL--: LOCATION
STAT.                       CO: State
CNTY.               Las Animas: COUNTY
CTRY. USA : Country
SECT. 32 : Section
TOWN. 33S : Township
RANG. 65W : Range
SRVC.          Patterson Wireline: SERVICE COMPANY
DATE.          Thu Sep 29 12:52:09 2005: LOG DATE
API.           05 071 08523 00: UNIQUE WELL ID
~Curve Information Block
DEPT.FT            0 000 00 00: Depth
CCL.                          : Casing Collar Locator
TT3.usec                      : CBL 3' Travel Time
AMP3.mV                       : CBL 3' Amplitude
GR.GAPI                       : Gamma Ray
~Parameter Information Block
~A  Depth       CCL         TT3         AMP3         GR     
# ...
   664.0000      0.0000    767.6063      8.8532     52.4494
   664.2500      0.0000    755.9246      8.4330     51.8861
   664.5000      0.0000    741.3868      7.8951     53.7874
   664.7500      0.0000    728.8120      7.4346     56.8245
   665.0000      0.0000    730.6868      7.2228     59.3173
   665.2500      0.0000    760.2767      7.2328     60.0919
   665.5000      0.0000    818.2061      7.2926     58.7940
   665.7500      0.0000    887.1329      7.2947     55.7723
   666.0000      0.0000    944.0234      7.2685     51.8316
   666.2500      0.0000    977.8539      7.2682     48.0528
   666.5000      2.0000    992.0807      7.2793     45.5028
   666.7500      0.0000    990.9258      7.2462     44.8398
   667.0000      0.0000    968.9310      7.1439     46.1369
   667.2500      0.0000    917.9681      7.0091     48.9921
   667.5000      0.0000    843.0674      6.9069     52.5953
   667.7500      0.0000    766.3483      6.8673     55.8069
   668.0000      0.0000    712.2499      6.8564     57.5561
   668.2500      0.0000    689.8242      6.8164     57.4717
   668.5000      0.0000    690.0070      6.7171     56.2566
   668.7500      0.0000    697.5775      6.5591     55.4514
   669.0000      0.0000    703.3997      6.3534     56.6139
   669.2500      0.0000    706.7073      6.1165     60.3687
   669.5000      0.0000    709.9995      5.8712     65.9377
   669.7500      0.0000    714.2606      5.6406     71.4021
   670.0000      0.0000    718.4261      5.4421     74.5900
   670.2500      0.0000    721.3379      5.2856     74.2082
   670.5000      0.0000    722.9531      5.1758     70.4966
   670.7500      0.0000    723.9382      5.1173     65.0082
   671.0000      0.0000    724.7154      5.1235     59.7243
   671.2500      0.0000    725.1337      5.2172     56.0191
   671.5000      0.0000    724.7702      5.4223     54.1533
   671.7500      0.0000    723.5145      5.7482     53.7488
   672.0000      0.0000    722.2510      6.1833     54.5421
   672.2500      0.0000    723.0255      6.6975     56.3555
   672.5000      0.0000    727.4703      7.2461     58.5708
   672.7500      0.0000    734.0542      7.7702     60.2551
   673.0000      0.0000    737.8343      8.2094     60.9566
   673.2500      0.0000    734.8863      8.5281     61.1352
   673.5000      0.0000    727.0912      8.7408     61.6692
   673.7500      0.0000    721.2095      8.9129     62.8764
   674.0000      0.0000    723.1206      9.1380     64.1140
   674.2500      0.0000    733.7318      9.5056     64.5747
   674.5000      0.0000    749.8297     10.0737     64.4023
   674.7500      0.0000    767.4405     10.8458     64.5892
   675.0000      0.0000    784.2064     11.7551     65.5929
   675.2500      0.0000    799.5435     12.6676     66.5113
   675.5000      0.0000    813.0573     13.4220     66.0919
   675.7500      0.0000    822.8331     13.8877     64.3448
   676.0000      0.0000    825.7786     13.9941     62.6193
   676.2500      0.0000    819.8568     13.7239     62.0538
   676.5000      0.0000    805.4486     13.1069     62.4176
   676.7500      0.0000    784.5890     12.2303     62.6928
   677.0000      0.0000    759.9662     11.2361     62.4775
   677.2500      0.0000    735.0703     10.2826     62.4716
   677.5000      0.0000    714.0524      9.4907     63.6817
   677.7500      0.0000    700.1407      8.9138     66.3967
   678.0000      0.0000    694.4546      8.5494     69.9975
   678.2500      0.0000    696.8530      8.3774     73.4870
   678.5000      0.0000    707.2974      8.3986     75.8385
   678.7500      0.0000    725.1810      8.6414     76.0968
   679.0000      0.0000    746.4395      9.1410     73.9572
   679.2500      0.0000    760.7000      9.9184     70.5112
   679.5000      0.0000    752.1119     10.9749     67.8280
   679.7500      0.0000    706.9528     12.2881     67.3289
   680.0000      0.0000    625.3660     13.7997     68.6137
   680.2500      0.0000    526.1851     15.4126     69.9296
   680.5000      0.0000    436.5383     17.0088     69.7794
   680.7500      0.0000    374.4221     18.4760     68.1463
   681.0000      0.0000    341.0370     19.7253     66.1556
   681.2500      0.0000    327.1455     20.6838     64.6646
   681.5000      0.0000    323.2956     21.2719     63.5703
   681.7500      0.0000    325.1938     21.3984     62.4902
   682.0000      0.0000    334.4444     21.0065     61.5286
   682.2500      0.0000    357.1547     20.1343     61.0999
   682.5000      0.0000    399.9077     18.9244     61.4843
   682.7500      0.0000    462.9161     17.5683     62.9771
   683.0000      0.0000    535.7121     16.2362     66.0699
   683.2500      0.0000    601.6755     15.0341     70.7866
   683.5000      0.0000    648.6157     13.9986     75.7692
   683.7500      0.0000    674.9071     13.1205     78.6758
   684.0000      0.0000    686.5319     12.3791     77.9179
   684.2500      0.0000    690.5808     11.7624     73.7563
   684.5000      0.0000    691.6378     11.2654     67.6490
   684.7500      0.0000    691.7618     10.8770     61.0802
   685.0000      0.0000    691.6746     10.5714     55.2495
   685.2500      0.0000    691.5914     10.3157     51.2860
   685.5000      0.0000    691.5611     10.0868     50.0948
   685.7500      0.0000    691.5585      9.8807     51.8645
   686.0000      0.0000    691.5475      9.7031     55.7727
   686.2500      0.0000    691.5150      9.5514     60.1167
   686.5000      0.0000    691.4779      9.4096     62.9845
   686.7500      0.0000    691.4718      9.2641     63.4582
   687.0000      0.0000    691.5624      9.1229     62.3867
   687.2500      0.0000    691.9318      9.0108     61.5959
   687.5000      0.0000    693.0251      8.9423     62.2255
   687.7500      0.0000    695.5296      8.9023     64.0501
   688.0000      0.0000    699.8102      8.8545     66.1670
   688.2500      0.0000    704.9743      8.7719     67.7759
   688.5000      0.0000    708.7328      8.6613     68.3358
   688.7500      0.0000    708.9280      8.5566     67.5376
   689.0000      0.0000    705.4608      8.4850     65.4794
   689.2500      0.0000    700.3574      8.4404     62.8470
   689.5000      0.0000    695.9189      8.3899     60.7584
   689.7500      0.0000    693.1585      8.3059     60.1506
   690.0000      0.0000    691.8324      8.1905     61.1864
   690.2500      0.0000    691.2931      8.0719     63.4344
   690.5000      0.0000    691.0630      7.9806     66.6413
   690.7500      0.0000    690.9388      7.9252     70.9150
   691.0000      0.0000    690.9076      7.8894     75.8850
   691.2500      0.0000    691.0229      7.8485     80.0232
   691.5000      0.0000    691.2867      7.7893     81.4236
   691.7500      0.0000    691.6469      7.7147     79.5193
   692.0000      0.0000    692.1387      7.6352     75.7411
   692.2500      0.0000    693.0451      7.5596     72.2072
   692.5000      0.0000    694.7857      7.4957     70.0069
   692.7500      0.0000    697.4007      7.4544     69.0068
   693.0000      0.0000    700.0571      7.4490     68.8930
   693.2500      0.0000    701.3916      7.4862     69.7669
   693.5000      0.0000    700.6928      7.5564     71.7649
   693.7500      0.0000    698.5948      7.6360     74.6084
   694.0000      0.0000    696.3841      7.7013     77.6632
   694.2500      0.0000    694.8546      7.7416     80.1002
   694.5000      0.0000    694.0174      7.7593     81.0397
   694.7500      0.0000    693.5767      7.7611     80.1459
   695.0000      0.0000    693.3315      7.7513     78.1930
   695.2500      0.0000    693.2086      7.7317     76.4681
   695.5000      0.0000    693.1760      7.7024     75.4388
   695.7500      0.0000    693.2578      7.6618     74.5173
   696.0000      0.0000    693.6085      7.6081     73.2389
   696.2500      0.0000    694.5862      7.5420     72.0340
   696.5000      0.0000    696.6683      7.4673     71.5548
   696.7500      0.0000    700.0582      7.3890     71.7565
   697.0000      0.0000    704.1212      7.3096     71.9333
   697.2500      0.0000    707.2506      7.2269     71.2544
