~Version Information
VERS.                      2.0: CWLS Log ASCII Standard - VERSION 2.0
WRAP.                       NO: One line per depth step
~Well Information Block
STRT.FT                -7.7500: 
STOP.FT              1793.5000: 
STEP.FT                 0.2500: 
NULL.                -999.2500: 
COMP.          Pioneer Natural Resources: COMPANY
WELL.           Loews 41-32 Tr: WELL
FLD.           Purgatorie River: FIELD
LOC.           706' FNL & 224' FEL--: LOCATION
CNTY.               Las Animas: COUNTY
SRVC.          Patterson Wireline: SERVICE COMPANY
DATE.          Fri Feb 24 11:31:48 2006: LOG DATE
UWI.           05 071 08690 00: UNIQUE WELL ID
STAT.                       CO: STATE
~Curve Information Block
DEPT.FT            0 000 00 00: Depth
CCL.                          : Casing Collar Locator
TT3.usec                      : CBL 3' Travel Time
AMP3.mV                       : CBL 3' Amplitude
GR.GAPI                       : Gamma Ray
~Parameter Information Block
~A  Depth       CCL         TT3         AMP3         GR     
# ...
   595.2500      0.0000    747.0526     13.4399     85.2144
   595.5000      0.0000    748.2341     13.5606     87.7356
   595.7500      0.0000    751.7853     13.6504     88.7514
   596.0000      0.0000    757.1191     13.6832     87.4335
   596.2500      0.0000    762.4906     13.6546     84.1730
   596.5000      0.0000    766.4228     13.5739     79.9562
   596.7500      0.0000    768.5002     13.4483     75.5702
   597.0000      0.0000    769.0230     13.2816     71.6947
   597.2500      0.0000    768.3661     13.0854     68.9663
   597.5000      0.0000    766.8468     12.8818     67.5021
   597.7500      0.0000    764.8815     12.6977     66.9368
   598.0000      0.0000    762.8401     12.5556     67.1751
   598.2500      0.0000    760.7802     12.4648     68.6335
   598.5000      0.0000    758.8356     12.4139     71.5715
   598.7500      0.0000    757.9119     12.3747     75.4736
   599.0000      0.0000    759.3185     12.3190     79.2214
   599.2500      0.0000    763.4507     12.2319     81.7730
   599.5000      0.0000    769.2425     12.1126     82.7381
   599.7500      0.0000    774.8727     11.9689     82.5702
   600.0000      0.0000    778.6885     11.8164     82.4058
   600.2500      0.0000    780.0373     11.6792     83.3837
   600.5000      0.0000    780.0878     11.5826     85.6108
   600.7500      0.0000    781.3981     11.5412     87.8306
   601.0000      0.0000    785.6613     11.5459     88.5481
   601.2500      0.0000    792.1023     11.5605     87.4302
   601.5000      0.0000    798.6476     11.5381     85.3598
   601.7500      0.0000    803.9281     11.4526     83.3925
   602.0000      0.0000    807.0418     11.3167     81.9738
   602.2500      0.0000    806.0006     11.1593     80.8706
   602.5000      0.0000    798.3162     10.9828     79.5132
   602.7500      0.0000    784.2426     10.7545     77.5700
   603.0000      0.0000    768.6904     10.4366     75.4965
   603.2500      0.0000    758.2625     10.0059     74.4170
   603.5000      0.0000    755.9506      9.4668     75.0605
   603.7500      0.0000    759.6014      8.8868     76.7330
   604.0000      0.0000    765.5766      8.3950     77.7094
   604.2500      0.0000    772.7073      8.0950     76.7591
   604.5000     -2.0000    782.5869      7.9881     74.1992
   604.7500      2.0000    796.5450      8.0207     71.6369
   605.0000      0.0000    811.7108      8.1930     70.7550
   605.2500      0.0000    819.0125      8.6099     71.9846
   605.5000      0.0000    807.4424      9.4147     74.1589
   605.7500      0.0000    774.7684     10.6138     75.6095
   606.0000      0.0000    734.4740     11.9207     75.6704
   606.2500      0.0000    707.8024     12.8515     75.1325
   606.5000      0.0000    706.2150     13.0891     75.3649
   606.7500      0.0000    723.3485     12.7319     77.0147
   607.0000      0.0000    744.6126     12.1376     79.5600
   607.2500      0.0000    761.1846     11.5938     82.1932
   607.5000      0.0000    773.4442     11.1924     84.8729
   607.7500      0.0000    784.8344     10.9208     88.0985
   608.0000      0.0000    796.1989     10.7615     91.8021
   608.2500      0.0000    805.5629     10.7060     94.9771
   608.5000      0.0000    810.9684     10.7316     96.4763
   608.7500      0.0000    812.4096     10.7975     95.8541
   609.0000      0.0000    811.7819     10.8628     93.4744
   609.2500      0.0000    811.4722     10.9099     90.1716
   609.5000      0.0000    812.7863     10.9442     86.7673
   609.7500      0.0000    815.2964     10.9764     83.7010
   610.0000      0.0000    817.6105     11.0078     81.2211
   610.2500      0.0000    818.6218     11.0352     79.7586
   610.5000      0.0000    818.1501     11.0655     79.6276
   610.7500      0.0000    817.0016     11.1190     80.4293
   611.0000      0.0000    816.6559     11.2184     81.2398
   611.2500      0.0000    817.9788     11.3747     81.4542
   611.5000      0.0000    819.3663     11.5804     81.2041
   611.7500      0.0000    816.8781     11.8126     80.9881
   612.0000      0.0000    807.6697     12.0430     81.1839
   612.2500      0.0000    793.2789     12.2515     81.8872
   612.5000      0.0000    778.2093     12.4350     82.8746
   612.7500      0.0000    764.7144     12.6065     83.6528
   613.0000      0.0000    749.1210     12.7848     83.8656
   613.2500      0.0000    723.5734     12.9740     83.7047
   613.5000      0.0000    683.5568     13.1465     83.6691
   613.7500      0.0000    636.8041     13.2529     84.1017
   614.0000      0.0000    603.5651     13.2627     85.2444
   614.2500      0.0000    602.3838     13.1937     87.3947
   614.5000      0.0000    633.4466     13.0952     90.4352
   614.7500      0.0000    678.7444     13.0061     93.2596
   615.0000      0.0000    718.1922     12.9414     94.1546
   615.2500      0.0000    742.0347     12.9093     92.0103
   615.5000      0.0000    749.8036     12.9237     87.2141
   615.7500      0.0000    743.7326     12.9923     81.4506
   616.0000      0.0000    726.0162     13.1028     76.5697
   616.2500      0.0000    701.0384     13.2252     73.3452
   616.5000      0.0000    677.9293     13.3241     71.2122
   616.7500      0.0000    667.6125     13.3780     69.3448
   617.0000      0.0000    674.1908     13.3958     67.9794
   617.2500      0.0000    689.7013     13.4155     68.5952
   617.5000      0.0000    698.5852     13.4797     72.7188
   617.7500      0.0000    686.3203     13.6126     80.3119
   618.0000      0.0000    645.3951     13.8150     89.1185
   618.2500      0.0000    579.0338     14.0708     95.9225
   618.5000      0.0000    501.9217     14.3485     98.9313
   618.7500      0.0000    433.4267     14.6073     99.0082
   619.0000      0.0000    386.2251     14.8133     98.4804
   619.2500      0.0000    360.9533     14.9544     98.9375
   619.5000      0.0000    350.7421     15.0421    100.3242
   619.7500      0.0000    348.5673     15.1009    101.8027
   620.0000      0.0000    350.6715     15.1597    102.8529
   620.2500      0.0000    355.7158     15.2452    103.1898
   620.5000      0.0000    362.5123     15.3749    102.1483
   620.7500      0.0000    368.6781     15.5476     99.0448
   621.0000      0.0000    371.3027     15.7425     94.2081
   621.2500      0.0000    368.9985     15.9350     89.0898
   621.5000      0.0000    363.0516     16.1131     85.2066
   621.7500      0.0000    356.3292     16.2789     83.2948
   622.0000      0.0000    351.1248     16.4339     83.4191
   622.2500      0.0000    348.0845     16.5675     85.5218
   622.5000      0.0000    346.7358     16.6614     89.4903
   622.7500      0.0000    346.4972     16.7016     94.5524
   623.0000      0.0000    347.1985     16.6858     98.9861
   623.2500      0.0000    348.9562     16.6260    101.0861
   623.5000      0.0000    351.6086     16.5513    100.4725
   623.7500      0.0000    354.2203     16.5093     98.2215
   624.0000      0.0000    355.4074     16.5563     95.9419
   624.2500      0.0000    354.4772     16.7338     94.8605
   624.5000      0.0000    352.0909     17.0376     95.2596
   624.7500      0.0000    349.5813     17.4063     96.3321
   625.0000      0.0000    347.8243     17.7456     96.8094
   625.2500      0.0000    346.9324     17.9797     96.1542
   625.5000      0.0000    346.7031     18.0893     95.1278
   625.7500      0.0000    347.3937     18.1084     94.9261
   626.0000      0.0000    350.5511     18.0870     95.6769
   626.2500      0.0000    359.9262     18.0584     96.0708
   626.5000      0.0000    380.8154     18.0330     94.6459
   626.7500      0.0000    416.2239     18.0137     91.3739
   627.0000      0.0000    462.0244     18.0059     87.9061
   627.2500      0.0000    507.8001     18.0097     86.3513
   627.5000      0.0000    545.3609     18.0041     87.7209
   627.7500      0.0000    575.9467     17.9446     91.2354
   628.0000      0.0000    606.9625     17.7836     94.9296
   628.2500      0.0000    642.1486     17.5053     97.1021
   628.5000      0.0000    677.1089     17.1477     97.3825
