~Version Information
VERS.                      2.0: CWLS Log ASCII Standard - VERSION 2.0
WRAP.                       NO: One line per depth step
~Well Information Block
STRT.FT               710.0000: 
STOP.FT              1983.0000: 
STEP.FT                 0.1000: 
NULL.                -999.2500: 
COMP.          Petrogulf Corporation: COMPANY
WELL.           State 16-23R-X: WELL
FLD.           Purgatorie River: FIELD
LOC.           2381' FSL & 2072' FWL: LOCATION
PROV.                 Colorado: PROVINCE
CNTY.               Las Animas: COUNTRY
SRVC.                Patterson: SERVICE COMPANY
DATE.          Mon Aug 08 07:36:34 2005: LOG DATE
UWI.                          : UNIQUE WELL ID
~Curve Information Block
DEPT.FT            0 000 00 00: Depth
DCAL.in                       : CDL Caliper
RHOB.g/cc                     : CDL Bulk Density
RHOC.g/cc                     : CDL Density Correction
DPOR.pu                       : CDL Density Porosity
GR.GAPI                       : Gamma Ray
NPOR.pu                       : Neutron Porosity
~Parameter Information Block
~A  Depth       DCAL        RHOB        RHOC        DPOR         GR         NPOR    
# ...
  1036.4000      7.8095      2.5482      0.0431      6.1715    118.4017     26.4823
  1036.5000      7.8200      2.5283      0.0805      7.3785    121.9468     26.7219
  1036.6000      7.8200      2.5083      0.0123      8.5903    123.3313     27.2683
  1036.7000      7.8200      2.5018      0.0440      8.9839    124.9127     27.8106
  1036.8000      7.8442      2.5054      0.0248      8.7607    126.8728     28.0341
  1036.9000      7.8442      2.5082      0.0457      8.5960    128.7359     28.2610
  1037.0000      7.8720      2.5075      0.0629      8.6352    130.2713     28.6939
  1037.1000      7.8720      2.5051      0.0480      8.7823    129.9137     29.2359
  1037.2000      7.8720      2.5050      0.0354      8.7886    127.2565     29.7540
  1037.3000      7.8770      2.5121      0.0563      8.3586    124.1347     29.9123
  1037.4000      7.8770      2.5289      0.0341      7.3387    121.4375     29.6350
  1037.5000      7.8786      2.5514      0.0828      5.9759    118.8524     29.3259
  1037.6000      7.8786      2.5638      0.0676      5.2224    118.1294     29.1872
  1037.7000      7.8786      2.5602      0.0562      5.4397    120.6185     28.8474
  1037.8000      7.8678      2.5565      0.0371      5.6656    122.5810     28.1182
  1037.9000      7.8678      2.5618      0.0782      5.3439    120.5114     27.4429
  1038.0000      7.8523      2.5608      0.0820      5.4068    115.5083     27.0287
  1038.1000      7.8523      2.5367      0.0667      6.8690    110.3765     26.6188
  1038.2000      7.8523      2.4930      0.0570      9.5177    106.6535     26.0639
  1038.3000      7.8522      2.4429      0.0454     12.5495    104.5600     25.5831
  1038.4000      7.8522      2.3885      0.0487     15.8471    104.2001     25.3971
  1038.5000      7.8620      2.3267      0.0253     19.5912    104.9679     25.3507
  1038.6000      7.8620      2.2782     -0.0249     22.5305    105.7162     25.1153
  1038.7000      7.8620      2.2692      0.0161     23.0787    106.7809     24.7617
  1038.8000      7.9024      2.2916      0.0283     21.7199    109.1644     24.6680
  1038.9000      7.9024      2.3250      0.0870     19.6966    113.1066     24.7997
  1039.0000      7.8870      2.3743      0.1079     16.7072    118.0318     25.0386
  1039.1000      7.8870      2.4520      0.2715     12.0029    122.3894     25.5841
  1039.2000      7.8870      2.5348      0.4606      6.9820    125.8391     26.3190
  1039.3000      7.8504      2.5878      0.4637      3.7725    130.0640     26.8994
  1039.4000      7.8504      2.6092      0.3831      2.4704    133.4261     27.4432
  1039.5000      7.8822      2.6170      0.2543      1.9990    132.4881     28.0402
  1039.6000      7.8822      2.6214      0.2180      1.7344    128.9959     28.3914
  1039.7000      7.8822      2.6250      0.1926      1.5167    126.5840     28.3625
  1039.8000      7.8971      2.6257      0.1764      1.4734    126.2229     28.2122
  1039.9000      7.8971      2.6152      0.1687      2.1116    127.6353     28.3322
  1040.0000      7.8812      2.5883      0.1079      3.7365    129.8950     28.7684
  1040.1000      7.8812      2.5525      0.0522      5.9061    132.2281     29.2717
  1040.2000      7.8812      2.5219      0.0315      7.7644    134.6856     29.7195
  1040.3000      7.9075      2.5143      0.0544      8.2259    136.5012     30.1773
  1040.4000      7.9075      2.5419      0.0380      6.5534    137.1855     30.8011
  1040.5000      7.8797      2.5905      0.1270      3.6085    136.0211     31.5048
  1040.6000      7.8797      2.6270      0.1659      1.3939    131.8957     31.9584
  1040.7000      7.8797      2.6353      0.1319      0.8921    126.1115     32.0408
  1040.8000      7.8995      2.6220      0.1300      1.6972    120.9437     31.7624
  1040.9000      7.8995      2.5989      0.0745      3.0950    118.1083     31.3448
  1041.0000      7.9180      2.5782      0.0590      4.3543    118.0694     31.1410
  1041.1000      7.9180      2.5662      0.0615      5.0768    119.9671     31.1526
  1041.2000      7.9180      2.5582      0.0501      5.5657    121.8400     31.1018
  1041.3000      7.9083      2.5455      0.0118      6.3331    120.3548     30.8053
  1041.4000      7.9083      2.5316      0.0070      7.1771    114.1867     30.4170
  1041.5000      7.9040      2.5339      0.0431      7.0363    108.0927     30.0975
  1041.6000      7.9040      2.5658      0.0925      5.1012    106.1584     29.8559
  1041.7000      7.9040      2.6138      0.1496      2.1931    106.4622     29.7386
  1041.8000      7.8938      2.6479      0.2253      0.1282    106.4834     29.5468
  1041.9000      7.8938      2.6571      0.1565     -0.4319    106.0728     29.0316
  1042.0000      7.8962      2.6538      0.1642     -0.2302    105.0707     28.2514
  1042.1000      7.8962      2.6450      0.1615      0.3009    102.7196     27.4810
  1042.2000      7.8962      2.6352      0.1077      0.8980    100.3400     26.8046
  1042.3000      7.8910      2.6294      0.1487      1.2500    100.4875     25.9989
  1042.4000      7.8910      2.6180      0.1133      1.9383    103.0939     25.2910
  1042.5000      7.8626      2.5923      0.0637      3.4977    106.1321     25.0827
  1042.6000      7.8626      2.5576      0.0665      5.6003    109.6288     25.1136
  1042.7000      7.8626      2.5258      0.0134      7.5263    113.9107     24.8586
  1042.8000      7.8919      2.5104      0.0163      8.4583    118.3535     24.2008
  1042.9000      7.8919      2.5107      0.0874      8.4431    123.1160     23.6548
  1043.0000      7.8989      2.5151      0.0816      8.1762    127.6347     23.8068
  1043.1000      7.8989      2.5211      0.0967      7.8137    130.7034     24.5734
  1043.2000      7.8989      2.5284      0.1131      7.3705    133.0516     25.3528
  1043.3000      7.9418      2.5373      0.0868      6.8280    135.4737     25.7672
  1043.4000      7.9418      2.5478      0.1588      6.1957    139.6544     26.0450
  1043.5000      7.9902      2.5463      0.1335      6.2822    143.7838     26.4165
  1043.6000      7.9902      2.5204      0.1176      7.8549    143.7368     26.6896
  1043.7000      7.9902      2.4823      0.0739     10.1647    141.5454     26.8063
  1043.8000      7.9612      2.4570      0.0441     11.6954    142.7030     27.0488
  1043.9000      7.9612      2.4453      0.0818     12.4060    149.8496     27.3504
  1044.0000      7.9817      2.4309      0.0627     13.2767    157.7584     27.3927
  1044.1000      7.9817      2.4140      0.0569     14.3010    159.3695     27.3026
  1044.2000      7.9817      2.4062      0.0120     14.7777    156.8885     27.5177
  1044.3000      8.0419      2.4092      0.0439     14.5921    156.0636     27.9011
  1044.4000      8.0419      2.4131      0.0596     14.3599    156.9652     28.0292
  1044.5000      8.0741      2.4116      0.0491     14.4464    156.6946     28.0211
  1044.6000      8.0741      2.4002      0.0380     15.1405    153.6709     27.9530
  1044.7000      8.0741      2.3649      0.0273     17.2769    148.5871     27.5494
  1044.8000      8.0497      2.3003     -0.0007     21.1961    144.1761     26.6427
  1044.9000      8.0497      2.2195      0.0168     26.0933    143.1384     25.2290
  1045.0000      8.0581      2.1407      0.0315     30.8677    142.7563     23.4880
  1045.1000      8.0581      2.0725      0.0610     35.0019    139.4906     21.8155
  1045.2000      8.0581      2.0160      0.0422     38.4241    134.1773     20.3390
  1045.3000      8.1217      1.9765      0.0987     40.8176    129.5132     18.7816
  1045.4000      8.1217      1.9547      0.0729     42.1398    127.0268     17.2426
  1045.5000      8.1678      1.9252      0.2779     43.9300    125.4434     16.2140
  1045.6000      8.1678      1.8573      0.2594     48.0412    124.0803     15.7460
  1045.7000      8.1678      1.7674      0.1932     53.4892    123.1164     15.5176
  1045.8000      8.3887      1.6943      0.1194     57.9210    120.9317     15.5167
  1045.9000      8.3887      1.6477      0.1178     60.7481    117.7834     15.8843
