~Version Information
 VERS.                                  2.0 : CWLS LAS VERSION
 WRAP.                                   NO : WRAPING MODE
 SWARE .                 MController 2.5.0J : SOFTWARE VERSION
~Well Information
 WELL.                         Norton 9-14R : WELL
 COMP.                Petrogulf Corporation : COMPANY
 FLD.                       Purgatoire River: FIELD
 LOC.                SW/SW Sec 9 T33S R67W  : LOCATION
 DATE.                            10/5-6/05 : DATE(S) LOGGED
 SRVC.       BLANCO Geological Services LLC : SERVICE COMPANY
 STAT.                                   CO : STATE
 CNTY.                           Las Animas : COUNTY
 CTRY.                                  USA : COUNTRY
 API.                       05-071-08444-00 : API NUMBER
 STRT.FT                              56.00 : START DEPTH
 STOP.FT                            1880.00 : STOP DEPTH
 STEP.FT                               1.00 : DEPTH INCREMENT
 NULL.                                -9999 : NULL VALUE
~Curve information
 DEPTH.FT                                   :
 ROP.MIN/FT                                 :
 GAS.UNITS                                  :
~ASCII Log data
        56.0     -9999.00          4.7 
        57.0        30.48        103.8 
        58.0         0.30          7.2 
        59.0         0.37          7.1 
        60.0         0.33          7.3 
        61.0         0.30          7.1 
        62.0         0.20          7.2 
        63.0         0.23          6.8 
        64.0         0.20          7.2 
        65.0         0.20          7.3 
        66.0         0.22          7.5 
        67.0         0.20          7.7 
        68.0         0.23          7.5 
        69.0         0.20          7.0 
        70.0         0.20          7.7 
        71.0         0.23          7.8 
        72.0         0.23          7.5 
        73.0         0.27          7.9 
        74.0         0.27          7.4 
        75.0         0.23          7.6 
        76.0         0.23          7.6 
        77.0         0.23          7.9 
        78.0         0.27          7.7 
        79.0         0.28          8.2 
        80.0         0.23          8.2 
        81.0         0.27          8.0 
        82.0         0.27          7.9 
        83.0         0.27          8.1 
        84.0         0.27          7.9 
        85.0         0.27          7.6 
        86.0         1.37          7.8 
        87.0         0.23          7.4 
        88.0         0.28          7.3 
        89.0         0.27          7.4 
        90.0         0.23          7.5 
        91.0         0.27          7.3 
        92.0         0.27          8.0 
        93.0         0.23          7.6 
        94.0         0.27          7.4 
        95.0         0.23          7.8 
        96.0         0.30          7.8 
        97.0         0.27          7.9 
        98.0         0.27          8.0 
        99.0         0.23          7.7 
       100.0         0.17          7.3 
       101.0         0.25          7.7 
       102.0         0.23          7.4 
       103.0         0.27          7.3 
       104.0         0.23          7.4 
       105.0         0.27          8.0 
       106.0         0.23          8.0 
       107.0         0.23          8.1 
       108.0         0.20          8.0 
       109.0         0.20          8.3 
       110.0         0.23          8.0 
       111.0         0.30          8.2 
       112.0         0.27          7.7 
       113.0         0.28          7.9 
       114.0         0.27          8.1 
       115.0         0.33          8.0 
       116.0         1.10          8.2 
       117.0         0.33          7.8 
       118.0         0.33          7.6 
       119.0         0.27          7.9 
       120.0         0.30          8.0 
       121.0         0.28          7.7 
       122.0         0.30          7.9 
       123.0         0.33          8.1 
       124.0         0.27          7.9 
       125.0         0.27          7.9 
       126.0         0.27          8.0 
       127.0         0.27          7.8 
       128.0         0.27          7.8 
       129.0         0.30          7.9 
       130.0         0.27          7.6 
       131.0         0.30          8.0 
       132.0         0.28          8.2 
       133.0         0.27          8.1 
       134.0         0.30          8.3 
       135.0         0.23          7.9 
       136.0         0.23          7.9 
       137.0         0.20          8.3 
       138.0         0.23          8.5 
       139.0         0.27          8.0 
       140.0         0.30          7.9 
       141.0         0.23          8.2 
       142.0         0.33          7.9 
       143.0         0.30          8.4 
       144.0         0.23          8.3 
       145.0         0.32          8.3 
       146.0         0.97          8.6 
       147.0         0.33          8.7 
       148.0         0.30          8.8 
       149.0         0.27          8.7 
       150.0         0.33          8.6 
       151.0         0.23          9.1 
       152.0         0.23          8.8 
       153.0         0.20          8.7 
       154.0         0.25          8.7 
       155.0         0.27          8.4 
       156.0         0.23          8.0 
       157.0         0.23          7.9 
       158.0         0.27          8.0 
       159.0         0.27          8.1 
       160.0         0.30          7.9 
       161.0         0.30          7.6 
       162.0         0.23          7.8 
       163.0         0.23          7.7 
       164.0         0.27          7.7 
       165.0         0.23          7.8 
       166.0         0.27          8.1 
       167.0         0.22          7.4 
       168.0         0.23          7.6 
       169.0         0.23          7.4 
       170.0         0.30          7.6 
       171.0         0.33          7.8 
       172.0         0.30          7.6 
       173.0         0.23          7.5 
       174.0         0.33          8.1 
       175.0         0.30          7.9 
       176.0         1.68          8.7 
       177.0         0.30          7.8 
       178.0         0.23          7.6 
       179.0         0.23          7.7 
       180.0         0.23          7.7 
       181.0         0.27          7.6 
       182.0         0.23          7.6 
       183.0         0.27          7.6 
       184.0         0.23          7.4 
       185.0         0.27          7.6 
       186.0         0.23          8.0 
       187.0         0.25          7.7 
       188.0         0.23          8.0 
       189.0         0.23          8.0 
       190.0         0.23          8.0 
       191.0         0.27          7.6 
       192.0         0.23          7.5 
       193.0         0.20          7.5 
       194.0         0.23          7.5 
       195.0         0.23          7.3 
       196.0         0.23          7.6 
       197.0         0.27          7.5 
       198.0         0.23          7.6 
       199.0         0.27          7.6 
       200.0         0.35          7.6 
       201.0         0.30          7.6 
       202.0         0.30          8.1 
       203.0         0.30          8.0 
       204.0         0.33          8.2 
       205.0         0.20          8.1 
       206.0         1.17          8.9 
       207.0         0.27          8.6 
       208.0         0.23          8.6 
       209.0         0.22          8.7 
       210.0         0.23          8.2 
       211.0         0.23          8.3 
       212.0         0.20          7.8 
       213.0         0.23          7.6 
       214.0         0.20          8.4 
       215.0         0.27          8.1 
       216.0         0.23          8.2 
       217.0         0.27          8.2 
       218.0         0.30          7.7 
       219.0         0.23          8.4 
       220.0         0.13          8.5 
       221.0         0.13          8.0 
       222.0         0.17          8.0 
       223.0         0.17          8.4 
       224.0         0.22          8.1 
       225.0         0.23          8.6 
       226.0         0.27          8.6 
       227.0         0.23          8.4 
       228.0         0.23          8.0 
       229.0         0.23          8.3 
       230.0         0.23          8.5 
       231.0         0.23          8.1 
       232.0         0.17          7.9 
       233.0         0.23          8.0 
       234.0         0.20          8.2 
       235.0         0.23          8.0 
       236.0         1.72          9.0 
       237.0         0.47          8.9 
       238.0         0.30          8.4 
       239.0         0.13          8.3 
       240.0         0.13          8.5 
       241.0         0.23          8.5 
       242.0         0.23          8.6 
       243.0         0.20          8.9 
       244.0         0.23          8.9 
       245.0         0.23          8.6 
       246.0         0.28          8.8 
       247.0         0.23          9.0 
       248.0         0.27          8.7 
       249.0         0.23          8.4 
       250.0         0.30          8.0 
       251.0         0.23          8.1 
       252.0         0.33          8.2 
       253.0         0.30          8.1 
       254.0         0.27          8.0 
       255.0         0.37          8.1 
