~Version Information
VERS.                      2.0: CWLS Log ASCII Standard - VERSION 2.0
WRAP.                       NO: One line per depth step
~Well Information Block
STRT.FT               745.0000: 
STOP.FT              1985.0000: 
STEP.FT                 0.1000: 
NULL.                -999.2500: 
COMP.          Pioneer Natural Resources: COMPANY
WELL.          Lorencito 15-36-33-67: WELL
FLD.           Purgatoire River: FIELD
LOC.           38' FSL & 1446' FEL: LOCATION
STAT.                 Colorado: State
CNTY.               Las Animas: COUNTY
CTRY. USA : Country
SECT. 36 : Section
TOWN. 33S : Township
RANG. 67W : Range
SRVC.                Patterson: SERVICE COMPANY
DATE.          Thu Oct 13 10:16:17 2005: LOG DATE
API.           05 071 08515 00: UNIQUE WELL ID
~Curve Information Block
DEPT.FT            0 000 00 00: Depth
DCAL.in                       : CDL Caliper
RHOB.g/cc                     : CDL Bulk Density
RHOC.g/cc                     : CDL Density Correction
DPOR.pu                       : CDL Density Porosity
GR.GAPI                       : Gamma Ray
NPOR.pu                       : Neutron Porosity
~Parameter Information Block
~A  Depth       DCAL        RHOB        RHOC        DPOR         GR         NPOR    
# ...
  1973.8000      7.8689      2.5797      0.0570      4.2602   -999.2500   -999.2500
  1973.9000      7.8689      2.5790      0.0273      4.3021   -999.2500   -999.2500
  1974.0000      7.8748      2.5865      0.0247      3.8474   -999.2500   -999.2500
  1974.1000      7.8748      2.6029      0.0630      2.8550   -999.2500   -999.2500
  1974.2000      7.8748      2.6117      0.0619      2.3220   -999.2500   -999.2500
  1974.3000      7.8837      2.6070      0.0300      2.6090   -999.2500   -999.2500
  1974.4000      7.8837      2.5955      0.0389      3.3043   -999.2500   -999.2500
  1974.5000      7.8836      2.5814      0.0355      4.1573   -999.2500   -999.2500
  1974.6000      7.8836      2.5692      0.0301      4.9000   -999.2500   -999.2500
  1974.7000      7.8836      2.5701      0.0259      4.8407   -999.2500   -999.2500
  1974.8000      7.8868      2.5904      0.0276      3.6113   -999.2500   -999.2500
  1974.9000      7.8868      2.6100      0.0793      2.4269   -999.2500   -999.2500
  1975.0000      7.8828      2.5979      0.0887      3.1604   -999.2500   -999.2500
  1975.1000      7.8828      2.5630     -0.0200      5.2709   -999.2500   -999.2500
  1975.2000      7.8828      2.5408      0.0261      6.6196   -999.2500   -999.2500
  1975.3000      7.8856      2.5406     -0.0107      6.6327   -999.2500   -999.2500
  1975.4000      7.8856      2.5533      0.0199      5.8578   -999.2500   -999.2500
  1975.5000      7.8817      2.5694      0.0384      4.8846   -999.2500   -999.2500
  1975.6000      7.8817      2.5761      0.0792      4.4765   -999.2500   -999.2500
  1975.7000      7.8817      2.5672      0.0493      5.0192   -999.2500   -999.2500
  1975.8000      7.8736      2.5523      0.0222      5.9201   -999.2500   -999.2500
  1975.9000      7.8736      2.5429      0.0130      6.4919   -999.2500   -999.2500
  1976.0000      7.8772      2.5400      0.0276      6.6691   -999.2500   -999.2500
  1976.1000      7.8772      2.5445     -0.0052      6.3953   -999.2500   -999.2500
  1976.2000      7.8772      2.5525      0.0624      5.9067   -999.2500   -999.2500
  1976.3000      7.8779      2.5519      0.0419      5.9436   -999.2500   -999.2500
  1976.4000      7.8779      2.5473      0.0328      6.2250   -999.2500   -999.2500
  1976.5000      7.8624      2.5498      0.0545      6.0707   -999.2500   -999.2500
  1976.6000      7.8624      2.5548      0.0638      5.7675   -999.2500   -999.2500
  1976.7000      7.8624      2.5555      0.0314      5.7293   -999.2500   -999.2500
  1976.8000      7.8494      2.5509      0.0577      6.0033   -999.2500   -999.2500
  1976.9000      7.8494      2.5446      0.0080      6.3892   -999.2500   -999.2500
  1977.0000      7.8490      2.5455      0.0285      6.3320   -999.2500   -999.2500
  1977.1000      7.8490      2.5558      0.0663      5.7118   -999.2500   -999.2500
  1977.2000      7.8490      2.5665      0.0610      5.0634   -999.2500   -999.2500
  1977.3000      7.8464      2.5679      0.0726      4.9779   -999.2500   -999.2500
  1977.4000      7.8464      2.5547      0.0883      5.7747   -999.2500   -999.2500
  1977.5000      7.8475      2.5422      0.0183      6.5351   -999.2500   -999.2500
  1977.6000      7.8475      2.5511      0.0503      5.9922   -999.2500   -999.2500
  1977.7000      7.8475      2.5722      0.0537      4.7134   -999.2500   -999.2500
  1977.8000      7.8498      2.5868      0.0468      3.8306   -999.2500   -999.2500
  1977.9000      7.8498      2.5920      0.0467      3.5144   -999.2500   -999.2500
  1978.0000      7.8475      2.5934      0.0657      3.4296   -999.2500   -999.2500
  1978.1000      7.8475      2.5995      0.0703      3.0626   -999.2500   -999.2500
  1978.2000      7.8475      2.6152      0.0766      2.1115   -999.2500   -999.2500
  1978.3000      7.8547      2.6333      0.0667      1.0101   -999.2500   -999.2500
  1978.4000      7.8547      2.6390      0.0825      0.6687   -999.2500   -999.2500
  1978.5000      7.8497      2.6226      0.0632      1.6584   -999.2500   -999.2500
  1978.6000      7.8497      2.5926      0.0318      3.4813   -999.2500   -999.2500
  1978.7000      7.8497      2.5683      0.0486      4.9521   -999.2500   -999.2500
  1978.8000      7.8314      2.5621      0.0078      5.3300   -999.2500   -999.2500
  1978.9000      7.8314      2.5658      0.0512      5.1008   -999.2500   -999.2500
  1979.0000      7.8226      2.5660      0.0242      5.0924   -999.2500   -999.2500
  1979.1000      7.8226      2.5660      0.0497      5.0890   -999.2500   -999.2500
  1979.2000      7.8226      2.5691      0.0540      4.9022   -999.2500   -999.2500
  1979.3000      7.8389      2.5687      0.0392      4.9288   -999.2500   -999.2500
  1979.4000      7.8389      2.5619      0.0512      5.3384   -999.2500   -999.2500
  1979.5000      7.8449      2.5563      0.0375      5.6818   -999.2500   -999.2500
  1979.6000      7.8449      2.5657      0.0611      5.1061   -999.2500   -999.2500
  1979.7000      7.8449      2.5896      0.0770      3.6582   -999.2500   -999.2500
  1979.8000      7.8581      2.6064      0.0962      2.6425   -999.2500   -999.2500
  1979.9000      7.8581      2.6038      0.0453      2.8010   -999.2500   -999.2500
  1980.0000      7.8606      2.5895      0.0694      3.6695   -999.2500   -999.2500
  1980.1000      7.8606      2.5754      0.0495      4.5211   -999.2500   -999.2500
  1980.2000      7.8606      2.5684      0.0816      4.9435   -999.2500   -999.2500
  1980.3000      7.8467      2.5701      0.0269      4.8439   -999.2500   -999.2500
  1980.4000      7.8467      2.5797      0.0462      4.2622   -999.2500   -999.2500
  1980.5000      7.8561      2.5809      0.0901      4.1855   -999.2500   -999.2500
  1980.6000      7.8561      2.5573      0.0540      5.6174   -999.2500   -999.2500
  1980.7000      7.8561      2.5233      0.0152      7.6764   -999.2500   -999.2500
  1980.8000      7.8482      2.5085     -0.0078      8.5787   -999.2500   -999.2500
  1980.9000      7.8482      2.5227      0.0467      7.7130   -999.2500   -999.2500
  1981.0000      7.8547      2.5462      0.0669      6.2904   -999.2500   -999.2500
  1981.1000      7.8547      2.5532      0.0796      5.8686   -999.2500   -999.2500
  1981.2000      7.8547      2.5464      0.0158      6.2791   -999.2500   -999.2500
  1981.3000      7.8085      2.5484     -0.0024      6.1577   -999.2500   -999.2500
  1981.4000      7.8085      2.5637      0.0504      5.2313   -999.2500   -999.2500
  1981.5000      7.8010      2.5740      0.0639      4.6076   -999.2500   -999.2500
  1981.6000      7.8010      2.5717      0.0376      4.7480   -999.2500   -999.2500
  1981.7000      7.8010      2.5642      0.0446      5.1979   -999.2500   -999.2500
  1981.8000      7.7963      2.5515      0.0395      5.9667   -999.2500   -999.2500
  1981.9000      7.7963      2.5363      0.0419      6.8879   -999.2500   -999.2500
  1982.0000      7.7991      2.5551     -0.0147      5.7527   -999.2500   -999.2500
  1982.1000      7.7991      2.6593      0.0139     -0.5638   -999.2500   -999.2500
  1982.2000      7.7991      2.7188      0.0519     -4.1724   -999.2500   -999.2500
  1982.3000      7.7919      2.2889      0.5288     21.8857   -999.2500   -999.2500
  1982.4000      7.7919      1.3027      0.0000     81.6544   -999.2500   -999.2500
  1982.5000      7.2108      0.4420      0.0000    133.8158   -999.2500   -999.2500
  1982.6000      7.2108      0.0840   -999.2500    155.5179   -999.2500   -999.2500
  1982.7000      7.2108      0.0087   -999.2500    160.0816   -999.2500   -999.2500
  1982.8000      3.6037      0.0005   -999.2500    160.5776   -999.2500   -999.2500
  1982.9000      3.6037      0.0000   -999.2500    160.6061   -999.2500   -999.2500
  1983.0000      3.1173      0.0000   -999.2500    160.6061   -999.2500   -999.2500
  1983.1000      3.1173   -999.2500   -999.2500   -999.2500   -999.2500   -999.2500
  1983.2000      3.1173   -999.2500   -999.2500   -999.2500   -999.2500   -999.2500
  1983.3000   -999.2500   -999.2500   -999.2500   -999.2500   -999.2500   -999.2500
