~Version Information
VERS.                      2.0: CWLS Log ASCII Standard - VERSION 2.0
WRAP.                       NO: One line per depth step
~Well Information Block
STRT.FT               240.0000: 
STOP.FT              1338.7000: 
STEP.FT                 0.1000: 
NULL.                -999.2500: 
COMP.          Pioneer Natural Resources: COMPANY
WELL.            Hamburg 43-35: WELL
FLD.           Purgatoire River: FIELD
LOC.           2444' FSL & 950' FEL--: LOCATION
PROV.                 Colorado: PROVINCE
CNTY.               Las Animas: COUNTRY
SRVC.                Patterson: SERVICE COMPANY
DATE.          Sun Dec 04 11:50:58 2005: LOG DATE
UWI.           05 071 08607 00: UNIQUE WELL ID
~Curve Information Block
DEPT.FT            0 000 00 00: Depth
DCAL.in                       : CDL Caliper
RHOB.g/cc                     : CDL Bulk Density
RHOC.g/cc                     : CDL Density Correction
DPOR.pu                       : CDL Density Porosity
NPOR.pu                       : Neutron Porosity
GR.GAPI                       : Gamma Ray
~Parameter Information Block
~A  Depth       DCAL        RHOB        RHOC        DPOR        NPOR         GR     
# ...
  1238.4000      7.8671      2.5162      0.0975      8.1065     17.4197     76.5418
  1238.5000      7.8623      2.5392      0.0720      6.7127     16.6031     76.2521
  1238.6000      7.8623      2.5605      0.1017      5.4227     15.7238     74.8301
  1238.7000      7.8623      2.5718      0.1169      4.7370     15.4376     68.1880
  1238.8000      7.8602      2.5784      0.0451      4.3414     15.8245     63.5904
  1238.9000      7.8602      2.5969      0.0951      3.2177     16.3885     64.4535
  1239.0000      7.8620      2.6183      0.0901      1.9208     16.5992     67.5522
  1239.1000      7.8620      2.6255      0.0759      1.4871     16.4653     72.5155
  1239.2000      7.8620      2.6214      0.0556      1.7323     16.6215     77.8028
  1239.3000      7.8665      2.6136      0.0612      2.2042     17.1761     80.9525
  1239.4000      7.8665      2.6017      0.0414      2.9292     17.6762     85.5686
  1239.5000      7.8693      2.5871      0.0334      3.8118     18.1409     96.2694
  1239.6000      7.8693      2.5758      0.0062      4.4958     18.9804    109.3741
  1239.7000      7.8693      2.5711      0.0135      4.7794     20.2734    116.2913
  1239.8000      7.8744      2.5724      0.0183      4.7006     21.2039    116.5072
  1239.9000      7.8744      2.5755      0.0198      4.5158     21.1455    116.0158
  1240.0000      7.8799      2.5735      0.0194      4.6341     20.7162    116.7863
  1240.1000      7.8799      2.5646      0.0158      5.1780     20.5231    116.5254
  1240.2000      7.8799      2.5534      0.0200      5.8574     20.4932    114.1925
  1240.3000      7.8830      2.5416      0.0160      6.5713     20.5287    113.0879
  1240.4000      7.8830      2.5296      0.0153      7.2991     20.5850    114.4403
  1240.5000      7.8844      2.5289     -0.0155      7.3395     20.4139    114.4307
  1240.6000      7.8844      2.5441      0.0480      6.4182     20.2539    110.3633
  1240.7000      7.8844      2.5592      0.0715      5.5012     20.6162    104.7116
  1240.8000      7.8836      2.5656      0.0598      5.1166     20.9729    101.6073
  1240.9000      7.8836      2.5722      0.0354      4.7148     20.7080     99.3956
  1241.0000      7.8795      2.5848      0.0476      3.9502     20.3532     93.2744
  1241.1000      7.8795      2.5876      0.0812      3.7830     20.3719     86.5412
  1241.2000      7.8795      2.5686      0.0508      4.9318     20.4549     86.5825
  1241.3000      7.8768      2.5465      0.0210      6.2747     20.2435     91.1997
  1241.4000      7.8768      2.5392      0.0193      6.7181     19.9096     92.2850
  1241.5000      7.8823      2.5466      0.0072      6.2647     19.8429     90.5299
  1241.6000      7.8823      2.5622      0.0484      5.3212     19.9702     92.4234
  1241.7000      7.8823      2.5776      0.0334      4.3869     19.8161     97.5689
  1241.8000      7.8911      2.5876      0.0601      3.7808     19.4208     99.5247
  1241.9000      7.8911      2.5892      0.0344      3.6862     19.3725     97.7428
  1242.0000      7.9001      2.5845      0.0357      3.9711     19.4979     95.2536
  1242.1000      7.9001      2.5719      0.0455      4.7351     19.2957     92.3793
  1242.2000      7.9001      2.5444      0.0499      6.4009     19.0156     89.2772
  1242.3000      7.9084      2.5145     -0.0529      8.2122     19.1738     90.4121
  1242.4000      7.9084      2.5034     -0.0137      8.8872     19.9435     95.5989
  1242.5000      7.9103      2.5046      0.0216      8.8144     20.6661     94.6812
  1242.6000      7.9103      2.5015      0.0111      8.9999     20.6224     85.5152
  1242.7000      7.9103      2.4997     -0.0036      9.1104     20.1744     77.6568
  1242.8000      7.9078      2.5041      0.0040      8.8444     19.9466     74.0432
  1242.9000      7.9078      2.5024      0.0167      8.9449     19.8624     71.7631
  1243.0000      7.9027      2.4896      0.0266      9.7194     19.6931     72.8095
  1243.1000      7.9027      2.4803      0.0172     10.2873     19.6169     78.0144
  1243.2000      7.9027      2.4903      0.0268      9.6809     19.5472     81.0328
  1243.3000      7.8942      2.5157      0.0564      8.1404     19.3228     76.8176
  1243.4000      7.8942      2.5399      0.0723      6.6698     19.3303     67.3705
  1243.5000      7.8853      2.5530      0.0917      5.8790     19.5252     60.7082
  1243.6000      7.8853      2.5543      0.0663      5.7977     19.2595     64.1570
  1243.7000      7.8853      2.5483      0.0687      6.1648     18.5691     74.3772
  1243.8000      7.8782      2.5380      0.0459      6.7864     17.9873     81.9866
  1243.9000      7.8782      2.5270      0.0369      7.4544     17.8654     82.7785
  1244.0000      7.8720      2.5240      0.0277      7.6356     18.3874     78.3800
  1244.1000      7.8720      2.5331      0.0676      7.0827     19.2618     73.1795
  1244.2000      7.8720      2.5392      0.0914      6.7158     20.1683     70.5239
  1244.3000      7.8672      2.5261      0.0511      7.5091     21.1591     70.8908
  1244.4000      7.8672      2.5068      0.0301      8.6783     21.8429     77.0328
  1244.5000      7.8666      2.5079      0.0040      8.6132     21.8715     88.2748
  1244.6000      7.8666      2.5294      0.0465      7.3091     21.9508     99.3396
  1244.7000      7.8666      2.5469      0.0527      6.2507     22.4601    107.5497
  1244.8000      7.8641      2.5488      0.0484      6.1354     22.6436    111.0938
  1244.9000      7.8641      2.5404      0.0286      6.6454     22.0421    112.2872
  1245.0000      7.8586      2.5303      0.0143      7.2557     21.2054    115.3312
  1245.1000      7.8586      2.5335      0.0263      7.0617     20.9357    117.9928
  1245.2000      7.8586      2.5545      0.1005      5.7872     21.0882    120.0407
  1245.3000      7.8541      2.5799      0.0791      4.2471     20.9816    121.3041
  1245.4000      7.8541      2.5975      0.0995      3.1817     20.7345    118.0844
  1245.5000      7.8543      2.5987      0.0714      3.1113     20.7050    112.3851
  1245.6000      7.8543      2.5850      0.0558      3.9411     20.7097    108.5957
  1245.7000      7.8543      2.5686      0.0651      4.9336     20.7440    106.8025
  1245.8000      7.8604      2.5539      0.0804      5.8254     21.0553    104.7773
  1245.9000      7.8604      2.5364      0.0455      6.8843     21.3979    100.2225
  1246.0000      7.8706      2.5169      0.0222      8.0650     21.3135     96.7891
  1246.1000      7.8706      2.5059     -0.0154      8.7359     20.7746     98.4047
  1246.2000      7.8706      2.5081      0.0355      8.6005     20.1891     97.4210
  1246.3000      7.8783      2.5094      0.0186      8.5188     19.9140     87.4745
  1246.4000      7.8783      2.5030      0.0260      8.9080     19.8639     76.1484
  1246.5000      7.8813      2.5027      0.0237      8.9266     19.6478     71.3008
  1246.6000      7.8813      2.5170      0.0426      8.0579     19.2929     72.9022
  1246.7000      7.8813      2.5387      0.0423      6.7425     18.9920     77.0833
  1246.8000      7.8837      2.5516      0.0838      5.9622     18.8274     78.2415
  1246.9000      7.8837      2.5452      0.0400      6.3510     18.9189     76.6017
  1247.0000      7.8834      2.5316      0.0550      7.1785     19.0665     78.6409
  1247.1000      7.8834      2.5253      0.0596      7.5598     19.0198     84.4015
  1247.2000      7.8834      2.5256      0.0654      7.5414     19.0830     89.1834
  1247.3000      7.8827      2.5264      0.0186      7.4891     19.4795     94.2580
  1247.4000      7.8827      2.5226      0.0508      7.7183     19.9400    100.3191
  1247.5000      7.8829      2.5119      0.0453      8.3706     20.0288    103.6129
  1247.6000      7.8829      2.5026      0.0282      8.9334     19.4476    100.6618
  1247.7000      7.8829      2.5052      0.0164      8.7734     18.7376     92.0211
  1247.8000      7.8806      2.5114      0.0610      8.4010     18.5348     82.7734
  1247.9000      7.8806      2.5058      0.0301      8.7410     18.5374     77.8676
