~Version Information
 VERS.                                  2.0 : CWLS LAS VERSION
 WRAP.                                   NO : WRAPING MODE
 SWARE .                  MController 2.5.1 : SOFTWARE VERSION
~Well Information
 WELL.                    Sparrowhawk 22-12 : WELL
 COMP.  Pioneer Natural Resources USA, Inc. : COMPANY
 FLD.                      Purgatoire River : FIELD
 LOC.             SE/NE Sec. 12, T32S, R66W : LOCATION
 DATE.                03/22/2006-03/23/2006 : DATE(S) LOGGED
 SRVC.                  Entrada GeoSciences : SERVICE COMPANY
 STAT.                             Colorado : STATE
 CNTY.                           Las Animas : COUNTY
 CTRY.                        United States : COUNTRY
 API.                          05-071-08484 : API NUMBER
 STRT.FT                             533.00 : START DEPTH
 STOP.FT                            2380.00 : STOP DEPTH
 STEP.FT                               1.00 : DEPTH INCREMENT
 NULL.                                -9999 : NULL VALUE
~Curve information
 DEPTH.FT                                   :
 ROP.MIN/FT                                 :
 GAS.UNITS                                  :
~ASCII Log data
# ...
     1333.00         0.27         15.6 
     1334.00         0.33         13.3 
     1335.00         0.27         11.1 
     1336.00         0.23          9.6 
     1337.00         0.27          9.4 
     1338.00         0.30          9.3 
     1339.00         0.23          9.1 
     1340.00         0.17         10.4 
     1341.00         0.23          9.1 
     1342.00         0.28          9.0 
     1343.00         0.30          8.9 
     1344.00         0.23          8.2 
     1345.00         0.23          8.6 
     1346.00         0.33         24.4 
     1347.00         0.30         22.0 
     1348.00         0.47         24.2 
     1349.00         0.37         33.5 
     1350.00         0.35         55.7 
     1351.00         0.27         82.4 
     1352.00         0.27        110.9 
     1353.00         0.33        159.6 
     1354.00         0.27        266.3 
     1355.00         0.33        428.3 
     1356.00         0.33       1213.0 
     1357.00         0.30       1202.2 
     1358.00         0.40       1020.0 
     1359.00         0.30        863.8 
     1360.00         0.37        708.2 
     1361.00         0.35        608.6 
     1362.00         0.33        540.7 
     1363.00         0.23        495.0 
     1364.00         0.23        484.4 
     1365.00         0.27        468.3 
     1366.00         0.17        459.2 
     1367.00         0.17        459.2 
     1368.00         0.23        456.0 
     1369.00         0.33        447.8 
     1370.00         0.33        440.2 
     1371.00         0.27        433.7 
     1372.00         0.23        426.7 
     1373.00         0.27        424.7 
     1374.00         0.15        414.7 
     1375.00         0.23        414.4 
     1376.00         0.27        413.8 
     1377.00         0.40        448.1 
     1378.00         0.37        503.2 
     1379.00         0.43        595.2 
     1380.00         0.40        781.8 
     1381.00         0.30        940.0 
     1382.00         0.30       1031.4 
     1383.00         0.28       1047.2 
     1384.00         0.33        964.9 
     1385.00         0.27        838.0 
     1386.00         0.13        778.6 
     1387.00         0.13        724.1 
     1388.00         0.17        648.5 
     1389.00         0.33        558.8 
     1390.00         0.33        516.6 
     1391.00         0.27        505.5 
     1392.00         0.27        494.4 
     1393.00         0.30        474.2 
     1394.00         0.23        459.2 
     1395.00         0.27        441.6 
     1396.00         0.28        432.9 
     1397.00         0.20        424.4 
     1398.00         0.13        419.4 
     1399.00         0.23        411.8 
     1400.00         0.40        400.3 
     1401.00         0.30        463.6 
     1402.00         0.30        448.7 
     1403.00         0.27        452.5 
     1404.00         0.17        456.3 
     1405.00         0.23        453.9 
     1406.00         0.27        400.0 
     1407.00         0.40        400.0 
     1408.00         0.37        453.1 
     1409.00         0.37        430.5 
     1410.00         0.33        487.6 
     1411.00         0.30        532.2 
     1412.00         0.33        579.9 
     1413.00         0.27        671.6 
     1414.00         0.27        889.3 
     1415.00         0.32       1144.8 
     1416.00         0.27       1289.8 
     1417.00         0.27       1333.7 
     1418.00         0.23       1310.0 
     1419.00         0.23       1236.5 
     1420.00         0.30       1047.5 
     1421.00         0.33        858.8 
     1422.00         0.40        674.6 
     1423.00         0.37        571.1 
     1424.00         0.17        533.6 
     1425.00         0.13        513.7 
     1426.00         0.13        499.7 
     1427.00         0.13        485.9 
     1428.00         0.15        475.3 
     1429.00         0.20        457.5 
     1430.00         0.27        448.1 
     1431.00         0.23        438.4 
     1432.00         0.17        426.7 
     1433.00         0.23        414.4 
     1434.00         0.33        403.3 
     1435.00         0.27        405.0 
     1436.00         0.17        402.1 
     1437.00         0.40        400.0 
     1438.00         0.40        400.0 
     1439.00         0.38        400.0 
     1440.00         0.37        443.4 
     1441.00         0.30        492.9 
     1442.00         0.27        538.0 
     1443.00         0.30        606.6 
     1444.00         0.27        749.0 
     1445.00         0.40        989.5 
     1446.00         0.33       1080.3 
     1447.00         0.23       1088.5 
     1448.00         0.30       1031.1 
     1449.00         0.23        932.1 
     1450.00         0.22        842.4 
     1451.00         0.27        738.1 
     1452.00         0.23        659.3 
     1453.00         0.23        601.0 
     1454.00         0.23        554.4 
     1455.00         0.23        519.6 
     1456.00         0.30        485.6 
     1457.00         0.37        457.2 
     1458.00         0.30        450.4 
     1459.00         0.40        435.5 
     1460.00         0.33        425.2 
     1461.00         0.30        415.0 
     1462.00         0.28        412.3 
     1463.00         0.30        408.8 
     1464.00         0.27        405.6 
     1465.00         0.27        402.1 
     1466.00         0.33        400.0 
     1467.00         0.27        400.0 
     1468.00         0.30        400.0 
     1469.00         0.30        400.0 
     1470.00         0.28        400.0 
     1471.00         0.27        400.0 
     1472.00         0.27        432.6 
     1473.00         0.33        490.6 
     1474.00         0.20        552.7 
     1475.00         0.23        652.6 
     1476.00         0.23        756.3 
     1477.00         0.20        822.2 
     1478.00         0.20        855.6 
     1479.00         0.20        863.2 
     1480.00         0.27        828.4 
     1481.00         0.27        756.3 
     1482.00         0.27        675.4 
     1483.00         0.25        608.3 
     1484.00         0.20        561.5 
     1485.00         0.23        517.5 
     1486.00         0.27        475.0 
     1487.00         0.27        451.3 
     1488.00         0.23        436.1 
     1489.00         0.27        424.1 
     1490.00         0.27        421.4 
     1491.00         0.23        417.6 
     1492.00         0.27        412.3 
     1493.00         0.20        408.0 
     1494.00         0.13        403.6 
     1495.00         0.27        470.9 
     1496.00         0.07        473.9 
     1497.00         0.20        471.2 
     1498.00         0.33        466.5 
     1499.00         0.30        463.6 
     1500.00         0.33        462.7 
     1501.00         0.30        459.2 
     1502.00         0.32        460.1 
     1503.00         0.30        457.2 
     1504.00         0.33        471.5 
     1505.00         0.27        437.8 
     1506.00         0.30        488.5 
     1507.00         0.30        543.9 
     1508.00         0.27        621.2 
     1509.00         0.23        751.3 
     1510.00         0.20        887.2 
     1511.00         0.17        999.2 
     1512.00         0.17       1086.5 
     1513.00         0.17       1143.6 
     1514.00         0.13       1171.1 
     1515.00         0.17       1189.3 
     1516.00         0.17       1180.5 
     1517.00         0.25       1121.0 
     1518.00         0.27       1019.7 
     1519.00         0.20        923.0 
     1520.00         0.27        790.9 
     1521.00         0.23        699.2 
     1522.00         0.23        622.7 
     1523.00         0.23        567.3 
     1524.00         0.13        543.3 
     1525.00         0.13        522.2 
     1526.00         0.10        407.7 
     1527.00         0.38        405.3 
     1528.00         0.37        400.9 
     1529.00         0.23        400.0 
     1530.00         0.30        401.5 
     1531.00         0.33        425.5 
     1532.00         0.33        473.0 
