~Version Information
VERS.                      2.0: CWLS Log ASCII Standard - VERSION 2.0
WRAP.                       NO: One line per depth step
~Well Information Block
STRT.FT               459.3000: 
STOP.FT              1604.7000: 
STEP.FT                 0.1000: 
NULL.                -999.2500: 
COMP.          Pioneer Natural Resources: COMPANY
WELL.          Grand Prix 13-12 Tr: WELL
FLD.           Purgatoire River: FIELD
LOC.           2595' FSL & 1277' FWL--: LOCATION
CNTY.               Las Animas: COUNTY
SRVC.                Patterson: SERVICE COMPANY
DATE.          Tue Apr 04 07:18:28 2006: LOG DATE
UWI.           05 071 08711 00: UNIQUE WELL ID
STAT.                 Colorado: STATE
~Curve Information Block
DEPT.FT            0 000 00 00: Depth
DCAL.in                       : CDL Caliper
RHOB.g/cc                     : CDL Bulk Density
RHOC.g/cc                     : CDL Density Correction
DPOR.pu                       : CDL Density Porosity
GR.GAPI                       : Gamma Ray
~Parameter Information Block
~A  Depth       DCAL        RHOB        RHOC        DPOR         GR     
# ...
   470.5000      8.1073      2.4218     -0.1713     13.8284     81.7895
   470.6000      8.1073      2.4387     -0.2496     12.8068     85.1628
   470.7000      8.1073      2.4922     -0.0961      9.5609     86.3156
   470.8000      8.1052      2.5340     -0.0688      7.0323     85.1867
   470.9000      8.1052      2.5259     -0.1334      7.5198     83.9540
   471.0000      8.1016      2.4927     -0.1434      9.5357     82.9142
   471.1000      8.1016      2.4894     -0.2443      9.7345     79.8863
   471.2000      8.1016      2.5529     -0.1893      5.8864     76.6859
   471.3000      8.0969      2.6529     -0.1164     -0.1780     74.5629
   471.4000      8.0969      2.7294     -0.1157     -4.8139     71.6373
   471.5000      8.0941      2.7655     -0.0935     -6.9985     69.2197
   471.6000      8.0941      2.7764     -0.1403     -7.6587     67.3946
   471.7000      8.0941      2.7508     -0.1526     -6.1088     65.2210
   471.8000      8.0954      2.6617     -0.1826     -0.7116     64.5510
   471.9000      8.0954      2.5433     -0.3663      6.4675     64.9886
   472.0000      8.1004      2.4803     -0.3499     10.2878     64.5585
   472.1000      8.1004      2.4857     -0.2706      9.9568     63.0886
   472.2000      8.1004      2.4863     -0.3854      9.9239     59.6696
   472.3000      8.1072      2.4331     -0.6292     13.1434     53.6487
   472.4000      8.1072      2.3503     -0.6894     18.1649     48.3146
   472.5000      8.1102      2.2954     -0.6744     21.4918     49.8196
   472.6000      8.1102      2.2903     -0.6262     21.8006     59.2631
   472.7000      8.1102      2.3039     -0.5953     20.9749     69.0766
   472.8000      8.1086      2.3158     -0.6650     20.2547     73.1239
   472.9000      8.1086      2.3411     -0.4814     18.7236     72.3698
   473.0000      8.1064      2.3833     -0.3761     16.1620     70.2935
   473.1000      8.1064      2.4299     -0.2578     13.3423     68.7231
   473.2000      8.1064      2.4744     -0.2142     10.6441     67.7166
   473.3000      8.1063      2.5095     -0.2046      8.5176     67.8231
   473.4000      8.1063      2.5285     -0.1718      7.3666     67.5640
   473.5000      8.1069      2.5427     -0.2256      6.5034     64.4926
   473.6000      8.1069      2.5656     -0.1574      5.1127     61.8693
   473.7000      8.1069      2.5820     -0.1342      4.1207     63.1529
   473.8000      8.1061      2.5735     -0.1651      4.6371     67.9376
   473.9000      8.1061      2.5613     -0.2239      5.3767     73.6732
   474.0000      8.1069      2.5707     -0.1613      4.8063     77.5729
   474.1000      8.1069      2.5794     -0.1015      4.2808     81.6476
   474.2000      8.1069      2.5616     -0.2006      5.3578     85.1432
   474.3000      8.1090      2.5263     -0.1848      7.4965     83.6423
   474.4000      8.1090      2.4835     -0.1766     10.0908     80.9174
   474.5000      8.1099      2.4355     -0.2387     12.9994     81.7283
   474.6000      8.1099      2.3929     -0.2100     15.5803     82.4081
   474.7000      8.1099      2.3776     -0.2905     16.5116     80.6659
   474.8000      8.1098      2.3932     -0.2180     15.5656     79.1291
   474.9000      8.1098      2.4120     -0.2341     14.4253     77.9408
   475.0000      8.1090      2.4253     -0.2265     13.6157     76.0688
   475.1000      8.1090      2.4533     -0.2459     11.9226     73.8632
   475.2000      8.1090      2.4887     -0.1404      9.7782     73.8679
   475.3000      8.1085      2.5029     -0.2018      8.9140     77.1955
   475.4000      8.1085      2.4973     -0.2262      9.2541     81.0023
   475.5000      8.1087      2.4806     -0.1373     10.2678     83.7597
   475.6000      8.1087      2.4540     -0.2194     11.8782     84.3440
   475.7000      8.1087      2.4368     -0.2333     12.9229     81.8553
   475.8000      8.1101      2.4518     -0.2764     12.0117     78.9464
   475.9000      8.1101      2.4906     -0.2030      9.6577     79.7850
   476.0000      8.1115      2.5163     -0.1525      8.1061     82.3849
   476.1000      8.1115      2.5137     -0.2028      8.2632     81.8578
   476.2000      8.1115      2.5026     -0.1593      8.9319     81.1679
   476.3000      8.1115      2.5028     -0.2050      8.9197     84.6668
   476.4000      8.1115      2.5109     -0.1872      8.4304     88.2562
   476.5000      8.1101      2.5055     -0.1647      8.7600     86.2126
   476.6000      8.1101      2.4806     -0.2429     10.2665     81.6616
   476.7000      8.1101      2.4575     -0.2449     11.6662     78.7439
   476.8000      8.1090      2.4543     -0.2619     11.8600     75.7736
   476.9000      8.1090      2.4697     -0.2483     10.9287     72.1501
   477.0000      8.1092      2.4883     -0.1851      9.8022     70.9600
   477.1000      8.1092      2.5000     -0.2027      9.0918     73.3634
   477.2000      8.1092      2.5110     -0.1860      8.4247     77.2255
   477.3000      8.1090      2.5182     -0.1305      7.9902     81.2970
   477.4000      8.1090      2.5067     -0.1540      8.6874     84.0446
   477.5000      8.1091      2.4775     -0.2259     10.4574     86.1354
   477.6000      8.1091      2.4379     -0.2078     12.8542     89.9499
   477.7000      8.1091      2.3934     -0.2287     15.5533     93.1766
   477.8000      8.1096      2.3685     -0.3022     17.0582     91.0525
   477.9000      8.1096      2.3777     -0.2308     16.5009     83.8253
   478.0000      8.1084      2.3903     -0.2300     15.7390     77.2429
   478.1000      8.1084      2.3702     -0.2119     16.9585     76.7804
   478.2000      8.1084      2.3167     -0.2208     20.1984     81.9889
   478.3000      8.1075      2.2729     -0.3647     22.8562     87.6520
   478.4000      8.1075      2.2764     -0.2502     22.6446     89.9374
   478.5000      8.1086      2.3107     -0.2535     20.5620     87.6613
   478.6000      8.1086      2.3468     -0.1962     18.3783     82.9372
   478.7000      8.1086      2.3705     -0.1999     16.9414     79.6638
   478.8000      8.1090      2.3724     -0.1607     16.8234     79.7514
   478.9000      8.1090      2.3642     -0.2376     17.3215     82.0359
   479.0000      8.1084      2.3716     -0.1984     16.8729     83.1425
   479.1000      8.1084      2.3949     -0.2061     15.4633     83.4383
   479.2000      8.1084      2.4130     -0.1777     14.3613     84.8160
   479.3000      8.1081      2.4079     -0.1738     14.6739     83.9849
   479.4000      8.1081      2.3833     -0.2218     16.1660     79.5916
   479.5000      8.1075      2.3590     -0.2326     17.6384     77.3576
   479.6000      8.1075      2.3403     -0.2658     18.7682     80.0167
   479.7000      8.1075      2.3231     -0.2452     19.8098     81.5222
   479.8000      8.1073      2.3154     -0.2920     20.2786     77.0108
   479.9000      8.1073      2.3284     -0.2487     19.4884     71.1438
   480.0000      8.1096      2.3574     -0.2262     17.7317     71.4299
   480.1000      8.1096      2.3904     -0.1900     15.7362     77.8304
   480.2000      8.1096      2.4206     -0.2409     13.9019     84.8727
   480.3000      8.1116      2.4463     -0.1520     12.3476     88.8995
   480.4000      8.1116      2.4724     -0.2277     10.7621     89.3336
   480.5000      8.1111      2.5044     -0.2100      8.8261     87.0143
   480.6000      8.1111      2.5185     -0.1261      7.9690     84.1128
   480.7000      8.1111      2.5056     -0.2404      8.7520     83.2289
   480.8000      8.1102      2.5054     -0.2366      8.7625     82.2875
   480.9000      8.1102      2.5344     -0.1556      7.0041     78.2742
   481.0000      8.1078      2.5631     -0.1421      5.2670     74.9659
   481.1000      8.1078      2.5723     -0.2217      4.7095     76.8862
   481.2000      8.1078      2.5768     -0.1740      4.4346     81.7177
   481.3000      8.1039      2.5957     -0.1894      3.2909     84.1222
   481.4000      8.1039      2.6188     -0.1553      1.8900     80.6685
   481.5000      8.1014      2.6131     -0.1030      2.2364     72.7838
   481.6000      8.1014      2.5750     -0.1760      4.5459     66.9560
