~Version Information
VERS.                      2.0: CWLS Log ASCII Standard - VERSION 2.0
WRAP.                       NO: One line per depth step
~Well Information Block
STRT.FT               650.0000: 
STOP.FT              2127.7000: 
STEP.FT                 0.1000: 
NULL.                -999.2500: 
COMP.          Pioneer Natural Resources: COMPANY
WELL.          Kennington 41-26: WELL
FLD.           Purgatoire River: FIELD
LOC.           940' FNL & 1008' FEL--: LOCATION
CNTY.               Las Animas: COUNTY
SRVC.                Patterson: SERVICE COMPANY
DATE.          Wed Mar 29 11:30:50 2006: LOG DATE
UWI.           05 071 08679 00: UNIQUE WELL ID
STAT.                 Colorado: STATE
~Curve Information Block
DEPT.FT            0 000 00 00: Depth
DCAL.in                       : CDL Caliper
RHOB.g/cc                     : CDL Bulk Density
RHOC.g/cc                     : CDL Density Correction
DPOR.pu                       : CDL Density Porosity
NPOR.pu                       : Neutron Porosity
GR.GAPI                       : Gamma Ray
~Parameter Information Block
~A  Depth       DCAL        RHOB        RHOC        DPOR        NPOR         GR     
# ...
   842.0000      8.2246      2.4567      0.0499     11.7177     20.1373    118.5260
   842.1000      8.2246      2.4557      0.0519     11.7746     20.5066    121.6486
   842.2000      8.2246      2.4586      0.0324     11.6029     20.9194    125.0190
   842.3000      8.2261      2.4771      0.0306     10.4779     21.0518    123.8583
   842.4000      8.2261      2.5092      0.0580      8.5343     21.0505    119.5093
   842.5000      8.2262      2.5335      0.0779      7.0601     20.8877    119.6835
   842.6000      8.2262      2.5344      0.0983      7.0079     20.5667    126.0590
   842.7000      8.2262      2.5123      0.0735      8.3450     20.2849    130.7407
   842.8000      8.2253      2.4834      0.0139     10.0995     20.2967    127.1983
   842.9000      8.2253      2.4669      0.0056     11.1000     20.7265    120.3455
   843.0000      8.2255      2.4730     -0.0024     10.7249     21.2006    116.9247
   843.1000      8.2255      2.4975      0.0560      9.2394     21.2706    116.7092
   843.2000      8.2255      2.5196      0.0544      7.9026     21.1271    117.6430
   843.3000      8.2265      2.5209      0.0641      7.8225     21.0979    119.5493
   843.4000      8.2265      2.5040      0.0172      8.8468     21.0822    122.6276
   843.5000      8.2285      2.4879     -0.0319      9.8269     20.9583    125.7827
   843.6000      8.2285      2.4855      0.0299      9.9724     20.7707    128.2278
   843.7000      8.2285      2.4874      0.0518      9.8576     20.5768    130.3565
   843.8000      8.2332      2.4860      0.0380      9.9424     20.4176    132.0616
   843.9000      8.2332      2.4853      0.0228      9.9815     20.2469    134.2691
   844.0000      8.2401      2.4816      0.0220     10.2056     20.1151    137.9060
   844.1000      8.2401      2.4752      0.0079     10.5944     20.0150    138.4360
   844.2000      8.2401      2.4741      0.0060     10.6602     19.7498    133.4014
   844.3000      8.2442      2.4722      0.0487     10.7776     19.5080    129.2344
   844.4000      8.2442      2.4680     -0.0203     11.0314     19.5519    129.4251
   844.5000      8.2415      2.4799      0.0034     10.3093     19.6723    131.4110
   844.6000      8.2415      2.5088      0.0491      8.5576     19.5436    132.4978
   844.7000      8.2415      2.5300      0.0677      7.2731     19.2952    131.5892
   844.8000      8.2364      2.5264      0.0507      7.4934     19.3122    128.5275
   844.9000      8.2364      2.5071      0.0121      8.6605     19.5515    125.5964
   845.0000      8.2337      2.4923     -0.0061      9.5604     19.6927    124.8701
   845.1000      8.2337      2.4856      0.0141      9.9609     19.8599    126.0519
   845.2000      8.2337      2.4745      0.0380     10.6343     20.3078    128.7511
   845.3000      8.2326      2.4548     -0.0290     11.8322     20.7940    133.1980
   845.4000      8.2326      2.4376      0.0079     12.8723     20.8207    136.4521
   845.5000      8.2333      2.4345     -0.0453     13.0599     20.4960    135.7592
   845.6000      8.2333      2.4455      0.0059     12.3969     20.2523    133.2847
   845.7000      8.2333      2.4568      0.0263     11.7096     19.9938    130.1449
   845.8000      8.2387      2.4588      0.0217     11.5862     19.6022    127.8368
   845.9000      8.2387      2.4445      0.0637     12.4537     19.3072    131.9602
   846.0000      8.2459      2.4057      0.0498     14.8091     19.1623    142.9874
   846.1000      8.2459      2.3581     -0.0150     17.6911     19.0215    152.9533
   846.2000      8.2459      2.3320     -0.0263     19.2729     18.8473    154.3004
   846.3000      8.2493      2.3340      0.0059     19.1544     18.7053    149.4318
   846.4000      8.2493      2.3505      0.0204     18.1508     18.5875    145.2128
   846.5000      8.2494      2.3751      0.0790     16.6636     18.4947    142.7909
   846.6000      8.2494      2.4052      0.0920     14.8358     18.3790    140.7242
   846.7000      8.2494      2.4317      0.1332     13.2278     18.0772    141.1054
   846.8000      8.2492      2.4525      0.1056     11.9678     17.7729    144.7416
   846.9000      8.2492      2.4756      0.1572     10.5718     17.8221    146.8189
   847.0000      8.2510      2.4977      0.1975      9.2330     18.2671    147.2932
   847.1000      8.2510      2.5163      0.2070      8.1007     18.8897    148.8897
   847.2000      8.2510      2.5357      0.2367      6.9267     19.3794    147.9338
   847.3000      8.2533      2.5437      0.2451      6.4398     19.4855    143.7991
   847.4000      8.2533      2.5281      0.1478      7.3876     19.1034    140.2666
   847.5000      8.2522      2.4990      0.1097      9.1511     18.3685    137.0134
   847.6000      8.2522      2.4728      0.0915     10.7377     17.7800    133.2124
   847.7000      8.2522      2.4605      0.0722     11.4854     17.6904    135.1841
   847.8000      8.2591      2.4654      0.0708     11.1878     17.8262    144.6944
   847.9000      8.2591      2.4737      0.0864     10.6862     17.8341    150.8991
   848.0000      8.2698      2.4693      0.0850     10.9514     17.7449    149.2270
   848.1000      8.2698      2.4589      0.0816     11.5826     17.7636    148.3812
   848.2000      8.2698      2.4593      0.0729     11.5583     17.8864    151.0116
   848.3000      8.2613      2.4691      0.0779     10.9629     17.9313    151.8377
   848.4000      8.2613      2.4728      0.0843     10.7387     17.9014    153.6370
   848.5000      8.2383      2.4681      0.0613     11.0230     18.0331    158.1816
   848.6000      8.2383      2.4658      0.0660     11.1661     18.5630    161.2087
   848.7000      8.2383      2.4707      0.0568     10.8644     19.3934    161.7250
   848.8000      8.2238      2.4819      0.1037     10.1895     20.2986    158.9918
   848.9000      8.2238      2.4894      0.1454      9.7320     21.0470    151.9784
   849.0000      8.2201      2.4820      0.0973     10.1843     21.3122    143.9517
   849.1000      8.2201      2.4631      0.0780     11.3291     21.2697    142.8813
   849.2000      8.2201      2.4449      0.0578     12.4307     21.4744    150.6106
   849.3000      8.2220      2.4318      0.0599     13.2224     21.8059    160.3389
   849.4000      8.2220      2.4139      0.0780     14.3120     21.4657    167.1394
   849.5000      8.2305      2.3786      0.0334     16.4515     20.1477    167.2826
   849.6000      8.2305      2.3235      0.0191     19.7868     18.4032    158.9180
   849.7000      8.2305      2.2576     -0.0389     23.7825     16.8798    148.6869
   849.8000      8.2538      2.1971     -0.0427     27.4463     15.7975    145.0079
   849.9000      8.2538      2.1358      0.0063     31.1664     15.0759    146.2141
   850.0000      8.3024      2.0421     -0.0513     36.8450     14.6738    144.1076
   850.1000      8.3024      1.9041     -0.0445     45.2032     14.5097    137.6935
   850.2000      8.3024      1.7552     -0.0975     54.2276     14.4124    134.4588
   850.3000      8.3851      1.6679     -0.1289     59.5214     14.4879    136.6769
   850.4000      8.3851      1.6998     -0.0500     57.5871     14.9472    139.0566
   850.5000      8.4904      1.8458      0.1067     48.7379     15.7206    138.5130
   850.6000      8.4904      2.0506      0.3850     36.3297     16.8621    136.0330
   850.7000      8.4904      2.2362      0.6028     25.0770     18.3701    133.8927
   850.8000      8.5659      2.3340      0.6789     19.1509     19.7700    133.4987
   850.9000      8.5659      2.3267      0.5181     19.5956     20.7984    133.1351
   851.0000      8.5747      2.2516      0.4543     24.1470     21.5064    130.7027
   851.1000      8.5747      2.1572      0.3440     29.8671     21.5629    128.8100
   851.2000      8.5747      2.0933      0.1699     33.7401     20.5729    129.1133
   851.3000      8.5192      2.1034      0.1302     33.1257     18.9189    129.5006
   851.4000      8.5192      2.1807      0.2377     28.4401     17.3779    128.8535
   851.5000      8.4240      2.2544      0.4686     23.9756     16.1397    126.6618
