~Version Information
VERS.                      2.0: CWLS Log ASCII Standard - VERSION 2.0
WRAP.                       NO: One line per depth step
~Well Information Block
STRT.FT               555.0000: 
STOP.FT              1158.0000: 
STEP.FT                 0.1000: 
NULL.                -999.2500: 
COMP.          Pioneer Natural Resources: COMPANY
WELL.              Draco 31-21: WELL
FLD.           Purgatoire River: FIELD
LOC.           491' FNL & 2446' FEL: LOCATION
CNTY.               Las Animas: COUNTY
SRVC.                Patterson: SERVICE COMPANY
DATE.          Wed Feb 01 07:01:32 2006: LOG DATE
UWI.           05 071 08672 00: UNIQUE WELL ID
STAT.                 Colorado: STATE
~Curve Information Block
DEPT.FT            0 000 00 00: Depth
DCAL.in                       : CDL Caliper
RHOB.g/cc                     : CDL Bulk Density
RHOC.g/cc                     : CDL Density Correction
DPOR.pu                       : CDL Density Porosity
GR.GAPI                       : Gamma Ray
NPOR.pu                       : Neutron Porosity
~Parameter Information Block
~A  Depth       DCAL        RHOB        RHOC        DPOR         GR         NPOR    
# ...
  1140.6000      7.7436      2.6215      0.1237      1.7258   -999.2500     21.0591
  1140.7000      7.7436      2.6219      0.1498      1.7024   -999.2500     20.7307
  1140.8000      7.7143      2.6127      0.1248      2.2595   -999.2500     20.5069
  1140.9000      7.7143      2.5922      0.1226      3.5029   -999.2500     20.8558
  1141.0000      7.7513      2.5675      0.0645      5.0026   -999.2500     21.1997
  1141.1000      7.7513      2.5541      0.0435      5.8130   -999.2500     21.1853
  1141.2000      7.7513      2.5540      0.0437      5.8167   -999.2500     21.0768
  1141.3000      7.7829      2.5569      0.0423      5.6401   -999.2500     21.3895
  1141.4000      7.7829      2.5642      0.0517      5.1979   -999.2500     22.4206
  1141.5000      7.7777      2.5840      0.0731      3.9989   -999.2500     23.4373
  1141.6000      7.7777      2.6129      0.0834      2.2479   -999.2500     23.7715
  1141.7000      7.7777      2.6369      0.1140      0.7962   -999.2500     23.6653
  1141.8000      7.7601      2.6409      0.1257      0.5499   -999.2500     23.2976
  1141.9000      7.7601      2.6235      0.0824      1.6044   -999.2500     22.8147
  1142.0000      7.7570      2.5949      0.1034      3.3378   -999.2500     22.7494
  1142.1000      7.7570      2.5644      0.0682      5.1855   -999.2500     23.3893
  1142.2000      7.7570      2.5433      0.0338      6.4696   -999.2500     24.6527
  1142.3000      7.7713      2.5389      0.0431      6.7345   -999.2500     26.0358
  1142.4000      7.7713      2.5396      0.0747      6.6917   -999.2500     26.8029
  1142.5000      7.8068      2.5331      0.0075      7.0840   -999.2500     26.9730
  1142.6000      7.8068      2.5328      0.0376      7.1036   -999.2500     26.7046
  1142.7000      7.8068      2.5572      0.0224      5.6223   -999.2500     26.1561
  1142.8000      7.7907      2.5954      0.1171      3.3107   -999.2500     25.8001
  1142.9000      7.7907      2.6125      0.1270      2.2750   -999.2500     25.4812
  1143.0000      7.7686      2.5953      0.1232      3.3153   -999.2500     25.0548
  1143.1000      7.7686      2.5631      0.0822      5.2691   -999.2500     24.9009
  1143.2000      7.7686      2.5426      0.0187      6.5074   -999.2500     24.8703
  1143.3000      7.7674      2.5418      0.0625      6.5558   -999.2500     24.6228
  1143.4000      7.7674      2.5453      0.0673      6.3438   -999.2500     24.4357
  1143.5000      7.7745      2.5488      0.0201      6.1357   -999.2500     24.4262
  1143.6000      7.7745      2.5638      0.0311      5.2217   -999.2500     24.1414
  1143.7000      7.7745      2.5875      0.0684      3.7862   -999.2500     23.5345
  1143.8000      7.7925      2.6024      0.1186      2.8849   -999.2500     23.3568
  1143.9000      7.7925      2.6036      0.0551      2.8119   -999.2500     23.9238
  1144.0000      7.7908      2.5996      0.0791      3.0562   -999.2500     24.6670
  1144.1000      7.7908      2.5914      0.0677      3.5526   -999.2500     25.3495
  1144.2000      7.7908      2.5802      0.0311      4.2283   -999.2500     27.4878
  1144.3000      7.8098      2.5727      0.0223      4.6818   -999.2500     33.8074
  1144.4000      7.8098      2.5647      0.0465      5.1673   -999.2500     43.0954
  1144.5000      7.8257      2.5490      0.0210      6.1211   -999.2500     49.6327
  1144.6000      7.8257      2.5399      0.0008      6.6700   -999.2500     51.9931
  1144.7000      7.8257      2.5525      0.0463      5.9070   -999.2500     52.4574
  1144.8000      7.8079      2.5733      0.0664      4.6480   -999.2500     52.5067
  1144.9000      7.8079      2.5802      0.0816      4.2277   -999.2500     52.5094
  1145.0000      7.8026      2.5728      0.0556      4.6763   -999.2500   -999.2500
  1145.1000      7.8026      2.5723      0.0198      4.7116   -999.2500   -999.2500
  1145.2000      7.8026      2.5864      0.0660      3.8540   -999.2500   -999.2500
  1145.3000      7.7767      2.6009      0.0842      2.9745   -999.2500   -999.2500
  1145.4000      7.7767      2.6060      0.1038      2.6679   -999.2500   -999.2500
  1145.5000      7.7876      2.6007      0.1041      2.9902   -999.2500   -999.2500
  1145.6000      7.7876      2.5882      0.0976      3.7465   -999.2500   -999.2500
  1145.7000      7.7876      2.5739      0.0796      4.6103   -999.2500   -999.2500
  1145.8000      7.7959      2.5598      0.0527      5.4639   -999.2500   -999.2500
  1145.9000      7.7959      2.5429      0.0676      6.4894   -999.2500   -999.2500
  1146.0000      7.7991      2.5312     -0.0086      7.1979   -999.2500   -999.2500
  1146.1000      7.7991      2.5371      0.0436      6.8416   -999.2500   -999.2500
  1146.2000      7.7991      2.5516      0.0783      5.9663   -999.2500   -999.2500
  1146.3000      7.8080      2.5630      0.0725      5.2753   -999.2500   -999.2500
  1146.4000      7.8080      2.5730      0.0681      4.6670   -999.2500   -999.2500
  1146.5000      7.7970      2.5830      0.0905      4.0626   -999.2500   -999.2500
  1146.6000      7.7970      2.5886      0.0995      3.7229   -999.2500   -999.2500
  1146.7000      7.7970      2.5838      0.0908      4.0133   -999.2500   -999.2500
  1146.8000      7.8165      2.5686      0.0877      4.9306   -999.2500   -999.2500
  1146.9000      7.8165      2.5545      0.0723      5.7851   -999.2500   -999.2500
  1147.0000      7.8201      2.5578      0.0492      5.5891   -999.2500   -999.2500
  1147.1000      7.8201      2.5791      0.0775      4.2999   -999.2500   -999.2500
  1147.2000      7.8201      2.5981      0.1144      3.1472   -999.2500   -999.2500
  1147.3000      7.8140      2.6020      0.0960      2.9096   -999.2500   -999.2500
  1147.4000      7.8140      2.5956      0.0737      3.2950   -999.2500   -999.2500
  1147.5000      7.8087      2.5816      0.0534      4.1439   -999.2500   -999.2500
  1147.6000      7.8087      2.5616      0.0555      5.3563   -999.2500   -999.2500
  1147.7000      7.8087      2.5459      0.0315      6.3093   -999.2500   -999.2500
  1147.8000      7.8096      2.5383      0.0687      6.7707   -999.2500   -999.2500
  1147.9000      7.8096      2.5295      0.0683      7.3019   -999.2500   -999.2500
  1148.0000      7.8181      2.5207      0.0060      7.8373   -999.2500   -999.2500
  1148.1000      7.8181      2.5240      0.0052      7.6379   -999.2500   -999.2500
  1148.2000      7.8181      2.5388      0.0435      6.7409   -999.2500   -999.2500
  1148.3000      7.8039      2.5588      0.0380      5.5301   -999.2500   -999.2500
  1148.4000      7.8039      2.5814      0.0828      4.1593   -999.2500   -999.2500
  1148.5000      7.8072      2.5970      0.0801      3.2098   -999.2500   -999.2500
  1148.6000      7.8072      2.5947      0.1038      3.3499   -999.2500   -999.2500
  1148.7000      7.8072      2.5831      0.0683      4.0571   -999.2500   -999.2500
  1148.8000      7.7896      2.5841      0.0676      3.9969   -999.2500   -999.2500
  1148.9000      7.7896      2.5958      0.0876      3.2870   -999.2500   -999.2500
  1149.0000      7.7896      2.5982      0.0422      3.1409   -999.2500   -999.2500
  1149.1000      7.7896      2.5846      0.0932      3.9607   -999.2500   -999.2500
  1149.2000      7.7896      2.5696     -0.0172      4.8719   -999.2500   -999.2500
  1149.3000      7.8248      2.5776      0.0245      4.3904   -999.2500   -999.2500
  1149.4000      7.8248      2.6016      0.1009      2.9334   -999.2500   -999.2500
  1149.5000      7.8113      2.6155      0.0843      2.0906   -999.2500   -999.2500
  1149.6000      7.8113      2.6181      0.0808      1.9305   -999.2500   -999.2500
  1149.7000      7.8113      2.6209      0.0632      1.7661   -999.2500   -999.2500
  1149.8000      7.8132      2.6235      0.0576      1.6069   -999.2500   -999.2500
  1149.9000      7.8132      2.6161      0.0674      2.0571   -999.2500   -999.2500
  1150.0000      7.8116      2.5976      0.0152      3.1729   -999.2500   -999.2500
  1150.1000      7.8116      2.5837      0.0216      4.0177   -999.2500   -999.2500
