~Version Information
VERS.                      2.0: CWLS Log ASCII Standard - VERSION 2.0
WRAP.                       NO: One line per depth step
~Well Information Block
STRT.FT               240.0000: 
STOP.FT              1159.2000: 
STEP.FT                 0.1000: 
NULL.                -999.2500: 
COMP.          Pioneer Natural Resources: COMPANY
WELL.               Ryan 41-17: WELL
FLD.           Purgatoire River: FIELD
LOC.           822' FNL & 532' FEL--: LOCATION
CNTY.               Las Animas: COUNTY
SRVC.                Patterson: SERVICE COMPANY
DATE.          Fri Mar 17 07:19:36 2006: LOG DATE
UWI.           05 071 08719 00: UNIQUE WELL ID
STAT.                 Colorado: STATE
~Curve Information Block
DEPT.FT            0 000 00 00: Depth
DCAL.in                       : CDL Caliper
RHOB.g/cc                     : CDL Bulk Density
RHOC.g/cc                     : CDL Density Correction
DPOR.pu                       : CDL Density Porosity
NPOR.pu                       : Neutron Porosity
GR.GAPI                       : Gamma Ray
~Parameter Information Block
~A  Depth       DCAL        RHOB        RHOC        DPOR        NPOR         GR     
   240.0000      8.0442      2.3283     -0.2133     19.4976     38.8209     74.7380
   240.1000      8.0442      2.3351     -0.1848     19.0854     38.8316     81.4713
   240.2000      8.0442      2.3335     -0.2063     19.1824     38.8868     85.2183
   240.3000      8.0434      2.3279     -0.2137     19.5186     38.9436     85.2783
   240.4000      8.0434      2.3238     -0.2059     19.7707     38.9384     81.2991
   240.5000      8.0439      2.3281     -0.2350     19.5091     38.7767     75.7693
   240.6000      8.0439      2.3431     -0.2122     18.5989     38.5736     71.9402
   240.7000      8.0439      2.3619     -0.2324     17.4616     38.6644     70.3044
   240.8000      8.0416      2.3788     -0.2285     16.4392     38.9781     71.2731
   240.9000      8.0416      2.3908     -0.2249     15.7099     39.1335     73.8147
   241.0000      8.0353      2.3921     -0.2077     15.6314     39.1016     75.4929
   241.1000      8.0353      2.3824     -0.2016     16.2169     39.1109     76.8676
   241.2000      8.0353      2.3764     -0.2553     16.5847     39.1172     76.9118
   241.3000      8.0292      2.3856     -0.2420     16.0222     38.9171     74.6443
   241.4000      8.0292      2.4045     -0.2545     14.8803     38.5589     74.7628
   241.5000      8.0291      2.4213     -0.2126     13.8619     38.2121     79.7558
   241.6000      8.0291      2.4340     -0.2558     13.0904     37.9809     85.3674
   241.7000      8.0291      2.4520     -0.2148     12.0005     37.8556     87.1241
   241.8000      8.0366      2.4726     -0.1770     10.7532     37.8344     83.7580
   241.9000      8.0366      2.4845     -0.1567     10.0331     37.9808     79.5931
   242.0000      8.0480      2.4977     -0.2381      9.2273     38.0596     80.3653
   242.1000      8.0480      2.5282     -0.1992      7.3804     37.8334     83.4651
   242.2000      8.0480      2.5587     -0.1380      5.5303     37.6253     85.3327
   242.3000      8.0553      2.5629     -0.1502      5.2810     37.7925     86.5826
   242.4000      8.0553      2.5518     -0.1923      5.9514     38.0717     85.9062
   242.5000      8.0569      2.5509     -0.2020      6.0081     38.0419     83.2783
   242.6000      8.0569      2.5529     -0.1830      5.8869     37.8877     80.1666
   242.7000      8.0569      2.5481     -0.2560      6.1769     38.0148     80.0600
   242.8000      8.0566      2.5619     -0.2871      5.3414     38.3129     84.1021
   242.9000      8.0566      2.6131     -0.2425      2.2381     38.4946     85.1879
   243.0000      8.0595      2.6690     -0.1509     -1.1487     38.6039     79.7035
   243.1000      8.0595      2.6881     -0.1775     -2.3117     38.8134     75.5102
   243.2000      8.0595      2.6818     -0.1674     -1.9289     39.0056     76.7516
   243.3000      8.0668      2.6744     -0.1566     -1.4786     38.9288     80.1638
   243.4000      8.0668      2.6558     -0.1421     -0.3543     38.6590     83.8490
   243.5000      8.0716      2.6148     -0.2360      2.1356     38.6077     85.9093
   243.6000      8.0716      2.5658     -0.2773      5.1059     38.8640     86.3118
   243.7000      8.0716      2.5250     -0.2537      7.5775     39.0827     87.9061
   243.8000      8.0724      2.4950     -0.2827      9.3966     39.2089     88.7954
   243.9000      8.0724      2.4746     -0.2659     10.6312     39.4086     85.2085
   244.0000      8.0702      2.4604     -0.2459     11.4891     39.6761     79.8811
   244.1000      8.0702      2.4497     -0.2185     12.1407     39.9379     78.0104
   244.2000      8.0702      2.4474     -0.2307     12.2758     40.0810     79.0258
   244.3000      8.0667      2.4564     -0.1930     11.7342     40.1724     79.4627
   244.4000      8.0667      2.4629     -0.1890     11.3366     40.3936     78.9207
   244.5000      8.0653      2.4508     -0.2226     12.0734     40.5486     78.7294
   244.6000      8.0653      2.4178     -0.1931     14.0745     40.3874     78.9789
   244.7000      8.0653      2.3816     -0.2454     16.2657     40.1364     81.4811
   244.8000      8.0676      2.3710     -0.2825     16.9069     40.0245     85.0957
   244.9000      8.0676      2.3917     -0.2259     15.6538     39.9756     82.2278
   245.0000      8.0734      2.4199     -0.2052     13.9425     39.9970     74.3157
   245.1000      8.0734      2.4360     -0.2183     12.9713     40.0115     70.7068
   245.2000      8.0734      2.4368     -0.2189     12.9198     39.9046     73.2377
   245.3000      8.0807      2.4243     -0.2148     13.6794     39.9074     77.1475
   245.4000      8.0807      2.4017     -0.2526     15.0483     40.1344     77.7508
   245.5000      8.0851      2.3792     -0.2513     16.4098     40.2724     76.0194
   245.6000      8.0851      2.3641     -0.2508     17.3289     40.1070     77.3344
   245.7000      8.0851      2.3579     -0.2579     17.7010     39.9710     79.5893
   245.8000      8.0852      2.3632     -0.2411     17.3836     40.1351     76.9158
   245.9000      8.0852      2.3749     -0.2269     16.6713     40.2866     73.1320
   246.0000      8.0827      2.3777     -0.2112     16.5048     40.1236     74.5946
   246.1000      8.0827      2.3581     -0.2182     17.6932     39.7693     79.6136
   246.2000      8.0827      2.3221     -0.2514     19.8733     39.4802     83.3245
   246.3000      8.0783      2.2925     -0.2976     21.6663     39.2614     83.4121
   246.4000      8.0783      2.2754     -0.2355     22.7057     39.0266     80.9707
   246.5000      8.0765      2.2529     -0.2704     24.0674     38.6357     77.9071
   246.6000      8.0765      2.2311     -0.3515     25.3886     37.9600     74.6717
   246.7000      8.0765      2.2349     -0.3489     25.1546     37.1776     72.8746
   246.8000      8.0796      2.2568     -0.2680     23.8319     36.5157     73.8676
   246.9000      8.0796      2.2772     -0.3120     22.5927     36.0446     73.8607
   247.0000      8.0858      2.3018     -0.2900     21.1047     35.8781     69.6856
   247.1000      8.0858      2.3347     -0.2869     19.1079     36.0419     64.2071
   247.2000      8.0858      2.3704     -0.3313     16.9454     36.3292     60.2836
   247.3000      8.0875      2.4033     -0.2779     14.9519     36.5478     59.6120
   247.4000      8.0875      2.4192     -0.2395     13.9898     36.7200     61.0363
   247.5000      8.0835      2.4082     -0.2862     14.6563     36.8801     61.4702
   247.6000      8.0835      2.3829     -0.2981     16.1893     36.8524     61.4511
   247.7000      8.0835      2.3640     -0.2978     17.3335     36.7369     63.4180
   247.8000      8.0778      2.3633     -0.3110     17.3729     36.7845     67.6051
   247.9000      8.0778      2.3742     -0.2235     16.7126     36.5980     71.8645
   248.0000      8.0735      2.3786     -0.2248     16.4462     35.9854     74.0408
   248.1000      8.0735      2.3769     -0.2502     16.5539     35.3386     72.0669
   248.2000      8.0735      2.3836     -0.2182     16.1434     34.8043     66.7992
   248.3000      8.0729      2.4048     -0.2179     14.8610     34.5708     61.9228
   248.4000      8.0729      2.4366     -0.1976     12.9320     34.8703     58.9808
   248.5000      8.0737      2.4680     -0.1892     11.0283     35.3167     59.4274
   248.6000      8.0737      2.4847     -0.1782     10.0173     35.5782     63.2712
   248.7000      8.0737      2.4803     -0.1578     10.2833     35.9255     67.4856
   248.8000      8.0750      2.4618     -0.1952     11.4050     36.3802     69.0698
   248.9000      8.0750      2.4414     -0.1896     12.6429     36.6213     67.9868
   249.0000      8.0765      2.4311     -0.2167     13.2666     36.6955     66.2069
   249.1000      8.0765      2.4399     -0.2139     12.7340     36.7442     64.1808
   249.2000      8.0765      2.4696     -0.2156     10.9341     36.5874     61.5680
   249.3000      8.0786      2.5123     -0.1787      8.3482     36.1974     59.2143
   249.4000      8.0786      2.5422     -0.1053      6.5309     35.8236     58.3623
   249.5000      8.0809      2.5417     -0.1582      6.5633     35.5356     59.0928
