~Version Information
VERS.                      2.0: CWLS Log ASCII Standard - VERSION 2.0
WRAP.                       NO: One line per depth step
~Well Information Block
STRT.FT                -6.7500: 
STOP.FT              1250.5000: 
STEP.FT                 0.2500: 
NULL.                -999.2500: 
COMP.          Pioneer Natural Resources: COMPANY
WELL.          Irish Eyes 33-21: WELL
FLD.           Purgatorie River: FIELD
LOC.           1379' FSL & 2544' FEL--: LOCATION
PROV.                       CO: PROVINCE
CNTY.               Las Animas: COUNTRY
SRVC.          Patterson Wireline: SERVICE COMPANY
DATE.          Mon Jan 23 11:57:23 2006: LOG DATE
UWI.           05 071 08658 00: UNIQUE WELL ID
~Curve Information Block
DEPT.FT            0 000 00 00: Depth
CCL.                          : Casing Collar Locator
TT3.usec                      : CBL 3' Travel Time
AMP3.mV                       : CBL 3' Amplitude
GR.GAPI                       : Gamma Ray
~Parameter Information Block
~A  Depth       CCL         TT3         AMP3         GR     
# ...
   730.2500      0.0000    814.9303     16.5459     85.9366
   730.5000      0.0000    817.3522     16.4617     89.1432
   730.7500      0.0000    819.3813     16.3929     93.9177
   731.0000      0.0000    819.9692     16.3550     99.5959
   731.2500      0.0000    818.6614     16.3573    104.5390
   731.5000      0.0000    816.1572     16.3856    107.8315
   731.7500      0.0000    813.6625     16.4114    110.7345
   732.0000      0.0000    811.9076     16.4075    115.2807
   732.2500      0.0000    810.9223     16.3554    121.4460
   732.5000      0.0000    810.4393     16.2540    126.7272
   732.7500      0.0000    810.2380     16.1275    128.8216
   733.0000      0.0000    810.2227     16.0139    128.1682
   733.2500      0.0000    810.4085     15.9378    127.4369
   733.5000      0.0000    810.9121     15.8945    128.7048
   733.7500      0.0000    811.9558     15.8566    131.5024
   734.0000      0.0000    813.8223     15.7894    133.5807
   734.2500      0.0000    816.5859     15.6644    133.0005
   734.5000      0.0000    819.7885     15.4697    129.3359
   734.7500      0.0000    822.5573     15.2108    123.5853
   735.0000      0.0000    824.1512     14.9027    117.3304
   735.2500      0.0000    824.1863     14.5636    111.6743
   735.5000      0.0000    822.5030     14.2175    106.5926
   735.7500      0.0000    819.5153     13.8924    101.2229
   736.0000      0.0000    816.6899     13.6071     94.9477
   736.2500      0.0000    815.7286     13.3650     88.4304
   736.5000      0.0000    816.8381     13.1632     83.6285
   736.7500      0.0000    818.3997     13.0049     82.4681
   737.0000      0.0000    818.7163     12.8950     85.1577
   737.2500      0.0000    817.6199     12.8289     89.7231
   737.5000      0.0000    816.1268     12.7868     93.2920
   737.7500      0.0000    815.1467     12.7422     94.1451
   738.0000      0.0000    814.9607     12.6745     93.0889
   738.2500      0.0000    815.5782     12.5803     92.9752
   738.5000      0.0000    817.0358     12.4780     96.5409
   738.7500      0.0000    819.1382     12.3987    104.5117
   739.0000      0.0000    821.1025     12.3666    115.6470
   739.2500      0.0000    821.9052     12.3855    127.9948
   739.5000      0.0000    821.3185     12.4449    139.5080
   739.7500      0.0000    820.3444     12.5360    147.8412
   740.0000      0.0000    820.1586     12.6548    150.5326
   740.2500      0.0000    820.7004     12.7890    146.2258
   740.5000      0.0000    820.7221     12.9103    136.2634
   740.7500      0.0000    819.2567     12.9853    125.0275
   741.0000      0.0000    816.6321     12.9941    117.8926
   741.2500      0.0000    813.9404     12.9424    117.9791
   741.5000      0.0000    811.9466     12.8602    124.6200
   741.7500      0.0000    810.7479     12.7857    134.6504
   742.0000      0.0000    810.1357     12.7406    144.5524
   742.2500      0.0000    809.9238     12.7202    151.5769
   742.5000      0.0000    809.9764     12.7094    154.3576
   742.7500      0.0000    810.1518     12.7075    153.6430
   743.0000      0.0000    810.3248     12.7264    151.9421
   743.2500      0.0000    810.4421     12.7658    151.5142
   743.5000      0.0000    810.5298     12.8015    152.6444
   743.7500      0.0000    810.6325     12.8082    154.0093
   744.0000      0.0000    810.7575     12.7864    154.3808
   744.2500      0.0000    810.8683     12.7589    153.7336
   744.5000      0.0000    810.9084     12.7440    152.8857
   744.7500      0.0000    810.8296     12.7438    152.3961
   745.0000      0.0000    810.6263     12.7548    152.1604
   745.2500      0.0000    810.3644     12.7712    152.0810
   745.5000      0.0000    810.1574     12.7734    152.7521
   745.7500      0.0000    810.0843     12.7259    155.3218
   746.0000      0.0000    810.1012     12.6004    160.7098
   746.2500      0.0000    809.9916     12.4006    168.3202
   746.5000      0.0000    809.3520     12.1681    175.0865
   746.7500      0.0000    807.7478     11.9658    176.9855
   747.0000      0.0000    805.1921     11.8449    172.9809
   747.2500      0.0000    802.5978     11.8174    166.9092
   747.5000      0.0000    801.3976     11.8534    164.0614
   747.7500      0.0000    802.3127     11.9040    166.0437
   748.0000      0.0000    804.6166     11.9285    169.8561
   748.2500      0.0000    806.8431     11.9065    171.4443
   748.5000      0.0000    808.0264     11.8359    169.0036
   748.7500      0.0000    808.0839     11.7232    162.9793
   749.0000      0.0000    807.2757     11.5829    154.2538
   749.2500      0.0000    805.5344     11.4479    143.4017
   749.5000      0.0000    802.2426     11.3716    131.6342
   749.7500      0.0000    796.6654     11.4027    121.4875
   750.0000      0.0000    788.8350     11.5486    115.5782
   750.2500      0.0000    780.0660     11.7635    114.5576
   750.5000      0.0000    772.3325     11.9741    116.9741
   750.7500      0.0000    767.0007     12.1187    121.0310
   751.0000      0.0000    764.1891     12.1734    125.4943
   751.2500      0.0000    763.1539     12.1521    129.0892
   751.5000      0.0000    762.9872     12.0883    130.5804
   751.7500      0.0000    763.0148     12.0150    129.9079
   752.0000      0.0000    762.8922     11.9578    128.5148
   752.2500      0.0000    762.5732     11.9359    128.1744
   752.5000      0.0000    762.2032     11.9574    129.4912
   752.7500      0.0000    761.9700     12.0052    131.3235
   753.0000      0.0000    761.9813     12.0361    131.6809
   753.2500      0.0000    762.2106     12.0040    129.4254
   753.5000      0.0000    762.5214     11.8876    125.2097
   753.7500      0.0000    762.7513     11.6945    120.8066
   754.0000      0.0000    762.7983     11.4484    117.6238
   754.2500      0.0000    762.6478     11.1806    115.8984
   754.5000      0.0000    762.3454     10.9327    115.1156
   754.7500      0.0000    761.9346     10.7519    114.9839
   755.0000      0.0000    761.3707     10.6727    115.7697
   755.2500      0.0000    760.4514     10.6946    117.5790
   755.5000      0.0000    758.9308     10.7765    119.6212
   755.7500      0.0000    756.9073     10.8566    120.5457
   756.0000      0.0000    755.1826     10.8928    119.5403
   756.2500      0.0000    754.8710     10.8893    116.9740
   756.5000      0.0000    756.2649     10.8797    114.1515
   756.7500      0.0000    758.0380     10.8770    112.6699
   757.0000      0.0000    757.8860     10.8444    113.6808
   757.2500      0.0000    754.5121     10.7315    117.2579
   757.5000      0.0000    749.5830     10.5456    122.5778
   757.7500      0.0000    747.3247     10.3702    128.7376
   758.0000      0.0000    751.0608     10.2950    135.0481
   758.2500      0.0000    759.9170     10.3393    140.6541
   758.5000      0.0000    769.6391     10.4482    144.5483
   758.7500      0.0000    776.5704     10.5391    146.3357
   759.0000      2.0000    780.3915     10.5439    146.8609
   759.2500      0.0000    783.1387     10.4301    147.6475
   759.5000      0.0000    786.1047     10.2169    149.2590
   759.7500      0.0000    787.9647     10.0094    150.3573
   760.0000      0.0000    785.5010     10.0165    148.9922
   760.2500      0.0000    776.1841     10.4537    144.6463
   760.5000      0.0000    761.2719     11.3371    138.4864
   760.7500      0.0000    746.3951     12.3985    132.2066
   761.0000      0.0000    737.5991     13.2863    127.5893
   761.2500      0.0000    736.5389     13.8454    126.2873
   761.5000      0.0000    740.3701     14.1718    128.3703
   761.7500      0.0000    745.5081     14.4527    131.3323
   762.0000      0.0000    749.8790     14.8089    131.7673
   762.2500      0.0000    751.9749     15.2585    128.0352
   762.5000      0.0000    749.3113     15.7669    121.0602
   762.7500      0.0000    738.7050     16.3029    113.1308
   763.0000      0.0000    718.7962     16.8517    106.3387
   763.2500      0.0000    693.2772     17.3931    101.7247
   763.5000      0.0000    671.2248     17.8906     99.4895
