~Version Information
VERS.                      2.0: CWLS Log ASCII Standard - VERSION 2.0
WRAP.                       NO: One line per depth step
~Well Information Block
STRT.FT               550.0000: 
STOP.FT              1664.0000: 
STEP.FT                 0.2500: 
NULL.                -999.2500: 
COMP.          Pioneer Natural Resources: COMPANY
WELL.          Stock Canyon 34-33: WELL
FLD.           Purgatorie River: FIELD
LOC.           980' FSL & 2191' FEL: LOCATION
PROV.                 Colorado: PROVINCE
CNTY.               Las Animas: COUNTRY
SRVC.                Patterson: SERVICE COMPANY
DATE.          Mon Dec 05 09:58:03 2005: LOG DATE
UWI.                          : UNIQUE WELL ID
~Curve Information Block
DEPT.FT            0 000 00 00: Depth
SN.Ohm-m                      : IEL Short Normal
SP.mV                         : IEL Spontaneous Potential
DIR.Ohm-m                     : IEL Induction Resistivity
GR.GAPI                       : Gamma Ray
~Parameter Information Block
~A  Depth        SN          SP         DIR          GR     
# ...
  1421.0000     32.9405    324.7810     25.4816     51.9981
  1421.2500     33.1163    325.1377     25.5690     52.5944
  1421.5000     33.1534    325.5713     25.6377     52.7368
  1421.7500     33.0803    326.0017     25.7334     51.7081
  1422.0000     32.9289    326.3148     25.8311     48.5893
  1422.2500     32.7301    326.4034     25.8871     46.2569
  1422.5000     32.5091    326.2105     25.8704     43.9144
  1422.7500     32.2830    325.7369     25.7635     43.4762
  1423.0000     32.0600    325.0133     25.5543     43.9303
  1423.2500     31.8414    324.0793     25.2475     44.3857
  1423.5000     31.6246    322.9841     24.8760     44.8557
  1423.7500     31.4068    321.7911     24.4956     45.1929
  1424.0000     31.1875    320.5654     24.1687     45.9703
  1424.2500     30.9694    319.3508     23.9492     46.4358
  1424.5000     30.7570    318.1592     23.8680     46.4525
  1424.7500     30.5531    316.9761     23.9189     46.0083
  1425.0000     30.3565    315.7692     24.0501     45.3757
  1425.2500     30.1617    314.4938     24.1782     45.4817
  1425.5000     29.9623    313.1011     24.2177     47.0048
  1425.7500     29.7566    311.5484     24.1148     48.9747
  1426.0000     29.5512    309.8045     23.8721     52.6458
  1426.2500     29.3599    307.8501     23.5551     54.7127
  1426.5000     29.1990    305.6782     23.2684     55.9949
  1426.7500     29.0806    303.3065     23.1098     55.6871
  1427.0000     29.0086    300.7955     23.1294     54.7628
  1427.2500     28.9777    298.2492     23.3182     54.4268
  1427.5000     28.9771    295.7818     23.6251     54.0498
  1427.7500     28.9946    293.4783     23.9842     53.3925
  1428.0000     29.0201    291.3804     24.3318     51.7886
  1428.2500     29.0463    289.4998     24.6158     50.7725
  1428.5000     29.0683    287.8361     24.8029     49.8241
  1428.7500     29.0830    286.3835     24.8863     49.4583
  1429.0000     29.0878    285.1325     24.8808     49.0102
  1429.2500     29.0805    284.0786     24.8011     48.8168
  1429.5000     29.0590    283.2383     24.6464     48.9631
  1429.7500     29.0206    282.6537     24.4121     49.4431
  1430.0000     28.9624    282.3721     24.1206     50.4655
  1430.2500     28.8807    282.4193     23.8352     50.9245
  1430.5000     28.7723    282.7841     23.6323     50.6416
  1430.7500     28.6355    283.4176     23.5540     49.8178
  1431.0000     28.4711    284.2421     23.5847     48.2009
  1431.2500     28.2841    285.1712     23.6670     47.2025
  1431.5000     28.0836    286.1375     23.7408     46.1471
  1431.7500     27.8821    287.1071     23.7691     45.8943
  1432.0000     27.6929    288.0676     23.7382     46.5410
  1432.2500     27.5293    289.0080     23.6469     47.7605
  1432.5000     27.4030    289.9143     23.5096     50.3928
  1432.7500     27.3258    290.7819     23.3599     52.1574
  1433.0000     27.3108    291.6203     23.2413     54.0113
  1433.2500     27.3747    292.4440     23.1814     54.6430
  1433.5000     27.5388    293.2648     23.1747     55.1966
  1433.7500     27.8289    294.0979     23.1938     55.6169
  1434.0000     28.2754    294.9663     23.2166     56.3491
  1434.2500     28.9130    295.8929     23.2412     56.7108
  1434.5000     29.7796    296.8850     23.2717     56.9078
  1434.7500     30.9125    297.9268     23.2951     56.9281
  1435.0000     32.3401    298.9799     23.2854     56.9567
  1435.2500     34.0676    299.9892     23.2376     56.8181
  1435.5000     36.0601    300.8905     23.1995     55.8941
  1435.7500     38.2294    301.6208     23.2599     54.7079
  1436.0000     40.4306    302.1308     23.4968     52.2768
  1436.2500     42.4767    302.4016     23.9242     50.2391
  1436.5000     44.1703    302.4561     24.4716     46.2363
  1436.7500     45.3435    302.3537     25.0089     42.9520
  1437.0000     45.8937    302.1652     25.3991     38.0797
  1437.2500     45.7986    301.9448     25.5409     35.6719
  1437.5000     45.1084    301.7201     25.3739     34.0338
  1437.7500     43.9186    301.5016     24.8659     34.2283
  1438.0000     42.3386    301.2975     24.0197     36.2314
  1438.2500     40.4653    301.1231     22.8866     38.5251
  1438.5000     38.3696    301.0025     21.5609     42.5361
  1438.7500     36.0957    300.9702     20.1536     44.7449
  1439.0000     33.6708    301.0702     18.7752     46.1564
  1439.2500     31.1224    301.3497     17.5314     45.8068
  1439.5000     28.4972    301.8423     16.5091     44.5344
  1439.7500     25.8740    302.5449     15.7554     44.0246
  1440.0000     23.3625    303.4034     15.2648     44.3995
  1440.2500     21.0846    304.3207     14.9845     45.3139
  1440.5000     19.1463    305.1879     14.8339     47.4704
  1440.7500     17.6113    305.9198     14.7324     49.5505
  1441.0000     16.4889    306.4739     14.6224     54.1728
  1441.2500     15.7385    306.8454     14.4767     58.5170
  1441.5000     15.2878    307.0519     14.2900     66.8169
  1441.7500     15.0544    307.1236     14.0684     73.0152
  1442.0000     14.9626    307.0951     13.8276     81.7026
  1442.2500     14.9518    306.9988     13.5946     85.9792
  1442.5000     14.9788    306.8618     13.4053     88.7257
  1442.7500     15.0146    306.7098     13.2938     88.0617
  1443.0000     15.0412    306.5727     13.2803     84.7531
  1443.2500     15.0497    306.4835     13.3638     82.3404
  1443.5000     15.0381    306.4694     13.5214     80.3279
  1443.7500     15.0093    306.5399     13.7152     80.3688
  1444.0000     14.9676    306.6831     13.9027     81.5115
  1444.2500     14.9168    306.8716     14.0481     82.1203
  1444.5000     14.8587    307.0700     14.1280     82.2545
  1444.7500     14.7951    307.2369     14.1333     82.2018
  1445.0000     14.7286    307.3266     14.0684     82.6164
  1445.2500     14.6633    307.3025     13.9493     83.1176
  1445.5000     14.6031    307.1568     13.8000     83.4578
  1445.7500     14.5505    306.9203     13.6449     83.2428
  1446.0000     14.5073    306.6532     13.4985     82.8387
  1446.2500     14.4757    306.4164     13.3604     83.0778
  1446.5000     14.4578    306.2447     13.2175     84.9467
  1446.7500     14.4541    306.1405     13.0534     87.2704
  1447.0000     14.4614    306.0915     12.8627     91.3663
  1447.2500     14.4733    306.0939     12.6611     93.3171
  1447.5000     14.4838    306.1633     12.4844     93.3720
  1447.7500     14.4921    306.3281     12.3771     91.5399
  1448.0000     14.5043    306.6160     12.3757     87.8637
  1448.2500     14.5316    307.0381     12.4970     86.0760
  1448.5000     14.5854    307.5821     12.7368     85.3073
  1448.7500     14.6757    308.2150     13.0773     85.6860
  1449.0000     14.8131    308.8944     13.4956     86.3628
  1449.2500     15.0164    309.5769     13.9686     86.5424
  1449.5000     15.3183    310.2220     14.4719     86.8457
  1449.7500     15.7652    310.7957     14.9791     87.4072
  1450.0000     16.4051    311.2723     15.4617     88.2225
  1450.2500     17.2681    311.6331     15.8895     87.8263
  1450.5000     18.3443    311.8646     16.2343     84.9653
  1450.7500     19.5726    311.9614     16.4805     82.1268
  1451.0000     20.8449    311.9296     16.6384     78.3988
  1451.2500     22.0288    311.7851     16.7449     76.8775
  1451.5000     22.9983    311.5484     16.8473     75.4522
  1451.7500     23.6641    311.2451     16.9785     74.3056
  1452.0000     23.9926    310.9140     17.1408     71.7750
  1452.2500     24.0080    310.6101     17.3060     70.0347
  1452.5000     23.7802    310.3943     17.4321     68.7608
  1452.7500     23.4014    310.3140     17.4874     69.3737
  1453.0000     22.9606    310.3833     17.4610     72.4778
  1453.2500     22.5188    310.5710     17.3531     75.3960
  1453.5000     22.0941    310.8046     17.1546     79.3626
  1453.7500     21.6580    310.9979     16.8436     80.8282
  1454.0000     21.1473    311.0889     16.4063     80.6413
  1454.2500     20.4879    311.0634     15.8631     79.2467
