~Version Information
VERS.                      2.0: CWLS Log ASCII Standard - VERSION 2.0
WRAP.                       NO: One line per depth step
~Well Information Block
STRT.FT               235.0000: 
STOP.FT              1271.0000: 
STEP.FT                 0.1000: 
NULL.                -999.2500: 
COMP.          Pioneer Natural Resources: COMPANY
WELL.              Julie 11-30: WELL
FLD.           Purgatoire River: FIELD
LOC.           672' FNL & 1052' FWL: LOCATION
CNTY.               Las Animas: COUNTY
SRVC.                Patterson: SERVICE COMPANY
DATE.          Fri Apr 14 07:21:24 2006: LOG DATE
UWI.           05 071 08724 00: UNIQUE WELL ID
STAT.                 Colorado: STATE
~Curve Information Block
DEPT.FT            0 000 00 00: Depth
DCAL.in                       : CDL Caliper
RHOB.g/cc                     : CDL Bulk Density
RHOC.g/cc                     : CDL Density Correction
DPOR.pu                       : CDL Density Porosity
GR.GAPI                       : Gamma Ray
NPOR.pu                       : Neutron Porosity
~Parameter Information Block
~A  Depth       DCAL        RHOB        RHOC        DPOR         GR         NPOR    
# ...
   638.2000      8.1914      2.9339      0.4072    -17.2042    112.9063     30.6260
   638.3000      8.1902      3.0066      0.4175    -21.6111    108.5461     31.9699
   638.4000      8.1902      3.0332      0.3542    -23.2264     99.1686     33.6231
   638.5000      8.1864      3.0388      0.3459    -23.5644     91.8607     35.2388
   638.6000      8.1864      3.0339      0.2594    -23.2661     86.5527     36.2237
   638.7000      8.1864      3.0343      0.1474    -23.2911     81.2801     36.7458
   638.8000      8.1818      3.0584      0.1342    -24.7504     82.3541     37.1904
   638.9000      8.1818      3.0854      0.1485    -26.3905     91.5180     37.7521
   639.0000      8.1947      3.0689      0.0817    -25.3856    100.6758     38.1366
   639.1000      8.1947      2.9925      0.0124    -20.7594    102.2741     37.9458
   639.2000      8.1947      2.8833     -0.0821    -14.1372     97.4039     37.2054
   639.3000      8.1907      2.7805     -0.0910     -7.9068     95.4214     36.0656
   639.4000      8.1907      2.7132     -0.0984     -3.8279    100.2068     34.6187
   639.5000      8.1881      2.6765     -0.0582     -1.6072    103.9813     32.7687
   639.6000      8.1881      2.6415     -0.0337      0.5124    103.4922     30.6042
   639.7000      8.1881      2.6059     -0.0139      2.6740    105.1980     28.7096
   639.8000      8.1853      2.5904      0.0791      3.6101    112.5269     27.4274
   639.9000      8.1853      2.5982      0.1024      3.1370    119.3952     26.7065
   640.0000      8.1804      2.6086      0.1389      2.5088    122.0087     26.3599
   640.1000      8.1804      2.6020      0.1566      2.9082    123.4001     26.2766
   640.2000      8.1804      2.5888      0.1346      3.7103    123.2370     26.3086
   640.3000      8.1608      2.5899      0.1154      3.6407    117.4584     26.1642
   640.4000      8.1608      2.6045      0.1283      2.7580    107.6015     25.8571
   640.5000      8.1644      2.6158      0.1529      2.0751    101.4767     25.6664
   640.6000      8.1644      2.6133      0.1123      2.2256    100.3952     25.5909
   640.7000      8.1644      2.6046      0.0831      2.7537     98.3125     25.6976
   640.8000      8.2075      2.6003      0.1256      3.0111     93.9394     26.1367
   640.9000      8.2075      2.6009      0.0774      2.9748     91.3497     26.3538
   641.0000      8.2185      2.6003      0.0793      3.0105     92.5597     25.8760
   641.1000      8.2185      2.5909      0.0867      3.5830     94.5751     25.0605
   641.2000      8.2185      2.5760      0.0621      4.4875     93.0442     24.5993
   641.3000      8.2198      2.5639      0.0446      5.2191     89.1352     24.8565
   641.4000      8.2198      2.5533      0.0523      5.8593     85.1003     25.5657
   641.5000      8.2213      2.5525      0.0092      5.9063     80.0727     25.9938
   641.6000      8.2213      2.5696      0.0982      4.8736     75.9536     25.7032
   641.7000      8.2213      2.5797      0.0670      4.2609     75.7740     25.1344
   641.8000      8.2199      2.5663      0.0455      5.0746     79.3271     24.8198
   641.9000      8.2199      2.5460      0.0181      6.3025     82.8388     24.4802
   642.0000      8.2203      2.5343      0.0642      7.0133     81.7931     23.7513
   642.1000      8.2203      2.5304      0.0869      7.2468     79.0505     22.9157
   642.2000      8.2203      2.5304      0.0984      7.2501     80.1969     22.3646
   642.3000      8.2229      2.5312      0.0893      7.2002     83.4436     22.1300
   642.4000      8.2229      2.5322      0.0543      7.1412     84.8068     21.9273
   642.5000      8.2228      2.5337      0.0763      7.0485     85.3833     21.9612
   642.6000      8.2228      2.5267      0.0641      7.4730     88.8011     22.5552
   642.7000      8.2228      2.5090      0.0471      8.5463     92.4064     23.2785
   642.8000      8.2218      2.5018      0.0065      8.9789     92.7674     23.5092
   642.9000      8.2218      2.5152      0.0550      8.1693     93.7602     23.1051
   643.0000      8.2214      2.5339      0.1087      7.0369     98.5549     22.7619
   643.1000      8.2214      2.5556      0.0971      5.7224    106.3926     22.9741
   643.2000      8.2214      2.5898      0.1365      3.6495    114.1062     23.2555
   643.3000      8.2254      2.6214      0.1689      1.7311    118.6445     23.1604
   643.4000      8.2254      2.6288      0.1315      1.2829    123.3198     22.9455
   643.5000      8.2271      2.6213      0.1399      1.7415    133.1807     23.1976
   643.6000      8.2271      2.6156      0.1752      2.0858    146.7660     23.9557
   643.7000      8.2271      2.6069      0.1477      2.6127    158.9965     24.4610
   643.8000      8.2299      2.5899      0.0878      3.6442    167.8517     24.3633
   643.9000      8.2299      2.5641      0.1157      5.2058    174.1271     24.1115
   644.0000      8.2371      2.5292      0.0248      7.3202    177.7932     23.8713
   644.1000      8.2371      2.4971      0.0479      9.2695    177.3961     23.3919
   644.2000      8.2371      2.4633      0.0964     11.3165    173.5169     22.5798
   644.3000      8.2386      2.4010      0.0544     15.0932    169.2465     21.5265
   644.4000      8.2386      2.3032      0.0523     21.0186    166.1908     20.4505
   644.5000      8.2404      2.1870      0.0086     28.0621    160.5715     19.9417
   644.6000      8.2404      2.0736     -0.0113     34.9343    151.9216     20.1973
   644.7000      8.2404      1.9842     -0.0610     40.3498    146.9104     20.2690
   644.8000      8.2392      1.9431     -0.0711     42.8421    145.8477     19.9787
   644.9000      8.2392      1.9621     -0.0042     41.6897    139.7744     20.3450
   645.0000      8.2428      2.0280      0.0015     37.6952    128.0568     21.5291
   645.1000      8.2428      2.1152      0.0995     32.4111    121.3543     22.9825
   645.2000      8.2428      2.2141      0.1225     26.4212    123.0407     24.5082
   645.3000      8.2445      2.3283      0.2390     19.4980    127.1631     25.9691
   645.4000      8.2445      2.4379      0.3001     12.8536    130.1273     27.0124
   645.5000      8.2334      2.5093      0.2826      8.5243    132.3694     27.5994
   645.6000      8.2334      2.5265      0.1370      7.4833    134.7313     27.7530
   645.7000      8.2334      2.4997      0.0061      9.1106    138.0127     27.5678
   645.8000      8.1313      2.4620     -0.0596     11.3960    140.4828     27.6382
   645.9000      8.1313      2.4435     -0.0410     12.5171    138.5234     28.0745
   646.0000      8.1125      2.4429     -0.0182     12.5526    133.9792     28.3352
   646.1000      8.1125      2.4389     -0.0200     12.7938    131.0759     28.1739
   646.2000      8.1125      2.4246     -0.0223     13.6635    131.1724     27.7659
   646.3000      8.1153      2.4160     -0.0365     14.1798    134.6273     27.2947
   646.4000      8.1153      2.4315      0.0513     13.2444    140.7561     26.7459
   646.5000      8.1182      2.4658      0.0612     11.1653    145.7105     26.2268
   646.6000      8.1182      2.4943      0.1314      9.4339    146.8961     26.2812
   646.7000      8.1182      2.5127      0.0808      8.3209    145.5625     27.2311
   646.8000      8.1260      2.5515      0.1053      5.9668    140.0807     28.3485
   646.9000      8.1260      2.6231      0.1645      1.6323    129.6231     28.7759
   647.0000      8.1151      2.6843      0.2553     -2.0794    120.9708     28.6622
   647.1000      8.1151      2.6979      0.2151     -2.9031    123.2343     28.4861
   647.2000      8.1151      2.6820      0.2034     -1.9378    132.5949     28.5283
   647.3000      8.1132      2.6554      0.2035     -0.3273    136.4921     28.7875
   647.4000      8.1132      2.6117      0.1087      2.3183    135.2101     29.0039
   647.5000      8.1118      2.5566      0.0285      5.6623    137.4413     29.1546
   647.6000      8.1118      2.5117      0.0101      8.3815    141.7465     29.4013
   647.7000      8.1118      2.4984     -0.0225      9.1891    143.8256     29.6729
