~Version Information
VERS.                      2.0: CWLS Log ASCII Standard - VERSION 2.0
WRAP.                       NO: One line per depth step
~Well Information Block
STRT.FT               410.0000: 
STOP.FT              1253.0000: 
STEP.FT                 0.1000: 
NULL.                -999.2500: 
COMP.          Petrogulf Corporation: COMPANY
WELL.           Parsons 15-23R: WELL
FLD.           Purgatorie River: FIELD
LOC.           2244' FSL & 1932' FWL: LOCATION
PROV.                 Colorado: PROVINCE
CNTY.               Las Animas: COUNTRY
SRVC.                Patterson: SERVICE COMPANY
DATE.          Mon Sep 12 10:28:25 2005: LOG DATE
UWI.                          : UNIQUE WELL ID
~Curve Information Block
DEPT.FT            0 000 00 00: Depth
DCAL.in                       : CDL Caliper
RHOB.g/cc                     : CDL Bulk Density
RHOC.g/cc                     : CDL Density Correction
DPOR.pu                       : CDL Density Porosity
GR.GAPI                       : Gamma Ray
NPOR.pu                       : Neutron Porosity
~Parameter Information Block
~A  Depth       DCAL        RHOB        RHOC        DPOR         GR         NPOR    
# ...
  1235.6000      7.8139      2.5903      0.0569      3.6187    122.5650   -999.2500
  1235.7000      7.8139      2.5994      0.0670      3.0676    122.2437   -999.2500
  1235.8000      7.8150      2.6079      0.0896      2.5517    123.4525   -999.2500
  1235.9000      7.8150      2.6039      0.0685      2.7946    122.8682   -999.2500
  1236.0000      7.8207      2.5878      0.0669      3.7686    119.2489   -999.2500
  1236.1000      7.8207      2.5669      0.0681      5.0352    113.0130   -999.2500
  1236.2000      7.8207      2.5498      0.0103      6.0721    107.3879   -999.2500
  1236.3000      7.8171      2.5436      0.0438      6.4490    104.7467   -999.2500
  1236.4000      7.8171      2.5485      0.0148      6.1532    104.8757   -999.2500
  1236.5000      7.8141      2.5648      0.0573      5.1614    107.2910   -999.2500
  1236.6000      7.8141      2.5896      0.0511      3.6621    111.8656   -999.2500
  1236.7000      7.8141      2.6100      0.1059      2.4240    118.5670   -999.2500
  1236.8000      7.8097      2.6145      0.1075      2.1540    124.4581   -999.2500
  1236.9000      7.8097      2.6073      0.0983      2.5892    126.8042   -999.2500
  1237.0000      7.8023      2.6030      0.0688      2.8512    126.0648   -999.2500
  1237.1000      7.8023      2.6080      0.1009      2.5476    124.2182   -999.2500
  1237.2000      7.8023      2.6133      0.0771      2.2230    123.0780   -999.2500
  1237.3000      7.8055      2.6057      0.0792      2.6832    121.9742   -999.2500
  1237.4000      7.8055      2.5833      0.0609      4.0436    119.2535   -999.2500
  1237.5000      7.8219      2.5571      0.0375      5.6280    115.4056   -999.2500
  1237.6000      7.8219      2.5397      0.0106      6.6847    113.1555   -999.2500
  1237.7000      7.8219      2.5332      0.0322      7.0779    114.2380   -999.2500
  1237.8000      7.8289      2.5283      0.0459      7.3777    116.9480   -999.2500
  1237.9000      7.8289      2.5245     -0.0017      7.6085    117.3077   -999.2500
  1238.0000      7.8321      2.5264      0.0223      7.4886    113.7901   -999.2500
  1238.1000      7.8321      2.5258      0.0101      7.5263    110.2613   -999.2500
  1238.2000      7.8321      2.5160      0.0386      8.1184    111.4082   -999.2500
  1238.3000      7.8059      2.5064      0.0015      8.7014    116.2608   -999.2500
  1238.4000      7.8059      2.5144      0.0463      8.2186    123.1398   -999.2500
  1238.5000      7.7994      2.5390      0.1067      6.7299    130.1132   -999.2500
  1238.6000      7.7994      2.5638      0.0557      5.2240    131.3054   -999.2500
  1238.7000      7.7994      2.5828      0.0853      4.0718    125.5519   -999.2500
  1238.8000      7.7870      2.5975      0.0956      3.1801    117.5623   -999.2500
  1238.9000      7.7870      2.6179      0.0797      1.9464    109.6742   -999.2500
  1239.0000      7.7934      2.6488      0.1438      0.0712    103.7192   -999.2500
  1239.1000      7.7934      2.6685      0.1488     -1.1224     98.5556   -999.2500
  1239.2000      7.7934      2.6560      0.1371     -0.3650     90.3519   -999.2500
  1239.3000      7.7861      2.6250      0.0500      1.5168     81.9870   -999.2500
  1239.4000      7.7861      2.6031      0.0703      2.8412     75.7141   -999.2500
  1239.5000      7.7873      2.5947      0.0908      3.3525     67.2250   -999.2500
  1239.6000      7.7873      2.5929      0.0118      3.4608     55.8693   -999.2500
  1239.7000      7.7873      2.6003      0.0208      3.0108     46.8495   -999.2500
  1239.8000      7.8150      2.6128      0.0533      2.2573     41.6548   -999.2500
  1239.9000      7.8150      2.6178      0.0465      1.9486     37.5237   -999.2500
  1240.0000      7.7912      2.6109      0.0749      2.3712     33.2083   -999.2500
  1240.1000      7.7912      2.5948      0.0597      3.3446     29.9676   -999.2500
  1240.2000      7.7912      2.5768      0.0421      4.4348     28.7998   -999.2500
  1240.3000      7.8011      2.5636      0.0189      5.2365     28.8480   -999.2500
  1240.4000      7.8011      2.5526      0.0667      5.9032     28.3188   -999.2500
  1240.5000      7.8055      2.5463      0.0040      6.2849     25.0839   -999.2500
  1240.6000      7.8055      2.5602      0.0194      5.4409     17.8591   -999.2500
  1240.7000      7.8055      2.5848      0.0996      3.9526      8.9322   -999.2500
  1240.8000      7.7943      2.5945      0.0644      3.3632      2.7959   -999.2500
  1240.9000      7.7943      2.5886      0.0859      3.7226      0.5072   -999.2500
  1241.0000      7.7911      2.5761      0.0834      4.4789      0.0509   -999.2500
  1241.1000      7.7911      2.5599      0.0589      5.4582      0.0027   -999.2500
  1241.2000      7.7911      2.5454      0.0313      6.3411      0.0000   -999.2500
  1241.3000      7.8017      2.5443      0.0159      6.4032   -999.2500   -999.2500
  1241.4000      7.8017      2.5671      0.0025      5.0241   -999.2500   -999.2500
  1241.5000      7.8078      2.6041      0.0981      2.7830   -999.2500   -999.2500
  1241.6000      7.8078      2.6249      0.1208      1.5228   -999.2500   -999.2500
  1241.7000      7.8078      2.6156      0.0793      2.0821   -999.2500   -999.2500
  1241.8000      7.8051      2.5940      0.0642      3.3956   -999.2500   -999.2500
  1241.9000      7.8051      2.5778      0.0954      4.3762   -999.2500   -999.2500
  1242.0000      7.7991      2.5760      0.0463      4.4865   -999.2500   -999.2500
  1242.1000      7.7991      2.5886      0.1301      3.7206   -999.2500   -999.2500
  1242.2000      7.7991      2.6018      0.0665      2.9194   -999.2500   -999.2500
  1242.3000      7.7689      2.6118      0.0736      2.3151   -999.2500   -999.2500
  1242.4000      7.7689      2.6231      0.1130      1.6287   -999.2500   -999.2500
  1242.5000      7.7337      2.6349      0.1260      0.9179   -999.2500   -999.2500
  1242.6000      7.7337      2.6499      0.1075      0.0085   -999.2500   -999.2500
  1242.7000      7.7337      2.6671      0.1376     -1.0376   -999.2500   -999.2500
  1242.8000      7.7159      2.6780      0.1347     -1.6987   -999.2500   -999.2500
  1242.9000      7.7159      2.6834      0.1587     -2.0270   -999.2500   -999.2500
  1243.0000      7.7057      2.6902      0.1336     -2.4359   -999.2500   -999.2500
  1243.1000      7.7057      2.6963      0.1697     -2.8034   -999.2500   -999.2500
  1243.2000      7.7057      2.6920      0.1452     -2.5475   -999.2500   -999.2500
  1243.3000      7.7229      2.6802      0.1170     -1.8309   -999.2500   -999.2500
  1243.4000      7.7229      2.6741      0.0933     -1.4591   -999.2500   -999.2500
  1243.5000      7.7697      2.6763      0.0691     -1.5959   -999.2500   -999.2500
  1243.6000      7.7697      2.6753      0.1015     -1.5324   -999.2500   -999.2500
  1243.7000      7.7697      2.6625      0.0795     -0.7546   -999.2500   -999.2500
  1243.8000      7.8234      2.6471      0.1151      0.1763   -999.2500   -999.2500
  1243.9000      7.8234      2.6402      0.0576      0.5927   -999.2500   -999.2500
  1244.0000      7.8253      2.6393      0.0828      0.6464   -999.2500   -999.2500
  1244.1000      7.8253      2.6365      0.0480      0.8161   -999.2500   -999.2500
  1244.2000      7.8253      2.6349      0.0507      0.9157   -999.2500   -999.2500
  1244.3000      7.8515      2.6425      0.0433      0.4533   -999.2500   -999.2500
  1244.4000      7.8515      2.6573      0.0885     -0.4430   -999.2500   -999.2500
  1244.5000      7.8747      2.6689      0.1049     -1.1456   -999.2500   -999.2500
  1244.6000      7.8747      2.6676      0.1294     -1.0695   -999.2500   -999.2500
  1244.7000      7.8747      2.6525      0.0729     -0.1504   -999.2500   -999.2500
  1244.8000      7.8828      2.6346      0.0726      0.9358   -999.2500   -999.2500
  1244.9000      7.8828      2.6250      0.0564      1.5123   -999.2500   -999.2500
  1245.0000      7.8574      2.6262      0.0549      1.4448   -999.2500   -999.2500
  1245.1000      7.8574      2.6326      0.0404      1.0521   -999.2500   -999.2500
