~Version Information
 VERS.                                  2.0 : CWLS LAS VERSION
 WRAP.                                   NO : WRAPING MODE
 SWARE .                 MController 2.5.0N : SOFTWARE VERSION
~Well Information
 WELL.                        Cleaver 24-12 : WELL
 COMP.    Pioneer Natural Resources USA Inc : COMPANY
 FLD.                      Purgatoire River : FIELD
 LOC.                SE/SW Sec 12 T32S R67W : LOCATION
 DATE.                         1/05-06/2006 : DATE(S) LOGGED
 SRVC.       BLANCO Geological Services LLC : SERVICE COMPANY
 STAT.                                   CO : STATE
 CNTY.                           Las Animas : COUNTY
 CTRY.                                  USA : COUNTRY
 API.                       05-071-08634-00 : API NUMBER
 STRT.FT                             461.00 : START DEPTH
 STOP.FT                            3055.00 : STOP DEPTH
 STEP.FT                               1.00 : DEPTH INCREMENT
 NULL.                                -9999 : NULL VALUE
~Curve information
 DEPTH.FT                                   :
 ROP.MIN/FT                                 :
 GAS.UNITS                                  :
~ASCII Log data
# ...
       861.0         0.30          1.8 
       862.0         0.43          2.0 
       863.0         0.40          1.9 
       864.0         0.30          1.7 
       865.0         0.37          1.8 
       866.0         7.40          2.2 
       867.0         0.27          2.1 
       868.0         0.43          2.1 
       869.0         0.38          2.2 
       870.0         0.40          2.2 
       871.0         0.37          2.2 
       872.0         0.43          1.9 
       873.0         0.33          1.9 
       874.0         0.30          1.9 
       875.0         0.30          1.9 
       876.0         0.33          2.0 
       877.0         0.33          1.9 
       878.0         0.42          2.2 
       879.0         0.47          2.1 
       880.0         0.33          2.3 
       881.0         0.33          2.2 
       882.0         0.37          2.2 
       883.0         0.37          2.2 
       884.0         0.43          2.2 
       885.0         0.40          2.3 
       886.0         0.27          2.2 
       887.0         0.42          2.2 
       888.0         0.47          2.2 
       889.0         0.40          2.1 
       890.0         0.40          2.1 
       891.0         0.40          1.9 
       892.0         0.37          1.9 
       893.0         0.40          1.9 
       894.0         0.20          2.0 
       895.0         0.30          2.1 
       896.0         5.70          2.4 
       897.0         0.23          2.2 
       898.0         0.27          2.1 
       899.0         0.27          1.9 
       900.0         0.30          1.9 
       901.0         0.35          1.9 
       902.0         0.33          2.0 
       903.0         0.30          1.9 
       904.0         0.27          2.0 
       905.0         0.30          2.1 
       906.0         0.50          2.1 
       907.0         0.37          2.1 
       908.0         0.30          2.1 
       909.0         0.23          2.1 
       910.0         0.27          2.0 
       911.0         0.32          2.0 
       912.0         0.27          1.9 
       913.0         0.27          2.0 
       914.0         0.33          2.1 
       915.0         0.27          1.9 
       916.0         0.30          2.0 
       917.0         0.27          2.0 
       918.0         0.27          1.9 
       919.0         0.27          2.0 
       920.0         0.27          2.0 
       921.0         0.30          1.8 
       922.0         0.37          2.0 
       923.0         0.35          1.9 
       924.0         0.37          1.9 
       925.0         0.37          1.8 
       926.0         5.70          2.2 
       927.0         0.27          2.1 
       928.0         0.40          2.0 
       929.0         0.43          2.0 
       930.0         0.33          2.0 
       931.0         0.23          1.9 
       932.0         0.23          1.9 
       933.0         0.23          2.0 
       934.0         0.30          2.0 
       935.0         0.33          1.9 
       936.0         0.30          1.9 
       937.0         0.35          2.0 
       938.0         0.27          2.0 
       939.0         0.33          2.1 
       940.0         0.27          2.1 
       941.0         0.27          2.2 
       942.0         0.23          2.3 
       943.0         0.23          2.3 
       944.0         0.27          2.3 
       945.0         0.23          2.5 
       946.0         0.27          2.5 
       947.0         0.30          2.5 
       948.0         0.30          2.5 
       949.0         0.32          2.5 
       950.0         0.37          2.5 
       951.0         0.37          2.4 
       952.0         0.43          2.4 
       953.0         0.30          2.3 
       954.0         0.30          2.2 
       955.0         0.37          2.0 
       956.0         6.80          2.6 
       957.0         0.43          2.4 
       958.0         0.23          3.0 
       959.0         0.27          6.3 
       960.0         0.25          9.8 
       961.0         0.30         11.9 
       962.0         0.30         12.1 
       963.0         0.27         11.7 
       964.0         0.30         11.3 
       965.0         0.30         10.9 
       966.0         0.30         10.6 
       967.0         0.30         10.0 
       968.0         0.27          9.9 
       969.0         0.27          9.3 
       970.0         0.27          8.7 
       971.0         0.35          8.4 
       972.0         0.30          8.6 
       973.0         0.30          9.6 
       974.0         0.30         10.7 
       975.0         0.40         13.1 
       976.0         0.33         14.6 
       977.0         0.30         15.4 
       978.0         0.33         17.1 
       979.0         0.40         18.2 
       980.0         0.40         19.0 
       981.0         0.35         19.4 
       982.0         0.37         20.2 
       983.0         0.40         20.9 
       984.0         0.40         21.6 
       985.0         0.53         24.4 
       986.0         5.50         23.6 
       987.0         0.57          6.6 
       988.0         0.43          6.6 
       989.0         0.40          6.2 
       990.0         0.33          5.8 
       991.0         0.33          5.9 
       992.0         0.30          6.9 
       993.0         0.27          8.7 
       994.0         0.32         11.3 
       995.0         0.27         12.5 
       996.0         0.27         13.5 
       997.0         0.27         13.0 
       998.0         0.30         11.1 
       999.0         0.27          8.5 
      1000.0         0.27          7.5 
      1001.0         0.27          8.2 
      1002.0         0.23          9.4 
      1003.0         0.27         10.7 
      1004.0         0.27         12.5 
      1005.0         0.23         13.2 
      1006.0         0.32         14.3 
      1007.0         0.33         15.2 
      1008.0         0.33         15.8 
      1009.0         0.37         16.3 
      1010.0         0.30         16.8 
      1011.0         0.30         17.1 
      1012.0         0.27         17.3 
      1013.0         0.27         18.4 
      1014.0         0.27         21.6 
      1015.0         0.80         22.3 
      1016.0         4.83         12.2 
      1017.0         0.23          6.8 
      1018.0         0.37          6.0 
      1019.0         0.30          4.6 
      1020.0         0.27          3.2 
      1021.0         0.33          4.3 
      1022.0         0.37         11.2 
      1023.0         0.35         15.5 
      1024.0         0.37         15.6 
      1025.0         0.33         13.7 
      1026.0         0.30         10.1 
      1027.0         0.30          7.8 
      1028.0         0.30          5.9 
      1029.0         0.27          4.6 
      1030.0         0.27          4.1 
      1031.0         0.33          4.0 
      1032.0         0.37          5.9 
      1033.0         0.42          9.3 
      1034.0         0.33         12.7 
      1035.0         0.33         15.9 
      1036.0         0.33         17.2 
      1037.0         0.43         20.1 
      1038.0         0.30         20.8 
      1039.0         0.27         22.1 
      1040.0         0.40         22.7 
      1041.0         0.23         23.5 
      1042.0         0.27         23.8 
      1043.0         0.25         23.8 
      1044.0         0.33         23.4 
      1045.0         0.33         23.2 
      1046.0         5.93         21.4 
      1047.0         0.40          6.0 
      1048.0         0.33          5.0 
      1049.0         0.37          4.3 
      1050.0         0.40          4.4 
      1051.0         0.47          5.3 
      1052.0         0.40          5.4 
      1053.0         0.40          5.5 
      1054.0         0.40          5.0 
      1055.0         0.38          4.4 
      1056.0         0.37          3.6 
      1057.0         0.33          3.3 
      1058.0         0.40          3.6 
      1059.0         0.37          3.6 
      1060.0         0.40          2.9 
