~Version Information
VERS.                      2.0: CWLS Log ASCII Standard - VERSION 2.0
WRAP.                       NO: One line per depth step
~Well Information Block
STRT.FT               330.0000: 
STOP.FT              1876.2000: 
STEP.FT                 0.1000: 
NULL.                -999.2500: 
COMP.          Pioneer Natural Resources: COMPANY
WELL.          Cooper 11-13 Tr: WELL
FLD.           Purgatoire River: FIELD
LOC.           476' FNL & 738' FWL: LOCATION
STAT.                 Colorado: State
CNTY.               Las Animas: COUNTY
CTRY. USA : Country
SECT. 13 : Section
TOWN. 32S : Township
RANG. 67W : Range 
SRVC.                Patterson: SERVICE COMPANY
DATE.          Mon Sep 26 10:28:17 2005: LOG DATE
API.           05 071 08525 00: UNIQUE WELL ID
~Curve Information Block
DEPT.FT            0 000 00 00: Depth
DCAL.in                       : CDL Caliper
RHOB.g/cc                     : CDL Bulk Density
RHOC.g/cc                     : CDL Density Correction
DPOR.pu                       : CDL Density Porosity
NPOR.pu                       : Neutron Porosity
GR.GAPI                       : Gamma Ray
~Parameter Information Block
~A  Depth       DCAL        RHOB        RHOC        DPOR        NPOR         GR     
# ...
  1846.8000      7.8407      2.5604      0.0354      5.4316     21.8924   -999.2500
  1846.9000      7.8407      2.5713      0.0726      4.7669     21.2106   -999.2500
  1847.0000      7.8310      2.5865      0.0775      3.8492     20.7264   -999.2500
  1847.1000      7.8310      2.5978      0.0835      3.1612     20.5676   -999.2500
  1847.2000      7.8310      2.6067      0.0934      2.6244     20.5348   -999.2500
  1847.3000      7.8358      2.6137      0.0900      2.1994     20.1376   -999.2500
  1847.4000      7.8358      2.6127      0.1081      2.2598     19.0916   -999.2500
  1847.5000      7.8561      2.6011      0.0693      2.9621     17.8990   -999.2500
  1847.6000      7.8561      2.5915      0.0558      3.5457     17.3553   -999.2500
  1847.7000      7.8561      2.5959      0.0454      3.2805     17.6685   -999.2500
  1847.8000      7.8783      2.6131      0.0650      2.2391     18.7465   -999.2500
  1847.9000      7.8783      2.6316      0.0699      1.1178     20.0197   -999.2500
  1848.0000      7.8870      2.6399      0.0718      0.6144     20.3790   -999.2500
  1848.1000      7.8870      2.6360      0.0469      0.8485     19.5136   -999.2500
  1848.2000      7.8870      2.6277      0.0744      1.3513     18.5438   -999.2500
  1848.3000      7.8835      2.6181      0.0569      1.9344     18.7521   -999.2500
  1848.4000      7.8835      2.6005      0.0720      3.0025     20.2536   -999.2500
  1848.5000      7.8811      2.5736      0.0402      4.6309     22.0814   -999.2500
  1848.6000      7.8811      2.5492      0.0142      6.1069     23.0753   -999.2500
  1848.7000      7.8811      2.5361      0.0428      6.9005     23.2480   -999.2500
  1848.8000      7.8838      2.5338      0.0094      7.0417     23.5824   -999.2500
  1848.9000      7.8838      2.5396      0.0303      6.6939     24.2714   -999.2500
  1849.0000      7.8846      2.5449      0.0457      6.3671     24.8592   -999.2500
  1849.1000      7.8846      2.5419      0.0575      6.5498     25.5792   -999.2500
  1849.2000      7.8846      2.5337      0.0346      7.0468     26.5027   -999.2500
  1849.3000      7.8844      2.5262      0.0277      7.5020     27.3540   -999.2500
  1849.4000      7.8844      2.5147      0.0637      8.1994     29.4467   -999.2500
  1849.5000      7.8832      2.4936      0.0138      9.4770     35.2395   -999.2500
  1849.6000      7.8832      2.4641      0.0338     11.2672     43.4793   -999.2500
  1849.7000      7.8832      2.4236      0.0216     13.7210     49.2219   -999.2500
  1849.8000      7.8781      2.3733      0.0164     16.7708     51.3028   -999.2500
  1849.9000      7.8781      2.3137      0.0294     20.3797     51.7128   -999.2500
  1850.0000      7.8749      2.2307     -0.0094     25.4144     51.7563   -999.2500
  1850.1000      7.8749      2.1135     -0.0388     32.5143     51.7587   -999.2500
  1850.2000      7.8749      1.9808     -0.1342     40.5569   -999.2500   -999.2500
  1850.3000      7.8833      1.8581     -0.1366     47.9940   -999.2500   -999.2500
  1850.4000      7.8833      1.7378     -0.1179     55.2858   -999.2500   -999.2500
  1850.5000      7.9257      1.6034     -0.1465     63.4283   -999.2500   -999.2500
  1850.6000      7.9257      1.4768     -0.1677     71.1039   -999.2500   -999.2500
  1850.7000      7.9257      1.3983     -0.1355     75.8630   -999.2500   -999.2500
  1850.8000      8.0620      1.3714      0.0205     77.4909   -999.2500   -999.2500
  1850.9000      8.0620      1.3645      0.0591     77.9079   -999.2500   -999.2500
  1851.0000      8.2946      1.3597      0.0722     78.1979   -999.2500   -999.2500
  1851.1000      8.2946      1.3618      0.0712     78.0742   -999.2500   -999.2500
  1851.2000      8.2946      1.3770      0.0675     77.1519   -999.2500   -999.2500
  1851.3000      8.4636      1.4033      0.0871     75.5578   -999.2500   -999.2500
  1851.4000      8.4636      1.4339      0.0891     73.7042   -999.2500   -999.2500
  1851.5000      8.4083      1.4683      0.0903     71.6171   -999.2500   -999.2500
  1851.6000      8.4083      1.5146      0.0976     68.8136   -999.2500   -999.2500
  1851.7000      8.4083      1.5809      0.1287     64.7959   -999.2500   -999.2500
  1851.8000      8.1875      1.6690      0.1405     59.4551   -999.2500   -999.2500
  1851.9000      8.1875      1.7723      0.1735     53.1957   -999.2500   -999.2500
  1852.0000      7.9920      1.8770      0.2068     46.8457   -999.2500   -999.2500
  1852.1000      7.9920      1.9735      0.1875     40.9984   -999.2500   -999.2500
  1852.2000      7.9920      2.0635      0.2026     35.5473   -999.2500   -999.2500
  1852.3000      7.8747      2.1498      0.2234     30.3169   -999.2500   -999.2500
  1852.4000      7.8747      2.2278      0.2376     25.5876   -999.2500   -999.2500
  1852.5000      7.8129      2.2873      0.2250     21.9829   -999.2500   -999.2500
  1852.6000      7.8129      2.3196      0.1931     20.0247   -999.2500   -999.2500
  1852.7000      7.8129      2.3234      0.1201     19.7953   -999.2500   -999.2500
  1852.8000      7.7710      2.3016      0.0549     21.1152   -999.2500   -999.2500
  1852.9000      7.7710      2.2615      0.0196     23.5432   -999.2500   -999.2500
  1853.0000      7.7383      2.2180      0.0028     26.1820   -999.2500   -999.2500
  1853.1000      7.7383      2.1849      0.0016     28.1880   -999.2500   -999.2500
  1853.2000      7.7383      2.1701     -0.0187     29.0831   -999.2500   -999.2500
  1853.3000      7.7246      2.1805      0.0286     28.4539   -999.2500   -999.2500
  1853.4000      7.7246      2.2181      0.0833     26.1743   -999.2500   -999.2500
  1853.5000      7.7220      2.2703      0.1905     23.0145   -999.2500   -999.2500
  1853.6000      7.7220      2.3176      0.1750     20.1457   -999.2500   -999.2500
  1853.7000      7.7220      2.3570      0.1757     17.7561   -999.2500   -999.2500
  1853.8000      7.7200      2.3948      0.1590     15.4687   -999.2500   -999.2500
  1853.9000      7.7200      2.4254      0.1741     13.6135   -999.2500   -999.2500
  1854.0000      7.7180      2.4366      0.1536     12.9304   -999.2500   -999.2500
  1854.1000      7.7180      2.4353      0.0792     13.0134   -999.2500   -999.2500
  1854.2000      7.7180      2.4401      0.0724     12.7203   -999.2500   -999.2500
  1854.3000      7.7193      2.4493      0.0628     12.1624   -999.2500   -999.2500
  1854.4000      7.7193      2.4500      0.0418     12.1229   -999.2500   -999.2500
  1854.5000      7.7214      2.4419      0.0529     12.6095   -999.2500   -999.2500
  1854.6000      7.7214      2.4371      0.0547     12.9023   -999.2500   -999.2500
  1854.7000      7.7214      2.4461      0.0559     12.3564   -999.2500   -999.2500
  1854.8000      7.7178      2.4623      0.0804     11.3778   -999.2500   -999.2500
  1854.9000      7.7178      2.4716      0.0906     10.8147   -999.2500   -999.2500
  1855.0000      7.7102      2.4714      0.0831     10.8248   -999.2500   -999.2500
  1855.1000      7.7102      2.4704      0.0809     10.8823   -999.2500   -999.2500
  1855.2000      7.7102      2.4779      0.0995     10.4311   -999.2500   -999.2500
  1855.3000      7.7017      2.4927      0.1116      9.5346   -999.2500   -999.2500
  1855.4000      7.7017      2.5060      0.1108      8.7243   -999.2500   -999.2500
  1855.5000      7.6968      2.5124      0.1270      8.3410   -999.2500   -999.2500
  1855.6000      7.6968      2.5126      0.1293      8.3299   -999.2500   -999.2500
  1855.7000      7.6968      2.5103      0.1252      8.4638   -999.2500   -999.2500
  1855.8000      7.6966      2.5088      0.1151      8.5561   -999.2500   -999.2500
  1855.9000      7.6966      2.5065      0.1051      8.6959   -999.2500   -999.2500
  1856.0000      7.6964      2.4921      0.1230      9.5678   -999.2500   -999.2500
  1856.1000      7.6964      2.4636      0.0616     11.2958   -999.2500   -999.2500
  1856.2000      7.6964      2.4502      0.0034     12.1091   -999.2500   -999.2500
  1856.3000      7.6933      2.4692      0.0823     10.9550   -999.2500   -999.2500
