~Version Information
VERS.                      2.0: CWLS Log ASCII Standard - VERSION 2.0
WRAP.                       NO: One line per depth step
~Well Information Block
STRT.FT                 8.2500: 
STOP.FT              1156.2500: 
STEP.FT                 0.2500: 
NULL.                -999.2500: 
COMP.          Pioneer Natural Resources: COMPANY
WELL.              Davida 34-8: WELL
FLD.           Purgatoire River: FIELD
LOC.           418' FSL & 1923' FEL: LOCATION
CNTY.               Las Animas: COUNTY
SRVC.                Patterson: SERVICE COMPANY
DATE.          Thu Mar 30 09:09:42 2006: LOG DATE
UWI.           05 071 08722 00: UNIQUE WELL ID
STAT.                 Colorado: STATE
~Curve Information Block
DEPT.FT            0 000 00 00: Depth
GR.GAPI                       : Gamma Ray
CCL.                          : Casing Collar Locator
TT3.usec                      : CBL 3' Travel Time
AMP3.mV                       : CBL 3' Amplitude
~Parameter Information Block
~A  Depth        GR         CCL         TT3         AMP3    
# ...
   812.2500     87.5863      0.0000    569.5339      6.3649
   812.5000     85.8314      0.0000    590.6237      6.3716
   812.7500     83.4107      0.0000    617.9722      6.4048
   813.0000     80.9249      0.0000    646.4581      6.4630
   813.2500     78.9310      0.0000    671.0107      6.5399
   813.5000     78.0772      0.0000    688.4261      6.6257
   813.7500     78.9606      0.0000    698.9494      6.7075
   814.0000     81.7521      0.0000    705.3141      6.7727
   814.2500     85.8015      0.0000    709.8132      6.8149
   814.5000     89.6159      0.0000    712.2410      6.8366
   814.7500     91.7260      0.0000    710.9252      6.8454
   815.0000     91.8634      0.0000    705.9011      6.8495
   815.2500     91.1087      0.0000    700.0685      6.8562
   815.5000     90.8655      0.0000    696.4340      6.8704
   815.7500     91.7467      0.0000    695.3481      6.8924
   816.0000     93.2279      0.0000    695.2228      6.9175
   816.2500     94.2576      0.0000    694.4363      6.9400
   816.5000     94.1827      0.0000    691.9758      6.9586
   816.7500     92.9716      0.0000    687.9592      6.9762
   817.0000     90.7959      0.0000    684.2016      6.9954
   817.2500     87.9993      0.0000    682.8851      7.0137
   817.5000     85.4478      0.0000    684.0240      7.0217
   817.7500     84.2398      0.0000    685.1599      7.0080
   818.0000     84.7480      0.0000    683.9903      6.9648
   818.2500     86.1388      0.0000    680.2191      6.8926
   818.5000     86.9972      0.0000    674.7692      6.7980
   818.7500     86.3713      0.0000    669.1616      6.6890
   819.0000     84.2600      0.0000    666.7199      6.5718
   819.2500     81.5131      0.0000    672.2843      6.4511
   819.5000     79.5982      0.0000    688.1690      6.3302
   819.7500     80.0464      0.0000    710.6868      6.2111
   820.0000     83.2180      0.0000    732.3481      6.0959
   820.2500     87.3341      0.0000    747.4857      5.9882
   820.5000     89.3272      0.0000    754.7771      5.8924
   820.7500     87.1135      0.0000    755.0144      5.8115
   821.0000     80.9615      0.0000    747.8672      5.7454
   821.2500     72.8023      0.0000    731.6667      5.6923
   821.5000     64.6265      0.0000    706.8715      5.6501
   821.7500     57.4802      0.0000    679.5453      5.6156
   822.0000     51.4815      0.0000    659.4536      5.5824
   822.2500     46.3781      0.0000    653.1417      5.5444
   822.5000     42.0004      0.0000    659.7769      5.5022
   822.7500     38.4854      0.0000    674.0179      5.4660
   823.0000     36.3974      0.0000    690.6327      5.4487
   823.2500     36.5094      0.0000    705.7776      5.4567
   823.5000     39.1292      0.0000    716.8313      5.4876
   823.7500     43.5366      0.0000    723.2215      5.5337
   824.0000     48.1813      0.0000    726.5552      5.5861
   824.2500     51.5234      0.0000    728.3615      5.6374
   824.5000     52.8052      0.0000    727.5405      5.6824
   824.7500     52.3886      0.0000    721.0145      5.7146
   825.0000     51.7620      0.0000    707.4286      5.7253
   825.2500     53.1131      0.0000    689.9091      5.7067
   825.5000     58.2220      0.0000    674.7830      5.6570
   825.7500     67.1294      0.0000    667.4202      5.5857
   826.0000     77.7563      0.0000    668.4186      5.5125
   826.2500     87.1983      0.0000    672.4182      5.4579
   826.5000     93.7726      0.0000    670.5283      5.4302
   826.7500     97.8728      0.0000    655.9507      5.4228
   827.0000    100.8763      0.0000    630.0823      5.4199
   827.2500    103.6397      0.0000    604.0856      5.4047
   827.5000    106.3726      0.0000    592.3632      5.3642
   827.7500    109.4595      0.0000    601.6861      5.2910
   828.0000    113.4505      0.0000    626.1634      5.1869
   828.2500    118.0116      0.0000    653.6458      5.0725
   828.5000    121.5123      0.0000    676.7620      4.9825
   828.7500    122.1851      0.0000    696.8641      4.9389
   829.0000    119.6789      0.0000    718.1588      4.9350
   829.2500    115.2908      0.0000    740.6684      4.9590
   829.5000    110.7871      0.0000    760.2863      5.0154
   829.7500    107.3447      0.0000    773.9766      5.1027
   830.0000    105.6135      0.0000    782.4146      5.1921
   830.2500    106.1247     -3.0000    787.5370      5.2497
   830.5000    109.0684      0.0000    789.3442      5.2725
   830.7500    113.7817      0.0000    785.8044      5.3001
   831.0000    118.7605      0.0000    775.4432      5.3941
   831.2500    122.2862      0.0000    759.8196      5.5843
   831.5000    123.2116      0.0000    743.2354      5.8166
   831.7500    121.4821      0.0000    729.3323      5.9781
   832.0000    118.0157      0.0000    718.1441      6.0083
   832.2500    113.9589      0.0000    707.1622      5.9592
   832.5000    110.0140      0.0000    694.7236      5.9211
   832.7500    106.4747      0.0000    681.3282      5.9252
   833.0000    103.6616      0.0000    668.2015      5.9430
   833.2500    101.9472      0.0000    655.9144      5.9428
   833.5000    101.3384      0.0000    644.6614      5.9186
   833.7500    101.3095      0.0000    634.8864      5.8822
   834.0000    101.2949      0.0000    626.8163      5.8495
   834.2500    101.3754      0.0000    619.7203      5.8327
   834.5000    102.4213      0.0000    612.4311      5.8337
   834.7500    105.4121      0.0000    604.9100      5.8441
   835.0000    110.4133      0.0000    599.0784      5.8519
   835.2500    116.1732      0.0000    597.8958      5.8532
   835.5000    120.8771      0.0000    603.2788      5.8521
   835.7500    123.2700      0.0000    614.2598      5.8490
   836.0000    122.9495      0.0000    627.0264      5.8303
   836.2500    120.0339      0.0000    637.5803      5.7797
   836.5000    115.1964      0.0000    644.7822      5.6962
   836.7500    109.8239      0.0000    650.3514      5.5917
   837.0000    105.2933      0.0000    656.2957      5.4676
   837.2500    101.8117      0.0000    663.1480      5.3019
   837.5000     98.3859      0.0000    670.1799      5.0729
   837.7500     94.0031      0.0000    676.2964      4.7918
   838.0000     88.4764      0.0000    680.9106      4.5049
   838.2500     82.1758      0.0000    684.3444      4.2625
   838.5000     75.4207      0.0000    687.1879      4.0888
   838.7500     68.3326      0.0000    689.4031      3.9765
   839.0000     61.1224      0.0000    690.4898      3.9040
   839.2500     54.3330      0.0000    690.3235      3.8561
   839.5000     48.6420      0.0000    689.3470      3.8281
   839.7500     44.2919      0.0000    688.1071      3.8134
   840.0000     40.8203      0.0000    686.9918      3.7937
   840.2500     37.6623      0.0000    686.4329      3.7486
   840.5000     34.9959      0.0000    686.9961      3.6756
   840.7500     33.5526      0.0000    688.9810      3.5950
   841.0000     33.5610      0.0000    691.9590      3.5356
   841.2500     34.3861      0.0000    695.0726      3.5227
   841.5000     35.3160      0.0000    698.0564      3.5778
   841.7500     36.3305      0.0000    701.6404      3.7193
   842.0000     38.0490      0.0000    706.4529      3.9533
   842.2500     41.2052      0.0000    711.5369      4.2616
   842.5000     46.2161      0.0000    714.4735      4.6033
   842.7500     53.1072      0.0000    713.2886      4.9313
   843.0000     61.5752      0.0000    707.9489      5.2086
   843.2500     70.7943      0.0000    699.6110      5.4158
   843.5000     79.2408      0.0000    688.9057      5.5565
   843.7500     85.2969      0.0000    676.0180      5.6607
   844.0000     88.4646      0.0000    662.3430      5.7754
   844.2500     89.6926      0.0000    650.8481      5.9391
   844.5000     90.1172      0.0000    643.9961      6.1543
   844.7500     89.7746      0.0000    641.3105      6.3757
   845.0000     88.0575      0.0000    639.3224      6.5290
   845.2500     85.2172      0.0000    634.1691      6.5574
   845.5000     82.6508      0.0000    623.9132      6.4618
