~Version Information
VERS.                      2.0: CWLS Log ASCII Standard - VERSION 2.0
WRAP.                       NO: One line per depth step
~Well Information Block
STRT.FT               880.0000: 
STOP.FT              1996.5000: 
STEP.FT                 0.1000: 
NULL.                -999.2500: 
COMP.          Petrogulf Corporation: COMPANY
WELL.          Collister 17-31R: WELL
FLD.           Purgatorie River: FIELD
LOC.           962' FNL & 1520' FEL: LOCATION
PROV.                 Colorado: PROVINCE
CNTY.               Las Animas: COUNTRY
SRVC.                Patterson: SERVICE COMPANY
DATE.          Mon Sep 26 09:28:52 2005: LOG DATE
UWI.                          : UNIQUE WELL ID
~Curve Information Block
DEPT.FT            0 000 00 00: Depth
DCAL.in                       : CDL Caliper
RHOB.g/cc                     : CDL Bulk Density
RHOC.g/cc                     : CDL Density Correction
DPOR.pu                       : CDL Density Porosity
GR.GAPI                       : Gamma Ray
NPOR.pu                       : Neutron Porosity
~Parameter Information Block
~A  Depth       DCAL        RHOB        RHOC        DPOR         GR         NPOR    
# ...
  1542.4000      7.8353      2.5897      0.1125      3.6518    161.9784     27.5880
  1542.5000      7.8425      2.5731      0.0826      4.6603    158.1814     27.5366
  1542.6000      7.8425      2.5494      0.0845      6.0980    157.2939     27.2694
  1542.7000      7.8425      2.5245      0.0397      7.6066    161.8994     26.9134
  1542.8000      7.8359      2.5126      0.0088      8.3248    169.1869     26.9800
  1542.9000      7.8359      2.5138      0.0792      8.2569    174.4885     27.5955
  1543.0000      7.8232      2.5145      0.0415      8.2134    174.9384     28.1406
  1543.1000      7.8232      2.5219      0.0115      7.7610    172.4532     28.1026
  1543.2000      7.8232      2.5468      0.0616      6.2548    169.5856     27.7600
  1543.3000      7.8169      2.5781      0.0479      4.3589    164.6349     27.6501
  1543.4000      7.8169      2.6013      0.0556      2.9494    157.0170     27.9479
  1543.5000      7.8048      2.6105      0.0842      2.3947    150.3675     28.3529
  1543.6000      7.8048      2.6070      0.1028      2.6053    147.3231     28.4653
  1543.7000      7.8048      2.5949      0.1059      3.3381    146.8026     28.2825
  1543.8000      7.8076      2.5771      0.0966      4.4174    145.6269     28.2119
  1543.9000      7.8076      2.5655      0.0240      5.1237    142.4839     28.3175
  1544.0000      7.8067      2.5744      0.0230      4.5848    139.7770     28.2584
  1544.1000      7.8067      2.5955      0.0987      3.3056    140.0875     27.9466
  1544.2000      7.8067      2.6022      0.0797      2.8974    141.2345     27.5650
  1544.3000      7.8369      2.5892      0.0321      3.6875    141.0566     27.3886
  1544.4000      7.8369      2.5754      0.0035      4.5202    140.5633     27.5199
  1544.5000      7.8715      2.5723      0.0384      4.7072    140.5300     27.7199
  1544.6000      7.8715      2.5770      0.0338      4.4256    141.9841     27.6673
  1544.7000      7.8715      2.5875      0.0152      3.7880    143.9585     27.3293
  1544.8000      7.8847      2.6012      0.0157      2.9549    142.4837     26.8749
  1544.9000      7.8847      2.6124      0.0127      2.2800    139.3372     26.6416
  1545.0000      7.8431      2.6204      0.0341      1.7970    141.0154     26.7730
  1545.1000      7.8431      2.6229      0.0977      1.6433    147.0505     27.0191
  1545.2000      7.8431      2.6176      0.0746      1.9637    153.0494     27.3542
  1545.3000      7.8594      2.6165      0.0538      2.0292    157.3660     27.8491
  1545.4000      7.8594      2.6352      0.0510      0.8951    159.4357     28.1709
  1545.5000      7.8746      2.6674      0.1172     -1.0570    158.2686     28.2163
  1545.6000      7.8746      2.6866      0.1080     -2.2203    155.4852     28.3133
  1545.7000      7.8746      2.6817      0.0746     -1.9200    154.2545     28.6100
  1545.8000      7.8617      2.6669      0.0465     -1.0267    153.7223     29.0615
  1545.9000      7.8617      2.6539      0.0780     -0.2390    151.3751     29.5204
  1546.0000      7.8676      2.6367      0.0741      0.8055    150.2468     29.6990
  1546.1000      7.8676      2.6142      0.0220      2.1711    155.2516     29.5378
  1546.2000      7.8676      2.5937      0.0232      3.4133    164.2234     29.3110
  1546.3000      7.8910      2.5695      0.0174      4.8773    168.2163     29.2042
  1546.4000      7.8910      2.5424     -0.0270      6.5202    164.3217     29.2210
  1546.5000      7.9112      2.5275      0.0369      7.4251    161.9415     29.3337
  1546.6000      7.9112      2.5255      0.0435      7.5449    166.8688     29.4017
  1546.7000      7.9112      2.5267      0.0774      7.4717    172.4072     29.4299
  1546.8000      7.9354      2.5231      0.1108      7.6898    173.6796     29.5162
  1546.9000      7.9354      2.5134      0.0398      8.2779    174.2143     29.5605
  1547.0000      7.9436      2.5051      0.0753      8.7841    175.4639     29.5090
  1547.1000      7.9436      2.5033      0.0527      8.8879    175.5268     29.3279
  1547.2000      7.9436      2.5110      0.0367      8.4223    176.3248     28.9945
  1547.3000      7.9487      2.5243      0.0719      7.6198    178.0593     28.6576
  1547.4000      7.9487      2.5310      0.0754      7.2098    175.1093     28.3583
  1547.5000      7.9230      2.5262      0.0590      7.5047    167.3187     28.2367
  1547.6000      7.9230      2.5124      0.0465      8.3393    160.5518     28.6234
  1547.7000      7.9230      2.4843      0.0394     10.0428    157.9987     29.3943
  1547.8000      7.9272      2.4310      0.0403     13.2700    155.2239     29.8679
  1547.9000      7.9272      2.3549      0.0010     17.8832    145.9957     29.7715
  1548.0000      7.9266      2.2596      0.0005     23.6601    135.1129     29.5087
  1548.1000      7.9266      2.1395     -0.0136     30.9388    129.3716     29.4454
  1548.2000      7.9266      2.0096     -0.1244     38.8108    126.5148     29.4538
  1548.3000      7.9307      1.9059     -0.0713     45.0941    124.2850     29.3823
  1548.4000      7.9307      1.8420     -0.0807     48.9717    122.1510     29.5146
  1548.5000      7.9563      1.8153     -0.1055     50.5871    118.6040     30.0912
  1548.6000      7.9563      1.8386     -0.0980     49.1747    112.9220     30.8630
  1548.7000      7.9563      1.9197      0.0548     44.2608    106.3300     31.4608
  1548.8000      8.0077      2.0339      0.1610     37.3398    102.2738     31.8364
  1548.9000      8.0077      2.1548      0.1762     30.0143    102.1898     31.9772
  1549.0000      7.9397      2.2838      0.2117     22.1948    103.6443     31.7988
  1549.1000      7.9397      2.4220      0.2525     13.8159    103.6175     31.2843
  1549.2000      7.9397      2.5390      0.2987      6.7258    102.1913     30.4411
  1549.3000      7.8025      2.6041      0.1472      2.7813    102.8960     29.3402
  1549.4000      7.8025      2.6264      0.1322      1.4283    106.5706     27.9929
  1549.5000      7.7986      2.6299      0.1283      1.2208    110.5010     26.4256
  1549.6000      7.7986      2.6258      0.1249      1.4672    112.8435     24.8973
  1549.7000      7.7986      2.6145      0.0733      2.1485    112.7380     23.5747
  1549.8000      7.7978      2.5984      0.0232      3.1258    111.9512     22.6081
  1549.9000      7.7978      2.5891      0.0313      3.6884    113.3466     22.0965
  1550.0000      7.8066      2.5884      0.0498      3.7325    115.6099     21.7376
  1550.1000      7.8066      2.5863      0.0148      3.8605    116.2604     21.2863
  1550.2000      7.8066      2.5830      0.0135      4.0623    115.5253     20.8584
  1550.3000      7.8010      2.5831      0.0407      4.0518    114.5148     20.4893
  1550.4000      7.8010      2.5821      0.0304      4.1141    114.1641     20.1288
  1550.5000      7.8015      2.5715      0.0480      4.7584    116.3546     19.8757
  1550.6000      7.8015      2.5534      0.0438      5.8553    123.5432     19.7400
  1550.7000      7.8015      2.5405      0.0314      6.6366    134.3127     19.7318
  1550.8000      7.7975      2.5405      0.0394      6.6373    140.2888     20.1371
  1550.9000      7.7975      2.5505      0.0189      6.0323    138.8978     21.1239
  1551.0000      7.7976      2.5612      0.0553      5.3795    137.4684     22.1841
  1551.1000      7.7976      2.5702      0.0279      4.8368    138.0971     22.6922
  1551.2000      7.7976      2.5830      0.0962      4.0632    139.1985     22.5084
  1551.3000      7.8047      2.6043      0.0575      2.7677    141.7310     21.9987
  1551.4000      7.8047      2.6346      0.1184      0.9306    144.0087     21.5836
  1551.5000      7.7690      2.6586      0.1340     -0.5214    142.9215     21.2033
  1551.6000      7.7690      2.6608      0.1273     -0.6537    138.7317     20.6992
  1551.7000      7.7690      2.6444      0.0870      0.3370    133.6489     20.2758
  1551.8000      7.7753      2.6202      0.0731      1.8085    129.8117     20.1180
  1551.9000      7.7753      2.6011      0.0216      2.9666    128.3571     19.9862
