~Version Information
VERS.                      2.0: CWLS Log ASCII Standard - VERSION 2.0
WRAP.                       NO: One line per depth step
~Well Information Block
STRT.FT                -6.5000: 
STOP.FT              1636.7500: 
STEP.FT                 0.2500: 
NULL.                -999.2500: 
COMP.          Pioneer Natural Resources: COMPANY
WELL.          Stock Canyon 34-33: WELL
FLD.           Purgatorie River: FIELD
LOC.           980' FSL & 2191' FEL--: LOCATION
PROV.                       CO: PROVINCE
CNTY.               Las Animas: COUNTRY
SRVC.          Patterson Wireline: SERVICE COMPANY
DATE.          Mon Dec 12 09:29:49 2005: LOG DATE
UWI.           05 071 08601 00: UNIQUE WELL ID
~Curve Information Block
DEPT.FT            0 000 00 00: Depth
CCL.                          : Casing Collar Locator
TT3.usec                      : CBL 3' Travel Time
AMP3.mV                       : CBL 3' Amplitude
GR.GAPI                       : Gamma Ray
~Parameter Information Block
~A  Depth       CCL         TT3         AMP3         GR     
# ...
   965.0000      0.0000    278.9042     78.0395    173.0109
   965.2500      0.0000    279.6569     77.9929    176.2794
   965.5000      0.0000    279.9112     77.9293    177.3934
   965.7500      0.0000    279.9855     77.8273    175.3542
   966.0000      0.0000    280.0101     77.6893    170.7230
   966.2500      0.0000    280.0222     77.5275    165.2247
   966.5000      0.0000    280.0273     77.3455    160.6938
   966.7500      0.0000    280.0239     77.1320    157.8333
   967.0000      0.0000    280.0096     76.8789    155.7458
   967.2500      0.0000    279.9850     76.6006    152.5563
   967.5000      0.0000    279.9541     76.3276    146.3645
   967.7500      0.0000    279.9215     76.0810    136.1345
   968.0000      0.0000    279.8907     75.8586    122.5084
   968.2500      0.0000    279.8621     75.6489    107.7601
   968.5000      0.0000    279.8350     75.4565     94.4825
   968.7500      0.0000    279.8102     75.3057     84.2247
   969.0000      0.0000    279.7897     75.2077     77.2494
   969.2500      0.0000    279.7743     75.1194     73.1325
   969.5000      0.0000    279.7598     74.9511     71.3269
   969.7500      0.0000    279.7395     74.6301     71.5098
   970.0000      0.0000    279.7087     74.1653     73.7202
   970.2500      0.0000    279.6683     73.6486     78.0910
   970.5000      0.0000    279.6239     73.1885     84.3117
   970.7500      0.0000    279.5813     72.8341     91.4962
   971.0000      0.0000    279.5432     72.5577     98.6037
   971.2500      0.0000    279.5103     72.3014    104.8333
   971.5000      0.0000    279.4846     72.0301    109.6502
   971.7500      0.0000    279.4683     71.7483    112.6869
   972.0000      0.0000    279.4615     71.4841    113.7990
   972.2500      0.0000    279.4603     71.2698    113.2325
   972.5000      0.0000    279.4589     71.1346    111.6472
   972.7500      0.0000    279.4521     71.1014    109.8678
   973.0000      0.0000    279.4382     71.1781    108.5348
   973.2500      0.0000    279.4195     71.3463    107.8244
   973.5000      0.0000    279.3997     71.5621    107.3733
   973.7500      0.0000    279.3810     71.7705    106.7493
   974.0000      0.0000    279.3635     71.9300    106.2274
   974.2500      0.0000    279.3471     72.0288    106.8599
   974.5000      0.0000    279.3322     72.0809    109.3268
   974.7500      0.0000    279.3205     72.0994    112.6973
   975.0000      0.0000    279.3151     72.0768    114.8339
   975.2500      0.0000    279.3193     71.9939    114.4401
   975.5000      0.0000    279.3347     71.8462    112.5146
   975.7500      0.0000    279.3591     71.6606    111.7035
   976.0000      0.0000    279.3866     71.4861    114.4386
   976.2500      0.0000    279.4101     71.3678    121.4457
   976.5000      0.0000    279.4239     71.3238    131.3167
   976.7500      0.0000    279.4261     71.3444    141.3053
   977.0000      0.0000    279.4188     71.4058    148.9144
   977.2500      0.0000    279.4085     71.4779    152.9496
   977.5000      0.0000    279.4035     71.5262    153.2713
   977.7500      0.0000    279.4082     71.5299    150.0922
   978.0000      0.0000    279.4192     71.5098    143.8450
   978.2500      0.0000    279.4270     71.5229    135.4482
   978.5000      0.0000    279.4242     71.6132    126.1926
   978.7500      0.0000    279.4115     71.7673    117.1902
   979.0000      0.0000    279.3958     71.9168    109.1144
   979.2500      0.0000    279.3844     71.9841    102.5123
   979.5000      0.0000    279.3776     71.9234     97.8424
   979.7500      0.0000    279.3680     71.7048     95.0182
   980.0000      0.0000    279.3499     71.2371     93.5624
   980.2500      0.0000    279.3481     70.3002     93.4484
   980.5000      0.0000    279.4596     68.6168     95.0332
   980.7500      0.0000    279.8694     66.0804     97.8773
   981.0000      0.0000    280.7731     62.9479    100.3027
   981.2500      0.0000    282.2047     59.7766    100.6677
   981.5000      0.0000    283.9186     57.1496     98.9369
   981.7500      0.0000    285.4946     55.4213     96.8202
   982.0000      0.0000    286.6137     54.6098     96.4051
   982.2500      0.0000    287.2300     54.4462     98.6059
   982.5000      0.0000    287.4952     54.5517    102.7723
   982.7500      2.0000    287.5607     54.6393    107.7854
   983.0000      0.0000    287.4412     54.5870    113.4315
   983.2500      0.0000    286.9639     54.4333    120.5156
   983.5000      0.0000    285.8143     54.4238    129.7082
   983.7500      0.0000    283.7890     55.0034    140.4916
   984.0000      0.0000    281.1913     56.5408    150.9165
   984.2500      0.0000    278.8859     58.9866    158.1730
   984.5000      0.0000    277.6900     61.9198    160.0732
   984.7500      0.0000    277.6911     64.8720    156.7867
   985.0000      0.0000    278.3076     67.4642    151.3109
   985.2500      0.0000    278.9213     69.3935    147.7629
   985.5000      0.0000    279.2828     70.5384    148.3841
   985.7500      0.0000    279.4351     71.0381    151.9350
   986.0000      0.0000    279.4885     71.1610    155.3570
   986.2500      0.0000    279.5110     71.1188    156.8230
   986.5000      0.0000    279.5272     71.0129    156.7260
   986.7500      0.0000    279.5411     70.8875    156.3457
   987.0000      0.0000    279.5542     70.7723    156.5875
   987.2500      0.0000    279.5666     70.6964    157.8015
   987.5000      0.0000    279.5781     70.6773    159.8037
   987.7500      0.0000    279.5887     70.7120    161.7135
   988.0000      0.0000    279.5974     70.7815    162.3098
   988.2500      0.0000    279.6032     70.8664    161.2751
   988.5000      0.0000    279.6052     70.9546    160.0752
   988.7500      0.0000    279.6033     71.0336    160.8251
   989.0000      0.0000    279.5976     71.0863    163.9200
   989.2500      0.0000    279.5886     71.1034    167.4376
   989.5000      0.0000    279.5785     71.0915    169.2900
   989.7500      0.0000    279.5720     71.0624    169.3718
   990.0000      0.0000    279.5722     71.0229    169.1929
   990.2500      0.0000    279.5760     70.9819    169.8124
   990.5000      0.0000    279.5762     70.9568    170.4833
   990.7500      0.0000    279.5692     70.9569    169.2054
   991.0000      0.0000    279.5597     70.9630    164.4907
   991.2500      0.0000    279.5576     70.9385    156.6261
   991.5000      0.0000    279.5700     70.8656    147.5181
   991.7500      0.0000    279.5967     70.7634    139.7446
   992.0000      0.0000    279.6311     70.6709    136.0090
   992.2500      0.0000    279.6641     70.6173    138.5981
   992.5000      0.0000    279.6877     70.6060    147.7000
   992.7500      0.0000    279.6971     70.6218    159.8521
   993.0000      0.0000    279.6923     70.6488    169.5878
   993.2500      0.0000    279.6761     70.6789    173.8423
   993.5000      0.0000    279.6531     70.6980    174.0018
   993.7500      0.0000    279.6290     70.6741    172.9837
   994.0000      0.0000    279.6104     70.5763    171.4941
   994.2500      0.0000    279.6033     70.4091    168.2361
   994.5000      0.0000    279.6095     70.2194    162.7287
   994.7500      0.0000    279.6256     70.0626    156.3671
   995.0000      0.0000    279.6446     69.9622    150.8329
   995.2500      0.0000    279.6608     69.9040    146.5351
   995.5000      0.0000    279.6720     69.8670    143.0184
   995.7500      0.0000    279.6794     69.8517    140.3797
   996.0000      0.0000    279.6846     69.8727    139.6507
   996.2500      0.0000    279.6876     69.9323    141.5563
   996.5000      0.0000    279.6865     70.0059    145.2544
   996.7500      0.0000    279.6797     70.0555    148.9288
   997.0000      0.0000    279.6668     70.0548    151.6933
   997.2500      0.0000    279.6501     70.0096    154.1665
   997.5000      0.0000    279.6335     69.9534    156.9596
   997.7500      0.0000    279.6207     69.9171    159.5111
   998.0000      0.0000    279.6140     69.9001    160.9465
   998.2500      0.0000    279.6141     69.8704    161.5439
