~Version Information
VERS.                      2.0: CWLS Log ASCII Standard - VERSION 2.0
WRAP.                       NO: One line per depth step
~Well Information Block
STRT.FT               595.0000: 
STOP.FT              1693.0000: 
STEP.FT                 0.1000: 
NULL.                -999.2500: 
COMP.          Pioneer Natural Resources: COMPANY
WELL.          Rollerball 34-30: WELL
FLD.           Purgatoire River: FIELD
LOC.           893' FSL & 2408' FEL: LOCATION
CNTY.               Las Animas: COUNTY
SRVC.                Patterson: SERVICE COMPANY
DATE.          Tue Feb 14 15:43:01 2006: LOG DATE
UWI.           05 071 08581 00: UNIQUE WELL ID
STAT.                 Colorado: STATE
~Curve Information Block
DEPT.FT            0 000 00 00: Depth
DCAL.in                       : CDL Caliper
RHOB.g/cc                     : CDL Bulk Density
RHOC.g/cc                     : CDL Density Correction
DPOR.pu                       : CDL Density Porosity
GR.GAPI                       : Gamma Ray
NPOR.pu                       : Neutron Porosity
~Parameter Information Block
~A  Depth       DCAL        RHOB        RHOC        DPOR         GR         NPOR    
# ...
  1103.8000      7.9851      2.5960      0.0447      3.2723     46.6480     16.9558
  1103.9000      7.9851      2.5881      0.0669      3.7530     52.4809     16.8990
  1104.0000      7.9892      2.5744      0.0219      4.5830     55.4698     16.4883
  1104.1000      7.9892      2.5703     -0.0020      4.8315     51.9804     15.5160
  1104.2000      7.9892      2.5746      0.0284      4.5693     47.0227     14.7347
  1104.3000      7.9880      2.5761      0.0056      4.4781     46.3125     14.6228
  1104.4000      7.9880      2.5741      0.0130      4.6024     49.7162     14.8376
  1104.5000      7.9846      2.5621      0.0387      5.3285     52.1650     15.0008
  1104.6000      7.9846      2.5335      0.0109      7.0629     52.1075     15.0627
  1104.7000      7.9846      2.4993      0.0039      9.1303     52.5573     14.9868
  1104.8000      7.9792      2.4669      0.0411     11.0959     54.5502     14.6063
  1104.9000      7.9792      2.4352      0.0095     13.0192     58.4749     14.3693
  1105.0000      7.9774      2.4141     -0.0327     14.2950     63.7838     14.9196
  1105.1000      7.9774      2.4104     -0.0066     14.5217     68.1199     15.9238
  1105.2000      7.9774      2.4177      0.0068     14.0778     70.1381     16.6230
  1105.3000      7.9694      2.4405      0.0072     12.6997     71.7902     16.8308
  1105.4000      7.9694      2.4913      0.0851      9.6175     74.8820     16.9250
  1105.5000      7.9455      2.5636      0.1453      5.2385     79.9648     17.5464
  1105.6000      7.9455      2.6247      0.2444      1.5304     87.8820     19.2040
  1105.7000      7.9455      2.6498      0.2413      0.0150     96.6774     21.4793
  1105.8000      7.9601      2.6462      0.2491      0.2280    102.6772     23.0047
  1105.9000      7.9601      2.6316      0.2005      1.1135    104.6178     23.4815
  1106.0000      7.9648      2.6161      0.1615      2.0552    106.2018     23.8345
  1106.1000      7.9648      2.6060      0.1548      2.6669    109.7186     24.0653
  1106.2000      7.9648      2.6038      0.1088      2.7989    111.5132     24.0845
  1106.3000      7.9796      2.6126      0.0950      2.2638    108.8030     24.4292
  1106.4000      7.9796      2.6341      0.1014      0.9634    102.1033     24.9838
  1106.5000      7.9963      2.6606      0.0865     -0.6404     94.4051     25.0338
  1106.6000      7.9963      2.6847      0.1140     -2.1032     88.5000     24.3870
  1106.7000      7.9963      2.7028      0.1454     -3.1987     85.7229     23.5983
  1106.8000      7.9681      2.7088      0.1047     -3.5651     86.2431     23.2940
  1106.9000      7.9681      2.6998      0.1089     -3.0197     87.5635     23.5128
  1107.0000      7.9670      2.6781      0.1113     -1.7001     87.4828     23.7459
  1107.1000      7.9670      2.6516      0.0568     -0.0965     85.1569     23.4739
  1107.2000      7.9670      2.6285      0.0269      1.3002     79.7152     22.7035
  1107.3000      7.9965      2.6124      0.0145      2.2776     73.6704     21.7980
  1107.4000      7.9965      2.6076      0.0077      2.5720     72.6322     21.2731
  1107.5000      8.0006      2.6134      0.0328      2.2164     74.0976     21.8039
  1107.6000      8.0006      2.6243      0.0227      1.5583     72.7858     23.1133
  1107.7000      8.0006      2.6410      0.0024      0.5453     72.6593     23.8543
  1107.8000      7.9925      2.6640      0.0408     -0.8486     76.7133     23.6389
  1107.9000      7.9925      2.6786      0.0958     -1.7344     79.5810     23.0776
  1108.0000      7.9720      2.6756      0.0637     -1.5536     77.6260     22.2853
  1108.1000      7.9720      2.6709      0.0237     -1.2674     75.6024     21.2358
  1108.2000      7.9720      2.6686      0.0676     -1.1288     77.4490     20.6047
  1108.3000      7.9672      2.6427      0.0554      0.4445     81.7194     20.5991
  1108.4000      7.9672      2.5817      0.0023      4.1381     86.9787     20.5936
  1108.5000      7.9653      2.5182     -0.0582      7.9872     89.1206     20.6779
  1108.6000      7.9653      2.4892     -0.0434      9.7439     85.3438     20.8505
  1108.7000      7.9653      2.4900     -0.0259      9.6961     83.4375     20.6001
  1108.8000      7.9726      2.4941      0.0068      9.4496     91.4219     20.3583
  1108.9000      7.9726      2.5038     -0.0848      8.8603    104.8880     20.4832
  1109.0000      7.9981      2.5420      0.0061      6.5457    113.5940     20.8234
  1109.1000      7.9981      2.5940      0.1304      3.3965    116.5024     21.3508
  1109.2000      7.9981      2.6280      0.1632      1.3303    121.9966     21.7529
  1109.3000      8.0077      2.6450      0.1776      0.3004    132.6864     21.8110
  1109.4000      8.0077      2.6527      0.2281     -0.1624    140.1801     21.9361
  1109.5000      8.0017      2.6467      0.2578      0.2005    140.6318     22.6700
  1109.6000      8.0017      2.6380      0.1951      0.7247    141.6868     23.9229
  1109.7000      8.0017      2.6454      0.2148      0.2782    148.2942     24.7771
  1109.8000      8.0092      2.6524      0.2523     -0.1473    154.0907     24.6585
  1109.9000      8.0092      2.6318      0.1551      1.1003    153.4061     24.1850
  1110.0000      8.0202      2.5950      0.0730      3.3360    152.0529     24.2502
  1110.1000      8.0202      2.5656      0.0711      5.1155    155.7821     24.7448
  1110.2000      8.0202      2.5455      0.0744      6.3330    163.5466     24.9591
  1110.3000      8.0342      2.5292      0.0421      7.3223    170.4902     24.9351
  1110.4000      8.0342      2.5190      0.0520      7.9406    173.9233     25.2028
  1110.5000      8.0449      2.5222      0.0173      7.7450    174.8821     25.5850
  1110.6000      8.0449      2.5398      0.0334      6.6798    174.2894     25.6193
  1110.7000      8.0449      2.5505      0.0635      6.0311    171.6397     25.5869
  1110.8000      8.0528      2.5347      0.0360      6.9899    168.4683     26.0105
  1110.9000      8.0528      2.5014      0.0443      9.0072    167.9805     26.5158
  1111.0000      8.0643      2.4688      0.0114     10.9804    168.7332     26.5181
  1111.1000      8.0643      2.4411      0.0317     12.6595    169.5121     26.1412
  1111.2000      8.0643      2.4147      0.0048     14.2589    171.8906     25.4975
  1111.3000      8.0683      2.4019     -0.0081     15.0339    173.6456     24.8729
  1111.4000      8.0683      2.4243     -0.0383     13.6769    173.4639     25.0007
  1111.5000      8.0711      2.4815      0.0390     10.2119    174.6828     26.0058
  1111.6000      8.0711      2.5500      0.0771      6.0599    176.2980     26.8090
  1111.7000      8.0711      2.6085      0.1083      2.5147    177.4419     26.4562
  1111.8000      8.0720      2.6435      0.1169      0.3934    182.4862     25.3648
  1111.9000      8.0720      2.6489      0.1702      0.0649    186.9079     24.5654
  1112.0000      8.0702      2.6228      0.1859      1.6489    181.0471     24.6518
  1112.1000      8.0702      2.5674      0.1230      5.0070    171.4418     25.3131
  1112.2000      8.0702      2.4942      0.0664      9.4425    168.6451     25.9805
  1112.3000      8.0632      2.4227     -0.0320     13.7778    169.7308     26.6437
  1112.4000      8.0632      2.3741     -0.0919     16.7204    166.1485     27.1229
  1112.5000      8.0584      2.3702     -0.0935     16.9560    155.0415     26.7407
  1112.6000      8.0584      2.4344     -0.0862     13.0661    140.0094     25.7351
  1112.7000      8.0584      2.5592      0.1489      5.5005    130.2742     24.9060
  1112.8000      8.0503      2.6808      0.2908     -1.8637    132.7763     24.4559
  1112.9000      8.0503      2.7434      0.3005     -5.6594    140.7735     24.2496
  1113.0000      8.0396      2.7587      0.2760     -6.5893    140.5912     23.9124
  1113.1000      8.0396      2.7643      0.2243     -6.9245    130.1509     23.6268
  1113.2000      8.0396      2.7670      0.2443     -7.0904    117.1803     24.2804
  1113.3000      8.0782      2.7513      0.1974     -6.1418    106.6530     25.5974
