~Version Information
VERS.                      2.0: CWLS Log ASCII Standard - VERSION 2.0
WRAP.                       NO: One line per depth step
~Well Information Block
STRT.FT                10.0000: 
STOP.FT              1187.0000: 
STEP.FT                 0.1000: 
NULL.                -999.2500: 
COMP.          Pioneer Natural Resources: COMPANY
WELL.          Whitecoat 14-36: WELL
FLD.           Purgatorie River: FIELD
LOC.           606' FSL & 260' FWL: LOCATION
PROV.                 Colorado: PROVINCE
CNTY.               Las Animas: COUNTRY
SRVC.                Patterson: SERVICE COMPANY
DATE.          Tue Dec 06 07:14:37 2005: LOG DATE
UWI.                          : UNIQUE WELL ID
~Curve Information Block
DEPT.FT            0 000 00 00: Depth
DCAL.in                       : CDL Caliper
RHOB.g/cc                     : CDL Bulk Density
RHOC.g/cc                     : CDL Density Correction
DPOR.pu                       : CDL Density Porosity
GR.GAPI                       : Gamma Ray
NPOR.pu                       : Neutron Porosity
~Parameter Information Block
~A  Depth       DCAL        RHOB        RHOC        DPOR         GR         NPOR    
# ...
   317.2000      8.1798      2.3886     -0.0423     15.8423     75.0605     17.1891
   317.3000      8.1854      2.3803      0.0080     16.3463     75.1075     17.0842
   317.4000      8.1854      2.3811      0.0311     16.2992     77.0803     16.7899
   317.5000      8.1831      2.3837      0.0570     16.1366     78.8005     16.4929
   317.6000      8.1831      2.3832      0.0584     16.1718     77.8847     16.3566
   317.7000      8.1831      2.3825      0.0485     16.2147     77.6800     16.3550
   317.8000      8.1824      2.3878     -0.0103     15.8889     79.5637     16.4235
   317.9000      8.1824      2.4023      0.0444     15.0097     80.9293     16.5028
   318.0000      8.1897      2.4182      0.0818     14.0486     80.8077     16.4717
   318.1000      8.1897      2.4293      0.0236     13.3729     79.7042     16.3379
   318.2000      8.1897      2.4423      0.0606     12.5855     78.7549     16.3351
   318.3000      8.1978      2.4591      0.0727     11.5709     78.7298     16.6669
   318.4000      8.1978      2.4796      0.0483     10.3287     77.9981     17.1821
   318.5000      8.2012      2.5049      0.0822      8.7952     76.5383     17.5527
   318.6000      8.2012      2.5217      0.0939      7.7740     76.4426     17.6694
   318.7000      8.2012      2.5180      0.0634      7.9977     77.8698     17.6731
   318.8000      8.1912      2.5031      0.0369      8.9026     79.7441     17.6083
   318.9000      8.1912      2.4857      0.0371      9.9605     80.4403     17.4121
   319.0000      8.1890      2.4583      0.0525     11.6211     79.3244     17.3160
   319.1000      8.1890      2.4227     -0.0121     13.7788     78.7205     17.3626
   319.2000      8.1890      2.3982     -0.0070     15.2582     80.7092     17.2416
   319.3000      8.1837      2.3906     -0.0067     15.7184     84.0075     16.9490
   319.4000      8.1837      2.3867     -0.0068     15.9550     86.0502     16.7311
   319.5000      8.1848      2.3771     -0.0116     16.5390     85.7295     16.6302
   319.6000      8.1848      2.3625     -0.0146     17.4245     84.1592     16.4563
   319.7000      8.1848      2.3496     -0.0216     18.2061     83.8897     16.1827
   319.8000      8.1989      2.3472     -0.0253     18.3526     85.0850     16.1790
   319.9000      8.1989      2.3548     -0.0033     17.8939     85.2455     16.5589
   320.0000      8.2083      2.3620      0.0207     17.4559     85.1628     16.7547
   320.1000      8.2083      2.3686     -0.0180     17.0566     86.7229     16.5426
   320.2000      8.2083      2.3816     -0.0029     16.2665     88.0487     16.3750
   320.3000      8.2142      2.3970      0.0375     15.3348     86.0856     16.3221
   320.4000      8.2142      2.4065      0.0383     14.7597     81.6571     16.2035
   320.5000      8.2014      2.4077      0.0184     14.6864     78.2242     16.2567
   320.6000      8.2014      2.4004      0.0649     15.1264     76.1185     16.6529
   320.7000      8.2014      2.3883      0.0063     15.8579     74.7925     17.1731
   320.8000      8.1879      2.3832     -0.0279     16.1677     75.3173     17.5087
   320.9000      8.1879      2.3920     -0.0012     15.6353     77.0145     17.4747
   321.0000      8.1965      2.4053      0.0463     14.8328     78.7806     17.1555
   321.1000      8.1965      2.4077      0.0334     14.6869     79.9566     16.7442
   321.2000      8.1965      2.3993     -0.0182     15.1932     79.6800     16.5053
   321.3000      8.1950      2.3934      0.0080     15.5545     79.2693     16.5937
   321.4000      8.1950      2.3950      0.0014     15.4549     80.9283     16.7922
   321.5000      8.1827      2.3925      0.0227     15.6078     82.6252     16.6895
   321.6000      8.1827      2.3709      0.0175     16.9156     80.8314     16.3087
   321.7000      8.1827      2.3397     -0.0139     18.8039     76.3866     16.0399
   321.8000      8.1807      2.3205     -0.0265     19.9681     72.7312     16.1424
   321.9000      8.1807      2.3184      0.0021     20.0993     71.8098     16.4525
   322.0000      8.1862      2.3291     -0.0169     19.4473     73.6812     16.5702
   322.1000      8.1862      2.3507      0.0234     18.1387     76.7521     16.4246
   322.2000      8.1862      2.3780      0.0562     16.4852     80.5114     16.2185
   322.3000      8.1810      2.4063      0.0666     14.7706     83.8002     16.0692
   322.4000      8.1810      2.4347      0.0603     13.0482     83.4001     15.9774
   322.5000      8.1834      2.4589      0.1401     11.5815     80.8315     16.0256
   322.6000      8.1834      2.4716      0.1146     10.8100     80.1783     16.2925
   322.7000      8.1834      2.4737      0.0909     10.6827     81.6962     16.6070
   322.8000      8.1784      2.4709      0.0984     10.8547     84.0028     16.7761
   322.9000      8.1784      2.4689      0.0710     10.9759     86.3902     16.8732
   323.0000      8.1778      2.4693      0.0545     10.9528     89.2762     17.1132
   323.1000      8.1778      2.4614      0.0880     11.4330     91.9925     17.5828
   323.2000      8.1778      2.4390      0.0053     12.7893     92.1257     18.0719
   323.3000      8.1876      2.4108      0.0268     14.4961     91.0574     18.3402
   323.4000      8.1876      2.3823      0.0145     16.2256     93.0892     18.4278
   323.5000      8.1840      2.3596     -0.0303     17.6013     96.9444     18.4429
   323.6000      8.1840      2.3552      0.0006     17.8691     97.0078     18.4504
   323.7000      8.1840      2.3681      0.0091     17.0852     93.7844     18.6054
   323.8000      8.1871      2.3797      0.0274     16.3833     91.9290     18.6653
   323.9000      8.1871      2.3777      0.0197     16.5024     91.0463     18.2834
   324.0000      8.1947      2.3729      0.0204     16.7941     89.0896     17.8575
   324.1000      8.1947      2.3764      0.0104     16.5824     88.5006     17.8362
   324.2000      8.1947      2.3817      0.0312     16.2587     91.2118     18.0926
   324.3000      8.1904      2.3850      0.0351     16.0577     95.6202     18.2117
   324.4000      8.1904      2.3981     -0.0096     15.2678     99.6008     18.0759
   324.5000      8.1915      2.4212      0.0714     13.8679    100.6539     18.0347
   324.6000      8.1915      2.4384      0.0476     12.8250     99.3927     18.1827
   324.7000      8.1915      2.4429      0.0633     12.5503     98.4730     18.2587
   324.8000      8.2041      2.4340      0.0425     13.0905     97.3921     18.3413
   324.9000      8.2041      2.4150      0.0142     14.2395     95.8668     18.5760
   325.0000      8.1998      2.3986      0.0071     15.2360     96.1690     18.8139
   325.1000      8.1998      2.3931     -0.0157     15.5691     99.1158     18.8497
   325.2000      8.1998      2.3933     -0.0045     15.5583    102.8726     18.6715
   325.3000      8.1936      2.3899     -0.0059     15.7630    104.7846     18.4837
   325.4000      8.1936      2.3836      0.0000     16.1451    103.9267     18.3276
   325.5000      8.1909      2.3775      0.0201     16.5149    101.2528     18.0004
   325.6000      8.1909      2.3672      0.0624     17.1366     99.0836     17.5970
   325.7000      8.1909      2.3578     -0.0050     17.7095     99.3099     17.4089
   325.8000      8.1886      2.3648      0.0101     17.2835     99.9823     17.5240
   325.9000      8.1886      2.3866      0.0299     15.9607     98.4256     17.8155
   326.0000      8.2125      2.4101      0.0171     14.5379     95.7393     18.0613
   326.1000      8.2125      2.4332      0.0047     13.1402     93.9577     18.1502
   326.2000      8.2125      2.4548      0.0174     11.8319     92.5396     17.9832
   326.3000      8.2200      2.4579      0.0623     11.6409     91.4405     17.5911
   326.4000      8.2200      2.4301      0.0095     13.3296     91.4722     17.2393
   326.5000      8.2109      2.3876     -0.0755     15.9004     92.1663     17.0952
   326.6000      8.2109      2.3550     -0.0406     17.8793     92.9815     17.0838
   326.7000      8.2109      2.3378     -0.0566     18.9241     92.3628     17.0779
