~Version Information
VERS.                      2.0: CWLS Log ASCII Standard - VERSION 2.0
WRAP.                       NO: One line per depth step
~Well Information Block
STRT.FT                10.0000: 
STOP.FT              1044.5000: 
STEP.FT                 0.1000: 
NULL.                -999.2500: 
COMP.          Pioneer Natural Resources: COMPANY
WELL.          Stags Leap 13-30: WELL
FLD.           Purgatorie River: FIELD
LOC.           1813' FSL & 117' FWL: LOCATION
PROV.                 Colorado: PROVINCE
CNTY.               Las Animas: COUNTRY
SRVC.                Patterson: SERVICE COMPANY
DATE.          Fri Dec 09 09:46:17 2005: LOG DATE
UWI.                          : UNIQUE WELL ID
~Curve Information Block
DEPT.FT            0 000 00 00: Depth
DCAL.in                       : CDL Caliper
RHOB.g/cc                     : CDL Bulk Density
RHOC.g/cc                     : CDL Density Correction
DPOR.pu                       : CDL Density Porosity
GR.GAPI                       : Gamma Ray
NPOR.pu                       : Neutron Porosity
~Parameter Information Block
~A  Depth       DCAL        RHOB        RHOC        DPOR         GR         NPOR    
# ...
   278.8000      8.0266      2.5805      0.0365      4.2151    101.7461     22.3820
   278.9000      8.0266      2.5704      0.0378      4.8229    102.8067     21.7687
   279.0000      8.0258      2.5570      0.0376      5.6378    105.7225     21.3921
   279.1000      8.0258      2.5419      0.0236      6.5530    106.3007     21.5634
   279.2000      8.0258      2.5335      0.0315      7.0594    103.9407     21.8699
   279.3000      8.0364      2.5349      0.0150      6.9735    103.7567     22.0524
   279.4000      8.0364      2.5433      0.0350      6.4687    108.0569     22.2248
   279.5000      8.0586      2.5573      0.0168      5.6159    111.5168     22.3683
   279.6000      8.0586      2.5737      0.0041      4.6242    110.2945     22.4431
   279.7000      8.0586      2.5858      0.0233      3.8898    108.3741     22.4165
   279.8000      8.0469      2.5873      0.0527      3.8017    109.3134     22.2960
   279.9000      8.0469      2.5820      0.0063      4.1238    111.8405     22.2154
   280.0000      8.0169      2.5871     -0.0196      3.8143    115.3890     22.3587
   280.1000      8.0169      2.6026      0.0565      2.8722    120.4999     22.7787
   280.2000      8.0169      2.6071      0.0494      2.6002    124.6089     23.0448
   280.3000      8.0305      2.5907      0.0408      3.5912    125.8312     23.0264
   280.4000      8.0305      2.5619      0.0149      5.3396    127.7949     23.1806
   280.5000      8.0602      2.5365     -0.0280      6.8784    132.8146     23.5106
   280.6000      8.0602      2.5241     -0.0019      7.6281    136.8455     23.5737
   280.7000      8.0602      2.5197     -0.0377      7.8945    138.6901     23.2158
   280.8000      8.1027      2.5137     -0.0407      8.2623    140.8299     22.8544
   280.9000      8.1027      2.5000     -0.0178      9.0932    143.2210     22.9964
   281.0000      8.1207      2.4843     -0.0195     10.0411    144.7361     23.5063
   281.1000      8.1207      2.4898     -0.0990      9.7067    144.7508     24.0927
   281.2000      8.1207      2.5295      0.0014      7.3016    143.2832     24.7007
   281.3000      8.1705      2.5793      0.0222      4.2841    142.0883     25.1110
   281.4000      8.1705      2.6104      0.0496      2.4016    142.0358     25.3636
   281.5000      8.2111      2.6187     -0.0239      1.8988    141.4813     25.8557
   281.6000      8.2111      2.6161      0.0247      2.0527    140.1764     26.6257
   281.7000      8.2111      2.6139      0.0134      2.1852    140.0920     27.4235
   281.8000      8.2534      2.6113      0.0149      2.3451    140.9424     27.9958
   281.9000      8.2534      2.5967      0.0051      3.2300    137.8767     28.2155
   282.0000      8.1718      2.5697     -0.0733      4.8694    129.1971     28.1074
   282.1000      8.1718      2.5513     -0.1073      5.9795    120.2161     27.7911
   282.2000      8.1718      2.5545     -0.0499      5.7897    113.4708     27.3914
   282.3000      8.0854      2.5623     -0.0022      5.3122    106.4630     26.8556
   282.4000      8.0854      2.5547      0.0114      5.7784    100.1537     26.1654
   282.5000      8.0524      2.5363     -0.0582      6.8929     99.7322     25.4902
   282.6000      8.0524      2.5239     -0.0289      7.6420    104.8871     24.8678
   282.7000      8.0524      2.5215     -0.0242      7.7866    108.8921     24.2111
   282.8000      8.0382      2.5292      0.0033      7.3191    109.0160     23.5244
   282.9000      8.0382      2.5471      0.0377      6.2373    109.4040     22.8548
   283.0000      8.0519      2.5596      0.0985      5.4818    112.7521     22.2162
   283.1000      8.0519      2.5486      0.0400      6.1453    116.0923     21.7409
   283.2000      8.0519      2.5232      0.0173      7.6827    116.7941     21.7205
   283.3000      8.0609      2.5080     -0.0295      8.6079    116.1945     22.0551
   283.4000      8.0609      2.5169     -0.0310      8.0679    115.5375     22.2977
   283.5000      8.0639      2.5449      0.0248      6.3702    115.3652     22.3538
   283.6000      8.0639      2.5744      0.0736      4.5808    117.5220     22.5564
   283.7000      8.0639      2.5954      0.0603      3.3070    122.0448     23.1362
   283.8000      8.0621      2.6073      0.0881      2.5891    125.6887     23.8250
   283.9000      8.0621      2.6063      0.0578      2.6485    128.3514     24.2020
   284.0000      8.0725      2.5957      0.0704      3.2901    131.6899     24.2500
   284.1000      8.0725      2.5905      0.0482      3.6083    133.9241     24.2480
   284.2000      8.0725      2.6015      0.0572      2.9373    135.3769     24.3784
   284.3000      8.0585      2.6237      0.0837      1.5968    136.0743     24.6974
   284.4000      8.0585      2.6426      0.0765      0.4501    132.7469     25.0148
   284.5000      8.0669      2.6418      0.1570      0.4943    125.7526     24.9781
   284.6000      8.0669      2.6116      0.0652      2.3289    120.0111     24.6363
   284.7000      8.0669      2.5649      0.0103      5.1554    119.5778     24.2897
   284.8000      8.0715      2.5199      0.0257      7.8841    121.8833     24.1729
   284.9000      8.0715      2.4907     -0.0451      9.6544    121.2729     24.3545
   285.0000      8.0844      2.4876     -0.0024      9.8416    117.1249     24.4155
   285.1000      8.0844      2.5028      0.0383      8.9220    112.1131     23.7951
   285.2000      8.0844      2.5235      0.0173      7.6697    108.4370     22.7817
   285.3000      8.0815      2.5378      0.0313      6.8008    106.1411     22.3124
   285.4000      8.0815      2.5340      0.0048      7.0292    105.0303     22.5143
   285.5000      8.0769      2.5220     -0.0337      7.7556    106.2292     22.8310
   285.6000      8.0769      2.5236     -0.0230      7.6586    108.8562     23.1641
   285.7000      8.0769      2.5418     -0.0141      6.5562    110.5869     23.6928
   285.8000      8.0889      2.5685     -0.0673      4.9409    110.9881     24.1360
   285.9000      8.0889      2.5940      0.0300      3.3957    110.1978     24.1641
   286.0000      8.1165      2.6058     -0.0133      2.6801    108.7904     24.1020
   286.1000      8.1165      2.6016      0.0080      2.9335    108.3300     24.2401
   286.2000      8.1165      2.5860     -0.0450      3.8792    108.7448     24.2811
   286.3000      8.1237      2.5663     -0.0416      5.0714    108.7021     23.9601
   286.4000      8.1237      2.5478     -0.0338      6.1916    108.1572     23.4862
   286.5000      8.0961      2.5272     -0.0107      7.4411    105.8934     23.2221
   286.6000      8.0961      2.5011     -0.0546      9.0266    101.9100     23.1033
   286.7000      8.0961      2.4747     -0.0286     10.6233     99.2657     22.7204
   286.8000      8.1050      2.4623     -0.0319     11.3732     98.1282     21.8760
   286.9000      8.1050      2.4727      0.0181     10.7480     96.9032     20.7389
   287.0000      8.1035      2.4974      0.0303      9.2474     96.1530     19.6974
   287.1000      8.1035      2.5217      0.0560      7.7787     96.1986     19.2181
   287.2000      8.1035      2.5395      0.0460      6.6944     95.6370     19.4876
   287.3000      8.0895      2.5609      0.0192      5.4009     94.3841     20.0848
   287.4000      8.0895      2.5878      0.0912      3.7686     94.0385     20.6048
   287.5000      8.0928      2.6010      0.1035      2.9707     96.3450     21.0043
   287.6000      8.0928      2.5866      0.0787      3.8430    102.0601     21.1315
   287.7000      8.0928      2.5497      0.0521      6.0789    109.9233     20.9991
   287.8000      8.0946      2.5071     -0.0457      8.6634    116.1902     21.0063
   287.9000      8.0946      2.4735     -0.0085     10.6962    117.0607     21.3143
   288.0000      8.1044      2.4489     -0.0442     12.1875    114.0754     21.5733
   288.1000      8.1044      2.4308     -0.0736     13.2835    111.9416     21.6427
   288.2000      8.1044      2.4153     -0.0303     14.2244    111.7868     21.7299
   288.3000      8.1173      2.3946     -0.0484     15.4771    112.2434     21.9698
