~Version Information
VERS.                      2.0: CWLS Log ASCII Standard - VERSION 2.0
WRAP.                       NO: One line per depth step
~Well Information Block
STRT.FT                -6.2500: 
STOP.FT              2245.0000: 
STEP.FT                 0.0500: 
NULL.                -999.2500: 
COMP.          Pioneer Natural Resources: COMPANY
WELL.          Roadster 41-33 Kv: WELL
FLD.           Purgatoire River: FIELD
LOC.           903' FNL & 248' FEL--: LOCATION
PROV.                 Colorado: PROVINCE
CNTY.               Las Animas: COUNTRY
SRVC.                Patterson: SERVICE COMPANY
DATE.          Tue Jan 17 11:20:00 2006: LOG DATE
UWI.           05 071 08615 00: UNIQUE WELL ID
~Curve Information Block
DEPT.FT            0 000 00 00: Depth
CCL.                          : Casing Collar Locator
TT3.usec                      : CBL 3' Travel Time
AMP3.mV                       : CBL 3' Amplitude
GR.GAPI                       : Gamma Ray
~Parameter Information Block
~A  Depth       CCL         TT3         AMP3         GR     
# ...
   147.8500      0.0000    805.2196      8.6960     35.7603
   147.9000      0.0000    805.2196      8.6960     35.7603
   147.9500      0.0000    805.2196      8.6960     35.7603
   148.0000      0.0000    795.2624      8.6915     36.3604
   148.0500      0.0000    795.2624      8.6915     36.3604
   148.1000      0.0000    795.2624      8.6915     36.3604
   148.1500      0.0000    795.2624      8.6915     36.3604
   148.2000      0.0000    795.2624      8.6915     36.3604
   148.2500      0.0000    791.7553      8.5746     38.2716
   148.3000      0.0000    791.7553      8.5746     38.2716
   148.3500      0.0000    791.7553      8.5746     38.2716
   148.4000      0.0000    791.7553      8.5746     38.2716
   148.4500      0.0000    791.7553      8.5746     38.2716
   148.5000      0.0000    797.4073      8.3105     40.7456
   148.5500      0.0000    797.4073      8.3105     40.7456
   148.6000      0.0000    797.4073      8.3105     40.7456
   148.6500      0.0000    797.4073      8.3105     40.7456
   148.7000      0.0000    797.4073      8.3105     40.7456
   148.7500      0.0000    817.3188      7.9365     43.1483
   148.8000      0.0000    817.3188      7.9365     43.1483
   148.8500      0.0000    817.3188      7.9365     43.1483
   148.9000      0.0000    817.3188      7.9365     43.1483
   148.9500      0.0000    817.3188      7.9365     43.1483
   149.0000      0.0000    857.8195      7.5834     45.1577
   149.0500      0.0000    857.8195      7.5834     45.1577
   149.1000      0.0000    857.8195      7.5834     45.1577
   149.1500      0.0000    857.8195      7.5834     45.1577
   149.2000      0.0000    857.8195      7.5834     45.1577
   149.2500      0.0000    919.9440      7.4027     46.2826
   149.3000      0.0000    919.9440      7.4027     46.2826
   149.3500      0.0000    919.9440      7.4027     46.2826
   149.4000      0.0000    919.9440      7.4027     46.2826
   149.4500      0.0000    919.9440      7.4027     46.2826
   149.5000      0.0000    991.0174      7.4459     45.7154
   149.5500      0.0000    991.0174      7.4459     45.7154
   149.6000      0.0000    991.0174      7.4459     45.7154
   149.6500      0.0000    991.0174      7.4459     45.7154
   149.7000      0.0000    991.0174      7.4459     45.7154
   149.7500      0.0000   1046.4830      7.6436     42.9837
   149.8000      0.0000   1046.4830      7.6436     42.9837
   149.8500      0.0000   1046.4830      7.6436     42.9837
   149.9000      0.0000   1046.4830      7.6436     42.9837
   149.9500      0.0000   1046.4830      7.6436     42.9837
   150.0000      0.0000   1065.8967      7.9022     38.6988
   150.0500      0.0000   1065.8967      7.9022     38.6988
   150.1000      0.0000   1065.8967      7.9022     38.6988
   150.1500      0.0000   1065.8967      7.9022     38.6988
   150.2000      0.0000   1065.8967      7.9022     38.6988
   150.2500      0.0000   1048.0826      8.1778     34.4473
   150.3000      0.0000   1048.0826      8.1778     34.4473
   150.3500      0.0000   1048.0826      8.1778     34.4473
   150.4000      2.0000   1048.0826      8.1778     34.4473
   150.4500      2.0000   1048.0826      8.1778     34.4473
   150.5000      2.0000   1009.8353      8.4574     31.7862
   150.5500     -2.0000   1009.8353      8.4574     31.7862
   150.6000     -2.0000   1009.8353      8.4574     31.7862
   150.6500     -2.0000   1009.8353      8.4574     31.7862
   150.7000     -2.0000   1009.8353      8.4574     31.7862
   150.7500      2.0000    972.6579      8.7249     31.3503
   150.8000      2.0000    972.6579      8.7249     31.3503
   150.8500      2.0000    972.6579      8.7249     31.3503
   150.9000      2.0000    972.6579      8.7249     31.3503
   150.9500     -2.0000    972.6579      8.7249     31.3503
   151.0000     -2.0000    952.0242      8.9738     32.9212
   151.0500     -2.0000    952.0242      8.9738     32.9212
   151.1000      0.0000    952.0242      8.9738     32.9212
   151.1500      2.0000    952.0242      8.9738     32.9212
   151.2000      2.0000    952.0242      8.9738     32.9212
   151.2500      2.0000    954.5976      9.2445     36.0652
   151.3000      0.0000    954.5976      9.2445     36.0652
   151.3500      0.0000    954.5976      9.2445     36.0652
   151.4000      0.0000    954.5976      9.2445     36.0652
   151.4500      0.0000    954.5976      9.2445     36.0652
   151.5000      0.0000    978.5693      9.6244     40.3116
   151.5500      0.0000    978.5693      9.6244     40.3116
   151.6000      0.0000    978.5693      9.6244     40.3116
   151.6500      0.0000    978.5693      9.6244     40.3116
   151.7000      0.0000    978.5693      9.6244     40.3116
   151.7500      0.0000   1012.9943     10.1689     44.8905
   151.8000      0.0000   1012.9943     10.1689     44.8905
   151.8500      0.0000   1012.9943     10.1689     44.8905
   151.9000      0.0000   1012.9943     10.1689     44.8905
   151.9500      0.0000   1012.9943     10.1689     44.8905
   152.0000      0.0000   1038.7461     10.7939     48.9482
   152.0500      0.0000   1038.7461     10.7939     48.9482
   152.1000      0.0000   1038.7461     10.7939     48.9482
   152.1500      0.0000   1038.7461     10.7939     48.9482
   152.2000      0.0000   1038.7461     10.7939     48.9482
   152.2500      0.0000   1037.2269     11.2846     52.2326
   152.3000      0.0000   1037.2269     11.2846     52.2326
   152.3500      0.0000   1037.2269     11.2846     52.2326
   152.4000      0.0000   1037.2269     11.2846     52.2326
   152.4500      0.0000   1037.2269     11.2846     52.2326
   152.5000      0.0000   1004.3622     11.4745     55.1932
   152.5500      0.0000   1004.3622     11.4745     55.1932
   152.6000      0.0000   1004.3622     11.4745     55.1932
   152.6500      0.0000   1004.3622     11.4745     55.1932
   152.7000      0.0000   1004.3622     11.4745     55.1932
   152.7500      0.0000    955.3276     11.3949     58.1647
   152.8000      0.0000    955.3276     11.3949     58.1647
   152.8500      0.0000    955.3276     11.3949     58.1647
   152.9000      0.0000    955.3276     11.3949     58.1647
   152.9500      0.0000    955.3276     11.3949     58.1647
   153.0000      0.0000    912.0966     11.2091     60.6201
   153.0500      0.0000    912.0966     11.2091     60.6201
   153.1000      0.0000    912.0966     11.2091     60.6201
   153.1500      0.0000    912.0966     11.2091     60.6201
   153.2000      0.0000    912.0966     11.2091     60.6201
   153.2500      0.0000    886.7855     11.0379     61.3227
   153.3000      0.0000    886.7855     11.0379     61.3227
   153.3500      0.0000    886.7855     11.0379     61.3227
   153.4000      0.0000    886.7855     11.0379     61.3227
   153.4500      0.0000    886.7855     11.0379     61.3227
   153.5000      0.0000    876.7798     10.8901     59.3325
   153.5500      0.0000    876.7798     10.8901     59.3325
   153.6000      0.0000    876.7798     10.8901     59.3325
   153.6500      0.0000    876.7798     10.8901     59.3325
   153.7000      0.0000    876.7798     10.8901     59.3325
   153.7500      0.0000    872.2441     10.7180     55.0586
   153.8000      0.0000    872.2441     10.7180     55.0586
   153.8500      0.0000    872.2441     10.7180     55.0586
   153.9000      0.0000    872.2441     10.7180     55.0586
   153.9500      0.0000    872.2441     10.7180     55.0586
   154.0000      0.0000    865.8443     10.4877     50.3577
   154.0500      0.0000    865.8443     10.4877     50.3577
   154.1000      0.0000    865.8443     10.4877     50.3577
   154.1500      0.0000    865.8443     10.4877     50.3577
   154.2000      0.0000    865.8443     10.4877     50.3577
   154.2500      0.0000    856.3254     10.2059     47.4588
   154.3000      0.0000    856.3254     10.2059     47.4588
   154.3500      0.0000    856.3254     10.2059     47.4588
   154.4000      0.0000    856.3254     10.2059     47.4588
   154.4500      0.0000    856.3254     10.2059     47.4588
   154.5000      0.0000    845.6160      9.9134     47.6270
