~Version Information
 VERS.                                  2.0 : CWLS LAS VERSION
 WRAP.                                   NO : WRAPING MODE
 SWARE .                 MController 2.5.0J : SOFTWARE VERSION
~Well Information
 WELL.                     Manville 42-14Tr : WELL
 COMP.    Pioneer Natural Resources USA Inc : COMPANY
 FLD.                      Purgatoire River : FIELD
 LOC.                 SE/NE SEC14 T32S R66W : LOCATION
 DATE.                             09/18/05 : DATE(S) LOGGED
 SRVC.       Blanco Geological Services LLC : SERVICE COMPANY
 STAT.                             Colorado : STATE
 CNTY.                           Las Animas : COUNTY
 CTRY.                                  USA : COUNTRY
 API.                       05-071-08522-00 : API NUMBER
 STRT.FT                             889.00 : START DEPTH
 STOP.FT                            1780.00 : STOP DEPTH
 STEP.FT                               1.00 : DEPTH INCREMENT
 NULL.                                -9999 : NULL VALUE
~Curve information
 DEPTH.FT                                   :
 ROP.MIN/FT                                 :
 GAS.UNITS                                  :
~ASCII Log data
       889.0     -9999.00          1.6 
       890.0         0.03          1.6 
       891.0         0.62          1.5 
       892.0         0.30          1.1 
       893.0         0.23          1.5 
       894.0         0.23          1.4 
       895.0         0.17          1.4 
       896.0         0.20          1.8 
       897.0         0.23          1.9 
       898.0         0.20          2.4 
       899.0         0.20          1.9 
       900.0         0.20          2.0 
       901.0         0.28          2.6 
       902.0         0.20          2.7 
       903.0         0.23          2.5 
       904.0         0.20          2.5 
       905.0         0.10          2.6 
       906.0         0.13          2.6 
       907.0         0.20          2.6 
       908.0         0.17          2.4 
       909.0         0.23          3.0 
       910.0         0.20          3.0 
       911.0         0.85          3.6 
       912.0         0.40          3.8 
       913.0         0.27          3.7 
       914.0         0.23          3.4 
       915.0         0.30          3.4 
       916.0         0.27          3.4 
       917.0         0.23          3.2 
       918.0         0.20          3.2 
       919.0         0.25          3.5 
       920.0         0.33          3.7 
       921.0         0.20          3.9 
       922.0         0.23          4.1 
       923.0         0.20          3.9 
       924.0         0.20          3.6 
       925.0         0.17          3.7 
       926.0         0.17          4.1 
       927.0         0.17          3.9 
       928.0         0.23          3.8 
       929.0         0.23          4.1 
       930.0         0.22          4.1 
       931.0         0.07          4.1 
       932.0         0.13          4.1 
       933.0         0.17          4.0 
       934.0         0.17          4.1 
       935.0         0.13          4.1 
       936.0         0.27          4.4 
       937.0         0.27          4.2 
       938.0         0.27          6.4 
       939.0         0.27          3.9 
       940.0         0.60          4.0 
       941.0         0.35          5.9 
       942.0         0.27          4.1 
       943.0         0.20          4.4 
       944.0         0.40          5.5 
       945.0         0.27          5.5 
       946.0         0.27          4.0 
       947.0         0.30          3.9 
       948.0         0.23          3.7 
       949.0         0.23          4.2 
       950.0         0.17          4.2 
       951.0         0.17          5.3 
       952.0         0.07          5.3 
       953.0         0.20          3.9 
       954.0         0.17          3.6 
       955.0         0.18          3.6 
       956.0         0.17          3.8 
       957.0         0.17          3.5 
       958.0         0.23          3.4 
       959.0         0.23          3.6 
       960.0         0.17          3.4 
       961.0         0.13          3.4 
       962.0         0.13          3.3 
       963.0         0.27          3.5 
       964.0         0.27          3.3 
       965.0         0.17          3.3 
       966.0         0.27          3.8 
       967.0         0.22          4.0 
       968.0         0.23          4.5 
       969.0         0.33          5.3 
       970.0         0.20          5.4 
       971.0         0.33          5.2 
       972.0         0.37          3.2 
       973.0         0.20          2.9 
       974.0         0.20          3.1 
       975.0         0.20          3.2 
       976.0         0.13          3.3 
       977.0         0.17          3.2 
       978.0         0.10          3.2 
       979.0         0.22          3.4 
       980.0         0.17          3.6 
       981.0         0.17          3.6 
       982.0         0.17          3.2 
       983.0         0.17          3.4 
       984.0         0.13          3.4 
       985.0         0.17          3.6 
       986.0         0.20          3.3 
       987.0         0.17          3.7 
       988.0         0.17          3.7 
       989.0         0.13          3.6 
       990.0         1.10          4.3 
       991.0         0.38          5.7 
       992.0         0.37         49.8 
       993.0         0.30         75.7 
       994.0         0.33         98.8 
       995.0         0.33         96.8 
       996.0         0.23         91.6 
       997.0         0.20         86.2 
       998.0         0.27         82.3 
       999.0         0.20         79.5 
      1000.0         0.23         73.7 
      1001.0         0.20         72.2 
      1002.0         0.20         69.4 
      1003.0         0.23         68.4 
      1004.0         0.22         66.4 
      1005.0         0.17         66.2 
      1006.0         0.13         65.2 
      1007.0         0.17         65.2 
      1008.0         0.17         65.0 
      1009.0         0.13         63.7 
      1010.0         0.17         61.3 
      1011.0         0.13         59.1 
      1012.0         0.17         59.1 
      1013.0         0.13         58.4 
      1014.0         0.63         57.9 
      1015.0         1.10         73.8 
      1016.0         0.45        168.6 
      1017.0         0.30        196.2 
      1018.0         0.20        192.8 
      1019.0         0.20        182.8 
      1020.0         0.20        174.6 
      1021.0         0.17        146.3 
      1022.0         0.20        128.7 
      1023.0         0.20        118.6 
      1024.0         0.20         96.9 
      1025.0         0.17         81.7 
      1026.0         0.23         79.0 
      1027.0         0.17         72.0 
      1028.0         0.20         65.4 
      1029.0         0.17         64.6 
      1030.0         0.17         61.9 
      1031.0         0.35         58.3 
      1032.0         0.17         56.7 
      1033.0         0.20         54.9 
      1034.0         0.17         54.2 
      1035.0         0.20         53.2 
      1036.0         0.13         53.2 
      1037.0         0.13         53.0 
      1038.0         0.13         52.1 
      1039.0         0.20         50.3 
      1040.0         0.13         49.1 
      1041.0         0.20         49.1 
      1042.0         0.13         48.0 
      1043.0         0.17         46.6 
      1044.0         0.17         47.2 
      1045.0         0.33         41.8 
      1046.0         0.70         63.3 
      1047.0         0.45        110.1 
      1048.0         0.23        121.6 
      1049.0         0.20        124.4 
      1050.0         0.17        118.6 
      1051.0         0.17        109.5 
      1052.0         0.17        107.6 
      1053.0         0.17         95.1 
      1054.0         0.17         84.9 
      1055.0         0.13         82.0 
      1056.0         0.20         72.2 
      1057.0         0.20         67.5 
      1058.0         0.17         64.1 
      1059.0         0.20         59.4 
      1060.0         0.20         57.6 
      1061.0         0.17         53.6 
      1062.0         0.27         53.0 
      1063.0         0.13         51.9 
      1064.0         0.38         51.7 
      1065.0         0.20         49.4 
      1066.0         0.17         46.8 
      1067.0         0.17         46.8 
      1068.0         0.17         45.9 
      1069.0         0.20         44.9 
      1070.0         0.17         43.5 
      1071.0         0.43         42.0 
      1072.0         0.27         42.1 
      1073.0         0.27         46.6 
      1074.0         0.17         55.7 
      1075.0         0.47        109.2 
      1076.0         0.27        118.1 
      1077.0         0.18        118.6 
      1078.0         0.10        111.2 
      1079.0         0.50        103.2 
      1080.0         0.23         83.8 
      1081.0         0.17         75.9 
      1082.0         0.17         68.1 
      1083.0         0.20         65.4 
      1084.0         0.17         60.7 
      1085.0         0.20         55.0 
      1086.0         0.17         52.9 
      1087.0         0.17         51.2 
      1088.0         0.17         50.1 
