~Version Information
VERS.                      2.0: CWLS Log ASCII Standard - VERSION 2.0
WRAP.                       NO: One line per depth step
~Well Information Block
STRT.FT               550.0000: 
STOP.FT              1498.5000: 
STEP.FT                 0.1000: 
NULL.                -999.2500: 
COMP.          Pioneer Natural Resources: COMPANY
WELL.          Surtees 23-34 Tr: WELL
FLD.           Purgatoire River: FIELD
LOC.           1559' FSL & 1997' FWL: LOCATION
PROV.                 Colorado: PROVINCE
CNTY.               Las Animas: COUNTRY
SRVC.                Patterson: SERVICE COMPANY
DATE.          Wed Jul 27 09:35:51 2005: LOG DATE
UWI.           05 071 08449 00: UNIQUE WELL ID
~Curve Information Block
DEPT.FT            0 000 00 00: Depth
DCAL.in                       : CDL Caliper
RHOB.g/cc                     : CDL Bulk Density
RHOC.g/cc                     : CDL Density Correction
DPOR.pu                       : CDL Density Porosity
GR.GAPI                       : Gamma Ray
NPOR.pu                       : Neutron Porosity
~Parameter Information Block
~A  Depth       DCAL        RHOB        RHOC        DPOR         GR         NPOR    
# ...
  1174.0000      8.0259      2.7287     -0.0627     -4.7716     32.8708     18.0508
  1174.1000      8.0259      2.7156     -0.0251     -3.9777     32.6135     18.6545
  1174.2000      8.0259      2.6865     -0.0839     -2.2118     33.0197     18.1149
  1174.3000      8.0341      2.6532     -0.0816     -0.1916     34.6289     17.5035
  1174.4000      8.0341      2.6358     -0.0618      0.8604     37.7444     17.6562
  1174.5000      8.0372      2.6235     -0.0492      1.6090     42.2516     18.5673
  1174.6000      8.0372      2.6050     -0.0314      2.7279     46.5140     19.7516
  1174.7000      8.0372      2.5845      0.0169      3.9668     51.4250     21.1394
  1174.8000      8.0324      2.5643      0.0204      5.1965     60.0043     22.5914
  1174.9000      8.0324      2.5398      0.0334      6.6814     70.5492     23.7223
  1175.0000      7.9797      2.5071      0.0598      8.6582     82.1134     24.7801
  1175.1000      7.9797      2.4791      0.0025     10.3583     95.5103     26.0966
  1175.2000      7.9797      2.4775      0.0775     10.4559    108.4323     27.1737
  1175.3000      7.9701      2.5016      0.1235      8.9927    119.8372     27.5837
  1175.4000      7.9701      2.5318      0.1491      7.1663    129.6690     27.8013
  1175.5000      8.0012      2.5562      0.1430      5.6819    132.5264     28.4503
  1175.6000      8.0012      2.5773      0.1471      4.4079    128.5133     28.9945
  1175.7000      8.0012      2.5929      0.1569      3.4619    123.4295     29.0192
  1175.8000      8.0188      2.5971      0.1660      3.2076    116.9318     29.0089
  1175.9000      8.0188      2.5998      0.1242      3.0415    111.9995     28.8147
  1176.0000      8.0123      2.6100      0.1415      2.4264    115.2426     28.2183
  1176.1000      8.0123      2.6186      0.1377      1.9058    123.9471     27.8176
  1176.2000      8.0123      2.6234      0.0897      1.6121    131.3356     28.1887
  1176.3000      7.9903      2.6300      0.1241      1.2144    132.1082     29.2519
  1176.4000      7.9903      2.6320      0.0710      1.0893    124.6562     30.1261
  1176.5000      8.0778      2.6253      0.0915      1.4979    116.5397     30.0758
  1176.6000      8.0778      2.6186      0.0911      1.9035    114.5488     29.5510
  1176.7000      8.0778      2.6212      0.1358      1.7429    115.6409     29.1427
  1176.8000      8.0714      2.6326      0.1884      1.0522    117.0860     28.7294
  1176.9000      8.0714      2.6406      0.1799      0.5685    121.1524     27.9347
  1177.0000      8.0481      2.6341      0.1393      0.9623    126.9620     26.8711
  1177.1000      8.0481      2.6209      0.1093      1.7620    127.2982     26.0614
  1177.2000      8.0481      2.6085      0.1517      2.5130    121.0805     26.1812
  1177.3000      8.0370      2.5856      0.0865      3.9011    114.4855     27.4764
  1177.4000      8.0370      2.5657      0.0345      5.1082    110.2714     28.7694
  1177.5000      8.0265      2.5842      0.0729      3.9885    109.4922     28.7401
  1177.6000      8.0265      2.6270      0.1422      1.3922    113.9350     27.5947
  1177.7000      8.0265      2.6493      0.1100      0.0412    119.9352     26.2268
  1177.8000      8.0278      2.6457      0.1113      0.2589    120.1235     25.1631
  1177.9000      8.0278      2.6362      0.0921      0.8381    114.3049     24.7415
  1178.0000      8.0586      2.6361      0.0872      0.8416    108.2119     25.0167
  1178.1000      8.0586      2.6521      0.1025     -0.1281    105.2086     25.4156
  1178.2000      8.0586      2.6707      0.0903     -1.2541    103.8013     25.9919
  1178.3000      8.0741      2.6767      0.0569     -1.6153    100.7190     26.7268
  1178.4000      8.0741      2.6741      0.0587     -1.4594     95.6197     26.1076
  1178.5000      8.0834      2.6751      0.0292     -1.5209     91.2542     23.6073
  1178.6000      8.0834      2.6851      0.0336     -2.1252     89.2704     21.0688
  1178.7000      8.0834      2.6998      0.0119     -3.0191     89.1508     20.0645
  1178.8000      8.0791      2.7109      0.0356     -3.6879     90.3240     20.3711
  1178.9000      8.0791      2.7105      0.0435     -3.6684     93.9831     21.4611
  1179.0000      8.0942      2.6996      0.0412     -3.0051     98.7956     22.9825
  1179.1000      8.0942      2.6848      0.0645     -2.1121    100.6613     24.0078
  1179.2000      8.0942      2.6686      0.0831     -1.1284     98.0969     23.9972
  1179.3000      8.1050      2.6482      0.0453      0.1075     94.1794     23.5354
  1179.4000      8.1050      2.6215      0.0554      1.7253     93.4840     23.2001
  1179.5000      8.0861      2.5891      0.0532      3.6927     96.0483     23.2930
  1179.6000      8.0861      2.5608      0.0328      5.4051     97.9542     24.0056
  1179.7000      8.0861      2.5554      0.0132      5.7353     97.1068     24.7523
  1179.8000      8.0926      2.5739      0.0684      4.6112     94.4309     24.5620
  1179.9000      8.0926      2.5964      0.0733      3.2472     90.9244     23.6784
  1180.0000      8.0994      2.6084      0.1099      2.5197     87.4499     23.0597
  1180.1000      8.0994      2.6060      0.1091      2.6670     84.9080     22.9571
  1180.2000      8.0994      2.5960      0.0934      3.2737     83.0614     22.9642
  1180.3000      8.0891      2.5935      0.1201      3.4225     81.9140     22.7133
  1180.4000      8.0891      2.6067      0.1140      2.6234     82.4603     22.8601
  1180.5000      8.0815      2.6281      0.1587      1.3298     82.8664     23.8532
  1180.6000      8.0815      2.6366      0.1656      0.8112     81.0013     24.6657
  1180.7000      8.0815      2.6195      0.1856      1.8477     80.4536     24.3551
  1180.8000      8.0861      2.5860      0.1591      3.8767     85.6972     23.4972
  1180.9000      8.0861      2.5567      0.1040      5.6555     93.6944     22.8978
  1181.0000      8.0823      2.5441      0.1240      6.4188    101.1513     22.9094
  1181.1000      8.0823      2.5437      0.1494      6.4403    108.7563     23.8226
  1181.2000      8.0823      2.5474      0.1787      6.2163    113.3805     25.2934
  1181.3000      8.0697      2.5582      0.1494      5.5655    111.6669     26.4390
  1181.4000      8.0697      2.5879      0.1912      3.7627    105.1360     26.9810
  1181.5000      8.0271      2.6391      0.2793      0.6588    100.6872     27.2893
  1181.6000      8.0271      2.6891      0.3537     -2.3671    108.3117     27.5825
  1181.7000      8.0271      2.7104      0.3532     -3.6607    125.3733     27.4987
  1181.8000      8.0100      2.6937      0.3453     -2.6509    131.3051     26.7782
  1181.9000      8.0100      2.6541      0.2164     -0.2510    120.2438     25.4813
  1182.0000      8.0001      2.6266      0.1941      1.4190    111.1593     24.6923
  1182.1000      8.0001      2.6290      0.1301      1.2698    114.1625     25.4822
  1182.2000      8.0001      2.6472      0.1181      0.1669    121.8026     26.8279
  1182.3000      8.0106      2.6531      0.1512     -0.1863    125.0367     26.9977
  1182.4000      8.0106      2.6296      0.1071      1.2358    120.7146     26.1307
  1182.5000      8.0512      2.5911      0.0618      3.5689    114.7888     25.2353
  1182.6000      8.0512      2.5681      0.0600      4.9625    114.6371     24.9270
  1182.7000      8.0512      2.5685      0.0524      4.9409    118.3491     25.2395
  1182.8000      8.0659      2.5765      0.0791      4.4556    119.7612     25.8085
  1182.9000      8.0659      2.5760      0.0934      4.4876    117.8232     26.4860
  1183.0000      8.0719      2.5628      0.1068      5.2839    113.4557     27.0899
  1183.1000      8.0719      2.5459      0.0607      6.3100    109.1401     27.6011
  1183.2000      8.0719      2.5364      0.0588      6.8826    108.9485     28.3058
  1183.3000      8.0813      2.5356      0.0582      6.9332    114.9224     28.6839
  1183.4000      8.0813      2.5365      0.0734      6.8763    126.7274     27.9790
  1183.5000      8.1212      2.5327      0.1000      7.1072    139.2192     26.7838
