~Version Information
VERS.                      2.0: CWLS Log ASCII Standard - VERSION 2.0
WRAP.                       NO: One line per depth step
~Well Information Block
STRT.FT                -5.0000: 
STOP.FT               912.2500: 
STEP.FT                 0.2500: 
NULL.                -999.2500: 
COMP.          Pioneer Natural Resources: COMPANY
WELL.               Ernie 31-6: WELL
FLD.           Purgatoire River: FIELD
LOC.           681' FNL & 2138' FEL: LOCATION
CNTY.               Las Animas: COUNTY
SRVC.                         : SERVICE COMPANY
DATE.          Tue Jun 27 10:36:58 2006: LOG DATE
UWI.           05 071 08716 00: UNIQUE WELL ID
STAT.                       CO: STATE
~Curve Information Block
DEPT.FT            0 000 00 00: Depth
GR.GAPI                       : Gamma Ray
CCL.                          : Casing Collar Locator
TT3.usec                      : CBL 3' Travel Time
AMP3.mV                       : CBL 3' Amplitude
~Parameter Information Block
~A  Depth        GR         CCL         TT3         AMP3    
# ...
   296.5000     86.4098      0.0000    655.5897      7.9206
   296.7500     89.8806      0.0000    673.1376      7.9528
   297.0000     94.4119      0.0000    684.6580      7.9612
   297.2500     99.8811      0.0000    692.4503      7.9484
   297.5000    104.7350      0.0000    697.8927      7.9237
   297.7500    106.6224      0.0000    701.9432      7.8920
   298.0000    104.6248      0.0000    705.4026      7.8478
   298.2500    100.2992      0.0000    708.4882      7.7828
   298.5000     96.3018      0.0000    710.8851      7.7010
   298.7500     94.2104      0.0000    712.3093      7.6263
   299.0000     93.4555      0.0000    712.7220      7.5887
   299.2500     92.0222      0.0000    711.9991      7.5961
   299.5000     88.4036      0.0000    709.6603      7.6246
   299.7500     83.1397      0.0000    705.1443      7.6439
   300.0000     78.3781      0.0000    698.5275      7.6447
   300.2500     76.1203      0.0000    690.9568      7.6352
   300.5000     77.1087      0.0000    684.1728      7.6236
   300.7500     80.7901      0.0000    679.5095      7.6124
   301.0000     85.6419      0.0000    677.4050      7.6060
   301.2500     90.0281      0.0000    677.6485      7.6114
   301.5000     93.6066      0.0000    679.6555      7.6248
   301.7500     97.6202      0.0000    682.4861      7.6213
   302.0000    103.2290      0.0000    685.1392      7.5699
   302.2500    109.9984      0.0000    687.2592      7.4680
   302.5000    116.4912      0.0000    689.3960      7.3504
   302.7500    121.6690      0.0000    692.3179      7.2563
   303.0000    125.2480      0.0000    696.1289      7.1973
   303.2500    127.5126      0.0000    699.9964      7.1728
   303.5000    129.5941      0.0000    702.6417      7.2001
   303.7500    133.3585      0.0000    703.3669      7.3047
   304.0000    140.0886      0.0000    702.8186      7.4777
   304.2500    149.2321      0.0000    702.4792      7.6640
   304.5000    158.7849      0.0000    703.1548      7.8000
   304.7500    166.6673      0.0000    704.2121      7.8502
   305.0000    171.5009      0.0000    704.5974      7.8081
   305.2500    172.8168      0.0000    704.3541      7.6865
   305.5000    171.3057      0.0000    704.6694      7.5167
   305.7500    168.5359      0.0000    706.4467      7.3463
   306.0000    165.8248      0.0000    709.2818      7.2206
   306.2500    163.5450      0.0000    712.0166      7.1637
   306.5000    161.6807      0.0000    713.9510      7.1748
   306.7500    160.3222      0.0000    715.3214      7.2312
   307.0000    158.9360      0.0000    716.9490      7.2915
   307.2500    155.6232      0.0000    719.5546      7.3065
   307.5000    148.1853      0.0000    722.8369      7.2418
   307.7500    136.3392      0.0000    724.8492      7.0976
   308.0000    122.6129      0.0000    723.0167      6.9148
   308.2500    110.8992      0.0000    716.7227      6.7637
   308.5000    104.1293      0.0000    708.6224      6.7147
   308.7500    102.9481      0.0000    702.7279      6.8004
   309.0000    105.9152      0.0000    701.3279      7.0001
   309.2500    110.8009      0.0000    703.8608      7.2636
   309.5000    116.2513      0.0000    708.0933      7.5428
   309.7500    122.3955      0.0000    711.9130      7.7960
   310.0000    129.3551      0.0000    714.3224      7.9774
   310.2500    135.5164      0.0000    715.3211      8.0490
   310.5000    138.3969      0.0000    715.1118      8.0083
   310.7500    137.1219      0.0000    713.2543      7.8952
   311.0000    132.9910      0.0000    708.3504      7.7668
   311.2500    127.7692      0.0000    699.0963      7.6622
   311.5000    122.5162      0.0000    686.8613      7.5864
   311.7500    117.9985      0.0000    677.2969      7.5240
   312.0000    115.1138      0.0000    677.2484      7.4658
   312.2500    114.4117      0.0000    688.3266      7.4279
   312.5000    115.5838      0.0000    704.5915      7.4427
   312.7500    117.9281      0.0000    718.0014      7.5282
   313.0000    121.3676      0.0000    725.2210      7.6606
   313.2500    126.6293      0.0000    728.0269      7.7832
   313.5000    134.0473      0.0000    728.1870      7.8464
   313.7500    142.4316      0.0000    723.4235      7.8440
   314.0000    149.7525      0.0000    708.6689      7.8094
   314.2500    154.9503      0.0000    681.8436      7.7728
   314.5000    158.4334      0.0000    649.4947      7.7289
   314.7500    160.6969      0.0000    625.8634      7.6523
   315.0000    161.3522      0.0000    623.1115      7.5407
   315.2500    160.0448      0.0000    640.9821      7.4302
   315.5000    157.3699      0.0000    667.3188      7.3632
   315.7500    153.9708      0.0000    688.7137      7.3442
   316.0000    149.5018      0.0000    699.2605      7.3421
   316.2500    143.5589      0.0000    700.5490      7.3342
   316.5000    137.3461      0.0000    696.9022      7.3381
   316.7500    133.7236      0.0000    691.8923      7.3959
   317.0000    135.5670      0.0000    687.6207      7.5307
   317.2500    143.8851      0.0000    685.0469      7.7176
   317.5000    156.8057      0.0000    684.0557      7.8935
   317.7500    170.1614      0.0000    683.7953      7.9948
   318.0000    179.6280      0.0000    683.7714      7.9950
   318.2500    182.9212      0.0000    684.4431      7.9139
   318.5000    180.6043      0.0000    686.2861      7.7956
   318.7500    175.5266      0.0000    688.7191      7.6829
   319.0000    171.3952      0.0000    690.6055      7.6084
   319.2500    170.6827      0.0000    691.6852      7.5931
   319.5000    173.0536      0.0000    692.9861      7.6397
   319.7500    175.7632      0.0000    695.5795      7.7262
   320.0000    175.4837      0.0000    699.1470      7.8197
   320.2500    170.0472      0.0000    702.2931      7.8940
   320.5000    159.4451      0.0000    704.3033      7.9325
   320.7500    145.7496      0.0000    705.9349      7.9217
   321.0000    131.8803      0.0000    708.1949      7.8564
   321.2500    120.2889      0.0000    710.9778      7.7484
   321.5000    112.6562      0.0000    713.3074      7.6245
   321.7500    110.3632      0.0000    714.4232      7.5167
   322.0000    114.4913      0.0000    714.1505      7.4579
   322.2500    124.6689      0.0000    712.2402      7.4722
   322.5000    138.0031      0.0000    707.5121      7.5542
   322.7500    150.0255      0.0000    697.5051      7.6637
   323.0000    157.1634      0.0000    679.3123      7.7515
   323.2500    158.0981      0.0000    651.5626      7.7905
   323.5000    153.1248      0.0000    616.1291      7.7837
   323.7500    143.2210      0.0000    577.7887      7.7532
   324.0000    130.1773      0.0000    542.8242      7.7276
   324.2500    116.9943      0.0000    518.7133      7.7311
   324.5000    107.1939      0.0000    513.0798      7.7694
   324.7500    103.0648      0.0000    528.9438      7.8244
   325.0000    104.2973      0.0000    560.3438      7.8642
   325.2500    108.2613      0.0000    595.1518      7.8662
   325.5000    111.6850      0.0000    623.1942      7.8338
   325.7500    112.2911      0.0000    641.0588      7.7886
   326.0000    109.3086      0.0000    650.2935      7.7466
   326.2500    103.3210      0.0000    653.4856      7.7076
   326.5000     96.2038      0.0000    652.6849      7.6652
   326.7500     90.6369      0.0000    649.4653      7.6164
   327.0000     88.6423      0.0000    644.4042      7.5563
   327.2500     90.2474      0.0000    636.0576      7.4774
   327.5000     93.6792      0.0000    621.6127      7.3824
   327.7500     96.8263      0.0000    600.5382      7.2864
   328.0000     98.7305      0.0000    579.0556      7.1955
   328.2500    100.2095      0.0000    569.5859      7.0933
   328.5000    103.1849      0.0000    582.1376      6.9682
   328.7500    108.9060      0.0000    614.8235      6.8497
   329.0000    116.6390      0.0000    654.8414      6.7889
   329.2500    124.3056      0.0000    689.5331      6.7984
   329.5000    130.1071      0.0000    714.6392      6.8479
   329.7500    132.9518      0.0000    731.7221      6.9267
