~Version Information
VERS.                      2.0: CWLS Log ASCII Standard - VERSION 2.0
WRAP.                       NO: One line per depth step
~Well Information Block
STRT.FT                -4.7500: 
STOP.FT              2723.2500: 
STEP.FT                 0.2500: 
NULL.                -999.2500: 
COMP.          Pioneer Natural Resources: COMPANY
WELL.           Dolzanie 34-12: WELL
FLD.           Purgatorie River: FIELD
LOC.           1001' FSL & 1750' FEL: LOCATION
PROV.                 Colorado: PROVINCE
CNTY.               Las Animas: COUNTRY
SRVC.                Patterson: SERVICE COMPANY
DATE.          Wed Jul 27 14:23:29 2005: LOG DATE
UWI.                          : UNIQUE WELL ID
~Curve Information Block
DEPT.FT            0 000 00 00: Depth
GR.GAPI                       : Gamma Ray
CCL.                          : Casing Collar Locator
TT3.usec                      : CBL 3' Travel Time
AMP3.mV                       : CBL 3' Amplitude
~Parameter Information Block
~A  Depth        GR         CCL         TT3         AMP3    
# ...
  1971.7500    153.0188      0.0000    759.0532      4.5738
  1972.0000    152.6752      0.0000    726.5790      4.5793
  1972.2500    150.1319      0.0000    682.5950      4.5755
  1972.5000    146.6062      0.0000    644.7252      4.5971
  1972.7500    143.1314      0.0000    635.9827      4.6462
  1973.0000    139.9940      0.0000    656.2980      4.7000
  1973.2500    136.9333      0.0000    686.2689      4.7497
  1973.5000    133.7820      0.0000    712.8203      4.8228
  1973.7500    130.8060      0.0000    730.3048      4.9645
  1974.0000    128.1914      0.0000    735.0176      5.1847
  1974.2500    125.2476      0.0000    729.0405      5.4360
  1974.5000    120.7351      0.0000    720.1912      5.6375
  1974.7500    114.3879      0.0000    715.7343      5.7399
  1975.0000    107.7458      0.0000    717.6826      5.7885
  1975.2500    103.1832      0.0000    722.2223      5.8886
  1975.5000    102.2787      0.0000    722.1412      6.0906
  1975.7500    104.9973      0.0000    713.9620      6.3587
  1976.0000    109.9193      0.0000    700.5486      6.6716
  1976.2500    115.0404      0.0000    687.7363      7.0611
  1976.5000    118.5325      0.0000    685.8763      7.5130
  1976.7500    119.1249      0.0000    705.1172      7.9374
  1977.0000    116.4041      0.0000    739.3039      8.2705
  1977.2500    111.2103      0.0000    767.5618      8.4983
  1977.5000    105.6103      0.0000    777.1083      8.5820
  1977.7500    102.0086      0.0000    772.7642      8.4706
  1978.0000    101.7970      0.0000    765.4409      8.1749
  1978.2500    104.4573      0.0000    760.8423      7.7494
  1978.5000    107.9613      0.0000    758.8514      7.2378
  1978.7500    110.2213      0.0000    757.8251      6.6909
  1979.0000    110.2361      0.0000    756.9338      6.1829
  1979.2500    108.1390      0.0000    756.1025      5.7571
  1979.5000    104.6332      0.0000    755.5587      5.4011
  1979.7500    100.5151      0.0000    755.7174      5.1020
  1980.0000     96.5225      0.0000    757.1969      4.8769
  1980.2500     93.4434      0.0000    760.5861      4.7362
  1980.5000     92.0764      0.0000    765.6179      4.6606
  1980.7500     92.6716      0.0000    770.9957      4.6255
  1981.0000     94.3186      0.0000    776.2137      4.6226
  1981.2500     95.1430      0.0000    781.3528      4.6402
  1981.5000     93.4785      0.0000    783.9835      4.6490
  1981.7500     89.1635      0.0000    780.4096      4.6350
  1982.0000     83.7411      0.0000    771.5571      4.6157
  1982.2500     79.2682      0.0000    763.8422      4.6092
  1982.5000     76.9574      0.0000    759.3176      4.6232
  1982.7500     76.8268      0.0000    751.9757      4.6553
  1983.0000     78.1065      0.0000    741.2350      4.6818
  1983.2500     79.6531      0.0000    734.2178      4.6743
  1983.5000     80.4591      0.0000    731.4196      4.6360
  1983.7500     80.4510      0.0000    729.1680      4.5972
  1984.0000     80.7424      0.0000    730.6613      4.5786
  1984.2500     82.6256      0.0000    738.4163      4.5764
  1984.5000     86.2175      0.0000    747.1407      4.5768
  1984.7500     90.3905      0.0000    751.8630      4.5824
  1985.0000     94.0812      0.0000    753.0942      4.6111
  1985.2500     97.2797      0.0000    753.1295      4.6661
  1985.5000    100.4914      0.0000    753.0744      4.7342
  1985.7500    103.5483      0.0000    753.0493      4.8081
  1986.0000    105.4818      0.0000    753.0060      4.8809
  1986.2500    105.6340      0.0000    753.0829      4.9416
  1986.5000    104.4841      0.0000    753.4946      4.9960
  1986.7500    103.0353      0.0000    754.4008      5.0573
  1987.0000    101.5704      0.0000    756.2972      5.1114
  1987.2500     99.5150      0.0000    760.3182      5.1202
  1987.5000     96.6972      0.0000    766.3891      5.0707
  1987.7500     94.2550      0.0000    769.9802      5.0009
  1988.0000     93.7882      0.0000    763.9532      4.9619
  1988.2500     95.7572      0.0000    746.7959      4.9636
  1988.5000     99.0688      0.0000    725.8375      4.9814
  1988.7500    102.0236      0.0000    709.0538      4.9931
  1989.0000    103.2935      0.0000    696.8167      4.9851
  1989.2500    102.2204      0.0000    684.9081      4.9639
  1989.5000     98.7774      0.0000    672.5021      4.9627
  1989.7500     93.4308      0.0000    662.8081      4.9966
  1990.0000     86.9000      0.0000    657.7133      5.0325
  1990.2500     79.9680      0.0000    656.3077      5.0336
  1990.5000     73.4192      0.0000    657.8290      5.0157
  1990.7500     68.0870      0.0000    663.2589      5.0338
  1991.0000     64.9323      0.0000    673.2449      5.1084
  1991.2500     64.7589      0.0000    684.4429      5.1932
  1991.5000     67.4313      0.0000    690.4739      5.2396
  1991.7500     71.4794      0.0000    688.3472      5.2381
  1992.0000     74.9278      0.0000    680.9912      5.1738
  1992.2500     76.7028      0.0000    672.6537      5.0462
  1992.5000     77.0613      0.0000    665.3365      4.9408
  1992.7500     76.7033      0.0000    660.0183      4.8671
  1993.0000     75.8670      0.0000    660.7221      4.6212
  1993.2500     74.4266      0.0000    675.5876      4.1601
  1993.5000     72.4178      0.0000    706.3584      3.8128
  1993.7500     70.1543      0.0000    738.9577      3.8040
  1994.0000     68.1723      0.0000    755.9246      4.0015
  1994.2500     67.2903      0.0000    757.7463      4.2112
  1994.5000     68.2698      2.0000    760.6117      4.3711
  1994.7500     71.0382      0.0000    772.4520      4.4808
  1995.0000     74.4483      0.0000    783.4407      4.5510
  1995.2500     77.0647      0.0000    781.4887      4.6857
  1995.5000     78.1378      0.0000    763.5920      5.0310
  1995.7500     77.7538      0.0000    736.2219      5.4859
  1996.0000     76.3018      0.0000    712.8644      5.7771
  1996.2500     74.1977      0.0000    702.7882      5.9265
  1996.5000     72.0528      0.0000    701.9612      6.1591
  1996.7500     70.6593      0.0000    697.7589      6.4618
  1997.0000     70.4812      0.0000    675.5112      6.6909
  1997.2500     71.1756      0.0000    630.1028      6.8316
  1997.5000     71.8342      0.0000    585.9840      6.9198
  1997.7500     71.8779      0.0000    582.2378      6.9279
  1998.0000     71.8024      0.0000    621.6669      6.8044
  1998.2500     73.1177      0.0000    667.8266      6.5582
  1998.5000     77.6050      0.0000    694.3232      6.2677
  1998.7500     86.4084      0.0000    703.2563      6.0127
  1999.0000     99.3926      0.0000    704.9633      5.8393
  1999.2500    115.1698      0.0000    704.1596      5.7786
  1999.5000    131.7803      0.0000    700.6807      5.8189
  1999.7500    147.2572      0.0000    693.4931      5.8794
  2000.0000    159.6254      0.0000    683.4855      5.8819
  2000.2500    167.0629      0.0000    673.1397      5.8154
  2000.5000    168.7151      0.0000    665.0499      5.7034
  2000.7500    165.2787      0.0000    662.3524      5.5589
  2001.0000    158.6433      0.0000    666.9954      5.4004
  2001.2500    151.1069      0.0000    675.9676      5.2697
  2001.5000    144.5007      0.0000    682.2965      5.1927
  2001.7500    139.2892      0.0000    680.7599      5.1557
  2002.0000    134.6546      0.0000    672.8450      5.1623
  2002.2500    129.9981      0.0000    664.9815      5.2635
  2002.5000    126.1445      0.0000    662.2614      5.4807
  2002.7500    124.7484      0.0000    666.8044      5.7678
  2003.0000    126.8811      0.0000    679.3825      6.0627
  2003.2500    132.4431      0.0000    698.3560      6.3159
  2003.5000    140.4003      0.0000    719.2106      6.4894
  2003.7500    149.0293      0.0000    736.8798      6.5554
  2004.0000    156.1707      0.0000    748.0853      6.4843
  2004.2500    160.0548      0.0000    752.8805      6.2567
  2004.5000    160.4852      0.0000    753.7641      5.9025
  2004.7500    159.0601      0.0000    753.1078      5.5215
  2005.0000    157.8860      0.0000    752.1419      5.2344
