~Version Information
VERS.                      2.0: CWLS Log ASCII Standard - VERSION 2.0
WRAP.                       NO: One line per depth step
~Well Information Block
STRT.FT                -9.5000: 
STOP.FT              1304.7500: 
STEP.FT                 0.2500: 
NULL.                -999.2500: 
COMP.          Pioneer Natural Resources: COMPANY
WELL.            Hamburg 43-35: WELL
FLD.           Purgatorie River: FIELD
LOC.           2444' FSL & 950' FEL--: LOCATION
PROV.                       CO: PROVINCE
CNTY.               Las Animas: COUNTRY
SRVC.          Patterson Wireline: SERVICE COMPANY
DATE.          Thu Dec 08 14:29:45 2005: LOG DATE
UWI.           08 071 08607 00: UNIQUE WELL ID
~Curve Information Block
DEPT.FT            0 000 00 00: Depth
CCL.                          : Casing Collar Locator
TT3.usec                      : CBL 3' Travel Time
AMP3.mV                       : CBL 3' Amplitude
GR.GAPI                       : Gamma Ray
~Parameter Information Block
~A  Depth       CCL         TT3         AMP3         GR     
# ...
  1163.0000      0.0000    524.6176     14.4128     75.2996
  1163.2500      0.0000    462.2727     15.3935     67.4878
  1163.5000      0.0000    411.9978     16.2656     59.6630
  1163.7500      0.0000    381.2943     16.9590     53.6939
  1164.0000      0.0000    374.3787     17.4357     50.5632
  1164.2500      0.0000    387.8503     17.6966     50.4652
  1164.5000      0.0000    408.1116     17.7970     53.0586
  1164.7500      0.0000    417.2806     17.8353     57.4175
  1165.0000      0.0000    406.1121     17.8996     62.2799
  1165.2500      0.0000    380.7272     18.0000     66.8151
  1165.5000      0.0000    354.9590     18.0508     71.0684
  1165.7500      0.0000    338.0504     17.9363     75.3284
  1166.0000      0.0000    330.9432     17.6090     78.9467
  1166.2500      0.0000    330.6815     17.1227     80.0920
  1166.5000      0.0000    334.6718     16.5749     77.1554
  1166.7500      0.0000    341.2994     16.0320     70.6343
  1167.0000      0.0000    348.9826     15.5097     63.3197
  1167.2500      0.0000    356.1963     15.0013     58.1555
  1167.5000      0.0000    362.6891     14.5109     55.9124
  1167.7500      0.0000    370.9524     14.0587     55.2914
  1168.0000      0.0000    386.5793     13.6624     55.1501
  1168.2500      0.0000    416.2265     13.3247     55.8683
  1168.5000      0.0000    462.2696     13.0427     58.3803
  1168.7500      0.0000    517.7808     12.8228     62.6422
  1169.0000      0.0000    569.2506     12.6764     67.4153
  1169.2500      0.0000    607.5446     12.6048     71.0724
  1169.5000      0.0000    634.9690     12.5928     72.4988
  1169.7500      0.0000    659.2676     12.6202     71.6159
  1170.0000      0.0000    683.2689     12.6763     69.1799
  1170.2500      0.0000    703.5004     12.7654     65.9962
  1170.5000      0.0000    716.4737     12.8986     62.4238
  1170.7500      0.0000    722.7988     13.0782     58.6118
  1171.0000      0.0000    725.8074     13.2908     54.8923
  1171.2500      0.0000    728.3391     13.5153     51.7990
  1171.5000      0.0000    731.2615     13.7338     49.8293
  1171.7500      0.0000    734.2441     13.9305     49.1725
  1172.0000      0.0000    737.2228     14.0846     49.4882
  1172.2500      0.0000    740.9957     14.1759     50.0273
  1172.5000      0.0000    746.5287     14.1988     50.2358
  1172.7500      0.0000    753.7171     14.1676     50.2461
  1173.0000      0.0000    760.8134     14.1073     50.5469
  1173.2500      0.0000    765.4954     14.0408     51.1356
  1173.5000      0.0000    766.7893     13.9836     51.3218
  1173.7500      0.0000    765.7837     13.9423     50.5830
  1174.0000      0.0000    764.3069     13.9188     49.4035
  1174.2500      0.0000    763.0621     13.9182     48.9528
  1174.5000      0.0000    761.1709     13.9502     49.9338
  1174.7500      0.0000    757.5536     14.0228     51.9456
  1175.0000      0.0000    752.6697     14.1324     54.0414
  1175.2500      0.0000    748.5800     14.2612     55.7480
  1175.5000      0.0000    747.1404     14.3821     57.3757
  1175.7500      0.0000    748.4732     14.4656     59.3336
  1176.0000      0.0000    751.4819     14.4864     61.3179
  1176.2500      0.0000    755.4612     14.4278     62.4149
  1176.5000      0.0000    760.5323     14.2827     62.0396
  1176.7500      0.0000    766.5012     14.0534     60.6129
  1177.0000      0.0000    772.1071     13.7536     59.2679
  1177.2500      0.0000    775.7526     13.4117     58.9860
  1177.5000      0.0000    776.5995     13.0688     59.9865
  1177.7500      0.0000    774.8967     12.7663     61.7393
  1178.0000      0.0000    771.6131     12.5267     63.4420
  1178.2500      0.0000    767.6580     12.3432     64.6179
  1178.5000      0.0000    763.1255     12.1887     65.4103
  1178.7500      0.0000    757.5278     12.0375     66.2673
  1179.0000      0.0000    750.9832     11.8804     67.3154
  1179.2500      0.0000    744.6976     11.7223     68.2539
  1179.5000      0.0000    739.9874     11.5692     68.9593
  1179.7500      0.0000    737.2332     11.4231     69.8767
  1180.0000      0.0000    735.9444     11.2844     71.4715
  1180.2500      0.0000    735.4456     11.1552     73.4874
  1180.5000      0.0000    735.2882     11.0357     75.2397
  1180.7500      0.0000    735.2884     10.9241     76.6572
  1181.0000      0.0000    735.5397     10.8201     78.4437
  1181.2500      0.0000    736.5375     10.7277     80.9422
  1181.5000      0.0000    739.1599     10.6536     83.1856
  1181.7500      0.0000    744.1342     10.6042     83.4334
  1182.0000      0.0000    751.0526     10.5825     80.7512
  1182.2500      0.0000    757.9043     10.5836     75.9775
  1182.5000      0.0000    762.0318     10.5925     71.0058
  1182.7500      0.0000    761.8207     10.5861     67.2635
  1183.0000      0.0000    757.3409     10.5434     65.1634
  1183.2500      0.0000    749.6063     10.4582     64.7802
  1183.5000      0.0000    740.0091     10.3434     66.2209
  1183.7500      0.0000    730.6191     10.2204     69.0662
  1184.0000      0.0000    724.0475     10.1066     72.0688
  1184.2500      0.0000    722.0305     10.0129     73.9444
  1184.5000      0.0000    724.0916      9.9453     74.3658
  1184.7500      0.0000    727.9800      9.9022     73.9400
  1185.0000      0.0000    731.4620      9.8722     73.3131
  1185.2500      0.0000    733.5837      9.8400     72.6003
  1185.5000      0.0000    734.5334      9.7961     71.6462
  1185.7500      0.0000    734.8593      9.7398     70.4640
  1186.0000      0.0000    734.9478      9.6739     69.2466
  1186.2500      0.0000    734.9253      9.5988     68.1141
  1186.5000      0.0000    734.7039      9.5135     66.9688
  1186.7500      0.0000    734.0161      9.4178     65.4965
  1187.0000      0.0000    732.5253      9.3068     63.3573
  1187.2500      0.0000    730.1161      9.1528     60.6982
  1187.5000      0.0000    727.1542      8.9021     58.5666
  1187.7500      0.0000    724.3290      8.5210     58.3771
  1188.0000      0.0000    722.5497      8.0727     60.6965
  1188.2500      0.0000    723.6646      7.7210     64.7756
  1188.5000      0.0000    731.1140      7.6077     69.1653
  1188.7500      0.0000    747.9809      7.7314     72.3441
  1189.0000      0.0000    773.1616      7.9782     73.1064
  1189.2500      0.0000    800.3450      8.2432     71.1323
  1189.5000      0.0000    822.1668      8.4825     67.2535
  1189.7500      2.0000    835.2708      8.6855     63.0182
  1190.0000     -2.0000    841.0019      8.8491     60.1563
  1190.2500      0.0000    842.1851      8.9687     59.9876
  1190.5000      0.0000    840.2712      9.0462     62.4895
  1190.7500      0.0000    835.1691      9.1122     65.9857
  1191.0000      0.0000    826.6519      9.2184     68.3212
  1191.2500      0.0000    815.0338      9.3816     68.4149
  1191.5000      0.0000    800.5160      9.5736     66.7343
  1191.7500      0.0000    782.7769      9.8055     64.6918
  1192.0000      0.0000    762.1523     10.1470     63.7278
  1192.2500      0.0000    741.2120     10.5933     64.5413
  1192.5000      0.0000    724.1468     10.9891     66.8024
  1192.7500      0.0000    713.7213     11.1594     69.5880
  1193.0000      0.0000    709.1591     11.0667     72.1864
  1193.2500      0.0000    707.3159     10.8085     74.3933
  1193.5000      0.0000    705.6682     10.5122     76.0935
  1193.7500      0.0000    703.9122     10.2659     77.0465
  1194.0000      0.0000    703.1090     10.1178     77.4154
  1194.2500      0.0000    703.8549     10.0977     78.0752
  1194.5000      0.0000    705.3461     10.2198     79.8535
  1194.7500      0.0000    705.9865     10.4628     82.5184
  1195.0000      0.0000    704.8381     10.7637     84.7766
  1195.2500      0.0000    702.3888     11.0499     85.2047
  1195.5000      0.0000    699.9598     11.2843     83.2316
  1195.7500      0.0000    698.7401     11.4765     79.4349
  1196.0000      0.0000    699.6003     11.6549     74.9808
  1196.2500      0.0000    703.2815     11.8353     70.8567
