~Version Information
 VERS.                                  2.0 : CWLS LAS VERSION
 WRAP.                                   NO : WRAPING MODE
 SWARE .                 MController 2.5.0N : SOFTWARE VERSION
~Well Information
 WELL.                       GAMMA 13-03 TR : WELL
 COMP.    PIONEER NATURAL RESOURCES USA INC : COMPANY
 FLD.                      PURGATOIRE RIVER : FIELD
 LOC.                 NW/SW SEC 3 T33S R67W : LOCATION
 DATE.                          09/18-19/05 : DATE(S) LOGGED
 SRVC.       BLANCO GEOLOGICAL SERVICES LLC : SERVICE COMPANY
 STAT.                             COLORADO : STATE
 CNTY.                           LAS ANIMAS : COUNTY
 CTRY.                                  USA : COUNTRY
 API.                       05-071-08524-00 : API NUMBER
 STRT.FT                             446.00 : START DEPTH
 STOP.FT                            1371.00 : STOP DEPTH
 STEP.FT                               1.00 : DEPTH INCREMENT
 NULL.                                -9999 : NULL VALUE
~Curve information
 DEPTH.FT                                   :
 ROP.MIN/FT                                 :
 GAS.UNITS                                  :
~ASCII Log data
       446.0     -9999.00          9.6 
       447.0         0.82          9.5 
       448.0         0.33          9.7 
       449.0         0.33         10.0 
       450.0         0.35         10.5 
       451.0         0.27         11.2 
       452.0         0.33          4.3 
       453.0         0.27          2.4 
       454.0         0.27          2.7 
       455.0         0.30          1.7 
       456.0         0.10          0.7 
       457.0         0.20          0.8 
       458.0         0.13          0.0 
       459.0         0.10          0.1 
       460.0         0.13          0.3 
       461.0         0.10          0.5 
       462.0         0.10          0.7 
       463.0         0.13          0.7 
       464.0         0.10          1.5 
       465.0         0.13          1.0 
       466.0         0.10          1.0 
       467.0         0.15          1.3 
       468.0         0.13          0.1 
       469.0         0.10          3.0 
       470.0         0.20          3.8 
       471.0         0.13          3.6 
       472.0         3.58          7.7 
       473.0         0.10          7.6 
       474.0         0.20          7.7 
       475.0         0.23          7.6 
       476.0         0.17          7.4 
       477.0         0.13          7.4 
       478.0         0.23          7.8 
       479.0         0.10          7.7 
       480.0         0.10          7.4 
       481.0         0.10          7.5 
       482.0         0.10          7.4 
       483.0         0.10          7.7 
       484.0         0.07          7.1 
       485.0         0.10          7.7 
       486.0         0.07          7.2 
       487.0         0.10          7.3 
       488.0         0.07          7.1 
       489.0         0.12          7.4 
       490.0         0.07          7.2 
       491.0         0.10          7.6 
       492.0         0.07          7.3 
       493.0         0.13          7.3 
       494.0         0.13          7.3 
       495.0         0.13          7.2 
       496.0         0.17          7.5 
       497.0         0.13          7.1 
       498.0         0.10          6.7 
       499.0         0.10          7.6 
       500.0         0.10          7.4 
       501.0         0.10          7.0 
       502.0         2.68          7.6 
       503.0         0.23          7.2 
       504.0         0.20          7.0 
       505.0         0.17          7.2 
       506.0         0.20          7.3 
       507.0         0.17          7.1 
       508.0         0.17          7.1 
       509.0         0.13          7.2 
       510.0         0.13          6.8 
       511.0         0.10          7.0 
       512.0         0.10          7.1 
       513.0         0.13          7.1 
       514.0         0.10          7.0 
       515.0         0.10          6.7 
       516.0         0.10          6.9 
       517.0         0.10          6.7 
       518.0         0.12          7.1 
       519.0         0.10          7.4 
       520.0         0.10          7.0 
       521.0         0.10          6.9 
       522.0         0.10          6.9 
       523.0         0.10          6.6 
       524.0         0.10          6.6 
       525.0         0.10          7.0 
       526.0         0.10          6.6 
       527.0         0.10          6.9 
       528.0         0.13          7.2 
       529.0         0.10          6.7 
       530.0         0.10          6.5 
       531.0         0.10          7.4 
       532.0         3.95          7.3 
       533.0         0.17          6.5 
       534.0         0.20          6.9 
       535.0         0.18          6.6 
       536.0         0.17          6.8 
       537.0         0.17          6.9 
       538.0         0.17          6.9 
       539.0         0.20          7.0 
       540.0         0.10          7.0 
       541.0         0.13          6.6 
       542.0         0.13          6.4 
       543.0         0.10          6.7 
       544.0         0.10          6.9 
       545.0         0.10          6.9 
       546.0         0.10          6.9 
       547.0         0.10          6.4 
       548.0         0.10          6.5 
       549.0         0.10          6.5 
       550.0         0.10          6.4 
       551.0         0.10          6.1 
       552.0         0.17          6.5 
       553.0         0.27          6.6 
       554.0         0.23          6.7 
       555.0         0.23          6.6 
       556.0         0.32          6.5 
       557.0         0.37          6.3 
       558.0         0.30          6.0 
       559.0         0.27          5.9 
       560.0         0.23          6.2 
       561.0         0.27          6.2 
       562.0         2.68          6.5 
       563.0         0.47          6.3 
       564.0         0.43          6.3 
       565.0         0.37          6.4 
       566.0         0.30          6.1 
       567.0         0.27          6.4 
       568.0         0.25          6.3 
       569.0         0.20          6.2 
       570.0         0.27          6.1 
       571.0         0.30          6.1 
       572.0         0.20          5.6 
       573.0         0.27          5.8 
       574.0         0.20          5.7 
       575.0         0.27          5.7 
       576.0         0.37          5.8 
       577.0         0.30          5.5 
       578.0         0.30          5.7 
       579.0         0.33          5.6 
       580.0         0.35          5.7 
       581.0         0.30          5.6 
       582.0         0.27          5.5 
       583.0         0.27          5.8 
       584.0         0.23          5.8 
       585.0         0.23          5.9 
       586.0         0.27          6.0 
       587.0         0.23          6.0 
       588.0         0.23          6.1 
       589.0         0.33          6.1 
       590.0         0.33          6.2 
       591.0         0.22         18.7 
       592.0         3.25         54.2 
       593.0         0.20          4.7 
       594.0         0.17          5.3 
       595.0         0.13          5.1 
       596.0         0.10          5.1 
       597.0         0.10          5.3 
       598.0         0.13          5.4 
       599.0         0.13          4.8 
       600.0         0.10          5.3 
       601.0         0.20          5.9 
       602.0         0.17          6.4 
       603.0         0.20          7.0 
       604.0         0.17          6.8 
       605.0         0.23          7.2 
       606.0         0.30          6.6 
       607.0         0.27          5.8 
       608.0         0.23          4.8 
       609.0         0.27          5.1 
       610.0         0.28          5.2 
       611.0         0.23          5.2 
       612.0         0.23          5.1 
       613.0         0.17          5.1 
       614.0         0.13          5.4 
       615.0         0.17          5.3 
       616.0         0.20          5.3 
       617.0         0.27          5.4 
       618.0         0.20          5.1 
       619.0         0.20          5.6 
       620.0         0.20          5.4 
       621.0         0.20          5.5 
       622.0         2.55          5.6 
       623.0         0.40          5.5 
       624.0         0.33          5.6 
       625.0         0.33          5.4 
       626.0         0.30          5.4 
       627.0         0.35          5.4 
       628.0         0.30          5.6 
       629.0         0.30          5.5 
       630.0         0.17          5.5 
       631.0         0.27          5.7 
       632.0         0.23          5.4 
       633.0         0.23          5.4 
       634.0         0.27          5.5 
       635.0         0.23          5.2 
       636.0         0.20          5.5 
       637.0         0.20          5.2 
       638.0         0.20          5.4 
       639.0         0.17          5.5 
       640.0         0.25          5.2 
       641.0         0.13          5.3 
       642.0         0.20          5.5 
       643.0         0.27          5.2 
       644.0         0.33          5.2 
       645.0         0.33          5.6 
