~Version Information
VERS.                      2.0: CWLS Log ASCII Standard - VERSION 2.0
WRAP.                       NO: One line per depth step
~Well Information Block
STRT.FT                -8.5000: 
STOP.FT              1214.7500: 
STEP.FT                 0.2500: 
NULL.                -999.2500: 
COMP.          Pioneer Natural Resources: COMPANY
WELL.          Rock Island 44-24 Tr: WELL
FLD.           Purgatorie River: FIELD
LOC.           814' FSL & 761' FEL--: LOCATION
CNTY.               Las Animas: COUNTY
SRVC.          Patterson Wireline: SERVICE COMPANY
DATE.          Fri Apr 28 10:23:18 2006: LOG DATE
UWI.           05 071 08680 00: UNIQUE WELL ID
STAT.                       CO: STATE
~Curve Information Block
DEPT.FT            0 000 00 00: Depth
CCL.                          : Casing Collar Locator
TT3.usec                      : CBL 3' Travel Time
AMP3.mV                       : CBL 3' Amplitude
GR.GAPI                       : Gamma Ray
~Parameter Information Block
~A  Depth       CCL         TT3         AMP3         GR     
# ...
   728.5000      0.0000    685.2247      6.6409    151.5082
   728.7500      0.0000    686.1556      6.7265    149.9035
   729.0000      0.0000    687.9086      6.7977    146.6403
   729.2500      0.0000    690.4332      6.8736    143.5127
   729.5000      0.0000    692.9514      6.9469    141.5781
   729.7500      0.0000    694.2253      6.9882    140.3893
   730.0000      0.0000    693.6331      6.9788    139.3329
   730.2500      0.0000    691.8802      6.9353    139.0539
   730.5000      0.0000    690.4848      6.8996    140.7943
   730.7500      0.0000    690.7336      6.9075    144.5633
   731.0000      0.0000    693.1034      6.9652    148.5215
   731.2500      0.0000    697.1834      7.0519    150.2961
   731.5000      0.0000    701.8104      7.1439    148.8223
   731.7500      0.0000    705.3815      7.2312    145.0306
   732.0000      0.0000    706.3624      7.3073    141.0786
   732.2500      0.0000    704.0415      7.3521    139.0413
   732.5000      0.0000    699.1890      7.3410    139.9151
   732.7500      0.0000    693.7528      7.2698    143.2165
   733.0000      0.0000    689.5224      7.1585    147.3981
   733.2500      0.0000    687.0879      7.0329    150.8098
   733.5000      0.0000    686.0036      6.9094    151.9613
   733.7500      0.0000    685.5524      6.7995    149.0022
   734.0000      0.0000    685.1635      6.7169    140.1048
   734.2500      0.0000    684.3505      6.6728    125.0546
   734.5000      0.0000    682.4500      6.6617    106.1454
   734.7500      0.0000    678.4052      6.6566     87.2375
   735.0000      0.0000    670.5649      6.6282     71.8216
   735.2500      0.0000    657.2462      6.5730     61.4452
   735.5000      0.0000    639.2232      6.5172     55.4892
   735.7500      0.0000    622.5370      6.4897     52.4872
   736.0000      0.0000    616.3906      6.4951     51.8350
   736.2500      0.0000    625.2802      6.5136     54.3681
   736.5000      0.0000    644.1106      6.5221     61.6188
   736.7500      0.0000    663.0472      6.5092     74.4995
   737.0000      0.0000    675.9006      6.4714     91.9997
   737.2500      0.0000    682.7037      6.4058    110.6934
   737.5000      0.0000    686.4671      6.3144    126.1745
   737.7500      0.0000    689.5357      6.2142    135.8809
   738.0000      0.0000    692.2612      6.1348    140.3468
   738.2500      0.0000    693.6821      6.0991    141.3698
   738.5000      0.0000    693.0847      6.1057    139.9525
   738.7500      0.0000    690.9786      6.1306    136.9130
   739.0000      0.0000    688.5724      6.1485    134.2336
   739.2500      0.0000    686.7318      6.1511    133.9020
   739.5000      0.0000    685.6833      6.1483    135.5045
   739.7500      0.0000    685.4757      6.1487    136.1432
   740.0000      0.0000    686.4301      6.1412    132.9396
   740.2500      0.0000    689.0250      6.0965    125.3098
   740.5000      0.0000    693.1229      5.9908    115.0958
   740.7500      0.0000    697.2016      5.8284    105.0985
   741.0000      0.0000    698.9002      5.6435     97.6202
   741.2500      0.0000    696.9945      5.4847     93.7475
   741.5000      0.0000    692.6362      5.3978     93.0512
   741.7500      0.0000    688.2645      5.4085     93.8453
   742.0000      0.0000    685.6813      5.5102     94.3697
   742.2500      0.0000    685.5089      5.6666     94.0620
   742.5000      0.0000    687.8788      5.8372     93.7038
   742.7500      0.0000    692.7340      6.0041     94.6941
   743.0000      0.0000    699.3192      6.1739     98.3405
   743.2500      0.0000    706.0604      6.3529    105.1854
   743.5000      0.0000    711.5866      6.5262    114.3464
   743.7500      0.0000    715.6336      6.6656    123.8482
   744.0000      0.0000    718.4252      6.7586    132.0095
   744.2500      0.0000    719.4919      6.8252    138.2198
   744.5000      0.0000    717.9288      6.9026    142.5096
   744.7500      0.0000    713.8038      7.0140    145.1168
   745.0000      0.0000    708.6131      7.1501    146.4610
   745.2500      0.0000    704.0646      7.2803    146.8694
   745.5000      0.0000    700.9064      7.3769    146.3447
   745.7500      0.0000    699.2786      7.4282    145.0620
   746.0000      0.0000    699.4061      7.4311    143.7294
   746.2500      0.0000    700.9943      7.3795    142.7785
   746.5000      0.0000    702.4045      7.2660    141.5919
   746.7500      0.0000    701.6191      7.0959    139.2805
   747.0000      0.0000    698.2029      6.8978    136.0005
   747.2500      0.0000    693.6795      6.7195    133.0318
   747.5000      0.0000    689.9468      6.6085    131.6836
   747.7500      0.0000    687.8030      6.5919    132.1940
   748.0000      0.0000    686.9144      6.6679    133.4638
   748.2500      0.0000    686.5990      6.8076    134.1613
   748.5000      0.0000    686.4000      6.9642    134.5094
   748.7500      0.0000    686.1763      7.0884    136.2564
   749.0000      0.0000    685.9694      7.1493    140.0775
   749.2500      0.0000    685.8380      7.1456    143.7277
   749.5000      0.0000    685.7138      7.0971    143.8885
   749.7500      0.0000    685.1266      7.0270    139.5684
   750.0000      0.0000    682.6271      6.9558    132.8856
   750.2500      0.0000    674.9792      6.9079    126.7396
   750.5000      0.0000    657.3562      6.9130    122.4623
   750.7500      0.0000    626.5585      6.9926    119.5240
   751.0000      0.0000    586.3977      7.1395    116.7250
   751.2500      0.0000    548.4632      7.3007    113.4216
   751.5000      0.0000    523.2098      7.3885    109.8395
   751.7500      0.0000    509.6163      7.3365    106.4523
   752.0000      0.0000    497.5526      7.1673    103.3259
   752.2500      0.0000    480.7690      6.9837    100.0530
   752.5000      0.0000    463.0029      6.8775     96.2981
   752.7500      0.0000    450.6458      6.8607     92.5959
   753.0000      0.0000    444.7250      6.8883     90.6105
   753.2500     -2.0000    442.8200      6.9206     92.2226
   753.5000      0.0000    446.0118      6.9526     97.8772
   753.7500      0.0000    460.5876      7.0068    105.7248
   754.0000      0.0000    491.7923      7.1039    112.8377
   754.2500      0.0000    535.7758      7.2352    117.4925
   754.5000      0.0000    579.0762      7.3649    119.9738
   754.7500      0.0000    608.6645      7.4674    121.3357
   755.0000      0.0000    623.5383      7.5443    122.0770
   755.2500      0.0000    634.8533      7.5946    121.9531
   755.5000      0.0000    653.3821      7.5908    120.3699
   755.7500      0.0000    677.5067      7.5037    117.0363
   756.0000      0.0000    694.7438      7.3381    112.8721
   756.2500      0.0000    694.8596      7.1345    110.2676
   756.5000      0.0000    680.3233      6.9413    111.7836
   756.7500      0.0000    663.3068      6.7858    118.0695
   757.0000      0.0000    653.5972      6.6657    126.9766
   757.2500      0.0000    651.4479      6.5649    134.9698
   757.5000      0.0000    651.5843      6.4772    139.7710
   757.7500      0.0000    650.3645      6.4128    141.7716
   758.0000      0.0000    647.5402      6.3828    142.7222
   758.2500      0.0000    643.7112      6.3806    143.4603
   758.5000      0.0000    638.7247      6.3816    143.6290
   758.7500      0.0000    632.5550      6.3619    143.0847
   759.0000      0.0000    626.5123      6.3153    142.4460
   759.2500      0.0000    622.5994      6.2533    142.5018
   759.5000      0.0000    621.2897      6.1908    143.6994
   759.7500      0.0000    620.7924      6.1340    145.6997
   760.0000      0.0000    619.8726      6.0835    147.0002
   760.2500      0.0000    621.1171      6.0430    145.7776
   760.5000      0.0000    629.6499      6.0192    141.6807
   760.7500      0.0000    647.7843      6.0126    136.4833
   761.0000      0.0000    672.0480      6.0139    132.8002
   761.2500      0.0000    696.0911      6.0116    132.3530
   761.5000      0.0000    715.3678      6.0026    135.1876
   761.7500      0.0000    728.6854      5.9939    140.0534
