~Version Information
VERS.                      2.0: CWLS Log ASCII Standard - VERSION 2.0
WRAP.                       NO: One line per depth step
~Well Information Block
STRT.FT                -9.2500: 
STOP.FT              1854.7500: 
STEP.FT                 0.2500: 
NULL.                -999.2500: 
COMP.          Pioneer Natural Resources: COMPANY
WELL.          State Wildlife 32-16 Tr: WELL
FLD.           Purgatoire River: FIELD
LOC.           1838' FNL & 1850' FEL--: LOCATION
STAT.                       CO: State
CNTY.               Las Animas: COUNTY
CTRY. USA : Country
SECT. 16 : Section
TOWN. 32S : Township
RANG. 66W : Range
SRVC.          Patterson Wireline: SERVICE COMPANY
DATE.          Tue Nov 22 10:17:13 2005: LOG DATE
API.           05 071 08568 00: UNIQUE WELL ID
~Curve Information Block
DEPT.FT            0 000 00 00: Depth
CCL.                          : Casing Collar Locator
TT3.usec                      : CBL 3' Travel Time
AMP3.mV                       : CBL 3' Amplitude
GR.GAPI                       : Gamma Ray
~Parameter Information Block
~A  Depth       CCL         TT3         AMP3         GR     
# ...
   225.2500      0.0000    789.7816     12.5023     50.0637
   225.5000      0.0000    792.5124     12.3090     49.0201
   225.7500      0.0000    794.3218     12.0934     48.3956
   226.0000      0.0000    795.2011     11.8849     48.7862
   226.2500      0.0000    795.4844     11.7167     50.1908
   226.5000      0.0000    795.4302     11.6037     52.1900
   226.7500      0.0000    795.0576     11.5381     54.2530
   227.0000      0.0000    794.1216     11.5017     55.9900
   227.2500      0.0000    792.1830     11.4826     57.1226
   227.5000      0.0000    788.8992     11.4830     57.2836
   227.7500      0.0000    784.4471     11.5105     56.2737
   228.0000      0.0000    779.6891     11.5589     54.6339
   228.2500      0.0000    775.8403     11.5980     53.5060
   228.5000      0.0000    773.7916     11.5944     53.6775
   228.7500      0.0000    773.3424     11.5406     54.8859
   229.0000      0.0000    772.9476     11.4539     56.0722
   229.2500      0.0000    770.7034     11.3440     56.2534
   229.5000      0.0000    765.8505     11.1893     55.2357
   229.7500      0.0000    758.8182     10.9344     53.6417
   230.0000      0.0000    749.7592     10.5087     52.4209
   230.2500      0.0000    738.2603      9.8787     52.3879
   230.5000      0.0000    725.9543      9.1137     53.8593
   230.7500      0.0000    719.8272      8.3860     56.3845
   231.0000      0.0000    731.0599      7.8745     58.8812
   231.2500      0.0000    766.6933      7.6684     60.3224
   231.5000      0.0000    819.9648      7.7510     60.3845
   231.7500      0.0000    871.8110      8.0262     59.3343
   232.0000      0.0000    906.4064      8.3561     57.3871
   232.2500      0.0000    923.8599      8.6193     54.5339
   232.5000     -2.0000    934.3813      8.7617     51.1086
   232.7500      2.0000    943.3095      8.7889     48.1694
   233.0000      0.0000    946.5057      8.7404     46.8799
   233.2500      0.0000    936.9457      8.7073     47.4782
   233.5000      0.0000    911.2613      8.8413     49.1601
   233.7500      0.0000    872.8362      9.2621     50.9925
   234.0000      0.0000    831.9182      9.9324     52.5945
   234.2500      0.0000    800.4529     10.6814     54.0866
   234.5000      0.0000    784.4507     11.3476     55.8395
   234.7500      0.0000    781.4689     11.8474     58.1875
   235.0000      0.0000    784.7963     12.1446     60.9495
   235.2500      0.0000    788.8749     12.2409     63.2999
   235.5000      0.0000    791.3343     12.1924     64.3854
   235.7500      0.0000    791.9412     12.0888     64.0068
   236.0000      0.0000    791.0577     12.0024     62.6221
   236.2500      0.0000    789.1721     11.9598     60.8013
   236.5000      0.0000    787.2168     11.9571     58.8376
   236.7500      0.0000    786.3968     11.9868     56.9841
   237.0000      0.0000    787.3033     12.0447     55.9287
   237.2500      0.0000    789.3289     12.1151     56.7555
   237.5000      0.0000    791.1580     12.1664     60.3192
   237.7500      0.0000    791.5975     12.1685     66.6839
   238.0000      0.0000    789.8594     12.1178     75.0424
   238.2500      0.0000    785.6187     12.0490     83.9765
   238.5000      0.0000    779.4722     12.0212     91.8204
   238.7500      0.0000    773.2328     12.0786     97.2314
   239.0000      0.0000    769.0804     12.2173     99.7159
   239.2500      0.0000    767.9809     12.3904     99.5583
   239.5000      0.0000    769.0703     12.5461     97.4123
   239.7500      0.0000    770.5998     12.6556     94.3028
   240.0000      0.0000    771.1862     12.7114     91.7707
   240.2500      0.0000    770.2357     12.7113     91.1388
   240.5000      0.0000    767.8687     12.6562     92.3480
   240.7500      0.0000    764.9344     12.5585     93.9433
   241.0000      0.0000    762.7569     12.4430     94.3248
   241.2500      0.0000    762.1829     12.3370     92.8091
   241.5000      0.0000    762.7279     12.2583     89.8215
   241.7500      0.0000    763.0308     12.2092     86.6011
   242.0000      0.0000    762.4161     12.1786     84.5106
   242.2500      0.0000    761.7660     12.1526     84.1720
   242.5000      0.0000    762.6179     12.1271     85.1296
   242.7500      0.0000    765.5680     12.1074     86.3401
   243.0000      0.0000    769.7067     12.0936     87.0329
   243.2500      0.0000    773.2847     12.0675     87.2972
   243.5000      0.0000    774.7536     11.9986     87.7842
   243.7500      0.0000    773.7469     11.8619     88.7783
   244.0000      0.0000    771.6992     11.6557     89.9924
   244.2500      0.0000    771.1823     11.4062     91.4496
   244.5000      0.0000    773.9106     11.1544     93.8163
   244.7500      0.0000    779.2996     10.9305     97.2256
   245.0000      0.0000    785.1415     10.7435    100.2561
   245.2500      0.0000    789.4803     10.5932    100.9075
   245.5000      0.0000    791.6190     10.4838     98.7384
   245.7500      0.0000    791.6592     10.4191     95.6294
   246.0000      0.0000    789.7128     10.3869     94.0363
   246.2500      0.0000    785.9486     10.3572     94.6156
   246.5000      0.0000    781.3915     10.3015     95.8977
   246.7500      0.0000    778.1570     10.2163     96.1379
   247.0000      0.0000    778.1636     10.1257     94.9493
   247.2500      0.0000    781.4413     10.0558     93.1378
   247.5000      0.0000    786.1011     10.0051     91.5881
   247.7500      0.0000    790.0411      9.9438     90.5732
   248.0000      0.0000    792.3747      9.8436     89.6792
   248.2500      0.0000    793.3853      9.7037     88.0720
   248.5000      0.0000    793.7156      9.5495     84.9873
   248.7500      0.0000    793.8135      9.4105     80.2679
   249.0000      0.0000    793.8168      9.3029     74.5716
   249.2500      0.0000    793.6115      9.2261     68.9954
   249.5000      0.0000    792.8951      9.1700     64.4658
   249.7500      0.0000    791.3419      9.1217     61.4154
   250.0000      0.0000    789.0135      9.0644     59.6944
   250.2500      0.0000    786.7365      8.9805     58.7122
   250.5000      0.0000    785.7635      8.8707     58.0625
   250.7500      0.0000    786.6917      8.7707     58.1601
   251.0000      0.0000    788.8649      8.7321     59.8525
   251.2500      0.0000    791.1788      8.7809     63.1213
   251.5000      0.0000    793.5413      8.9036     66.4098
   251.7500      0.0000    797.5264      9.0786     67.6344
   252.0000      0.0000    805.1936      9.3097     65.9933
   252.2500      0.0000    816.2805      9.6216     62.6695
   252.5000      0.0000    826.4783     10.0242     59.6089
   252.7500      0.0000    830.1190     10.4812     57.6702
   253.0000      0.0000    825.5773     10.9137     56.1156
   253.2500      0.0000    816.9440     11.2436     53.8734
   253.5000      0.0000    809.7276     11.4427     50.9609
   253.7500      0.0000    805.9979     11.5408     48.3732
   254.0000      0.0000    804.1299     11.5905     46.7833
   254.2500      0.0000    801.9631     11.6336     45.8641
   254.5000      0.0000    799.0659     11.6969     45.0146
   254.7500      0.0000    796.3229     11.7939     44.3707
   255.0000      0.0000    794.4889     11.9143     44.6213
   255.2500      0.0000    793.6032     12.0129     45.7911
   255.5000      0.0000    793.3390     12.0221     46.7819
   255.7500      0.0000    793.4829     11.8934     46.4975
   256.0000      0.0000    794.1499     11.6394     44.9693
   256.2500      0.0000    795.8423     11.3372     43.0289
   256.5000      0.0000    799.2034     11.0799     41.3613
   256.7500      0.0000    804.2935     10.9153     40.3433
   257.0000      0.0000    810.0526     10.8361     40.4202
   257.2500      0.0000    815.3354     10.8200     41.9473
   257.5000      0.0000    821.0961     10.8567     44.4907
   257.7500      0.0000    830.6028     10.9267     46.6111
   258.0000      0.0000    846.1222     10.9810     46.7369
   258.2500      0.0000    865.6567     10.9654     44.5055
   258.5000      0.0000    883.8163     10.8711     41.3200
