~Version Information
VERS.                      2.0: CWLS Log ASCII Standard - VERSION 2.0
WRAP.                       NO: One line per depth step
~Well Information Block
STRT.FT                -8.2500: 
STOP.FT              2119.7500: 
STEP.FT                 0.2500: 
NULL.                -999.2500: 
COMP.          Pioneer Natural Resources: COMPANY
WELL.          Hemisphere 32-24: WELL
FLD.           Purgatorie River: FIELD
LOC.           1850' FNL & 2284' FEL--: LOCATION
PROV.                       CO: PROVINCE
CNTY.               Las Animas: COUNTRY
SRVC.          Patterson Wireline: SERVICE COMPANY
DATE.          Sat Aug 27 08:06:42 2005: LOG DATE
UWI.           05 071 08440 00: UNIQUE WELL ID
~Curve Information Block
DEPT.FT            0 000 00 00: Depth
CCL.                          : Casing Collar Locator
TT3.usec                      : CBL 3' Travel Time
AMP3.mV                       : CBL 3' Amplitude
GR.GAPI                       : Gamma Ray
~Parameter Information Block
~A  Depth       CCL         TT3         AMP3         GR     
# ...
   561.2500      0.0000    676.3089     10.1021     69.7914
   561.5000      0.0000    676.7632     10.2507     68.0424
   561.7500      0.0000    677.1937     10.3881     66.9212
   562.0000      0.0000    677.6039     10.5364     66.0158
   562.2500      0.0000    678.0003     10.7102     64.8461
   562.5000      0.0000    678.3740     10.9035     63.1214
   562.7500      0.0000    678.7197     11.0853     60.7220
   563.0000      0.0000    679.0392     11.2119     57.8534
   563.2500      0.0000    679.3013     11.2515     55.2876
   563.5000      0.0000    679.4390     11.1980     54.1451
   563.7500      0.0000    679.4286     11.0608     55.1889
   564.0000      0.0000    679.3559     10.8534     58.2347
   564.2500      0.0000    679.4491     10.5995     62.1559
   564.5000      0.0000    680.2397     10.3346     65.4415
   564.7500      0.0000    682.9606     10.0896     66.9781
   565.0000      0.0000    689.7719      9.8753     66.7169
   565.2500      0.0000    702.9473      9.6862     65.6739
   565.5000      0.0000    722.8559      9.5140     64.9854
   565.7500      0.0000    746.4460      9.3534     64.8214
   566.0000      0.0000    768.4086      9.2014     64.4435
   566.2500      0.0000    784.4728      9.0581     63.3128
   566.5000      0.0000    793.6140      8.9255     61.6646
   566.7500      0.0000    797.3724      8.8062     59.8534
   567.0000      0.0000    797.7151      8.7022     57.7191
   567.2500      0.0000    795.7368      8.6145     55.0376
   567.5000      0.0000    791.8581      8.5406     52.2864
   567.7500      0.0000    786.6516      8.4776     50.4819
   568.0000      0.0000    780.9697      8.4291     50.2539
   568.2500      0.0000    774.9752      8.4129     51.4273
   568.5000      0.0000    767.2034      8.4557     53.5724
   568.7500      0.0000    755.5247      8.5702     56.4969
   569.0000      0.0000    740.7896      8.7191     59.8519
   569.2500      0.0000    730.7756      8.8005     62.6763
   569.5000      0.0000    739.1639      8.6869     63.9753
   569.7500      0.0000    776.2048      8.3121     63.6454
   570.0000      0.0000    837.5197      7.7344     62.3396
   570.2500      0.0000    903.6417      7.1099     60.6096
   570.5000      0.0000    953.6517      6.5903     58.6751
   570.7500      0.0000    979.8923      6.2407     56.7470
   571.0000     -2.0000    988.8048      6.0398     54.9994
   571.2500     -2.0000    989.2333      5.9363     53.3243
   571.5000      0.0000    982.5453      5.9043     51.5405
   571.7500      0.0000    964.0077      5.9772     49.8147
   572.0000      0.0000    930.3269      6.2454     48.5637
   572.2500      0.0000    883.5908      6.7773     47.9232
   572.5000      0.0000    830.4261      7.4933     47.5933
   572.7500      0.0000    779.9651      8.1458     47.3335
   573.0000      0.0000    740.2277      8.4950     47.4188
   573.2500      0.0000    713.8245      8.5000     48.3700
   573.5000      0.0000    697.9205      8.3099     50.2407
   573.7500      0.0000    688.3591      8.1007     52.3012
   574.0000      0.0000    682.7078      7.9599     53.4825
   574.2500      0.0000    680.0377      7.8927     53.2153
   574.5000      0.0000    679.9377      7.8735     52.0838
   574.7500      0.0000    682.1404      7.8773     51.6973
   575.0000      0.0000    685.9966      7.8871     53.4731
   575.2500      0.0000    689.8395      7.8950     57.2335
   575.5000      0.0000    691.4504      7.8993     61.2913
   575.7500      0.0000    689.9395      7.8985     64.0751
   576.0000      0.0000    687.0325      7.8865     65.4017
   576.2500      0.0000    686.1666      7.8554     66.3596
   576.5000      0.0000    690.2700      7.8005     68.4714
   576.7500      0.0000    699.8380      7.7251     72.7803
   577.0000      0.0000    712.3942      7.6403     79.0976
   577.2500      0.0000    724.3501      7.5581     86.1078
   577.5000      0.0000    734.0801      7.4831     92.7180
   577.7500      0.0000    742.6407      7.4143     99.2973
   578.0000      0.0000    751.7205      7.3568    107.2725
   578.2500      0.0000    762.3842      7.3229    117.3873
   578.5000      0.0000    774.6873      7.3168    128.4718
   578.7500      0.0000    786.0405      7.3214    137.9351
   579.0000      0.0000    791.0422      7.3046    143.3547
   579.2500      0.0000    785.4369      7.2434    143.8019
   579.5000      0.0000    769.8723      7.1435    140.2762
   579.7500      0.0000    749.3071      7.0381    135.2699
   580.0000      0.0000    730.6993      6.9658    131.3761
   580.2500      0.0000    721.6063      6.9452    129.6539
   580.5000      0.0000    727.6550      6.9691    129.2989
   580.7500      0.0000    748.3443      7.0205    128.9178
   581.0000      0.0000    775.4509      7.0885    127.8570
   581.2500      0.0000    797.0076      7.1666    126.3813
   581.5000      0.0000    803.8106      7.2421    124.9973
   581.7500      0.0000    793.2434      7.2936    123.8592
   582.0000      0.0000    769.1110      7.3020    122.7919
   582.2500      0.0000    739.3719      7.2641    121.6078
   582.5000      0.0000    712.5789      7.1938    120.2931
   582.7500      0.0000    694.0009      7.1099    119.0961
   583.0000      0.0000    684.0159      7.0227    118.5834
   583.2500      0.0000    679.8771      6.9329    119.3192
   583.5000      0.0000    678.5412      6.8428    121.1106
   583.7500      0.0000    678.1157      6.7664    122.7738
   584.0000      0.0000    677.8346      6.7266    122.9868
   584.2500      0.0000    677.5365      6.7423    121.3918
   584.5000      0.0000    677.2667      6.8149    118.8661
   584.7500      0.0000    677.0732      6.9263    116.9143
   585.0000      0.0000    676.9597      7.0480    116.6851
   585.2500      0.0000    676.8992      7.1538    118.1640
   585.5000      0.0000    676.8741      7.2270    120.2367
   585.7500      0.0000    676.8856      7.2626    121.6459
   586.0000      0.0000    676.9324      7.2638    121.8820
   586.2500      0.0000    676.9982      7.2357    121.2606
   586.5000      0.0000    677.0640      7.1828    120.4307
   586.7500      0.0000    677.1184      7.1119    119.8150
   587.0000      0.0000    677.1478      7.0340    119.2068
   587.2500      0.0000    677.1302      6.9597    117.8233
   587.5000      0.0000    677.0446      6.8939    114.9562
   587.7500      0.0000    676.8837      6.8377    110.6289
   588.0000      0.0000    676.6633      6.7966    105.5287
   588.2500      0.0000    676.4301      6.7826    100.3442
   588.5000      0.0000    676.2521      6.8051     95.3623
   588.7500      0.0000    676.1771      6.8626     90.8555
   589.0000      0.0000    676.1915      6.9447     87.5959
   589.2500      0.0000    676.2275      7.0438     86.3469
   589.5000      0.0000    676.2110      7.1608     86.7736
   589.7500      0.0000    676.0985      7.2982     87.4925
   590.0000      0.0000    675.8849      7.4495     87.6132
   590.2500      0.0000    675.5938      7.5980     87.7881
   590.5000      0.0000    675.2612      7.7260     89.4088
   590.7500      0.0000    674.9177      7.8258     93.1633
   591.0000      0.0000    674.5875      7.9035     98.5407
   591.2500      0.0000    674.2978      7.9699    104.1494
   591.5000      0.0000    674.0746      8.0302    108.2855
   591.7500      0.0000    673.9268      8.0791    109.6988
   592.0000      0.0000    673.8530      8.1068    108.0978
   592.2500      0.0000    673.9327      8.1077    103.9694
   592.5000      0.0000    674.5144      8.0857     98.2723
   592.7500      0.0000    676.4679      8.0523     92.3278
   593.0000      0.0000    681.2175      8.0205     87.4509
   593.2500      0.0000    690.0016      7.9969     84.4393
   593.5000      0.0000    702.3432      7.9784     83.4956
   593.7500      0.0000    715.0327      7.9576     84.4474
   594.0000      0.0000    723.2189      7.9305     86.7442
   594.2500      0.0000    723.3000      7.8976     89.3505
   594.5000      0.0000    715.3402      7.8546     91.1572
