~Version Information
 VERS.                                  2.0 : CWLS LAS VERSION
 WRAP.                                   NO : WRAPING MODE
 SWARE .                 MController 2.5.0J : SOFTWARE VERSION
~Well Information
 WELL.                  Lorencito 8-1-34-67 : WELL
 COMP.                              Pioneer : COMPANY
 FLD.                      Purgatoire River : FIELD
 LOC.                    1567 FNL & 500 FEL : LOCATION
 DATE.                                  N/A : DATE(S) LOGGED
 SRVC.                                  N/A : SERVICE COMPANY
 STAT.                             Colorado : STATE
 CNTY.                           Las Animas : COUNTY
 CTRY.                                 USA  : COUNTRY
 API.                           05-071-08506 : API NUMBER
 STRT.FT                             201.00 : START DEPTH
 STOP.FT                            1673.00 : STOP DEPTH
 STEP.FT                               1.00 : DEPTH INCREMENT
 NULL.                                -9999 : NULL VALUE
~Curve information
 DEPTH.FT                                   :
 ROP.MIN/FT                                 :
 GAS.UNITS                                  :
~ASCII Log data
# ...
       401.0         0.27         36.0 
       402.0         0.23         35.9 
       403.0         0.23         35.8 
       404.0         0.23         35.0 
       405.0         0.23         34.2 
       406.0         0.20         34.9 
       407.0         0.23         34.9 
       408.0         0.20         34.0 
       409.0         0.20         34.1 
       410.0         0.40         33.8 
       411.0         2.98         33.6 
       412.0         0.37         80.3 
       413.0         0.27        145.9 
       414.0         0.13        141.2 
       415.0         0.10        128.2 
       416.0         0.12        113.9 
       417.0         0.17        101.4 
       418.0         0.10         86.9 
       419.0         0.10         80.7 
       420.0         0.17         75.3 
       421.0         0.23         66.7 
       422.0         0.23         55.7 
       423.0         0.20         50.6 
       424.0         0.17         47.3 
       425.0         0.17         45.4 
       426.0         0.17         43.1 
       427.0         0.13         41.5 
       428.0         0.10         40.6 
       429.0         0.17         38.7 
       430.0         0.13         37.1 
       431.0         0.13         35.9 
       432.0         0.13         34.5 
       433.0         0.20         34.3 
       434.0         0.20         33.1 
       435.0         0.20         32.1 
       436.0         0.18         31.8 
       437.0         0.23         31.2 
       438.0         0.20         31.0 
       439.0         0.17         31.0 
       440.0         0.10         30.1 
       441.0         4.22         30.8 
       442.0         0.53        145.8 
       443.0         0.40        142.8 
       444.0         0.27         85.9 
       445.0         0.30         64.9 
       446.0         0.22         49.4 
       447.0         0.27         44.2 
       448.0         0.17         38.4 
       449.0         0.13         36.9 
       450.0         0.17         35.7 
       451.0         0.20         34.2 
       452.0         0.50         32.6 
       453.0         0.37         29.8 
       454.0         0.30         29.2 
       455.0         0.30         27.4 
       456.0         0.27         31.5 
       457.0         0.27         34.9 
       458.0         0.23         35.5 
       459.0         0.28         35.1 
       460.0         0.27         33.6 
       461.0         0.23         31.7 
       462.0         0.23         30.3 
       463.0         0.23         29.0 
       464.0         0.20         28.1 
       465.0         0.20         27.9 
       466.0         0.23         27.2 
       467.0         0.23         26.9 
       468.0         0.27         26.7 
       469.0         0.23         26.4 
       470.0         0.23         26.4 
       471.0         3.70         26.2 
       472.0         0.30         66.3 
       473.0         0.27        105.6 
       474.0         0.30        104.2 
       475.0         0.33         72.9 
       476.0         0.27         54.7 
       477.0         0.20         48.0 
       478.0         0.20         44.2 
       479.0         0.25         42.9 
       480.0         0.27         40.5 
       481.0         0.27         35.3 
       482.0         0.27         31.5 
       483.0         0.23         28.2 
       484.0         0.27         26.5 
       485.0         0.27         24.9 
       486.0         0.20         24.3 
       487.0         0.13         23.9 
       488.0         0.15         23.2 
       489.0         0.13         23.7 
       490.0         0.23         23.7 
       491.0         0.23         23.3 
       492.0         0.23         24.1 
       493.0         0.23         28.7 
       494.0         0.20         33.5 
       495.0         0.17         35.7 
       496.0         0.13         36.4 
       497.0         0.17         37.1 
       498.0         0.23         37.5 
       499.0         0.28         37.0 
       500.0         0.20         35.9 
       501.0         3.92         78.4 
       502.0         0.27        145.8 
       503.0         0.30        142.9 
       504.0         0.33        106.7 
       505.0         0.33         67.1 
       506.0         0.37         56.7 
       507.0         0.42         52.7 
       508.0         0.33         45.3 
       509.0         0.37         39.3 
       510.0         0.37         35.0 
       511.0         0.33         31.0 
       512.0         0.37         29.8 
       513.0         0.33         28.5 
       514.0         0.30         28.7 
       515.0         0.23         28.6 
       516.0         0.35         28.9 
       517.0         0.37         28.2 
       518.0         0.33         28.4 
       519.0         0.30         27.9 
       520.0         0.40         27.4 
       521.0         0.37         27.6 
       522.0         0.33         27.6 
       523.0         0.27         27.9 
       524.0         0.33         27.5 
       525.0         0.25         27.2 
       526.0         0.27         27.2 
       527.0         0.20         26.3 
       528.0         0.20         26.6 
       529.0         0.23         26.5 
       530.0         0.23         26.5 
       531.0         3.45         27.6 
       532.0         0.30          6.2 
       533.0         0.33        107.8 
       534.0         0.27        114.1 
       535.0         0.33         99.2 
       536.0         0.40         72.1 
       537.0         0.20         52.6 
       538.0         0.15         46.8 
       539.0         0.17         44.8 
       540.0         0.13         40.6 
       541.0         0.17         38.2 
       542.0         0.17         35.7 
       543.0         0.23         32.8 
       544.0         0.23         30.9 
       545.0         0.13         30.3 
       546.0         0.27         30.7 
       547.0         0.27         29.7 
       548.0         0.23         29.0 
       549.0         0.20         28.2 
       550.0         0.10         27.7 
       551.0         0.13         27.1 
       552.0         0.13         26.7 
       553.0         0.17         26.9 
       554.0         0.23         26.8 
       555.0         0.42         27.1 
       556.0         0.40         32.5 
       557.0         0.27         32.5 
       558.0         0.23         30.8 
       559.0         0.23         27.8 
       560.0         0.27         26.7 
       561.0        11.63         27.7 
       562.0         0.23        388.0 
       563.0         0.10       1071.6 
       564.0         0.20       1051.0 
       565.0         0.27        859.9 
       566.0         0.27        521.9 
       567.0         0.20        440.0 
       568.0         0.10        149.0 
       569.0         0.30        119.1 
       570.0         0.23         78.1 
       571.0         0.22         60.7 
       572.0         0.30         50.9 
       573.0         0.23         44.9 
       574.0         0.20         42.0 
       575.0         0.23         39.0 
       576.0         0.23         37.0 
       577.0         0.20         34.3 
       578.0         0.17         33.5 
       579.0         0.20         31.6 
       580.0         0.23         30.9 
       581.0         0.22         29.6 
       582.0         0.17         28.9 
       583.0         0.17         28.6 
       584.0         0.17         28.3 
       585.0         0.17         28.2 
       586.0         0.13         28.1 
       587.0         0.20         28.0 
       588.0         0.17         27.6 
       589.0         0.20         26.6 
       590.0         0.20         26.0 
       591.0         6.30        171.7 
       592.0         0.63        104.1 
       593.0         0.45         44.4 
       594.0         0.43         38.4 
       595.0         0.60         31.1 
       596.0         0.67         38.6 
       597.0         0.60         39.3 
       598.0         0.78         29.9 
       599.0         0.43         26.3 
       600.0         0.43         23.5 
