~Version Information
VERS.                      2.0: CWLS Log ASCII Standard - VERSION 2.0
WRAP.                       NO: One line per depth step
~Well Information Block
STRT.FT                -8.7500: 
STOP.FT              1525.0000: 
STEP.FT                 0.2500: 
NULL.                -999.2500: 
COMP.          Pioneer Natural Resources: COMPANY
WELL.          Grand Prix 13-12 Tr: WELL
FLD.           Purgatorie River: FIELD
LOC.           2595' FSL & 1277' FWL--: LOCATION
CNTY.               Las Animas: COUNTY
SRVC.          Patterson Wireline: SERVICE COMPANY
DATE.          Thu Apr 13 10:28:30 2006: LOG DATE
UWI.           05 071 08711 00: UNIQUE WELL ID
STAT.                       CO: STATE
~Curve Information Block
DEPT.FT            0 000 00 00: Depth
CCL.                          : Casing Collar Locator
TT3.usec                      : CBL 3' Travel Time
AMP3.mV                       : CBL 3' Amplitude
GR.GAPI                       : Gamma Ray
~Parameter Information Block
~A  Depth       CCL         TT3         AMP3         GR     
# ...
   594.2500      0.0000    768.8104      4.1485    131.9778
   594.5000      0.0000    764.6916      4.1327    135.2104
   594.7500      0.0000    758.7441      4.1709    139.7585
   595.0000      0.0000    749.5311      4.2980    144.7513
   595.2500      0.0000    736.2672      4.5048    147.9242
   595.5000      0.0000    720.6110      4.7292    147.2422
   595.7500      0.0000    706.1931      4.9003    142.7783
   596.0000      0.0000    696.0325      4.9954    137.1505
   596.2500      0.0000    690.7045      5.0425    133.8706
   596.5000      0.0000    688.8530      5.0729    134.4903
   596.7500      0.0000    688.7255      5.0913    137.0087
   597.0000      0.0000    689.0768      5.0901    137.5326
   597.2500      0.0000    689.3035      5.0743    133.8249
   597.5000      0.0000    689.2782      5.0614    127.1156
   597.7500      0.0000    689.1415      5.0662    120.7241
   598.0000      0.0000    689.1653      5.0902    117.4917
   598.2500      0.0000    689.7372      5.1259    118.4351
   598.5000      0.0000    691.2512      5.1651    123.0193
   598.7500      0.0000    693.6835      5.2028    129.9914
   599.0000      0.0000    696.1676      5.2360    137.9272
   599.2500      0.0000    697.3517      5.2574    145.3872
   599.5000      0.0000    696.5630      5.2548    150.9879
   599.7500      0.0000    694.4847      5.2235    153.7367
   600.0000      0.0000    692.4491      5.1790    153.6247
   600.2500      0.0000    691.2562      5.1510    151.8425
   600.5000      0.0000    690.8301      5.1613    150.1525
   600.7500      0.0000    690.7365      5.2060    149.7392
   601.0000      0.0000    690.7735      5.2571    150.5250
   601.2500      0.0000    691.2186      5.2775    151.5463
   601.5000      0.0000    692.7325      5.2373    151.6836
   601.7500      0.0000    696.0172      5.1254    149.8060
   602.0000      0.0000    701.6560      4.9538    144.8291
   602.2500      0.0000    710.5381      4.7506    136.6186
   602.5000      0.0000    724.0004      4.5455    126.9221
   602.7500      0.0000    742.2819      4.3595    118.5030
   603.0000      0.0000    762.3605      4.2060    112.7960
   603.2500      0.0000    778.3469      4.0939    108.7343
   603.5000      0.0000    784.8678      4.0259    104.2101
   603.7500      0.0000    780.1022      3.9957     98.3615
   604.0000      0.0000    766.0950      3.9909     92.3942
   604.2500      0.0000    747.1603      4.0000     88.8514
   604.5000      0.0000    728.0316      4.0184     90.3010
   604.7500      0.0000    712.5428      4.0478     97.8580
   605.0000      0.0000    702.8080      4.0939    110.2243
   605.2500      0.0000    698.7248      4.1663    124.4339
   605.5000      0.0000    698.1194      4.2785    137.9720
   605.7500      0.0000    698.0320      4.4416    150.0103
   606.0000      0.0000    696.6020      4.6498    160.4173
   606.2500      0.0000    693.9388      4.8670    168.1308
   606.5000      0.0000    691.2963      5.0386    171.1476
   606.7500      0.0000    689.7813      5.1234    168.1400
   607.0000      0.0000    689.9644      5.1176    160.0325
   607.2500      0.0000    692.2007      5.0507    150.0718
   607.5000      0.0000    696.6343      4.9622    141.9714
   607.7500      0.0000    702.7241      4.8802    137.3914
   608.0000      0.0000    709.2659      4.8105    135.0797
   608.2500      0.0000    715.4102      4.7432    132.5726
   608.5000      0.0000    721.3143      4.6709    128.8200
   608.7500      0.0000    727.0313      4.5988    125.2138
   609.0000      0.0000    731.0187      4.5415    124.1229
   609.2500      0.0000    731.0077      4.5165    126.7066
   609.5000      0.0000    726.8568      4.5410    132.3761
   609.7500      0.0000    721.6802      4.6212    139.8504
   610.0000      0.0000    719.3088      4.7434    147.8287
   610.2500      0.0000    720.8964      4.8815    154.9386
   610.5000      0.0000    724.4460      5.0163    160.2881
   610.7500      0.0000    727.0681      5.1391    164.2941
   611.0000      0.0000    726.9880      5.2398    168.1166
   611.2500      0.0000    723.9509      5.3032    172.2256
   611.5000      0.0000    718.8761      5.3206    176.3290
   611.7500      0.0000    713.2975      5.3002    180.4531
   612.0000      0.0000    708.3666      5.2630    184.9504
   612.2500      0.0000    704.1431      5.2320    189.4981
   612.5000      0.0000    700.1439      5.2196    193.0734
   612.7500      0.0000    696.4760      5.2171    194.8455
   613.0000      0.0000    694.0873      5.2014    194.5205
   613.2500      0.0000    694.2074      5.1550    192.2467
   613.5000      0.0000    697.6677      5.0809    188.7033
   613.7500      0.0000    703.9755      4.9987    184.8881
   614.0000      0.0000    710.4872      4.9287    181.4504
   614.2500      0.0000    713.4769      4.8840    178.2956
   614.5000      0.0000    711.3318      4.8716    174.7102
   614.7500      0.0000    706.5514      4.8917    169.7507
   615.0000      0.0000    703.8434      4.9347    162.9070
   615.2500      0.0000    706.2698      4.9842    154.8401
   615.5000      0.0000    713.3016      5.0268    147.3218
   615.7500      0.0000    722.2371      5.0565    142.1119
   616.0000      0.0000    731.1896      5.0749    139.8846
   616.2500      0.0000    740.1436      5.0940    140.2270
   616.5000      0.0000    748.9250      5.1405    142.3595
   616.7500      0.0000    755.3448      5.2435    145.7413
   617.0000      0.0000    756.3277      5.4048    150.2655
   617.2500      0.0000    750.2520      5.5834    155.9689
   617.5000      0.0000    737.9160      5.7167    162.1773
   617.7500      0.0000    722.2957      5.7614    166.8884
   618.0000      0.0000    707.4578      5.7177    167.7701
   618.2500      0.0000    696.5497      5.6206    164.3153
   618.5000      0.0000    690.3088      5.5133    158.6943
   618.7500      0.0000    687.5280      5.4261    154.1867
   619.0000      0.0000    686.5796      5.3733    152.8682
   619.2500      0.0000    686.3677      5.3578    154.6361
   619.5000      0.0000    686.3798      5.3709    157.7540
   619.7500      0.0000    686.3448      5.3894    160.0211
   620.0000      0.0000    685.8959      5.3847    159.8430
   620.2500      0.0000    684.3574      5.3409    156.7171
   620.5000      0.0000    680.8145      5.2647    151.0253
   620.7500      0.0000    674.6800      5.1777    143.6803
   621.0000      0.0000    666.7192      5.1018    135.9314
   621.2500      0.0000    659.5654      5.0491    129.0895
   621.5000      0.0000    656.5176      5.0218    124.2019
   621.7500      0.0000    659.1334      5.0156    122.0461
   622.0000      0.0000    665.8572      5.0225    123.2180
   622.2500      0.0000    672.9780      5.0315    127.6210
   622.5000      0.0000    676.3904      5.0310    133.6370
   622.7500      0.0000    672.2554      5.0165    138.4398
   623.0000      0.0000    657.4380      4.9939    139.9668
   623.2500      0.0000    631.7051      4.9703    138.6882
   623.5000      0.0000    600.0875      4.9446    137.1605
   623.7500      0.0000    571.3332      4.9105    137.8260
   624.0000      0.0000    552.6498      4.8674    141.1669
   624.2500      0.0000    545.9397      4.8231    145.5836
   624.5000      0.0000    548.4865      4.7861    148.8318
   624.7500      0.0000    555.9216      4.7596    149.7689
   625.0000      0.0000    564.5267      4.7417    148.9987
   625.2500      0.0000    572.0101      4.7292    147.9960
   625.5000      0.0000    577.2187      4.7179    147.8007
   625.7500      0.0000    579.8195      4.7031    148.5217
   626.0000      0.0000    580.4398      4.6800    149.4563
   626.2500      0.0000    580.5259      4.6463    149.1656
   626.5000      0.0000    581.4521      4.6066    145.9930
   626.7500      0.0000    584.2312      4.5727    139.4888
   627.0000      0.0000    590.4510      4.5586    131.4497
   627.2500      0.0000    602.3594      4.5715    125.0010
   627.5000      0.0000    620.5215      4.6089    122.4277
