~Version Information
VERS.                      2.0: CWLS Log ASCII Standard - VERSION 2.0
WRAP.                       NO: One line per depth step
~Well Information Block
STRT.FT                -9.0000: 
STOP.FT              1754.0000: 
STEP.FT                 0.2500: 
NULL.                -999.2500: 
COMP.          Pioneer Natural Resources: COMPANY
WELL.          Touchstone 11-32 Tr: WELL
FLD.           Purgatorie River: FIELD
LOC.           782' FNL & 840' FWL--: LOCATION
CNTY.               Las Animas: COUNTY
SRVC.          Patterson Wireline: SERVICE COMPANY
DATE.          Mon Mar 06 09:18:09 2006: LOG DATE
UWI.           05 071 08626 00: UNIQUE WELL ID
STAT.                       CO: STATE
~Curve Information Block
DEPT.FT            0 000 00 00: Depth
CCL.                          : Casing Collar Locator
TT3.usec                      : CBL 3' Travel Time
AMP3.mV                       : CBL 3' Amplitude
GR.GAPI                       : Gamma Ray
~Parameter Information Block
~A  Depth       CCL         TT3         AMP3         GR     
# ...
   560.5000      0.0000    822.7032      7.4229     74.3086
   560.7500      0.0000    819.2833      7.4628     71.6298
   561.0000      0.0000    811.0894      7.5147     69.3213
   561.2500      0.0000    795.7802      7.5683     69.0692
   561.5000      0.0000    773.5341      7.6173     71.7529
   561.7500      0.0000    748.5550      7.6618     77.1675
   562.0000      0.0000    727.4270      7.7026     84.3740
   562.2500      0.0000    715.6083      7.7340     92.1729
   562.5000      0.0000    715.4695      7.7433     99.4500
   562.7500      0.0000    726.3469      7.7198    105.3681
   563.0000      0.0000    744.4647      7.6656    109.5055
   563.2500      0.0000    763.0591      7.5965    111.8360
   563.5000      0.0000    775.1815      7.5322    112.4764
   563.7500      0.0000    778.1656      7.4834    111.4811
   564.0000      0.0000    775.0995      7.4486    108.9713
   564.2500      0.0000    771.5414      7.4212    105.3055
   564.5000      0.0000    771.0638      7.3971    101.0442
   564.7500      0.0000    773.6389      7.3760     96.7712
   565.0000      0.0000    777.1980      7.3593     92.8027
   565.2500      0.0000    779.9473      7.3482     88.8176
   565.5000      0.0000    781.3757      7.3423     83.9566
   565.7500      0.0000    781.8596      7.3368     77.6623
   566.0000      0.0000    781.8973      7.3239     70.5359
   566.2500      0.0000    781.7064      7.2983     64.2640
   566.5000      0.0000    781.1595      7.2610     60.5042
   566.7500      0.0000    779.9612      7.2165     59.5938
   567.0000      0.0000    778.1053      7.1695     60.4106
   567.2500      0.0000    776.3173      7.1218     61.6879
   567.5000      0.0000    775.7659      7.0722     63.2179
   567.7500      0.0000    777.0197      7.0185     65.4401
   568.0000      0.0000    779.4359      6.9627     68.3020
   568.2500      0.0000    781.8409      6.9123     71.0365
   568.5000      0.0000    783.6920      6.8769     72.7453
   568.7500      0.0000    785.5142      6.8614     72.8576
   569.0000      0.0000    788.5128      6.8620     71.4647
   569.2500      0.0000    793.8726      6.8695     69.4331
   569.5000      0.0000    802.1023      6.8756     67.8098
   569.7500      0.0000    812.7697      6.8786     66.8969
   570.0000      0.0000    824.7988      6.8821     65.9837
   570.2500      0.0000    836.8612      6.8887     63.9902
   570.5000      0.0000    847.4073      6.8966     60.5096
   570.7500      0.0000    854.7260      6.9015     56.4731
   571.0000      0.0000    857.4368      6.8985     53.7187
   571.2500      0.0000    855.1313      6.8851     53.6721
   571.5000      0.0000    848.7557      6.8640     56.3880
   571.7500      0.0000    840.4686      6.8438     60.7279
   572.0000      0.0000    832.7492      6.8379     65.1909
   572.2500      0.0000    827.1895      6.8606     68.5111
   572.5000      0.0000    823.9974      6.9248     69.8365
   572.7500      0.0000    822.5200      7.0364     69.0183
   573.0000      0.0000    822.0161      7.1883     67.1409
   573.2500      0.0000    821.9886      7.3605     66.2336
   573.5000      0.0000    822.0979      7.5287     67.6765
   573.7500      0.0000    821.9677      7.6768     70.8310
   574.0000      0.0000    821.0374      7.8016     73.6277
   574.2500      0.0000    818.6162      7.9093     74.5371
   574.5000      0.0000    814.4009      8.0082     73.8577
   574.7500      0.0000    809.4400      8.0998     73.2501
   575.0000      0.0000    806.5705      8.1716     74.1731
   575.2500      0.0000    808.9931      8.2018     76.5804
   575.5000      0.0000    817.3838      8.1734     78.9257
   575.7500      0.0000    828.3555      8.0868     79.5851
   576.0000      0.0000    836.5378      7.9563     78.5458
   576.2500      0.0000    838.6647      7.7981     77.4903
   576.5000      0.0000    835.6574      7.6266     77.9950
   576.7500      0.0000    831.0754      7.4594     79.9324
   577.0000      0.0000    828.2399      7.3173     81.8601
   577.2500      0.0000    828.8153      7.2135     82.4986
   577.5000      0.0000    833.0017      7.1465     81.5743
   577.7500      0.0000    839.8873      7.1057     79.7548
   578.0000      0.0000    847.5308      7.0823     78.1985
   578.2500      0.0000    853.5157      7.0713     77.8366
   578.5000      0.0000    856.0579      7.0672     78.6284
   578.7500      0.0000    854.7631      7.0641     79.5034
   579.0000      0.0000    850.2769      7.0590     79.1911
   579.2500      0.0000    843.1356      7.0530     77.1992
   579.5000      0.0000    833.1398      7.0504     74.1333
   579.7500      0.0000    820.4680      7.0572     71.3220
   580.0000      0.0000    807.3550      7.0764     70.0992
   580.2500      0.0000    797.3293      7.1039     70.9162
   580.5000      0.0000    791.8784      7.1267     72.7650
   580.7500      0.0000    788.5787      7.1319     73.6873
   581.0000      0.0000    783.5640      7.1167     72.2657
   581.2500      0.0000    776.1959      7.0921     68.6566
   581.5000      0.0000    771.2064      7.0755     64.1488
   581.7500      0.0000    775.7840      7.0706     59.9872
   582.0000      0.0000    793.2178      7.0496     56.8605
   582.2500      0.0000    818.3081      6.9707     55.2111
   582.5000      0.0000    839.3898      6.8347     55.4518
   582.7500      0.0000    846.4244      6.7078     57.6827
   583.0000      0.0000    838.5461      6.6661     61.3578
   583.2500      0.0000    824.2922      6.7283     65.4120
   583.5000      2.0000    814.3207      6.8629     68.7009
   583.7500      0.0000    813.2095      7.0433     70.4781
   584.0000      0.0000    816.0799      7.2897     70.7579
   584.2500      0.0000    811.4702      7.6538     70.3288
   584.5000      0.0000    790.3242      8.1389     70.1278
   584.7500      0.0000    756.6023      8.6199     70.3634
   585.0000      0.0000    727.3260      8.9016     70.3659
   585.2500      0.0000    717.6151      8.9085     69.4602
   585.5000      0.0000    727.0867      8.7679     67.7296
   585.7500      0.0000    743.6025      8.6614     65.6038
   586.0000      0.0000    756.5031      8.6535     63.0046
   586.2500      0.0000    762.8236      8.6946     59.6029
   586.5000      0.0000    764.1642      8.7253     55.9683
   586.7500      0.0000    762.2660      8.7347     53.7869
   587.0000      0.0000    757.8781      8.7470     54.6189
   587.2500      0.0000    751.9340      8.7868     58.7374
   587.5000      0.0000    746.5401      8.8563     65.1722
   587.7500      0.0000    744.2229      8.9323     72.4474
   588.0000      0.0000    745.8321      8.9845     79.0800
   588.2500      0.0000    749.2935      9.0003     83.9222
   588.5000      0.0000    750.6160      8.9928     86.8022
   588.7500      0.0000    746.5519      8.9845     88.8871
   589.0000      0.0000    736.9913      8.9794     91.8152
   589.2500      0.0000    725.3870      8.9517     96.1661
   589.5000      0.0000    716.6175      8.8618    100.7624
   589.7500      0.0000    713.5358      8.6866    103.4626
   590.0000      0.0000    714.8987      8.4336    102.8094
   590.2500      0.0000    716.6141      8.1296     99.2312
   590.5000      0.0000    715.3699      7.8011     94.7787
   590.7500      0.0000    711.2967      7.4711     91.7344
   591.0000      0.0000    707.3635      7.1629     91.2644
   591.2500      0.0000    706.6741      6.8951     92.8622
   591.5000      0.0000    710.2703      6.6757     94.7043
   591.7500      0.0000    716.5590      6.5057     94.7416
   592.0000      0.0000    722.3874      6.3862     91.8591
   592.2500      0.0000    725.3674      6.3174     86.3887
   592.5000      0.0000    725.7053      6.2918     79.8649
   592.7500      0.0000    725.5713      6.2954     74.2218
   593.0000      0.0000    726.5725      6.3143     70.8043
   593.2500      0.0000    728.0180      6.3401     69.7734
   593.5000      0.0000    727.5627      6.3725     70.1910
   593.7500      0.0000    723.4424      6.4202     70.6325
