~Version Information
VERS.                      2.0: CWLS Log ASCII Standard - VERSION 2.0
WRAP.                       NO: One line per depth step
~Well Information Block
STRT.FT               525.0000: 
STOP.FT              2377.2500: 
STEP.FT                 0.2500: 
NULL.                -999.2500: 
COMP.          Pioneer Natural Resources: COMPANY
WELL.          Sparrowhawk 22-12: WELL
FLD.           Purgatoire River: FIELD
LOC.           2049' FNL & 2060' FWL--: LOCATION
CNTY.               Las Animas: COUNTY
SRVC.                Patterson: SERVICE COMPANY
DATE.          Thu Mar 23 10:52:44 2006: LOG DATE
UWI.           05 071 08484 00: UNIQUE WELL ID
STAT.                 Colorado: STATE
~Curve Information Block
DEPT.FT            0 000 00 00: Depth
SN.Ohm-m                      : IEL Short Normal
SP.mV                         : IEL Spontaneous Potential
DIR.Ohm-m                     : IEL Induction Resistivity
GR.GAPI                       : Gamma Ray
~Parameter Information Block
~A  Depth        SN          SP         DIR          GR     
# ...
   759.5000   2000.0000   1979.0000     37.5961     77.3196
   759.7500   2000.0000   1979.0000     38.4516     78.5986
   760.0000   2000.0000   1979.0000     39.2332     80.9280
   760.2500   2000.0000   1979.0000     39.9346     82.1875
   760.5000   2000.0000   1979.0000     40.5256     83.6886
   760.7500   2000.0000   1979.0000     40.9678     84.8016
   761.0000   2000.0000   1979.0000     41.2449     86.9434
   761.2500   2000.0000   1979.0000     41.3725     88.5125
   761.5000   2000.0000   1979.0000     41.3809     90.7257
   761.7500   2000.0000   1979.0000     41.2909     92.1502
   762.0000   2000.0000   1979.0000     41.1108     94.4875
   762.2500   2000.0000   1979.0000     40.8535     96.1809
   762.5000   2000.0000   1979.0000     40.5459     98.6749
   762.7500   2000.0000   1979.0000     40.2161    100.2388
   763.0000   2000.0000   1979.0000     39.8835    102.4544
   763.2500   2000.0000   1979.0000     39.5706    103.7226
   763.5000   2000.0000   1979.0000     39.3264    104.9514
   763.7500   2000.0000   1979.0000     39.2301    105.3343
   764.0000   2000.0000   1979.0000     39.3603    105.6746
   764.2500   2000.0000   1979.0000     39.7584    105.7791
   764.5000   2000.0000   1979.0000     40.4171    104.9940
   764.7500   2000.0000   1979.0000     41.3005    103.3219
   765.0000   2000.0000   1979.0000     42.3754     99.0284
   765.2500   2000.0000   1979.0000     43.6270     95.4036
   765.5000   2000.0000   1979.0000     45.0509     89.5118
   765.7500   2000.0000   1979.0000     46.6392     85.4076
   766.0000   2000.0000   1979.0000     48.3742     79.0445
   766.2500   2000.0000   1979.0000     50.2317     74.8395
   766.5000   2000.0000   1979.0000     52.1820     69.1394
   766.7500   2000.0000   1979.0000     54.1823     66.0652
   767.0000   2000.0000   1979.0000     56.1678     62.8516
   767.2500   2000.0000   1979.0000     58.0519     61.6397
   767.5000   2000.0000   1979.0000     59.7479     60.9015
   767.7500   2000.0000   1979.0000     61.2046     60.8100
   768.0000   2000.0000   1979.0000     62.4272     60.7564
   768.2500   2000.0000   1979.0000     63.4490     60.6535
   768.5000   2000.0000   1979.0000     64.2623     60.3818
   768.7500   2000.0000   1979.0000     64.7705     59.9816
   769.0000   2000.0000   1979.0000     64.8274     58.6295
   769.2500   2000.0000   1979.0000     64.3676     57.2423
   769.5000   2000.0000   1979.0000     63.5130     55.3098
   769.7500   2000.0000   1979.0000     62.5423     54.8359
   770.0000   2000.0000   1979.0000     61.7391     55.9394
   770.2500   2000.0000   1979.0000     61.2455     57.6024
   770.5000   2000.0000   1979.0000     61.0116     60.3672
   770.7500   2000.0000   1979.0000     60.8452     61.8688
   771.0000   2000.0000   1979.0000     60.5215     63.4657
   771.2500   2000.0000   1979.0000     59.8938     64.2408
   771.5000   2000.0000   1979.0000     58.9328     64.9639
   771.7500   2000.0000   1979.0000     57.6749     64.9979
   772.0000   2000.0000   1979.0000     56.1279     64.4262
   772.2500   2000.0000   1979.0000     54.2255     63.9830
   772.5000   2000.0000   1979.0000     51.8814     64.0896
   772.7500   2000.0000   1979.0000     49.0974     65.1440
   773.0000   2000.0000   1979.0000     46.0202     68.6592
   773.2500   2000.0000   1979.0000     42.8845     72.1491
   773.5000   2000.0000   1979.0000     39.9058     78.0992
   773.7500   2000.0000   1979.0000     37.2175     81.9043
   774.0000   2000.0000   1979.0000     34.8757     87.0433
   774.2500   2000.0000   1979.0000     32.8968     90.2773
   774.5000   2000.0000   1979.0000     31.2843     94.7511
   774.7500   2000.0000   1979.0000     30.0379     96.9122
   775.0000   2000.0000   1979.0000     29.1492     97.8587
   775.2500   2000.0000   1979.0000     28.5967     96.8590
   775.5000   2000.0000   1979.0000     28.3433     93.5789
   775.7500   2000.0000   1979.0000     28.3369     90.7047
   776.0000   2000.0000   1979.0000     28.5116     86.2624
   776.2500   2000.0000   1979.0000     28.7886     83.8382
   776.5000   2000.0000   1979.0000     29.0732     81.9176
   776.7500   2000.0000   1979.0000     29.2530     81.9882
   777.0000   2000.0000   1979.0000     29.2090     83.9737
   777.2500   2000.0000   1979.0000     28.8492     86.2738
   777.5000   2000.0000   1979.0000     28.1505     90.5327
   777.7500   2000.0000   1979.0000     27.1747     93.6539
   778.0000   2000.0000   1979.0000     26.0402     98.8713
   778.2500   2000.0000   1979.0000     24.8699    102.8286
   778.5000   2000.0000   1979.0000     23.7515    109.0211
   778.7500   2000.0000   1979.0000     22.7272    112.7042
   779.0000   2000.0000   1979.0000     21.8054    116.8251
   779.2500   2000.0000   1979.0000     20.9816    118.6668
   779.5000   2000.0000   1979.0000     20.2534    120.3639
   779.7500   2000.0000   1979.0000     19.6262    120.6159
   780.0000   2000.0000   1979.0000     19.1109    118.8564
   780.2500   2000.0000   1979.0000     18.7187    116.1146
   780.5000   2000.0000   1979.0000     18.4595    110.9636
   780.7500   2000.0000   1979.0000     18.3399    108.2582
   781.0000   2000.0000   1979.0000     18.3595    107.2720
   781.2500   2000.0000   1979.0000     18.5040    108.9035
   781.5000   2000.0000   1979.0000     18.7367    113.5614
   781.7500   2000.0000   1979.0000     18.9934    116.9097
   782.0000   2000.0000   1979.0000     19.1905    120.4372
   782.2500   2000.0000   1979.0000     19.2488    121.3259
   782.5000   2000.0000   1979.0000     19.1264    120.8954
   782.7500   2000.0000   1979.0000     18.8380    120.1955
   783.0000   2000.0000   1979.0000     18.4446    120.1831
   783.2500   2000.0000   1979.0000     18.0201    121.6932
   783.5000   2000.0000   1979.0000     17.6200    126.6730
   783.7500   2000.0000   1979.0000     17.2677    131.3078
   784.0000   2000.0000   1979.0000     16.9595    138.5975
   784.2500   2000.0000   1979.0000     16.6817    142.7601
   784.5000   2000.0000   1979.0000     16.4267    146.7927
   784.7500   2000.0000   1979.0000     16.2002    147.4250
   785.0000   2000.0000   1979.0000     16.0177    144.5952
   785.2500   2000.0000   1979.0000     15.8966    140.3989
   785.5000   2000.0000   1979.0000     15.8504    132.3488
   785.7500   2000.0000   1979.0000     15.8873    127.1193
   786.0000   2000.0000   1979.0000     16.0084    121.1476
   786.2500   2000.0000   1979.0000     16.2049    118.7551
   786.5000   2000.0000   1979.0000     16.4571    116.7624
   786.7500   2000.0000   1979.0000     16.7393    115.3610
   787.0000   2000.0000   1979.0000     17.0318    111.4262
   787.2500   2000.0000   1979.0000     17.3330    107.4986
   787.5000   2000.0000   1979.0000     17.6613    100.9266
   787.7500   2000.0000   1979.0000     18.0479     96.8796
   788.0000   2000.0000   1979.0000     18.5268     91.7681
   788.2500   2000.0000   1979.0000     19.1290     88.7967
   788.5000   2000.0000   1979.0000     19.8811     84.4909
   788.7500   2000.0000   1979.0000     20.8021     81.6660
   789.0000   2000.0000   1979.0000     21.8975     77.8243
   789.2500   2000.0000   1979.0000     23.1547     75.7168
   789.5000   2000.0000   1979.0000     24.5447     73.2735
   789.7500   2000.0000   1979.0000     26.0275     72.0350
   790.0000   2000.0000   1979.0000     27.5536     70.5724
   790.2500   2000.0000   1979.0000     29.0581     69.8142
   790.5000   2000.0000   1979.0000     30.4546     69.2975
   790.7500   2000.0000   1979.0000     31.6418     69.7728
   791.0000   2000.0000   1979.0000     32.5215     72.5248
   791.2500   2000.0000   1979.0000     33.0232     76.0424
   791.5000   2000.0000   1979.0000     33.1278     83.6830
   791.7500   2000.0000   1979.0000     32.8856     89.6973
   792.0000   2000.0000   1979.0000     32.4145     98.4102
   792.2500   2000.0000   1979.0000     31.8712    103.1709
   792.5000   2000.0000   1979.0000     31.4060    108.0275
   792.7500   2000.0000   1979.0000     31.1259    109.6709
