~Version Information
VERS.                      2.0: CWLS Log ASCII Standard - VERSION 2.0
WRAP.                       NO: One line per depth step
~Well Information Block
STRT.FT               795.0000: 
STOP.FT              2279.7500: 
STEP.FT                 0.2500: 
NULL.                -999.2500: 
COMP.          Pioneer Natural Resources: COMPANY
WELL.            Wildcard 31-5: WELL
FLD.           Purgatoire River: FIELD
LOC.           624' FNL & 1852' FEL--: LOCATION
CNTY.               Las Animas: COUNTY
SRVC.                Patterson: SERVICE COMPANY
DATE.          Tue Mar 07 07:02:36 2006: LOG DATE
UWI.           05 071 08707 00: UNIQUE WELL ID
STAT.                 Colorado: STATE
~Curve Information Block
DEPT.FT            0 000 00 00: Depth
DIR.Ohm-m                     : IEL Induction Resistivity
SN.Ohm-m                      : IEL Short Normal
SP.mV                         : IEL Spontaneous Potential
GR.GAPI                       : Gamma Ray
~Parameter Information Block
~A  Depth       DIR          SN          SP          GR     
# ...
  1364.5000     18.7492   2000.0000   1968.0000     73.0303
  1364.7500     16.9553   2000.0000   1968.0000     81.6308
  1365.0000     15.3395   2000.0000   1968.0000     96.6266
  1365.2500     13.5008   2000.0000   1968.0000    106.9346
  1365.5000     11.2313   2000.0000   1968.0000    119.7755
  1365.7500      8.7265   2000.0000   1968.0000    124.9999
  1366.0000      6.4704   2000.0000   1968.0000    126.8334
  1366.2500      4.7836     16.0623   1968.0000    124.4468
  1366.5000      3.6725     15.0722   1968.0000    117.2643
  1366.7500      3.0017     14.4587   1968.0000    111.7421
  1367.0000      2.6408     14.0962   1968.0000    105.9421
  1367.2500      2.5073     13.9318   1968.0000    105.5222
  1367.5000      2.5673     14.0423   1968.0000    110.9832
  1367.7500      2.8299     14.6274    -85.1136    117.6839
  1368.0000      3.3513     15.9124    -73.1464    128.9466
  1368.2500      4.2561     18.0079    -59.5120    135.1759
  1368.5000      5.7874     20.8063    -45.2474    139.9485
  1368.7500      8.4100     23.9776    -31.2831    139.4415
  1369.0000     12.9624     27.0967    -18.3323    134.0495
  1369.2500     20.5661     29.8392     -6.8444    128.8479
  1369.5000     30.9303     32.0992      2.9850    121.3517
  1369.7500     38.8774     33.9658     11.1651    117.5018
  1370.0000     39.3523     35.6421     17.8439    113.8755
  1370.2500     35.7296     37.3700     23.2435    112.8579
  1370.5000     32.5062     39.3047     27.6069    113.3650
  1370.7500     31.0617     41.3703     31.1618    114.8364
  1371.0000     31.4215     43.2821     34.1028    117.4359
  1371.2500     33.4219     44.7703     36.5862    118.1832
  1371.5000     36.9925     45.7477     38.7356    116.1640
  1371.7500     42.2167     46.2664     40.6522    112.8607
  1372.0000     49.4653     46.4230     42.4257    107.2422
  1372.2500     59.7743     46.3588     44.1410    104.6536
  1372.5000     75.6609     46.2693     45.8829    103.7242
  1372.7500    103.0057     46.3123     47.7364    104.6396
  1373.0000    156.4700     46.4971     49.7839    106.8295
  1373.2500    277.8677     46.6827     52.1012    108.2574
  1373.5000    588.9504     46.6704     54.7519    110.1031
  1373.7500   1044.8478     46.3009     57.7797    111.2549
  1374.0000    678.7415     45.5392     61.1994    113.5570
  1374.2500    316.6965     44.5322     64.9875    116.1466
  1374.5000    173.7833     43.5382     69.0748    122.1006
  1374.7500    112.3348     42.7296     73.3434    126.5918
  1375.0000     81.8104     42.0618     77.6329    131.1645
  1375.2500     64.9344     41.3517     81.7552    131.5026
  1375.5000     54.9362     40.4623     85.5160    128.2906
  1375.7500     48.8003     39.3999     88.7409    124.9590
  1376.0000     45.0109     38.2767     91.2971    120.2358
  1376.2500     42.6914     37.2215     93.1083    117.7464
  1376.5000     41.2447     36.3120     94.1594    114.9063
  1376.7500     40.2013     35.5494     94.4914    113.4839
  1377.0000     39.1637     34.8621     94.1891    112.0871
  1377.2500     37.8104     34.1116     93.3660    111.7371
  1377.5000     35.9486     33.1169     92.1490    112.1531
  1377.7500     33.5789     31.7422     90.6656    113.0064
  1378.0000     30.8950     30.0134     89.0345    115.1975
  1378.2500     28.1876     28.1362     87.3582    117.6802
  1378.5000     25.7157     26.3646     85.7191    124.3237
  1378.7500     23.6292     24.8556     84.1761    131.2907
  1379.0000     21.9631     23.6410     82.7642    144.7199
  1379.2500     20.6736     22.6779     81.4953    153.9092
  1379.5000     19.6796     21.8814     80.3618    164.2328
  1379.7500     18.8956     21.1395     79.3426    167.2180
  1380.0000     18.2499     20.3629     78.4103    165.3858
  1380.2500     17.6921     19.5490     77.5385    155.4024
  1380.5000     17.1956     18.7887     76.7077    142.7220
  1380.7500     16.7573     18.2021     75.9084    132.1345
  1381.0000     16.3930     17.8614     75.1416    118.3866
  1381.2500     16.1280     17.7556     74.4166    112.7473
  1381.5000     15.9863     17.8062     73.7474    110.6221
  1381.7500     15.9807     17.9085     73.1491    112.7717
  1382.0000     16.1076     17.9789     72.6346    118.7532
  1382.2500     16.3449     17.9864     72.2133    122.7573
  1382.5000     16.6597     17.9477     71.8904    126.2860
  1382.7500     17.0232     17.9012     71.6674    126.2811
  1383.0000     17.4260     17.8886     71.5431    122.6948
  1383.2500     17.8815     17.9450     71.5143    118.1780
  1383.5000     18.4111     18.0872     71.5753    108.9425
  1383.7500     19.0208     18.3078     71.7169    102.1482
  1384.0000     19.6818     18.5786     71.9256     93.8367
  1384.2500     20.3254     18.8513     72.1831     90.8838
  1384.5000     20.8597     19.0568     72.4676     90.2401
  1384.7500     21.2029     19.1245     72.7561     91.1017
  1385.0000     21.3170     19.0148     73.0292     91.9883
  1385.2500     21.2195     18.7425     73.2747     91.3821
  1385.5000     20.9637     18.3732     73.4911     88.1633
  1385.7500     20.6020     17.9868     73.6890     85.0492
  1386.0000     20.1616     17.6261     73.8886     81.1916
  1386.2500     19.6453     17.2763     74.1166     80.2003
  1386.5000     19.0546     16.8965     74.4000     80.6307
  1386.7500     18.4120     16.4703     74.7610     81.0361
  1387.0000     17.7665     16.0251     75.2121     80.6676
  1387.2500     17.1792     15.6117     75.7538     80.1812
  1387.5000     16.7015     15.2749     76.3748     80.5109
  1387.7500     16.3593     15.0390     77.0539     81.8440
  1388.0000     16.1483     14.9078     77.7639     85.2281
  1388.2500     16.0379     14.8606     78.4756     88.0124
  1388.5000     15.9837     14.8512     79.1611     92.3573
  1388.7500     15.9442     14.8245     79.7971     95.2143
  1389.0000     15.8965     14.7459     80.3664    100.0058
  1389.2500     15.8438     14.6212     80.8598    104.1734
  1389.5000     15.8110     14.4885     81.2761    112.1344
  1389.7500     15.8304     14.3919     81.6221    117.7308
  1390.0000     15.9263     14.3520     81.9109    123.9119
  1390.2500     16.1030     14.3510     82.1600    125.2429
  1390.5000     16.3408     14.3455     82.3875    123.0222
  1390.7500     16.6015     14.2977     82.6096    120.1588
  1391.0000     16.8412     14.2006     82.8373    116.7677
  1391.2500     17.0210     14.0766     83.0766    115.8158
  1391.5000     17.1103     13.9582     83.3289    115.4104
  1391.7500     17.0868     13.8734     83.5929    114.9898
  1392.0000     16.9433     13.8454     83.8665    113.9666
  1392.2500     16.7013     13.8921     84.1477    113.7470
  1392.5000     16.4171     14.0186     84.4344    115.6630
  1392.7500     16.1668     14.2149     84.7231    118.9958
  1393.0000     16.0201     14.4665     85.0084    127.1387
  1393.2500     16.0210     14.7639     85.2830    134.1124
  1393.5000     16.1865     15.1037     85.5396    144.7765
  1393.7500     16.5180     15.4825     85.7728    150.2948
  1394.0000     17.0153     15.8935     85.9825    153.5410
  1394.2500     17.6839     16.3297     86.1749    151.7158
  1394.5000     18.5328     16.7891     86.3625    144.0497
  1394.7500     19.5676     17.2740     86.5624    137.1931
  1395.0000     20.7870     17.7868     86.7928    126.9526
  1395.2500     22.1887     18.3289     87.0693    120.9442
  1395.5000     23.7802     18.9041     87.4010    112.9535
  1395.7500     25.5816     19.5271     87.7883    107.8345
  1396.0000     27.6050     20.2325     88.2216    100.2223
  1396.2500     29.8146     21.0623     88.6830     95.6894
  1396.5000     32.0888     22.0142     89.1491     91.4204
  1396.7500     34.2180     22.9956     89.5953     91.1624
  1397.0000     35.9550     23.8610     89.9993     94.2696
  1397.2500     37.0995     24.5096     90.3441     96.8146
  1397.5000     37.5700     24.9369     90.6182     97.0690
  1397.7500     37.4297     25.2013     90.8158     93.6179
