~Version Information
VERS.                      2.0: CWLS Log ASCII Standard - VERSION 2.0
WRAP.                       NO: One line per depth step
~Well Information Block
STRT.FT               239.2000: 
STOP.FT              1618.0000: 
STEP.FT                 0.1000: 
NULL.                -999.2500: 
COMP.          Pioneer Natural Resources: COMPANY
WELL.          Daytona 31-14 Tr: WELL
FLD.           Purgatoire River: FIELD
LOC.           683' FNL & 1943' FEL: LOCATION
CNTY.               Las Animas: COUNTY
SRVC.                         : SERVICE COMPANY
DATE.          Fri Jan 27 14:32:28 2006: LOG DATE
UWI.           05 071 08681 00: UNIQUE WELL ID
STAT.                 Colorado: STATE
~Curve Information Block
DEPT.FT            0 000 00 00: Depth
DCAL.in                       : CDL Caliper
RHOB.g/cc                     : CDL Bulk Density
RHOC.g/cc                     : CDL Density Correction
DPOR.pu                       : CDL Density Porosity
GR.GAPI                       : Gamma Ray
~Parameter Information Block
~A  Depth       DCAL        RHOB        RHOC        DPOR         GR     
# ...
   429.6000      8.1784      1.4874      0.0482     70.4595     66.7855
   429.7000      8.1784      1.5164      0.0396     68.7027     69.1071
   429.8000      8.1799      1.5592      0.0920     66.1092     75.3349
   429.9000      8.1799      1.6195      0.1189     62.4551     78.9189
   430.0000      8.1781      1.6982      0.1312     57.6858     83.5097
   430.1000      8.1781      1.7905      0.1662     52.0932     93.0653
   430.2000      8.1781      1.8846      0.1818     46.3857    101.7384
   430.3000      8.1732      1.9772      0.1799     40.7728    108.5636
   430.4000      8.1732      2.0677      0.2758     35.2913    118.4611
   430.5000      8.1643      2.1436      0.2511     30.6929    129.7032
   430.6000      8.1643      2.1938      0.2105     27.6493    137.2110
   430.7000      8.1643      2.2224      0.1229     25.9122    140.9198
   430.8000      8.1707      2.2360      0.1120     25.0883    142.0831
   430.9000      8.1707      2.2264      0.0972     25.6703    139.8164
   431.0000      8.1689      2.1871      0.0648     28.0558    135.4484
   431.1000      8.1689      2.1304      0.0159     31.4897    133.7753
   431.2000      8.1689      2.0725      0.0151     34.9989    134.8136
   431.3000      8.1668      2.0176     -0.0116     38.3268    133.8546
   431.4000      8.1668      1.9637     -0.0230     41.5934    130.9995
   431.5000      8.1710      1.9061     -0.0417     45.0842    128.7849
   431.6000      8.1710      1.8379      0.0131     49.2193    126.3441
   431.7000      8.1710      1.7600     -0.0190     53.9366    122.2772
   431.8000      8.1712      1.6903     -0.0308     58.1616    114.6818
   431.9000      8.1712      1.6440     -0.0073     60.9680    103.7284
   432.0000      8.1707      1.6229      0.0255     62.2470     98.2904
   432.1000      8.1707      1.6290      0.0561     61.8816    103.5328
   432.2000      8.1707      1.6658      0.1307     59.6463    111.3727
   432.3000      8.1764      1.7357      0.1352     55.4097    113.9084
   432.4000      8.1764      1.8383      0.2255     49.1933    110.0312
   432.5000      8.1771      1.9626      0.2690     41.6586    104.4444
   432.6000      8.1771      2.0924      0.3073     33.7913    101.9732
   432.7000      8.1771      2.2176      0.3333     26.2061    101.3720
   432.8000      8.1663      2.3365      0.3016     18.9978    103.0989
   432.9000      8.1663      2.4392      0.3243     12.7784    108.2931
   433.0000      8.0771      2.5029      0.2777      8.9150    115.0793
   433.1000      8.0771      2.5283      0.1316      7.3753    123.1518
   433.2000      8.0771      2.5462      0.0863      6.2932    130.6515
   433.3000      7.9826      2.5722      0.1004      4.7168    134.5474
   433.4000      7.9826      2.5914      0.1410      3.5503    134.6481
   433.5000      7.9703      2.5945      0.1337      3.3627    132.6957
   433.6000      7.9703      2.5934      0.1107      3.4298    129.6501
   433.7000      7.9703      2.6009      0.1060      2.9784    124.3975
   433.8000      7.9683      2.6160      0.1419      2.0591    117.6733
   433.9000      7.9683      2.6266      0.1583      1.4209    112.0876
   434.0000      7.9699      2.6279      0.0960      1.3394    110.2161
   434.1000      7.9699      2.6213      0.1273      1.7421    109.4574
   434.2000      7.9699      2.6024      0.1174      2.8849    106.0995
   434.3000      7.9699      2.5833      0.0615      4.0407    102.3723
   434.4000      7.9699      2.5817      0.0900      4.1377    102.6442
   434.5000      7.9681      2.5938      0.0634      3.4067    107.1411
   434.6000      7.9681      2.6055      0.1071      2.6979    110.4022
   434.7000      7.9681      2.6067      0.0803      2.6267    109.4620
   434.8000      7.9692      2.6055      0.0172      2.6983    107.7927
   434.9000      7.9692      2.6143      0.0936      2.1615    107.7655
   435.0000      7.9717      2.6252      0.0935      1.5033    110.8399
   435.1000      7.9717      2.6274      0.0874      1.3718    116.9190
   435.2000      7.9717      2.6175      0.0938      1.9685    120.3965
   435.3000      7.9693      2.5990      0.0763      3.0937    117.1373
   435.4000      7.9693      2.5811      0.0837      4.1731    109.8626
   435.5000      7.9687      2.5684      0.0655      4.9452    106.1109
   435.6000      7.9687      2.5607      0.0777      5.4145    109.9791
   435.7000      7.9687      2.5620      0.0364      5.3355    117.2154
   435.8000      7.9689      2.5728      0.0915      4.6810    125.0010
   435.9000      7.9689      2.5780      0.1133      4.3635    133.0187
   436.0000      7.9668      2.5694      0.0778      4.8876    138.7480
   436.1000      7.9668      2.5598      0.0456      5.4646    142.1734
   436.2000      7.9668      2.5664      0.0227      5.0679    142.5479
   436.3000      7.9684      2.5879      0.0910      3.7636    138.2047
   436.4000      7.9684      2.6024      0.0916      2.8842    134.2225
   436.5000      7.9690      2.6036      0.0381      2.8097    134.3231
   436.6000      7.9690      2.6079      0.0555      2.5527    134.5435
   436.7000      7.9690      2.6090      0.0873      2.4826    130.6978
   436.8000      7.9654      2.5913      0.0413      3.5578    125.5395
   436.9000      7.9654      2.5683      0.0430      4.9495    125.8448
   437.0000      7.9654      2.5587      0.0321      5.5312    132.9436
   437.1000      7.9654      2.5585      0.0368      5.5475    138.4607
   437.2000      7.9654      2.5573      0.0111      5.6205    134.8971
   437.3000      7.9596      2.5559      0.0105      5.7058    127.7725
   437.4000      7.9596      2.5557      0.0337      5.7133    125.1354
   437.5000      7.9664      2.5584      0.0409      5.5487    124.3531
   437.6000      7.9664      2.5661      0.0880      5.0844    120.9592
   437.7000      7.9664      2.5758      0.0832      4.4969    118.1727
   437.8000      7.9660      2.5856      0.1100      3.9018    120.2431
   437.9000      7.9660      2.5971      0.0717      3.2044    126.5572
   438.0000      7.9680      2.6099      0.0864      2.4297    133.9803
   438.1000      7.9680      2.6159      0.0937      2.0676    138.5751
   438.2000      7.9680      2.6158      0.1027      2.0705    138.5852
   438.3000      7.9670      2.6199      0.1246      1.8272    136.3748
   438.4000      7.9670      2.6259      0.1251      1.4578    136.0533
   438.5000      7.9684      2.6276      0.1450      1.3590    139.6647
   438.6000      7.9684      2.6240      0.1495      1.5746    142.3417
   438.7000      7.9684      2.6102      0.1139      2.4142    141.0696
   438.8000      7.9686      2.5795      0.1219      4.2701    140.8794
   438.9000      7.9686      2.5425      0.0408      6.5176    143.5026
   439.0000      7.9666      2.5251      0.0270      7.5698    141.7594
   439.1000      7.9666      2.5381      0.0581      6.7822    134.0872
   439.2000      7.9666      2.5662      0.0752      5.0803    129.6324
   439.3000      7.9672      2.5921      0.1086      3.5074    130.4038
   439.4000      7.9672      2.6130      0.1199      2.2443    129.0098
   439.5000      7.9673      2.6322      0.1678      1.0759    122.2981
   439.6000      7.9673      2.6451      0.1339      0.2969    114.2337
   439.7000      7.9673      2.6445      0.1159      0.3328    108.7194
   439.8000      7.9669      2.6317      0.0963      1.1116    105.2136
   439.9000      7.9669      2.6125      0.0953      2.2699    104.9389
   440.0000      7.9661      2.5915      0.0925      3.5450    110.7498
   440.1000      7.9661      2.5689      0.0884      4.9125    117.0679
   440.2000      7.9661      2.5487      0.0775      6.1391    116.6803
   440.3000      7.9648      2.5411      0.0270      6.5993    110.5076
   440.4000      7.9648      2.5445      0.0663      6.3948    102.7632
   440.5000      7.9616      2.5403      0.0542      6.6515     95.8580
   440.6000      7.9616      2.5167      0.0785      8.0784     92.0069
   440.7000      7.9616      2.4820      0.0401     10.1824     93.2301
