~Version Information
 VERS.                                  2.0 : CWLS LAS VERSION
 WRAP.                                   NO : WRAPING MODE
 SWARE .                 MController 2.5.0J : SOFTWARE VERSION
~Well Information
 WELL.                        Keiko 14-06Tr : WELL
 COMP.   Pioneer Natural Resources USA Inc. : COMPANY
 FLD.                      Purgatoire River : FIELD
 LOC.                 SW/SW Sec.6 T33S R66W : LOCATION
 DATE.                             12/30/05 : DATE(S) LOGGED
 SRVC.       BLANCO Geological Services LLC : SERVICE COMPANY
 STAT.                                   CO : STATE
 CNTY.                           Las Animas : COUNTY
 CTRY.                                  USA : COUNTRY
 API.                       05-071-08629-00 : API NUMBER
 STRT.FT                             481.00 : START DEPTH
 STOP.FT                            1290.00 : STOP DEPTH
 STEP.FT                               1.00 : DEPTH INCREMENT
 NULL.                                -9999 : NULL VALUE
~Curve information
 DEPTH.FT                                   :
 ROP.MIN/FT                                 :
 GAS.UNITS                                  :
~ASCII Log data
# ...
       681.0         4.00       1748.6 
       682.0         0.27       1133.2 
       683.0         0.27       1143.4 
       684.0         0.27       1119.2 
       685.0         0.27       1052.0 
       686.0         0.30       1079.9 
       687.0         0.43       1076.4 
       688.0         0.32        986.3 
       689.0         0.33        938.3 
       690.0         0.33        899.6 
       691.0         0.40        871.7 
       692.0         0.33        858.4 
       693.0         0.33        846.9 
       694.0         0.33        862.2 
       695.0         0.32        862.8 
       696.0         0.30        854.5 
       697.0         0.30        851.7 
       698.0         0.33        870.4 
       699.0         0.33        868.5 
       700.0         0.37        858.4 
       701.0         0.40        846.6 
       702.0         0.37        837.1 
       703.0         0.40        839.3 
       704.0         0.42        832.3 
       705.0         0.40        820.0 
       706.0         0.40        829.8 
       707.0         0.40        832.6 
       708.0         0.50        827.6 
       709.0         0.52        799.3 
       710.0         0.40        730.8 
       711.0         4.28       1379.8 
       712.0         0.43        874.5 
       713.0         0.60        938.0 
       714.0         0.70        942.1 
       715.0         0.65        830.1 
       716.0         0.53        794.6 
       717.0         0.53        785.0 
       718.0         0.50        765.0 
       719.0         0.43        762.5 
       720.0         0.37        799.6 
       721.0         0.40        787.9 
       722.0         0.38        800.6 
       723.0         0.37        849.2 
       724.0         0.47        859.3 
       725.0         0.40        833.9 
       726.0         0.37        807.9 
       727.0         0.33        797.4 
       728.0         0.37        803.8 
       729.0         0.37        816.5 
       730.0         0.65        814.9 
       731.0         0.67        803.8 
       732.0         0.47        779.6 
       733.0         0.40        776.8 
       734.0         0.37        781.2 
       735.0         0.43        782.5 
       736.0         0.43        786.6 
       737.0         0.45        789.8 
       738.0         0.47        791.4 
       739.0         0.47        768.9 
       740.0         0.40        693.3 
       741.0         4.18       1271.3 
       742.0         0.23        957.4 
       743.0         0.20        939.3 
       744.0         0.20        953.3 
       745.0         0.27        951.7 
       746.0         0.45        945.6 
       747.0         0.37        898.3 
       748.0         0.27        892.3 
       749.0         0.37        862.8 
       750.0         0.27        805.0 
       751.0         0.30        810.7 
       752.0         0.30        800.0 
       753.0         0.30        793.0 
       754.0         0.37        798.1 
       755.0         0.37        793.6 
       756.0         0.35        789.2 
       757.0         0.33        787.3 
       758.0         0.40        786.6 
       759.0         0.30        760.6 
       760.0         0.30        753.0 
       761.0         0.23        747.6 
       762.0         0.30        767.9 
       763.0         0.27        803.8 
       764.0         0.33        811.7 
       765.0         0.27        782.5 
       766.0         0.25        778.7 
       767.0         0.27        786.3 
       768.0         0.30        797.7 
       769.0         0.27        757.4 
       770.0         0.30        709.8 
       771.0         5.70       1543.9 
       772.0         0.73        861.2 
       773.0         0.97        827.9 
       774.0         0.82        799.0 
       775.0         0.67        796.5 
       776.0         0.57        776.2 
       777.0         0.30        781.9 
       778.0         0.37        790.8 
       779.0         0.43        794.2 
       780.0         0.42        774.6 
       781.0         0.40        772.3 
       782.0         0.33        764.4 
       783.0         0.40        780.0 
       784.0         0.37        783.1 
       785.0         0.43        777.7 
       786.0         0.32        774.2 
       787.0         0.33        759.3 
       788.0         0.27        765.4 
       789.0         0.33        774.9 
       790.0         0.33        775.5 
       791.0         0.37        774.6 
       792.0         0.43        763.5 
       793.0         0.37        759.3 
       794.0         0.30        776.2 
       795.0         0.33        791.4 
       796.0         0.62        792.7 
       797.0         0.40        807.6 
       798.0         0.43        778.7 
       799.0         0.27        751.7 
       800.0         0.10        692.0 
       801.0         4.15       1378.9 
       802.0         0.30        911.0 
       803.0         0.42        860.3 
       804.0         0.30        823.4 
       805.0         0.27        818.0 
       806.0         0.30        796.5 
       807.0         0.37        801.5 
       808.0         0.37        796.5 
       809.0         0.33        771.1 
       810.0         0.33        772.0 
       811.0         0.33        763.1 
       812.0         0.30        751.7 
       813.0         0.42        776.5 
       814.0         0.40        762.5 
       815.0         0.37        755.2 
       816.0         0.37        762.8 
       817.0         0.50        773.9 
       818.0         0.37        738.7 
       819.0         0.37        736.2 
       820.0         0.37        750.4 
       821.0         0.42        754.9 
       822.0         0.40        756.2 
       823.0         0.40        764.7 
       824.0         0.40        763.1 
       825.0         0.40        766.3 
       826.0         0.40        773.6 
       827.0         0.43        770.1 
       828.0         0.47        723.5 
       829.0         0.27        621.0 
       830.0         0.10        621.0 
       831.0         4.47       1483.0 
       832.0         0.33        851.1 
       833.0         0.50        840.6 
       834.0         0.48        781.2 
       835.0         0.33        748.5 
       836.0         0.33        741.9 
       837.0         0.33        742.8 
       838.0         0.33        752.7 
       839.0         0.37        743.1 
       840.0         0.48        759.0 
       841.0         0.37        749.8 
       842.0         0.33        733.9 
       843.0         0.33        743.1 
       844.0         0.43        771.4 
       845.0         0.40        782.5 
       846.0         0.43        780.3 
       847.0         0.40        759.6 
       848.0         0.30        725.7 
       849.0         0.32        720.3 
       850.0         0.30        733.6 
       851.0         0.30        746.3 
       852.0         0.30        751.4 
       853.0         0.40        768.2 
       854.0         0.37        769.8 
       855.0         0.43        776.2 
       856.0         0.37        759.6 
       857.0         0.40        743.8 
       858.0         0.42        715.9 
       859.0         0.27        652.1 
       860.0         0.10        634.3 
       861.0         5.42       1127.8 
       862.0         0.67        804.7 
       863.0         0.45        772.7 
       864.0         0.40        765.0 
       865.0         0.43        760.9 
       866.0         0.50        759.6 
       867.0         0.37        739.0 
       868.0         0.60        729.8 
       869.0         0.52        738.7 
       870.0         0.47        738.4 
       871.0         0.47        758.4 
       872.0         0.50        765.7 
       873.0         0.47        756.8 
       874.0         0.23        793.0 
       875.0         0.23        793.0 
       876.0         0.30        820.3 
       877.0         0.30        820.6 
       878.0         0.32        810.1 
       879.0         0.27        793.3 
       880.0         0.33        788.2 
