~Version Information
 VERS.                                  2.0 : CWLS LAS VERSION
 WRAP.                                   NO : WRAPING MODE
 SWARE .                 MController 2.5.0N : SOFTWARE VERSION
~Well Information
 WELL.                       Screamin 12-29 : WELL
 COMP.       Pioneer Natural Resources, USA : COMPANY
 FLD.                       Purgatory River : FIELD
 LOC.                 SW/NW Sec29 T32S R65W : LOCATION
 DATE.                            3/30/2006 : DATE(S) LOGGED
 SRVC.      Blanco Geological Services, LLC : SERVICE COMPANY
 STAT.                             Colorado : STATE
 CNTY.                           Las Animas : COUNTY
 CTRY.                                  USA : COUNTRY
 API.                       05-071-08660-00 : API NUMBER
 STRT.FT                             603.00 : START DEPTH
 STOP.FT                             950.00 : STOP DEPTH
 STEP.FT                               1.00 : DEPTH INCREMENT
 NULL.                                -9999 : NULL VALUE
~Curve information
 DEPTH.FT                                   :
 ROP.MIN/FT                                 :
 GAS.UNITS                                  :
~ASCII Log data
# ...
       791.0         0.30         14.3 
       792.0         0.27         13.9 
       793.0         0.20         13.9 
       794.0         0.17         13.5 
       795.0         0.20         13.5 
       796.0         0.20         17.0 
       797.0         0.20         22.4 
       798.0         0.17         23.7 
       799.0         0.20         23.6 
       800.0         0.23         26.0 
       801.0         0.23         27.8 
       802.0         0.23         28.7 
       803.0         3.90         97.1 
       804.0         0.30         65.1 
       805.0         0.37         36.2 
       806.0         0.33         30.6 
       807.0         0.33         30.4 
       808.0         0.27         28.2 
       809.0         0.30         25.9 
       810.0         0.30         22.0 
       811.0         0.37         19.2 
       812.0         0.37         19.0 
       813.0         0.27         19.8 
       814.0         0.32         17.9 
       815.0         0.27         16.9 
       816.0         0.33         16.0 
       817.0         0.40         16.5 
       818.0         0.27         17.8 
       819.0         0.27         19.6 
       820.0         0.27         18.7 
       821.0         0.27         16.4 
       822.0         0.23         16.1 
       823.0         0.23         15.5 
       824.0         0.30         14.5 
       825.0         0.32         13.7 
       826.0         0.27         12.1 
       827.0         0.27         13.4 
       828.0         0.27         13.6 
       829.0         0.27         14.2 
       830.0         0.27         14.2 
       831.0         0.27         15.0 
       832.0         0.23         14.7 
       833.0         3.82         72.1 
       834.0         0.40         55.5 
       835.0         0.33         30.3 
       836.0         0.35         26.9 
       837.0         0.33         42.6 
       838.0         0.30         62.0 
       839.0         0.23         69.6 
       840.0         0.20         71.0 
       841.0         0.17         68.7 
       842.0         0.20         78.9 
       843.0         0.20         96.3 
       844.0         0.43        139.6 
       845.0         0.33        163.4 
       846.0         0.33        168.4 
       847.0         0.27        152.2 
       848.0         0.32        140.6 
       849.0         0.27        130.2 
       850.0         0.33        126.5 
       851.0         0.33        127.3 
       852.0         0.30        128.2 
       853.0         0.27        129.6 
       854.0         0.27        124.7 
       855.0         0.23        122.8 
       856.0         0.23        123.8 
       857.0         0.23        125.3 
       858.0         0.27        123.4 
       859.0         0.33        138.5 
       860.0         0.38        235.3 
       861.0         0.23        269.5 
       862.0         3.95       1749.4 
       863.0         0.43       1657.1 
       864.0         0.47        897.0 
       865.0         0.43        699.9 
       866.0         0.43        677.0 
       867.0         0.33        636.3 
       868.0         0.38        624.8 
       869.0         0.37        526.1 
       870.0         0.37        458.7 
       871.0         0.33        440.0 
       872.0         0.23        230.8 
       873.0         0.30        220.4 
       874.0         0.27        209.2 
       875.0         0.27        203.5 
       876.0         0.27        214.5 
       877.0         0.23        216.0 
       878.0         0.27        215.9 
       879.0         0.35        213.0 
       880.0         0.30        220.2 
       881.0         0.37        258.5 
       882.0         0.37        261.1 
       883.0         0.37        263.2 
       884.0         0.37        263.6 
       885.0         0.37        262.6 
       886.0         0.33        238.4 
       887.0         0.37        228.8 
       888.0         0.35        226.0 
       889.0         0.37        223.8 
       890.0         0.37        226.4 
       891.0         0.37        226.4 
       892.0         4.42       1694.8 
       893.0         0.40       1054.0 
       894.0         0.67        592.1 
       895.0         0.62        750.8 
       896.0         0.50        703.6 
       897.0         0.47        499.8 
       898.0         0.50        440.0 
       899.0         0.47        234.2 
       900.0         0.43        229.3 
       901.0         0.40        223.8 
       902.0         0.42        220.1 
       903.0         0.40        218.7 
       904.0         0.40        212.5 
       905.0         0.50        218.9 
       906.0         0.43        223.9 
       907.0         0.43        225.7 
       908.0         0.40        221.3 
       909.0         0.37        221.3 
       910.0         0.48        218.1 
       911.0         0.43        221.3 
       912.0         0.57        229.9 
       913.0         0.53        228.8 
       914.0         0.50        222.2 
       915.0         0.50        218.4 
       916.0         0.45        216.8 
       917.0         0.37        216.7 
       918.0         0.37        214.7 
       919.0         0.43        210.7 
       920.0         0.43        215.5 
       921.0         0.40        201.8 
       922.0         5.03       1780.1 
       923.0         0.50        498.8 
       924.0         0.43        682.7 
       925.0         0.37        676.3 
       926.0         0.37        561.8 
       927.0         0.43        485.0 
       928.0         0.37        440.0 
       929.0         0.40        249.1 
       930.0         0.28        234.8 
       931.0         0.23        220.2 
       932.0         0.23        215.2 
       933.0         0.23        242.4 
       934.0         0.27        284.2 
       935.0         0.37        289.3 
       936.0         0.33        287.1 
       937.0         0.33        289.8 
       938.0         0.30        284.4 
       939.0         0.37        275.1 
       940.0         0.33        285.7 
       941.0         0.48        304.3 
       942.0         0.33        301.3 
       943.0         0.30        299.8 
       944.0         0.30        297.2 
       945.0         0.30        278.0 
       946.0         0.43        258.7 
       947.0         0.33        243.5 
       948.0         0.27        269.5 
       949.0         0.27        277.0 
       950.0         0.30        276.4 
