~Version Information
VERS.                      2.0: CWLS Log ASCII Standard - VERSION 2.0
WRAP.                       NO: One line per depth step
~Well Information Block
STRT.FT                 0.5000: 
STOP.FT              2166.0000: 
STEP.FT                 0.2500: 
NULL.                -999.2500: 
COMP.          Pioneer Natural Resources: COMPANY
WELL.          Bear Cub Federal 11-23: WELL
FLD.           Purgatoire River: FIELD
LOC.           1225' FNL & 1268 ' FWL--: LOCATION
CNTY.               Las Animas: COUNTY
SRVC.                Patterson: SERVICE COMPANY
DATE.          Mon Jul 17 10:21:31 2006: LOG DATE
UWI.           05 071 08509 00: UNIQUE WELL ID
STAT.                 Colorado: STATE
~Curve Information Block
DEPT.FT            0 000 00 00: Depth
CCL.                          : Casing Collar Locator
TT3.usec                      : CBL 3' Travel Time
AMP3.mV                       : CBL 3' Amplitude
GR.GAPI                       : Gamma Ray
~Parameter Information Block
~A  Depth       CCL         TT3         AMP3         GR     
# ...
   134.5000      0.0000    789.5137      6.8869     98.5427
   134.7500      0.0000    785.0931      6.9460    102.4443
   135.0000      0.0000    779.4134      6.9980    107.8685
   135.2500      0.0000    774.1458      6.9411    110.5911
   135.5000      0.0000    762.1780      6.6482    113.5810
   135.7500      0.0000    751.5593      6.3313    115.2883
   136.0000      0.0000    732.2972      5.7888    117.6479
   136.2500      0.0000    717.7828      5.4613    118.8250
   136.5000      0.0000    696.9991      5.1055    119.5009
   136.7500      0.0000    687.7346      4.9636    119.2059
   137.0000      0.0000    686.6879      4.8398    117.9924
   137.2500      0.0000    694.4953      4.7698    116.8691
   137.5000      0.0000    712.3459      4.6185    114.7331
   137.7500      0.0000    724.2599      4.4725    112.7920
   138.0000      0.0000    741.1970      4.2071    108.6910
   138.2500      0.0000    753.8076      4.0332    105.3669
   138.5000      0.0000    775.0782      3.8551    101.0938
   138.7500      0.0000    788.1041      3.8315     99.9308
   139.0000      0.0000    801.1114      3.9580    101.5338
   139.2500      0.0000    805.0699      4.1207    104.0027
   139.5000      0.0000    806.8467      4.3815    106.9294
   139.7500      0.0000    807.0616      4.5071    107.0937
   140.0000      0.0000    806.6050      4.5685    104.9966
   140.2500      0.0000    804.7920      4.5293    103.4777
   140.5000      0.0000    797.6914      4.4017    103.5553
   140.7500      0.0000    789.4231      4.3100    105.7334
   141.0000      0.0000    770.8406      4.2256    111.2390
   141.2500      0.0000    752.8009      4.2307    115.1252
   141.5000      0.0000    714.1677      4.3395    119.0901
   141.7500      0.0000    681.6053      4.4596    119.9492
   142.0000      0.0000    631.5982      4.6456    119.4241
   142.2500      0.0000    604.2552      4.7330    118.8338
   142.5000      0.0000    578.1746      4.7697    118.1746
   142.7500      0.0000    569.6516      4.7396    117.3087
   143.0000      0.0000    564.6272      4.6795    114.3394
   143.2500      0.0000    563.6260      4.6771    111.4501
   143.5000      0.0000    563.1139      4.7738    106.9050
   143.7500      0.0000    563.0250      4.8960    104.0524
   144.0000      0.0000    563.4916      5.1077     99.9236
   144.2500      0.0000    564.4604      5.2288     97.3696
   144.5000      0.0000    566.8953      5.3359     94.4967
   144.7500      0.0000    568.6304      5.3529     93.6185
   145.0000      0.0000    569.7148      5.3213     94.2222
   145.2500      0.0000    568.5238      5.2852     95.7061
   145.5000      0.0000    563.3491      5.2370     98.1518
   145.7500      0.0000    557.9807      5.2105     98.9314
   146.0000      0.0000    548.9636      5.1683     98.3363
   146.2500      0.0000    544.8707      5.1417     97.2994
   146.5000      0.0000    549.0637      5.1410     95.7797
   146.7500      0.0000    563.2972      5.1935     94.9575
   147.0000      0.0000    603.0854      5.3574     94.1960
   147.2500      0.0000    635.5713      5.4951     94.4170
   147.5000      0.0000    673.1959      5.6748     96.6304
   147.7500      0.0000    680.4100      5.7489     99.3473
   148.0000      0.0000    659.4886      5.7819    104.1314
   148.2500      0.0000    629.5461      5.7621    106.8398
   148.5000      0.0000    576.2111      5.7071    108.9665
   148.7500      0.0000    543.0394      5.6883    108.8229
   149.0000      0.0000    501.8939      5.7533    106.5329
   149.2500      0.0000    478.3445      5.8776    104.2910
   149.5000      0.0000    445.1435      6.1486    101.6022
   149.7500      0.0000    425.3923      6.3305    100.9840
   150.0000      0.0000    404.8561      6.5004    101.6301
   150.2500      0.0000    400.2352      6.4985    102.5349
   150.5000      0.0000    410.4585      6.2732    104.2600
   150.7500      0.0000    430.1298      5.9610    106.0128
   151.0000      0.0000    477.9509      5.2671    110.0236
   151.2500      0.0000    517.4100      4.7025    113.3254
   151.5000      0.0000    572.7816      3.8448    117.9032
   151.7500      0.0000    597.0111      3.3500    119.6887
   152.0000      0.0000    603.1431      2.7996    118.4498
   152.2500      0.0000    587.9136      2.5560    114.0737
   152.5000      0.0000    550.7917      2.3220    102.4543
   152.7500      2.0000    529.3370      2.2200     93.0584
   153.0000      0.0000    521.2051      2.1188     81.2928
   153.2500      0.0000    536.3229      2.0930     77.5515
   153.5000      0.0000    580.4404      2.1704     79.4534
   153.7500      0.0000    609.8900      2.3453     84.4251
   154.0000      0.0000    628.5896      2.8518     93.4837
   154.2500      0.0000    618.9715      3.3444     98.4885
   154.5000      0.0000    586.8119      4.2033    102.1095
   154.7500      0.0000    569.5409      4.7552    101.4776
   155.0000      0.0000    568.8789      5.3954     97.2676
   155.2500      0.0000    586.5323      5.6467     94.1224
   155.5000      0.0000    630.8928      5.7641     92.0939
   155.7500      0.0000    665.2153      5.7158     93.2767
   156.0000      0.0000    713.4985      5.5627     97.5824
   156.2500      0.0000    739.4901      5.4608    100.6147
   156.5000      0.0000    766.2844      5.3629    103.4171
   156.7500      0.0000    776.5945      5.3481    103.8171
   157.0000      0.0000    784.1669      5.4044    102.4355
   157.2500      0.0000    786.1492      5.4812    100.2626
   157.5000      0.0000    787.1105      5.5998     95.5779
   157.7500      0.0000    787.1696      5.6346     92.4261
   158.0000      0.0000    786.9670      5.5523     89.4211
   158.2500      0.0000    786.8013      5.3996     88.5739
   158.5000      0.0000    786.6177      5.0841     87.2474
   158.7500      0.0000    786.5657      4.8783     85.5954
   159.0000      0.0000    786.6673      4.6684     82.9807
   159.2500      0.0000    786.9317      4.6121     82.3475
   159.5000      0.0000    787.5513      4.6148     83.9175
   159.7500      0.0000    787.8947      4.6303     86.1443
   160.0000      0.0000    788.2629      4.6069     89.5632
   160.2500      0.0000    789.0082      4.5408     90.9612
   160.5000      0.0000    792.1378      4.3625     90.9647
   160.7500      0.0000    795.4081      4.1996     89.7659
   161.0000      0.0000    800.1660      3.9212     87.1776
   161.2500      0.0000    801.7830      3.7422     85.6338
   161.5000      0.0000    798.2114      3.5436     85.0490
   161.7500      0.0000    788.3251      3.4875     86.6438
   162.0000      0.0000    755.1801      3.5367     92.0122
   162.2500      0.0000    718.2013      3.6411     96.2579
   162.5000      0.0000    643.3080      3.8373    100.4628
   162.7500      0.0000    588.2680      3.9524    100.8633
   163.0000      0.0000    518.6481      4.0615     98.7454
   163.2500      0.0000    491.2935      4.0934     96.8730
   163.5000      0.0000    484.8143      4.1204     95.4282
   163.7500      0.0000    500.3206      4.1648     95.9647
   164.0000      0.0000    544.4836      4.3440     98.5706
   164.2500      0.0000    584.0903      4.5608    100.3439
   164.5000      0.0000    653.1805      5.0084    100.4890
   164.7500      0.0000    700.6908      5.3479     98.0655
   165.0000      0.0000    762.7773      5.8425     91.2983
   165.2500      0.0000    792.1851      6.1262     86.0664
   165.5000      0.0000    812.9858      6.4346     80.1218
   165.7500      0.0000    810.9113      6.5437     78.8479
   166.0000      0.0000    785.1421      6.5609     81.4324
   166.2500      0.0000    754.1434      6.4938     85.0070
   166.5000      0.0000    693.0009      6.3198     90.3864
   166.7500      0.0000    649.5379      6.1705     93.2673
   167.0000      0.0000    593.7928      5.8942     97.3723
   167.2500      0.0000    567.5635      5.6748    100.5157
   167.5000      0.0000    546.3776      5.3312    105.0976
   167.7500      0.0000    544.1502      5.1314    107.0738
