~Version Information
VERS.                      2.0: CWLS Log ASCII Standard - VERSION 2.0
WRAP.                       NO: One line per depth step
~Well Information Block
STRT.FT                -6.5000: 
STOP.FT              1317.5000: 
STEP.FT                 0.2500: 
NULL.                -999.2500: 
COMP.          Pioneer Natural Resources: COMPANY
WELL.              Dicks 32-5R: WELL
FLD.           Purgatorie River: FIELD
LOC.           1485' FNL & 1684' FEL--: LOCATION
PROV.                       CO: PROVINCE
CNTY.               Las Animas: COUNTRY
SRVC.          Patterson Wireline: SERVICE COMPANY
DATE.          Tue Dec 13 09:33:22 2005: LOG DATE
UWI.           05 071 08596 00: UNIQUE WELL ID
~Curve Information Block
DEPT.FT            0 000 00 00: Depth
CCL.                          : Casing Collar Locator
TT3.usec                      : CBL 3' Travel Time
AMP3.mV                       : CBL 3' Amplitude
GR.GAPI                       : Gamma Ray
~Parameter Information Block
~A  Depth       CCL         TT3         AMP3         GR     
# ...
  1199.5000      0.0000    654.9609     10.1846    107.8193
  1199.7500      0.0000    653.1898     10.4281    108.6581
  1200.0000      0.0000    651.2324     10.6507    108.1094
  1200.2500      0.0000    648.3757     10.8581    106.3340
  1200.5000      0.0000    643.5839     11.0654    104.8139
  1200.7500      0.0000    635.9326     11.2746    104.7488
  1201.0000      0.0000    626.2030     11.4729    106.1313
  1201.2500      0.0000    618.8191     11.6487    108.5792
  1201.5000      0.0000    621.5923     11.8028    111.7861
  1201.7500      0.0000    640.7180     11.9251    114.7029
  1202.0000      0.0000    673.5901     11.9575    115.6979
  1202.2500      0.0000    707.3490     11.8161    114.2385
  1202.5000      0.0000    727.3039     11.5016    111.4918
  1202.7500      0.0000    728.1865     11.1795    108.8127
  1203.0000      0.0000    717.3855     11.0800    106.3662
  1203.2500      0.0000    707.5982     11.3015    103.5295
  1203.5000      0.0000    706.2320     11.7408     99.9954
  1203.7500     -2.0000    711.1650     12.2033     96.1530
  1204.0000      0.0000    714.7082     12.5427     92.8454
  1204.2500      0.0000    708.4626     12.7300     90.8695
  1204.5000      0.0000    685.4556     12.8452     90.2122
  1204.7500      0.0000    645.0554     12.9802     89.7352
  1205.0000      0.0000    599.1612     13.1066     88.0239
  1205.2500      0.0000    567.9841     13.0847     84.6771
  1205.5000      0.0000    565.1619     12.8576     80.7586
  1205.7500      0.0000    588.5624     12.5632     78.1434
  1206.0000      0.0000    624.4133     12.3835     78.3485
  1206.2500      0.0000    654.9470     12.3575     81.5798
  1206.5000      0.0000    664.3063     12.3991     86.6633
  1206.7500      0.0000    646.5989     12.4231     92.0246
  1207.0000      0.0000    611.8977     12.4026     96.9648
  1207.2500      0.0000    580.1650     12.3565    101.9396
  1207.5000      0.0000    566.2415     12.3262    107.5353
  1207.7500      0.0000    570.8623     12.3535    113.4145
  1208.0000      0.0000    585.4795     12.4572    118.4770
  1208.2500      0.0000    602.3844     12.6315    121.8350
  1208.5000      0.0000    616.9399     12.8623    123.3292
  1208.7500      0.0000    622.9619     13.1394    123.2497
  1209.0000      0.0000    613.9879     13.4474    121.8495
  1209.2500      0.0000    592.1547     13.7531    119.1174
  1209.5000      0.0000    570.3113     14.0072    114.8852
  1209.7500      0.0000    561.5508     14.1647    109.3565
  1210.0000      0.0000    569.1624     14.2016    103.8910
  1210.2500      0.0000    589.0818     14.1133    100.9122
  1210.5000      0.0000    618.9869     13.8996    101.9375
  1210.7500      0.0000    659.7808     13.5611    105.3681
  1211.0000      0.0000    708.2991     13.1108    107.2261
  1211.2500      0.0000    754.1649     12.5867    104.5718
  1211.5000      0.0000    786.5062     12.0425     97.5889
  1211.7500      0.0000    801.2249     11.5281     88.4991
  1212.0000      0.0000    801.4314     11.0756     79.7398
  1212.2500      0.0000    794.2665     10.7040     73.3073
  1212.5000      0.0000    787.9645     10.4314     70.3713
  1212.7500      0.0000    788.3950     10.2747     70.5688
  1213.0000      0.0000    795.8953     10.2346     72.0686
  1213.2500      0.0000    805.9876     10.2815     72.9314
  1213.5000      0.0000    813.6271     10.3623     72.3505
  1213.7500      0.0000    816.2401     10.4223     70.4597
  1214.0000      0.0000    813.4332     10.4285     67.4742
  1214.2500      0.0000    805.7079     10.3802     63.7106
  1214.5000      0.0000    794.2651     10.3041     60.2289
  1214.7500      0.0000    781.1905     10.2345     58.4454
  1215.0000      0.0000    769.1429     10.1912     58.7809
  1215.2500      0.0000    760.8998     10.1713     60.3591
  1215.5000      0.0000    758.3796     10.1592     62.3569
  1215.7500      0.0000    760.6548     10.1434     64.9900
  1216.0000      0.0000    763.2439     10.1262     68.7332
  1216.2500      0.0000    761.1939     10.1178     73.0428
  1216.5000      0.0000    753.4374     10.1229     76.3132
  1216.7500      0.0000    743.2999     10.1355     76.9190
  1217.0000      0.0000    734.8735     10.1466     74.2149
  1217.2500      0.0000    729.8373     10.1503     68.9617
  1217.5000      0.0000    727.4969     10.1434     63.0526
  1217.7500      0.0000    726.5093     10.1202     58.4846
  1218.0000      0.0000    726.0419     10.0707     56.2334
  1218.2500      0.0000    725.8386      9.9879     56.1520
  1218.5000      0.0000    725.9061      9.8807     57.7988
  1218.7500      0.0000    726.4016      9.7839     60.7923
  1219.0000      0.0000    727.8148      9.7448     64.3345
  1219.2500      0.0000    731.1664      9.7927     67.0671
  1219.5000      0.0000    737.8760      9.9195     67.8507
  1219.7500      0.0000    749.1712     10.0894     66.6499
  1220.0000      0.0000    765.1526     10.2629     64.5759
  1220.2500      0.0000    784.0346     10.4139     62.9391
  1220.5000      0.0000    802.4072     10.5358     62.2050
  1220.7500      0.0000    817.0887     10.6371     62.0009
  1221.0000      0.0000    827.2536     10.7290     62.1407
  1221.2500      0.0000    834.1880     10.8128     63.1892
  1221.5000      0.0000    838.6314     10.8769     65.7392
  1221.7500      0.0000    839.4571     10.9003     69.4632
  1222.0000      0.0000    835.7524     10.8605     73.3549
  1222.2500      0.0000    829.0632     10.7464     76.8826
  1222.5000      0.0000    822.4487     10.5708     80.5880
  1222.7500      0.0000    817.9450     10.3717     85.2343
  1223.0000      0.0000    815.6789     10.1955     90.3906
  1223.2500      0.0000    814.7752     10.0722     94.2023
  1223.5000      0.0000    814.2648      9.9992     94.8170
  1223.7500      0.0000    813.2203      9.9488     92.0231
  1224.0000      0.0000    810.7017      9.8981     87.6041
  1224.2500      0.0000    806.3028      9.8536     84.3418
  1224.5000      0.0000    801.1265      9.8497     84.4612
  1224.7500      0.0000    797.8786      9.9261     88.3138
  1225.0000      0.0000    799.0381     10.1066     94.0772
  1225.2500      0.0000    804.5022     10.3941     98.9711
  1225.5000      0.0000    811.1637     10.7767    101.2708
  1225.7500      0.0000    814.4818     11.2309    101.0679
  1226.0000      0.0000    809.4730     11.7180     99.0966
  1226.2500      0.0000    790.7164     12.1820     95.5687
  1226.5000      0.0000    754.4208     12.5668     90.5230
  1226.7500      0.0000    703.7218     12.8473     84.6381
  1227.0000      0.0000    650.9585     13.0462     79.1611
  1227.2500      0.0000    609.9706     13.2153     75.1351
  1227.5000      0.0000    584.2707     13.3943     72.7313
  1227.7500      0.0000    566.3690     13.5815     71.1081
  1228.0000      0.0000    551.0609     13.7339     68.9594
  1228.2500      0.0000    545.7014     13.7944     65.5654
  1228.5000      0.0000    563.4449     13.7252     61.4175
  1228.7500      0.0000    607.3514     13.5244     57.6882
  1229.0000      0.0000    663.9053     13.2236     55.1154
  1229.2500      0.0000    712.8340     12.8774     53.5503
  1229.5000      0.0000    742.1191     12.5495     52.5563
  1229.7500      0.0000    753.1605     12.2954     52.2206
  1230.0000      0.0000    754.1230     12.1472     53.1321
  1230.2500      0.0000    751.8550     12.1058     55.5553
  1230.5000      0.0000    749.5750     12.1460     59.0297
  1230.7500      0.0000    748.4033     12.2289     63.0590
  1231.0000      0.0000    748.6525     12.3196     67.7793
  1231.2500      0.0000    750.5513     12.4003     73.4463
  1231.5000      0.0000    755.1466     12.4735     79.5873
  1231.7500      0.0000    764.2076     12.5536     85.1902
  1232.0000      0.0000    778.0288     12.6522     89.6204
  1232.2500      0.0000    793.3463     12.7646     93.1071
  1232.5000      0.0000    804.7048     12.8692     96.4536
  1232.7500      0.0000    808.2651     12.9415    100.2138
