~Version Information
VERS.                      2.0: CWLS Log ASCII Standard - VERSION 2.0
WRAP.                       NO: One line per depth step
~Well Information Block
STRT.FT               520.0000: 
STOP.FT              1373.0000: 
STEP.FT                 0.1000: 
NULL.                -999.2500: 
COMP.          Pioneer Natural Resources: COMPANY
WELL.            Gamma 13-3 Tr: WELL
FLD.           Purgatoire River: FIELD
LOC.           2127' FSL & 738' FWL: LOCATION
STAT.                 Colorado: State
CNTY.               Las Animas: COUNTY
CTRY.                      USA: Country
SECT.                        3: Section
TOWN.                       33S: Township
RANG.                       67W: Range
SRVC.                Patterson: SERVICE COMPANY
DATE.          Mon Sep 19 09:58:04 2005: LOG DATE
API.           05 071 08524 00: API
~Curve Information Block
DEPT.FT            0 000 00 00: Depth
DPOR.pu                       : CDL Density Porosity
GR.GAPI                       : Gamma Ray
NPOR.pu                       : Neutron Porosity
RHOB.g/cc                     : CDL Bulk Density
RHOC.g/cc                     : CDL Density Correction
DCAL.in                       : CDL Caliper
~Parameter Information Block
~A  Depth       DPOR         GR         NPOR        RHOB        RHOC        DCAL    
# ...
   961.6000     18.9609    151.8413     22.7843      2.3371      0.0699      8.1383
   961.7000     15.5038    149.8584     22.9429      2.3942      0.1878      8.1383
   961.8000     12.5809    147.1927     22.8614      2.4424      0.1400      8.1619
   961.9000     10.8855    142.0271     23.3544      2.4704      0.1703      8.1619
   962.0000     10.7149    140.2913     24.4489      2.4732      0.1030      8.1714
   962.1000     11.6246    143.2702     25.2409      2.4582      0.0796      8.1714
   962.2000     13.3087    145.9974     25.3853      2.4304      0.0939      8.1714
   962.3000     15.7998    148.2547     25.3096      2.3893      0.0356      8.1535
   962.4000     18.3073    151.9106     25.2708      2.3479      0.0138      8.1535
   962.5000     19.4045    157.9427     25.2210      2.3298      0.0251      8.1288
   962.6000     18.7543    164.7421     25.0179      2.3406      0.0690      8.1288
   962.7000     17.6943    169.3023     24.7366      2.3580      0.0890      8.1288
   962.8000     16.7702    169.4387     24.7390      2.3733      0.0877      8.1015
   962.9000     14.4472    161.3527     25.2473      2.4116      0.1041      8.1015
   963.0000     10.2080    147.9120     25.8896      2.4816      0.2196      8.0711
   963.1000      6.1282    139.5867     26.1180      2.5489      0.2762      8.0711
   963.2000      3.5403    140.1939     26.1204      2.5916      0.3123      8.0711
   963.3000      1.3746    143.5446     26.2961      2.6273      0.3298      8.0492
   963.4000     -0.9822    144.8666     26.5266      2.6662      0.3025      8.0492
   963.5000     -2.2444    146.6562     26.6261      2.6870      0.3147      8.0393
   963.6000     -2.1395    150.5460     26.6045      2.6853      0.1501      8.0393
   963.7000     -1.9587    153.9500     26.5286      2.6823      0.1435      8.0393
   963.8000     -1.2047    155.6199     26.3648      2.6699      0.1650      8.0380
   963.9000      1.1840    157.0299     26.0700      2.6305      0.1211      8.0380
   964.0000      4.6522    157.1346     25.5669      2.5732      0.0894      8.0475
   964.1000      8.1846    156.2136     24.8066      2.5150      0.0301      8.0475
   964.2000     11.0995    160.6733     24.0272      2.4669      0.0071      8.0475
   964.3000     13.1051    170.6660     23.5618      2.4338     -0.0042      8.0612
   964.4000     13.6832    174.4886     23.5203      2.4242     -0.0323      8.0612
   964.5000     12.8462    169.5209     23.6388      2.4380      0.0550      8.0790
   964.6000     11.8075    166.0525     23.6680      2.4552      0.0486      8.0790
   964.7000     11.2921    165.3654     23.7668      2.4637      0.0839      8.0790
   964.8000     11.0897    162.2184     24.1110      2.4670      0.0712      8.0964
   964.9000     10.8237    159.3022     24.4832      2.4714      0.0826      8.0964
   965.0000     10.2146    159.3582     24.5500      2.4815      0.0888      8.0909
   965.1000      9.4753    159.2706     24.5183      2.4937      0.1394      8.0909
   965.2000      9.5465    157.4398     24.7307      2.4925      0.1270      8.0909
   965.3000     10.8549    156.1155     24.9985      2.4709      0.0823      8.0805
   965.4000     12.6337    157.5165     25.1230      2.4415      0.1077      8.0805
   965.5000     13.8028    158.8811     25.0924      2.4223      0.0601      8.0887
   965.6000     13.6209    157.4748     24.8959      2.4253      0.0396      8.0887
   965.7000     12.2811    158.4826     24.6981      2.4474      0.0848      8.0887
   965.8000     10.7277    164.7579     24.7003      2.4730      0.0756      8.0937
   965.9000      9.4189    170.0321     24.7445      2.4946      0.0978      8.0937
   966.0000      8.4083    169.7230     24.6969      2.5113      0.1354      8.0808
   966.1000      7.9837    167.4956     24.8327      2.5183      0.1499      8.0808
   966.2000      8.4325    165.3898     25.2289      2.5109      0.1352      8.0808
   966.3000      9.6617    162.0506     25.4647      2.4906      0.1498      8.0680
   966.4000     11.0038    159.4796     25.3301      2.4684      0.1388      8.0680
   966.5000     11.2791    158.5524     25.2938      2.4639      0.0794      8.0623
   966.6000     10.2009    157.3482     25.5298      2.4817      0.0816      8.0623
   966.7000      9.1587    156.2091     25.6316      2.4989      0.1222      8.0623
   966.8000      8.9962    157.6559     25.6804      2.5016      0.0679      8.0623
   966.9000      8.7204    158.6807     25.8585      2.5061      0.0417      8.0623
   967.0000      7.3489    153.8347     25.9766      2.5287      0.0835      8.0689
   967.1000      5.1630    146.6088     25.8537      2.5648      0.1369      8.0689
   967.2000      3.4045    143.0759     25.3977      2.5938      0.1550      8.0689
   967.3000      3.1523    140.9480     24.8053      2.5980      0.1486      8.0825
   967.4000      4.1995    136.2222     24.3748      2.5807      0.0698      8.0825
   967.5000      5.7565    131.8006     24.0487      2.5550      0.1081      8.1041
   967.6000      7.3797    130.7421     23.7270      2.5282      0.0849      8.1041
   967.7000      8.9100    131.8081     23.5110      2.5030      0.0566      8.1041
   967.8000     10.3978    130.9784     23.4932      2.4784      0.0614      8.1372
   967.9000     11.1982    126.3414     23.7830      2.4652      0.0082      8.1372
   968.0000     10.3966    122.6462     24.4143      2.4785      0.0069      8.1714
   968.1000      8.7297    126.1904     25.1471      2.5060      0.0851      8.1714
   968.2000      7.6197    137.4924     25.6279      2.5243      0.0734      8.1714
   968.3000      7.1627    146.8595     25.8063      2.5318      0.1075      8.1856
   968.4000      6.6189    145.8062     25.9582      2.5408      0.0808      8.1856
   968.5000      5.6514    138.7767     26.0379      2.5568      0.1252      8.1690
   968.6000      4.5746    134.4547     25.8718      2.5745      0.1227      8.1690
   968.7000      3.5158    135.7281     25.7522      2.5920      0.1176      8.1690
   968.8000      2.5316    140.0277     25.9428      2.6082      0.1290      8.1287
   968.9000      2.1924    144.4916     26.5346      2.6138      0.0739      8.1287
   969.0000      3.0105    149.1906     27.3108      2.6003      0.0873      8.0840
   969.1000      4.3020    154.3732     27.7115      2.5790     -0.0139      8.0840
   969.2000      4.8528    156.9749     27.6602      2.5699      0.0436      8.0840
   969.3000      4.8944    156.0028     27.3575      2.5692      0.0285      8.0643
   969.4000      4.9173    153.8001     26.8537      2.5689      0.0027      8.0643
   969.5000      4.8371    152.4566     26.3392      2.5702      0.0064      8.0754
   969.6000      4.7319    152.9148     26.1837      2.5719      0.0125      8.0754
   969.7000      4.6116    153.2221     26.5887      2.5739      0.0012      8.0754
   969.8000      4.8240    149.4684     27.2096      2.5704      0.0459      8.0955
   969.9000      5.7663    145.3675     27.4719      2.5549      0.0011      8.0955
   970.0000      7.0433    147.4031     27.3982      2.5338      0.0152      8.1122
   970.1000      7.9252    152.7374     27.3773      2.5192     -0.0540      8.1122
   970.2000      7.3860    155.2348     27.5019      2.5281     -0.0663      8.1122
   970.3000      5.1752    151.8589     27.7510      2.5646      0.0194      8.1253
   970.4000      2.4910    142.6214     27.9353      2.6089      0.0345      8.1253
   970.5000      0.5415    134.2263     27.5943      2.6411      0.0761      8.1268
   970.6000     -0.0142    134.3686     26.7214      2.6502      0.0748      8.1268
   970.7000      0.4101    141.1752     25.8749      2.6432      0.0055      8.1268
   970.8000      0.4474    147.8081     25.2564      2.6426      0.0227      8.1169
   970.9000      0.2559    149.7102     24.7717      2.6458      0.0956      8.1169
   971.0000      1.1103    145.2964     24.5685      2.6317      0.0479      8.1048
   971.1000      2.9504    139.8288     24.5352      2.6013      0.0617      8.1048
