~Version Information
VERS.                      2.0: CWLS Log ASCII Standard - VERSION 2.0
WRAP.                       NO: One line per depth step
~Well Information Block
STRT.FT               245.0000: 
STOP.FT              1217.7000: 
STEP.FT                 0.1000: 
NULL.                -999.2500: 
COMP.          Pioneer Natural Resources: COMPANY
WELL.          Lucky Lady 42-29: WELL
FLD.           Purgatoire River: FIELD
LOC.           2482' FNL & 662' FEL--: LOCATION
CNTY.               Las Animas: COUNTY
SRVC.                Patterson: SERVICE COMPANY
DATE.          Thu Mar 09 18:39:54 2006: LOG DATE
UWI.           05 071 08659 00: UNIQUE WELL ID
STAT.                 Colorado: STATE
~Curve Information Block
DEPT.FT            0 000 00 00: Depth
DCAL.in                       : CDL Caliper
RHOB.g/cc                     : CDL Bulk Density
RHOC.g/cc                     : CDL Density Correction
DPOR.pu                       : CDL Density Porosity
NPOR.pu                       : Neutron Porosity
GR.GAPI                       : Gamma Ray
~Parameter Information Block
~A  Depth       DCAL        RHOB        RHOC        DPOR        NPOR         GR     
# ...
   811.4000      7.9301      2.5710      0.1194      4.7861     19.2137    126.3685
   811.5000      7.9290      2.6054      0.1309      2.7041     18.9770    122.4992
   811.6000      7.9290      2.6141      0.1243      2.1785     19.0948    118.2313
   811.7000      7.9290      2.5865      0.1170      3.8459     19.6096    114.1105
   811.8000      7.9321      2.5401      0.0752      6.6585     20.1925    109.3940
   811.9000      7.9321      2.4927      0.0130      9.5329     20.5426    103.5093
   812.0000      7.9361      2.4657     -0.0271     11.1709     20.5409    100.4940
   812.1000      7.9361      2.4748     -0.0127     10.6182     20.2092    104.0253
   812.2000      7.9361      2.4961      0.0686      9.3250     19.8564    109.2713
   812.3000      7.9317      2.4995      0.0425      9.1242     19.7603    111.0909
   812.4000      7.9317      2.4947      0.0404      9.4125     19.8531    112.2919
   812.5000      7.9207      2.4987      0.0181      9.1716     19.9033    116.5819
   812.6000      7.9207      2.5048      0.0701      8.7996     19.9064    120.7932
   812.7000      7.9207      2.4993      0.1054      9.1359     19.9644    120.0027
   812.8000      7.9089      2.4826      0.0740     10.1454     20.1983    115.8511
   812.9000      7.9089      2.4712      0.0766     10.8389     20.6664    112.2965
   813.0000      7.9025      2.4806      0.0517     10.2690     21.0933    109.5468
   813.1000      7.9025      2.5088      0.0622      8.5585     21.1570    109.3345
   813.2000      7.9025      2.5346      0.1238      6.9911     20.9808    114.5028
   813.3000      7.9008      2.5474      0.0861      6.2175     21.0610    120.9767
   813.4000      7.9008      2.5579      0.0660      5.5814     21.4528    122.2274
   813.5000      7.9003      2.5679      0.0687      4.9749     21.7851    118.6274
   813.6000      7.9003      2.5667      0.0833      5.0471     22.0394    115.5488
   813.7000      7.9003      2.5603      0.0500      5.4339     22.3784    114.4912
   813.8000      7.8992      2.5609      0.0611      5.3975     22.5674    114.5238
   813.9000      7.8992      2.5613      0.0722      5.3780     22.6276    117.0815
   814.0000      7.8981      2.5562      0.0379      5.6859     23.0037    120.1360
   814.1000      7.8981      2.5537      0.0528      5.8355     23.7049    118.0530
   814.2000      7.8981      2.5500      0.0392      6.0589     24.2598    113.6819
   814.3000      7.9019      2.5351      0.0673      6.9647     24.5178    114.2076
   814.4000      7.9019      2.5143      0.0301      8.2234     24.7128    118.3160
   814.5000      7.9112      2.5045     -0.0019      8.8174     24.7679    120.4440
   814.6000      7.9112      2.5054      0.0590      8.7607     24.4428    120.6487
   814.7000      7.9112      2.5105     -0.0339      8.4561     24.1336    120.3713
   814.8000      7.9147      2.5272      0.0219      7.4405     24.2603    115.9047
   814.9000      7.9147      2.5492      0.0745      6.1063     24.6028    107.8849
   815.0000      7.9121      2.5631      0.0212      5.2661     24.9115    104.6873
   815.1000      7.9121      2.5700      0.0697      4.8473     25.1736    108.6431
   815.2000      7.9121      2.5760      0.0401      4.4865     25.5179    113.2818
   815.3000      7.9159      2.5851      0.0622      3.9308     25.9578    113.7165
   815.4000      7.9159      2.5836      0.0869      4.0225     26.1444    110.9860
   815.5000      7.9230      2.5590      0.0076      5.5175     26.0063    108.9187
   815.6000      7.9230      2.5307      0.0164      7.2292     25.6406    107.9994
   815.7000      7.9230      2.5163      0.0229      8.1045     25.1007    107.5347
   815.8000      7.9248      2.5136     -0.0001      8.2693     24.5938    107.5540
   815.9000      7.9248      2.5188      0.0397      7.9507     24.2572    106.5906
   816.0000      7.9215      2.5276      0.0193      7.4180     24.0549    105.2306
   816.1000      7.9215      2.5390      0.0100      6.7299     23.9291    106.2865
   816.2000      7.9215      2.5539      0.0354      5.8242     23.9275    108.4935
   816.3000      7.9130      2.5668      0.0466      5.0406     24.0067    110.4995
   816.4000      7.9130      2.5694      0.0613      4.8836     23.7744    113.1368
   816.5000      7.9052      2.5615      0.0427      5.3648     23.0636    116.3793
   816.6000      7.9052      2.5569      0.0196      5.6421     22.4722    120.1337
   816.7000      7.9052      2.5663      0.1062      5.0744     22.3631    121.5029
   816.8000      7.9040      2.5789      0.0832      4.3117     22.3959    118.0862
   816.9000      7.9040      2.5788      0.0957      4.3157     22.3591    113.4868
   817.0000      7.9011      2.5672      0.0268      5.0171     22.2682    109.8695
   817.1000      7.9011      2.5540      0.0527      5.8153     22.1605    105.7379
   817.2000      7.9011      2.5371      0.0446      6.8431     22.1239    100.7429
   817.3000      7.8935      2.5157      0.0275      8.1389     22.1173     96.4798
   817.4000      7.8935      2.5012      0.0319      9.0188     22.0922     95.1072
   817.5000      7.8888      2.5031      0.0119      8.9058     22.1518     95.6550
   817.6000      7.8888      2.5126      0.0375      8.3288     22.3298     96.5282
   817.7000      7.8888      2.5232     -0.0239      7.6855     22.5282     97.6484
   817.8000      7.8969      2.5408      0.0537      6.6162     22.7169     98.7440
   817.9000      7.8969      2.5507      0.0549      6.0199     22.8828    100.5105
   818.0000      7.9099      2.5372      0.0452      6.8342     23.0079    102.3801
   818.1000      7.9099      2.5185      0.0086      7.9689     23.0900    103.7854
   818.2000      7.9099      2.5166      0.0434      8.0849     22.9783    106.2615
   818.3000      7.9140      2.5263      0.0566      7.4959     22.5296    109.0699
   818.4000      7.9140      2.5315      0.0366      7.1798     21.7502    109.3463
   818.5000      7.9068      2.5288      0.0486      7.3447     20.8613    108.1513
   818.6000      7.9068      2.5291      0.0537      7.3243     20.2431    107.6277
   818.7000      7.9068      2.5423      0.0735      6.5276     20.0715    107.3973
   818.8000      7.8958      2.5603      0.1064      5.4373     20.2352    109.4592
   818.9000      7.8958      2.5673      0.1158      5.0101     20.3602    112.6644
   819.0000      7.8869      2.5677      0.0533      4.9895     20.2325    109.5491
   819.1000      7.8869      2.5858      0.0815      3.8899     20.0650    101.1196
   819.2000      7.8869      2.6258      0.1217      1.4669     20.0497     96.6486
   819.3000      7.8822      2.6606      0.1570     -0.6425     20.2415     96.2905
   819.4000      7.8822      2.6793      0.0672     -1.7760     20.6665     93.2241
   819.5000      7.8782      2.7034      0.0676     -3.2346     21.3207     84.3279
   819.6000      7.8782      2.7361      0.1316     -5.2158     22.0356     73.1744
   819.7000      7.8782      2.7586      0.1245     -6.5808     22.6730     66.8424
   819.8000      7.8839      2.7706      0.1207     -7.3120     23.4857     67.9123
   819.9000      7.8839      2.7862      0.0601     -8.2558     24.7286     70.2136
   820.0000      7.9024      2.8020      0.0517     -9.2109     26.0009     67.6540
   820.1000      7.9024      2.7965      0.0486     -8.8810     26.8361     94.2379
   820.2000      7.9024      2.7689     -0.0170     -7.2048     27.4425     89.4005
   820.3000      7.9172      2.7360     -0.0121     -5.2127     27.9274     84.8667
   820.4000      7.9172      2.7099     -0.0527     -3.6328     28.0348     79.8805
   820.5000      7.9178      2.7017     -0.0495     -3.1359     27.7784     76.4556
   820.6000      7.9178      2.6996      0.0311     -3.0039     27.3334     74.7645
   820.7000      7.9178      2.6728      0.0003     -1.3796     26.7905     76.5534
   820.8000      7.9103      2.6122      0.0097      2.2932     26.2336     84.5877
   820.9000      7.9103      2.5407     -0.0781      6.6228     25.5508     94.3220
