~Version Information
VERS.                      2.0: CWLS Log ASCII Standard - VERSION 2.0
WRAP.                       NO: One line per depth step
~Well Information Block
STRT.FT                -7.0000: 
STOP.FT              1155.0000: 
STEP.FT                 0.2500: 
NULL.                -999.2500: 
COMP.          Pioneer Natural Resources: COMPANY
WELL.          Whitecoat 14-36: WELL
FLD.           Purgatorie River: FIELD
LOC.           606' FSL & 260' FWL--: LOCATION
PROV.                       CO: PROVINCE
CNTY.               Las Animas: COUNTRY
SRVC.          Patterson Wireline: SERVICE COMPANY
DATE.          Mon Dec 12 12:56:49 2005: LOG DATE
UWI.           08 071 08593 00: UNIQUE WELL ID
~Curve Information Block
DEPT.FT            0 000 00 00: Depth
CCL.                          : Casing Collar Locator
TT3.usec                      : CBL 3' Travel Time
AMP3.mV                       : CBL 3' Amplitude
GR.GAPI                       : Gamma Ray
~Parameter Information Block
~A  Depth       CCL         TT3         AMP3         GR     
# ...
   897.5000      0.0000    404.7069      4.3241     64.3071
   897.7500      0.0000    407.8269      4.2925     62.4003
   898.0000      0.0000    412.3041      4.2781     61.7995
   898.2500      0.0000    415.6871      4.2687     61.9818
   898.5000      0.0000    417.1818      4.2457     61.9607
   898.7500      0.0000    416.9785      4.2039     61.1885
   899.0000      0.0000    415.6446      4.1600     59.9117
   899.2500      0.0000    414.1313      4.1399     58.8280
   899.5000      0.0000    413.6107      4.1558     58.4211
   899.7500      0.0000    414.7154      4.1986     58.6386
   900.0000      0.0000    417.0061      4.2488     59.1011
   900.2500      0.0000    419.5700      4.2905     59.4113
   900.5000      0.0000    422.1668      4.3159     59.3554
   900.7500      0.0000    425.9166      4.3214     58.9847
   901.0000      0.0000    433.1149      4.3005     58.4620
   901.2500      0.0000    446.3402      4.2388     57.7943
   901.5000      0.0000    467.4786      4.1130     56.7627
   901.7500      0.0000    497.3564      3.9045     55.2536
   902.0000      0.0000    535.3503      3.6239     53.8024
   902.2500      0.0000    578.0337      3.3311     53.6891
   902.5000      0.0000    618.7538      3.1224     56.1174
   902.7500      0.0000    650.6349      3.0863     61.1506
   903.0000      0.0000    670.7199      3.2549     67.5719
   903.2500      0.0000    680.7662      3.5823     73.8405
   903.5000      0.0000    684.6815      3.9604     79.1372
   903.7500      0.0000    686.0497      4.2631     83.4997
   904.0000      0.0000    687.4652      4.3968     87.3003
   904.2500      0.0000    690.5961      4.3279     90.9800
   904.5000      0.0000    695.6684      4.0798     94.9870
   904.7500      0.0000    700.8698      3.7174     99.2309
   905.0000      0.0000    703.2507      3.3300    102.5668
   905.2500      0.0000    701.2352      3.0095    103.5011
   905.5000      0.0000    696.1071      2.8266    101.7035
   905.7500      0.0000    690.6551      2.8117     98.4547
   906.0000      0.0000    686.8124      2.9470     95.4035
   906.2500      0.0000    684.9465      3.1719     93.2147
   906.5000      0.0000    684.8488      3.4019     91.3929
   906.7500      0.0000    686.8553      3.5526     88.8814
   907.0000      0.0000    692.0482      3.5668     84.6978
   907.2500      0.0000    701.1031      3.4473     78.6987
   907.5000      0.0000    712.2742      3.2702     72.3532
   907.7500      0.0000    720.7863      3.1426     68.2733
   908.0000      0.0000    721.7676      3.1257     68.0778
   908.2500      0.0000    714.5733      3.1935     70.8787
   908.5000      0.0000    703.4653      3.2693     74.4322
   908.7500      0.0000    693.7230      3.2964     77.3052
   909.0000      0.0000    687.8434      3.2759     79.4008
   909.2500      0.0000    685.3101      3.2439     81.2002
   909.5000      0.0000    684.5522      3.2225     83.3916
   909.7500      0.0000    684.4068      3.2024     86.6504
   910.0000      0.0000    684.4167      3.1717     90.9452
   910.2500      0.0000    684.6318      3.1486     95.2816
   910.5000      0.0000    685.4048      3.1683     98.4546
   910.7500      0.0000    687.1316      3.2432     99.8962
   911.0000      0.0000    689.7189      3.3450     99.8541
   911.2500      0.0000    692.0231      3.4274     99.1109
   911.5000      0.0000    692.0578      3.4589     98.5909
   911.7500      0.0000    688.3411      3.4346     98.9225
   912.0000      0.0000    681.4633      3.3659    100.0719
   912.2500      0.0000    674.3521      3.2731    101.3055
   912.5000      0.0000    670.5452      3.1931    101.5768
   912.7500      0.0000    671.5706      3.1792    100.0141
   913.0000      0.0000    675.9054      3.2707     96.2542
   913.2500      0.0000    680.6344      3.4577     90.6883
   913.5000      0.0000    683.8427      3.6842     84.5364
   913.7500      0.0000    685.3377      3.8865     79.5293
   914.0000      0.0000    685.7967      4.0256     77.1412
   914.2500      0.0000    685.8524      4.0878     77.7437
   914.5000      0.0000    685.8329      4.0679     80.3149
   914.7500      0.0000    685.8939      3.9558     83.0761
   915.0000      0.0000    686.1302      3.7464     84.5986
   915.2500      0.0000    686.5655      3.4602     84.3915
   915.5000      0.0000    686.9646      3.1487     82.6658
   915.7500      0.0000    686.7672      2.8624     79.9238
   916.0000      0.0000    685.7106      2.6119     76.8620
   916.2500      0.0000    685.2657      2.3687     74.3789
   916.5000      0.0000    689.0689      2.1148     73.4434
   916.7500      0.0000    700.3174      1.8922     74.7211
   917.0000      0.0000    717.4838      1.7940     78.0339
   917.2500      0.0000    733.1951      1.8999     82.1824
   917.5000      0.0000    738.1411      2.2188     85.7144
   917.7500      0.0000    726.0736      2.6785     88.1404
   918.0000      2.0000    696.0635      3.1547     90.3362
   918.2500      0.0000    653.6823      3.5213     93.7078
   918.5000      0.0000    612.2602      3.7155     98.9262
   918.7500      0.0000    588.9559      3.7871    105.2315
   919.0000      0.0000    593.3676      3.8658    110.6919
   919.2500      0.0000    618.0934      4.0458    113.2236
   919.5000      0.0000    641.6833      4.2971    111.8210
   919.7500      0.0000    642.3918      4.5018    107.2193
   920.0000      0.0000    612.1968      4.5749    101.3646
   920.2500      0.0000    561.1821      4.5347     96.0383
   920.5000      0.0000    509.1358      4.4642     92.0787
   920.7500      0.0000    471.7481      4.4297     89.8729
   921.0000      0.0000    453.2368      4.4383     89.8317
   921.2500      0.0000    449.0266      4.4543     91.6967
   921.5000      0.0000    452.0638      4.4450     93.8249
   921.7500      0.0000    456.8377      4.4214     94.1364
   922.0000      0.0000    460.3387      4.4452     91.9851
   922.2500      0.0000    461.4229      4.5831     88.7484
   922.5000      0.0000    459.7655      4.8387     86.6409
   922.7500      0.0000    455.3324      5.1334     87.1020
   923.0000      0.0000    448.6587      5.3640     90.0304
   923.2500      0.0000    441.1432      5.4790     94.1374
   923.5000      0.0000    434.5371      5.4997     97.9190
   923.7500      0.0000    429.8966      5.4780    100.4421
   924.0000      0.0000    427.1085      5.4421    101.6838
   924.2500      0.0000    425.3733      5.3782    102.5255
   924.5000      0.0000    423.9896      5.2610    104.2143
   924.7500      0.0000    422.7870      5.1040    107.2460
   925.0000      0.0000    422.3565      4.9750    110.5872
   925.2500      0.0000    424.4239      4.9502    112.3446
   925.5000      0.0000    432.1060      5.0483    111.5463
   925.7500      0.0000    448.9274      5.2120    109.0880
   926.0000      0.0000    475.4432      5.3539    106.4571
   926.2500      0.0000    505.0540      5.4178    103.6640
   926.5000      0.0000    524.5913      5.3988     99.2551
   926.7500      0.0000    523.0096      5.3221     92.6490
   927.0000      0.0000    501.0929      5.2141     85.6784
   927.2500      0.0000    470.8596      5.0916     81.0891
   927.5000      0.0000    445.1363      4.9694     79.8666
   927.7500      0.0000    429.2405      4.8683     80.7007
   928.0000      0.0000    421.5146      4.8089     81.8174
   928.2500      0.0000    418.2528      4.7966     82.5750
   928.5000      0.0000    416.8833      4.8151     83.2667
   928.7500      0.0000    416.3205      4.8377     83.9412
   929.0000      0.0000    416.2814      4.8455     83.8304
   929.2500      0.0000    416.8807      4.8352     82.0975
   929.5000      0.0000    418.8438      4.8165     79.1794
   929.7500      0.0000    424.1498      4.8025     76.9238
   930.0000      0.0000    436.3266      4.7978     76.8067
   930.2500      0.0000    459.1854      4.7929     78.1071
   930.5000      0.0000    494.0131      4.7708     78.4006
   930.7500      0.0000    537.7895      4.7220     75.9466
