~Version Information
VERS.                      2.0: CWLS Log ASCII Standard - VERSION 2.0
WRAP.                       NO: One line per depth step
~Well Information Block
STRT.FT               305.0000: 
STOP.FT              1376.5000: 
STEP.FT                 0.1000: 
NULL.                -999.2500: 
COMP.          Pioneer Natural Resources: COMPANY
WELL.               LPGC 32-32: WELL
FLD.           Purgatoire River: FIELD
LOC.           1937' FNL & 1661' FEL: LOCATION
PROV.                 Colorado: PROVINCE
CNTY.               Las Animas: COUNTRY
SRVC.                Patterson: SERVICE COMPANY
DATE.          Mon Jan 30 07:33:36 2006: LOG DATE
UWI.           05 071 08641 00: UNIQUE WELL ID
~Curve Information Block
DEPT.FT            0 000 00 00: Depth
DCAL.in                       : CDL Caliper
RHOB.g/cc                     : CDL Bulk Density
RHOC.g/cc                     : CDL Density Correction
DPOR.pu                       : CDL Density Porosity
GR.GAPI                       : Gamma Ray
NPOR.pu                       : Neutron Porosity
~Parameter Information Block
~A  Depth       DCAL        RHOB        RHOC        DPOR         GR         NPOR    
# ...
   449.0000      7.8992      2.3320      0.0550     19.2705     36.1374     20.6448
   449.1000      7.8992      2.3002     -0.0473     21.2016     34.8670     20.1422
   449.2000      7.8992      2.3043      0.0151     20.9499     36.3336     19.1826
   449.3000      7.9207      2.3521      0.0104     18.0547     37.9793     17.7858
   449.4000      7.9207      2.4155      0.1315     14.2113     37.3858     15.9384
   449.5000      7.9124      2.4487      0.2151     12.1977     34.4510     14.0058
   449.6000      7.9124      2.4305      0.2146     13.3017     31.4611     12.3095
   449.7000      7.9124      2.3792      0.1358     16.4114     29.2262     10.8070
   449.8000      7.9205      2.3161      0.1636     20.2346     26.4851      9.5027
   449.9000      7.9205      2.2376      0.1382     24.9949     24.7015      8.4552
   450.0000      7.9067      2.1400      0.0378     30.9067     24.7183      7.5120
   450.1000      7.9067      2.0390      0.0029     37.0332     25.2468      6.7452
   450.2000      7.9067      1.9499      0.0398     42.4301     25.1754      6.3710
   450.3000      7.9033      1.8810      0.0636     46.6061     23.2208      6.2305
   450.4000      7.9033      1.8352      0.1353     49.3829     20.5152      5.9909
   450.5000      7.9144      1.8077      0.1901     51.0463     19.3523      5.7227
   450.6000      7.9144      1.7880      0.2353     52.2417     19.9817      5.6791
   450.7000      7.9144      1.7661      0.1864     53.5682     20.7911      5.8767
   450.8000      7.9279      1.7394      0.1627     55.1890     21.0636      6.1742
   450.9000      7.9279      1.7112      0.1202     56.8967     22.1842      6.2700
   451.0000      7.9390      1.6862      0.1101     58.4114     23.6929      6.0864
   451.1000      7.9390      1.6634      0.1448     59.7926     22.7041      5.8860
   451.2000      7.9390      1.6409      0.1272     61.1547     19.3902      5.8807
   451.3000      8.0116      1.6195      0.1205     62.4554     17.3240      6.1482
   451.4000      8.0116      1.6014      0.0580     63.5519     18.6711      6.7311
   451.5000      7.9588      1.5952      0.0379     63.9274     22.8452      7.5259
   451.6000      7.9588      1.6029      0.0725     63.4598     27.6078      8.2755
   451.7000      7.9588      1.6145      0.0704     62.7554     30.3150      8.7862
   451.8000      8.0312      1.6295      0.0891     61.8496     31.5408      9.0743
   451.9000      8.0312      1.6624      0.0781     59.8547     31.9225      9.2922
   452.0000      7.9578      1.7178      0.0898     56.4970     30.2563      9.5494
   452.1000      7.9578      1.7746      0.1358     53.0545     27.1362      9.9370
   452.2000      7.9578      1.8078      0.1204     51.0411     24.0078     10.6919
   452.3000      8.0046      1.8143      0.1312     50.6465     22.0647     11.9172
   452.4000      8.0046      1.8092      0.1373     50.9573     21.9245     13.2813
   452.5000      8.0100      1.8151      0.1173     50.6014     22.4540     14.5243
   452.6000      8.0100      1.8484      0.1283     48.5806     22.6606     15.4525
   452.7000      8.0100      1.8992      0.1761     45.5049     23.7952     15.8464
   452.8000      7.9310      1.9464      0.1070     42.6412     26.7544     16.0102
   452.9000      7.9310      1.9954      0.0346     39.6737     30.5150     16.3950
   453.0000      7.9222      2.0699      0.1066     35.1555     34.7656     17.0096
   453.1000      7.9222      2.1771      0.2040     28.6620     38.7397     17.6325
   453.2000      7.9222      2.2995      0.2408     21.2452     41.4081     18.1937
   453.3000      7.9371      2.4106      0.2562     14.5088     43.8572     18.7312
   453.4000      7.9371      2.4847      0.3005     10.0168     46.7975     19.2117
   453.5000      7.9112      2.5116      0.2748      8.3864     51.1088     19.5793
   453.6000      7.9112      2.5042      0.1753      8.8359     58.6386     20.0211
   453.7000      7.9112      2.4782      0.1479     10.4135     67.8625     20.7140
   453.8000      7.8812      2.4389      0.1292     12.7930     76.3768     21.3711
   453.9000      7.8812      2.4001     -0.0000     15.1470     84.6251     22.0385
   454.0000      7.9824      2.3742      0.0663     16.7156     92.7745     23.0951
   454.1000      7.9824      2.3575      0.0482     17.7261    100.7659     24.1701
   454.2000      7.9824      2.3615      0.0054     17.4876    109.7727     24.7689
   454.3000      8.0809      2.4015      0.1257     15.0606    119.1320     25.0072
   454.4000      8.0809      2.4543      0.2203     11.8628    123.8033     25.1200
   454.5000      8.0977      2.4893      0.1175      9.7389    121.6711     25.3593
   454.6000      8.0977      2.5075      0.1126      8.6372    119.3551     25.9671
   454.7000      8.0977      2.5219      0.0879      7.7642    122.6504     26.8599
   454.8000      8.0708      2.5486      0.0934      6.1448    130.1277     27.7081
   454.9000      8.0708      2.5949      0.0971      3.3411    135.6134     28.2608
   455.0000      8.0320      2.6384      0.1803      0.7056    133.0621     28.5039
   455.1000      8.0320      2.6524      0.1843     -0.1482    127.2346     28.3709
   455.2000      8.0320      2.6405      0.1577      0.5766    125.3678     27.7532
   455.3000      8.0373      2.6237      0.1477      1.5932    124.4616     26.9293
   455.4000      8.0373      2.6183      0.0940      1.9222    124.1150     26.3845
   455.5000      8.0299      2.6223      0.1535      1.6798    128.3612     26.1866
   455.6000      8.0299      2.6194      0.1141      1.8556    130.4282     26.0927
   455.7000      8.0299      2.6065      0.0731      2.6341    123.0185     26.0945
   455.8000      8.0008      2.5872      0.1075      3.8056    113.2784     25.9632
   455.9000      8.0008      2.5657      0.0590      5.1102    108.5274     25.5177
   456.0000      8.0085      2.5541      0.0847      5.8113    108.2721     25.1341
   456.1000      8.0085      2.5518      0.0371      5.9512    108.2869     24.7011
   456.2000      8.0085      2.5454      0.0834      6.3390    104.8355     23.8925
   456.3000      8.0048      2.5241      0.1066      7.6315    100.1184     23.2514
   456.4000      8.0048      2.4900      0.0671      9.6985     96.6162     23.1916
   456.5000      8.0005      2.4562      0.0693     11.7435     96.6407     23.2486
   456.6000      8.0005      2.4370      0.0698     12.9088    106.1632     23.1716
   456.7000      8.0005      2.4494      0.0037     12.1578    122.4888     23.2811
   456.8000      7.9953      2.5009      0.0644      9.0375    133.8271     23.6743
   456.9000      7.9953      2.5699      0.1432      4.8530    137.7695     24.2119
   457.0000      7.9704      2.6223      0.2039      1.6778    138.9445     24.7273
   457.1000      7.9704      2.6395      0.2208      0.6335    138.6926     25.1554
   457.2000      7.9704      2.6284      0.2113      1.3096    138.2199     25.4027
   457.3000      7.9880      2.6133      0.1594      2.2224    138.8214     25.3790
   457.4000      7.9880      2.6060      0.2122      2.6668    139.0252     25.4246
   457.5000      7.9930      2.5957      0.1553      3.2929    137.8380     25.9143
   457.6000      7.9930      2.5844      0.0677      3.9756    135.0756     26.6816
   457.7000      7.9930      2.5836      0.1146      4.0255    130.5839     27.2200
   457.8000      8.0827      2.5874      0.0808      3.7968    124.7123     27.2533
   457.9000      8.0827      2.5918      0.0444      3.5255    119.4634     26.9878
   458.0000      8.1571      2.5987      0.0985      3.1107    115.5737     26.8149
   458.1000      8.1571      2.6019      0.0275      2.9177    111.6862     26.7436
   458.2000      8.1571      2.6002      0.0091      3.0201    107.7200     26.5374
   458.3000      8.2078      2.5995      0.0154      3.0589    104.7328     26.2404
   458.4000      8.2078      2.6050      0.0036      2.7247    100.3336     25.9081
   458.5000      8.1940      2.6167      0.0115      2.0175     91.6677     25.3302
