~Version Information
VERS.                      2.0: CWLS Log ASCII Standard - VERSION 2.0
WRAP.                       NO: One line per depth step
~Well Information Block
STRT.FT               260.0000: 
STOP.FT               713.2500: 
STEP.FT                 0.2500: 
NULL.                -999.2500: 
COMP.          Pioneer Natural Resources: COMPANY
WELL.           Quintessa 23-7: WELL
FLD.           Purgatoire River: FIELD
LOC.           1964' FSL & 2589' FWL--: LOCATION
PROV.                 Colorado: PROVINCE
CNTY.               Las Animas: COUNTRY
SRVC.                Patterson: SERVICE COMPANY
DATE.          Fri Nov 18 16:07:34 2005: LOG DATE
UWI.           05 071 08558 00: UNIQUE WELL ID
~Curve Information Block
DEPT.FT            0 000 00 00: Depth
SN.Ohm-m                      : IEL Short Normal
SP.mV                         : IEL Spontaneous Potential
DIR.Ohm-m                     : IEL Induction Resistivity
GR.GAPI                       : Gamma Ray
~Parameter Information Block
~A  Depth        SN          SP         DIR          GR     
# ...
   494.5000     30.4982     91.4760     27.9350     59.6109
   494.7500     30.6935     90.6431     27.8901     59.3682
   495.0000     30.9697     89.6991     27.8645     59.3216
   495.2500     31.3366     88.6457     27.8875     59.2588
   495.5000     31.8019     87.4908     28.0063     58.7294
   495.7500     32.3792     86.2475     28.2726     57.8763
   496.0000     33.0845     84.9340     28.7234     55.6213
   496.2500     33.9199     83.5724     29.3625     53.5929
   496.5000     34.8566     82.1870     30.1504     50.5209
   496.7500     35.8390     80.8032     31.0102     48.9865
   497.0000     36.8090     79.4458     31.8501     47.8092
   497.2500     37.7375     78.1377     32.5960     47.4561
   497.5000     38.6325     76.8987     33.2210     46.5480
   497.7500     39.5174     75.7445     33.7527     45.3036
   498.0000     40.3991     74.6862     34.2517     42.8071
   498.2500     41.2563     73.7300     34.7730     41.3894
   498.5000     42.0557     72.8773     35.3311     40.7359
   498.7500     42.7710     72.1250     35.8907     41.4405
   499.0000     43.3894     71.4659     36.3826     43.5011
   499.2500     43.9085     70.8900     36.7395     44.9243
   499.5000     44.3359     70.3856     36.9256     46.5371
   499.7500     44.6828     69.9405     36.9534     47.3129
   500.0000     44.9528     69.5443     36.8798     48.2972
   500.2500     45.1344     69.1901     36.7877     48.7354
   500.5000     45.2110     68.8769     36.7598     48.3314
   500.7500     45.1823     68.6112     36.8504     46.9957
   501.0000     45.0825     68.4087     37.0691     43.7491
   501.2500     44.9806     68.2944     37.3803     41.4936
   501.5000     44.9635     68.3023     37.7168     39.2280
   501.7500     45.1042     68.4732     37.9996     38.7625
   502.0000     45.4279     68.8514     38.1567     39.2557
   502.2500     45.8904     69.4801     38.1426     39.8228
   502.5000     46.3867     70.3969     37.9564     40.1496
   502.7500     46.7843     71.6280     37.6461     39.9183
   503.0000     46.9619     73.1847     37.2985     39.5699
   503.2500     46.8299     75.0601     37.0067     39.8866
   503.5000     46.3279     77.2279     36.8241     41.5462
   503.7500     45.4081     79.6434     36.7168     43.1740
   504.0000     44.0293     82.2466     36.5387     45.6735
   504.2500     42.1760     84.9665     36.0598     47.2010
   504.5000     39.8983     87.7273     35.0612     49.5857
   504.7500     37.3429     90.4534     33.4576     51.6221
   505.0000     34.7368     93.0751     31.3581     56.1710
   505.2500     32.3147     95.5329     29.0128     60.7274
   505.5000     30.2315     97.7795     26.6953     70.4537
   505.7500     28.5231     99.7813     24.6106     78.7745
   506.0000     27.1313    101.5187     22.8654     92.9581
   506.2500     25.9618    102.9849     21.4833    102.5951
   506.5000     24.9332    104.1850     20.4337    115.5278
   506.7500     23.9966    105.1353     19.6582    122.1348
   507.0000     23.1367    105.8621     19.0953    127.5618
   507.2500     22.3747    106.4001     18.6999    127.6776
   507.5000     21.7710    106.7911     18.4546    122.7975
   507.7500     21.4130    107.0809     18.3658    117.0268
   508.0000     21.3763    107.3163     18.4460    107.0223
   508.2500     21.6727    107.5417     18.6924    101.0205
   508.5000     22.2107    107.7947     19.0689     94.8569
   508.7500     22.8041    108.1035     19.4989     92.7206
   509.0000     23.2380    108.4849     19.8732     91.1284
   509.2500     23.3623    108.9425     20.0798     90.2887
   509.5000     23.1536    109.4684     20.0450     89.2835
   509.7500     22.7067    110.0433     19.7622     89.6094
   510.0000     22.1652    110.6398     19.2861     93.2154
   510.2500     21.6432    111.2240     18.6998     97.9590
   510.5000     21.1806    111.7586     18.0792    107.3116
   510.7500     20.7460    112.2057     17.4760    113.5695
   511.0000     20.2770    112.5299     16.9195    120.4147
   511.2500     19.7306    112.7009     16.4283    122.4447
   511.5000     19.1157    112.6964     16.0230    121.9358
   511.7500     18.4951    112.5050     15.7296    120.0469
   512.0000     17.9664    112.1270     15.5758    116.5695
   512.2500     17.6372    111.5757     15.5831    114.7335
   512.5000     17.6051    110.8757     15.7628    113.7927
   512.7500     17.9356    110.0612     16.1143    114.4304
   513.0000     18.6325    109.1729     16.6238    116.3503
   513.2500     19.6152    108.2536     17.2619    117.4893
   513.5000     20.7319    107.3451     17.9801    117.7437
   513.7500     21.8165    106.4846     18.7156    116.3796
   514.0000     22.7583    105.7026     19.4056    111.7837
   514.2500     23.5353    105.0209     20.0069    107.5227
   514.5000     24.1876    104.4529     20.5081    100.8750
   514.7500     24.7581    104.0033     20.9259     97.1085
   515.0000     25.2498    103.6700     21.2879     93.5527
   515.2500     25.6304    103.4451     21.6140     93.0327
   515.5000     25.8649    103.3172     21.9057     95.0144
   515.7500     25.9424    103.2736     22.1474     97.5338
   516.0000     25.8834    103.3022     22.3198    101.5700
   516.2500     25.7340    103.3930     22.4164    103.7804
   516.5000     25.5556    103.5399     22.4524    105.9668
   516.7500     25.4063    103.7405     22.4610    106.8094
   517.0000     25.3206    103.9961     22.4799    107.8957
   517.2500     25.2989    104.3107     22.5380    108.8731
   517.5000     25.3118    104.6897     22.6453    110.4354
   517.7500     25.3156    105.1378     22.7854    110.9465
   518.0000     25.2682    105.6578     22.9129    110.2840
   518.2500     25.1413    106.2495     22.9616    109.0809
   518.5000     24.9206    106.9085     22.8670    106.8586
   518.7500     24.6001    107.6269     22.5915    105.4046
   519.0000     24.1783    108.3929     22.1377    103.8049
   519.2500     23.6636    109.1928     21.5430    103.6030
   519.5000     23.0800    110.0112     20.8642    105.0657
   519.7500     22.4624    110.8325     20.1638    106.8758
   520.0000     21.8433    111.6425     19.4967    109.7464
   520.2500     21.2414    112.4284     18.9014    111.5225
   520.5000     20.6589    113.1803     18.3935    114.4151
   520.7500     20.0881    113.8911     17.9657    116.6162
   521.0000     19.5246    114.5568     17.5942    119.6026
   521.2500     18.9794    115.1763     17.2510    120.8215
   521.5000     18.4782    115.7509     16.9160    121.3743
   521.7500     18.0482    116.2838     16.5851    121.2833
   522.0000     17.7028    116.7790     16.2672    120.8461
   522.2500     17.4365    117.2402     15.9743    120.0959
   522.5000     17.2300    117.6700     15.7130    117.7517
   522.7500     17.0582    118.0691     15.4837    115.6685
   523.0000     16.8988    118.4357     15.2846    113.3336
   523.2500     16.7335    118.7654     15.1147    113.0961
   523.5000     16.5455    119.0521     14.9733    114.4782
   523.7500     16.3179    119.2887     14.8583    115.5383
   524.0000     16.0399    119.4682     14.7663    115.6511
   524.2500     15.7202    119.5848     14.6940    114.5640
   524.5000     15.3984    119.6350     14.6412    112.1779
   524.7500     15.1380    119.6176     14.6090    110.7579
   525.0000     15.0003    119.5340     14.5978    109.3774
   525.2500     15.0138    119.3873     14.6039    108.9666
   525.5000     15.1612    119.1816     14.6188    109.1103
   525.7500     15.3928    118.9211     14.6327    109.6834
   526.0000     15.6545    118.6093     14.6401    110.9870
   526.2500     15.9114    118.2485     14.6449    111.9929
   526.5000     16.1533    117.8398     14.6588    113.8155
   526.7500     16.3842    117.3835     14.6950    115.3239
   527.0000     16.6100    116.8798     14.7600    117.4421
   527.2500     16.8336    116.3291     14.8523    118.1226
   527.5000     17.0605    115.7335     14.9678    117.7011
   527.7500     17.3053    115.0968     15.1093    116.9223
