~Version Information
VERS.                      2.0: CWLS Log ASCII Standard - VERSION 2.0
WRAP.                       NO: One line per depth step
~Well Information Block
STRT.FT               710.0000: 
STOP.FT              1983.0000: 
STEP.FT                 0.1000: 
NULL.                -999.2500: 
COMP.          Petrogulf Corporation: COMPANY
WELL.           State 16-23R-X: WELL
FLD.           Purgatorie River: FIELD
LOC.           2381' FSL & 2072' FWL: LOCATION
PROV.                 Colorado: PROVINCE
CNTY.               Las Animas: COUNTRY
SRVC.                Patterson: SERVICE COMPANY
DATE.          Mon Aug 08 07:36:34 2005: LOG DATE
UWI.                          : UNIQUE WELL ID
~Curve Information Block
DEPT.FT            0 000 00 00: Depth
DCAL.in                       : CDL Caliper
RHOB.g/cc                     : CDL Bulk Density
RHOC.g/cc                     : CDL Density Correction
DPOR.pu                       : CDL Density Porosity
GR.GAPI                       : Gamma Ray
NPOR.pu                       : Neutron Porosity
~Parameter Information Block
~A  Depth       DCAL        RHOB        RHOC        DPOR         GR         NPOR    
# ...
  1698.8000      7.7979      2.6917      0.1669     -2.5301    122.1368     27.3307
  1698.9000      7.7979      2.6646      0.1304     -0.8875    121.0907     26.9662
  1699.0000      7.7664      2.6288      0.0584      1.2870    121.3625     26.8255
  1699.1000      7.7664      2.6062      0.0486      2.6552    123.4890     26.6118
  1699.2000      7.7664      2.5922      0.1001      3.5052    129.3869     26.2159
  1699.3000      7.7886      2.5736      0.0633      4.6310    138.9288     25.8841
  1699.4000      7.7886      2.5603      0.0138      5.4359    145.6461     25.7888
  1699.5000      7.8067      2.5652      0.0593      5.1396    145.1335     25.8515
  1699.6000      7.8067      2.5776      0.0797      4.3859    142.7211     25.8847
  1699.7000      7.8067      2.5813      0.0812      4.1617    144.1317     25.8707
  1699.8000      7.8194      2.5669      0.0965      5.0347    147.9601     25.9693
  1699.9000      7.8194      2.5297      0.0895      7.2888    151.3983     26.2045
  1700.0000      7.8098      2.4894      0.0170      9.7327    154.7189     26.3920
  1700.1000      7.8098      2.4784      0.0722     10.4024    157.8128     26.3852
  1700.2000      7.8098      2.5012      0.0870      9.0206    157.6234     26.4023
  1700.3000      7.7787      2.5468      0.0999      6.2565    153.9883     26.7120
  1700.4000      7.7787      2.6083      0.1223      2.5283    150.7466     27.1722
  1700.5000      7.8028      2.6670      0.2167     -1.0316    149.5441     27.6254
  1700.6000      7.8028      2.6928      0.2212     -2.5951    148.8687     28.2181
  1700.7000      7.8028      2.6770      0.1837     -1.6389    146.5553     29.0593
  1700.8000      7.8052      2.6392      0.1388      0.6575    140.9357     29.8470
  1700.9000      7.8052      2.6011      0.1101      2.9654    133.5419     30.0687
  1701.0000      7.8041      2.5772      0.0754      4.4146    128.3861     29.6660
  1701.1000      7.8041      2.5728      0.0445      4.6816    126.9210     29.0166
  1701.2000      7.8041      2.5747      0.0921      4.5628    128.0247     28.4076
  1701.3000      7.8054      2.5676      0.0438      4.9953    130.2657     27.8832
  1701.4000      7.8054      2.5562      0.0281      5.6828    132.4797     27.2895
  1701.5000      7.7970      2.5478      0.0547      6.1951    134.0701     26.6855
  1701.6000      7.7970      2.5441      0.0208      6.4174    134.9933     26.3597
  1701.7000      7.7970      2.5506      0.0487      6.0218    137.4241     26.4385
  1701.8000      7.7891      2.5643      0.0407      5.1968    142.7157     26.8600
  1701.9000      7.7891      2.5782      0.0369      4.3543    147.2100     27.3745
  1702.0000      7.7871      2.5870      0.0822      3.8189    147.3157     27.7007
  1702.1000      7.7871      2.5836      0.0682      4.0214    145.3957     27.6847
  1702.2000      7.7871      2.5712      0.0800      4.7731    143.6248     27.3982
  1702.3000      7.7986      2.5601      0.0548      5.4472    139.5092     27.0221
  1702.4000      7.7986      2.5520      0.0621      5.9383    132.3237     26.6770
  1702.5000      7.7995      2.5457      0.0420      6.3222    126.8864     26.4419
  1702.6000      7.7995      2.5447      0.0274      6.3808    126.5288     26.3026
  1702.7000      7.7995      2.5455      0.0657      6.3311    128.8405     26.1179
  1702.8000      7.7960      2.5414      0.0194      6.5837    129.1458     25.9151
  1702.9000      7.7960      2.5378      0.0221      6.8014    126.6732     26.0367
  1703.0000      7.8109      2.5448      0.0183      6.3759    125.4945     26.4437
  1703.1000      7.8109      2.5558      0.0926      5.7109    126.0315     26.4917
  1703.2000      7.8109      2.5509      0.0920      6.0058    123.7683     26.0487
  1703.3000      7.8305      2.5295      0.0568      7.3032    117.8644     25.6390
  1703.4000      7.8305      2.5084      0.0515      8.5818    113.1103     25.4756
  1703.5000      7.8218      2.4979      0.0048      9.2189    113.4546     25.2452
  1703.6000      7.8218      2.4998      0.0471      9.1002    117.5597     24.7906
  1703.7000      7.8218      2.5143      0.0414      8.2248    122.1050     24.4032
  1703.8000      7.7668      2.5358      0.1010      6.9186    124.4691     24.2305
  1703.9000      7.7668      2.5531      0.1133      5.8733    122.2203     23.9681
  1704.0000      7.7535      2.5692      0.1299      4.8980    115.1263     23.4808
  1704.1000      7.7535      2.5931      0.1661      3.4466    108.5022     23.0426
  1704.2000      7.7535      2.6175      0.1812      1.9682    106.5367     22.8686
  1704.3000      7.7477      2.6329      0.1832      1.0339    107.5194     22.9925
  1704.4000      7.7477      2.6392      0.1734      0.6521    108.8711     23.3450
  1704.5000      7.7485      2.6351      0.1645      0.9037    109.6437     23.7291
  1704.6000      7.7485      2.6152      0.1375      2.1121    109.7392     23.9001
  1704.7000      7.7485      2.5788      0.1096      4.3133    109.0952     23.8378
  1704.8000      7.7496      2.5381      0.0319      6.7826    105.9490     23.7611
  1704.9000      7.7496      2.5124      0.0285      8.3417     99.9928     23.9769
  1705.0000      7.7479      2.5078      0.0407      8.6178     96.1385     24.3779
  1705.1000      7.7479      2.5138      0.0314      8.2519     96.7510     24.5553
  1705.2000      7.7479      2.5234      0.0616      7.6724     98.3143     24.6030
  1705.3000      7.7510      2.5394      0.0173      6.7035     98.6700     24.6407
  1705.4000      7.7510      2.5618      0.0681      5.3466     98.5440     24.4409
  1705.5000      7.7370      2.5776      0.1130      4.3905     98.7458     24.1246
  1705.6000      7.7370      2.5728      0.1134      4.6768     98.8662     24.0716
  1705.7000      7.7370      2.5478      0.0710      6.1967     98.9356     24.1006
  1705.8000      7.7259      2.5132      0.0830      8.2889    100.6721     24.0060
  1705.9000      7.7259      2.4838      0.0171     10.0729    103.8143     23.9616
  1706.0000      7.7478      2.4718      0.0198     10.7981    105.8948     23.8486
  1706.1000      7.7478      2.4768      0.0597     10.4987    105.6358     23.6501
  1706.2000      7.7478      2.4919      0.0155      9.5796    105.2052     23.6609
  1706.3000      7.7866      2.5124      0.0809      8.3411    107.2850     23.9651
  1706.4000      7.7866      2.5325      0.0542      7.1183    112.0549     24.4563
  1706.5000      7.7760      2.5541      0.0770      5.8095    117.0850     25.1384
  1706.6000      7.7760      2.5792      0.0943      4.2931    119.5856     25.8897
  1706.7000      7.7760      2.5973      0.1187      3.1968    118.7660     26.3675
  1706.8000      7.7590      2.5993      0.1335      3.0718    116.9018     26.5195
  1706.9000      7.7590      2.5941      0.0879      3.3871    116.5441     26.5114
  1707.0000      7.7893      2.5929      0.1131      3.4584    116.6794     26.3575
  1707.1000      7.7893      2.5926      0.1201      3.4810    115.4837     26.0859
  1707.2000      7.7893      2.5893      0.1222      3.6793    114.0183     25.8916
  1707.3000      7.7996      2.5865      0.0935      3.8455    114.1195     25.6210
  1707.4000      7.7996      2.5882      0.1061      3.7438    115.5086     25.0077
  1707.5000      7.8380      2.5940      0.1121      3.3914    115.8395     24.2742
  1707.6000      7.8380      2.5944      0.1551      3.3667    112.5365     23.7896
  1707.7000      7.8380      2.5811      0.1155      4.1743    108.7178     23.6069
  1707.8000      7.8712      2.5621      0.0800      5.3291    109.1636     23.5350
  1707.9000      7.8712      2.5461      0.1104      6.2948    111.7281     23.4850
  1708.0000      7.8601      2.5360      0.0544      6.9114    112.1695     23.4637
  1708.1000      7.8601      2.5424      0.0190      6.5205    109.9516     23.2547
  1708.2000      7.8601      2.5688      0.0632      4.9183    105.7785     22.8629
  1708.3000      7.8352      2.5911      0.1477      3.5690    100.9152     22.5480
