~Version Information
VERS.                      2.0: CWLS Log ASCII Standard - VERSION 2.0
WRAP.                       NO: One line per depth step
~Well Information Block
STRT.FT               440.0000: 
STOP.FT              1300.5000: 
STEP.FT                 0.1000: 
NULL.                -999.2500: 
COMP.          Pioneer Natural Resources: COMPANY
WELL.              Yoshi 14-30: WELL
FLD.           Purgatoire River: FIELD
LOC.           993' FSL & 823' FWL: LOCATION
CNTY.               Las Animas: COUNTY
SRVC.                Patterson: SERVICE COMPANY
DATE.          Fri Feb 17 14:59:28 2006: LOG DATE
UWI.           05 071 08699 00: UNIQUE WELL ID
STAT.                 Colorado: STATE
~Curve Information Block
DEPT.FT            0 000 00 00: Depth
DCAL.in                       : CDL Caliper
RHOB.g/cc                     : CDL Bulk Density
RHOC.g/cc                     : CDL Density Correction
DPOR.pu                       : CDL Density Porosity
GR.GAPI                       : Gamma Ray
NPOR.pu                       : Neutron Porosity
~Parameter Information Block
~A  Depth       DCAL        RHOB        RHOC        DPOR         GR         NPOR    
# ...
   497.6000      8.0301      2.5472      0.0565      6.2323    130.7243     23.3867
   497.7000      8.0301      2.5529      0.0638      5.8855    144.4843     24.2014
   497.8000      8.0300      2.5491      0.0715      6.1130    156.0885     25.0530
   497.9000      8.0300      2.5391      0.1122      6.7224    162.7687     25.5496
   498.0000      8.0314      2.5308      0.0699      7.2237    165.0789     25.7198
   498.1000      8.0314      2.5332      0.0419      7.0814    165.1960     25.8355
   498.2000      8.0314      2.5341      0.1335      7.0241    167.8798     26.2786
   498.3000      8.0330      2.5175      0.0327      8.0304    173.4744     27.1107
   498.4000      8.0330      2.4958      0.0099      9.3427    175.6652     27.7186
   498.5000      8.0332      2.4809      0.0128     10.2462    173.8562     27.8617
   498.6000      8.0332      2.4693      0.0001     10.9517    173.8034     27.8372
   498.7000      8.0332      2.4675     -0.0055     11.0610    175.9673     27.7679
   498.8000      8.0331      2.4827      0.0182     10.1376    177.7779     27.6312
   498.9000      8.0331      2.5021      0.0786      8.9623    178.9405     27.3914
   499.0000      8.0328      2.5112      0.0439      8.4106    178.8163     27.4666
   499.1000      8.0328      2.5155      0.0356      8.1511    176.0369     28.3024
   499.2000      8.0328      2.5236      0.0436      7.6583    171.1940     29.0918
   499.3000      8.0320      2.5327      0.0626      7.1087    168.6764     28.8746
   499.4000      8.0320      2.5363      0.0256      6.8895    172.6721     28.0233
   499.5000      8.0312      2.5256      0.0654      7.5422    176.6944     27.7157
   499.6000      8.0312      2.4972     -0.0196      9.2585    172.6996     28.4749
   499.7000      8.0312      2.4721     -0.0507     10.7795    163.2420     29.3422
   499.8000      8.0311      2.4747     -0.0515     10.6265    153.5709     29.2701
   499.9000      8.0311      2.5028     -0.0295      8.9242    148.2161     28.2508
   500.0000      8.0313      2.5344      0.0318      7.0070    151.1401     26.6635
   500.1000      8.0313      2.5505      0.0242      6.0303    160.7191     25.3161
   500.2000      8.0313      2.5484      0.0085      6.1579    170.4856     24.8297
   500.3000      8.0310      2.5359     -0.0057      6.9142    171.3870     25.0037
   500.4000      8.0310      2.5253     -0.0218      7.5584    159.9313     25.1833
   500.5000      8.0309      2.5219      0.0263      7.7611    149.4200     25.1427
   500.6000      8.0309      2.5183      0.0082      7.9814    152.2110     25.3378
   500.7000      8.0309      2.5131     -0.0054      8.2991    159.1644     25.8596
   500.8000      8.0322      2.5134     -0.0247      8.2771    160.4143     26.2828
   500.9000      8.0322      2.5142      0.0277      8.2326    159.5553     26.5263
   501.0000      8.0329      2.5054      0.0228      8.7632    160.8785     26.9242
   501.1000      8.0329      2.4873      0.0141      9.8599    164.5144     27.4772
   501.2000      8.0329      2.4627     -0.0165     11.3540    165.7705     27.6735
   501.3000      8.0299      2.4497     -0.0774     12.1395    161.0845     27.6615
   501.4000      8.0299      2.4716     -0.0321     10.8095    157.4183     27.8414
   501.5000      8.0267      2.5172      0.0462      8.0463    160.1408     28.3155
   501.6000      8.0267      2.5559      0.0084      5.7053    163.3585     29.0626
   501.7000      8.0267      2.5809      0.0262      4.1884    161.5127     29.5237
   501.8000      8.0257      2.5996      0.0394      3.0573    155.3814     29.6432
   501.9000      8.0257      2.6056      0.0558      2.6887    149.0240     30.0360
   502.0000      8.0250      2.5991      0.0027      3.0856    143.8929     30.4365
   502.1000      8.0250      2.6029     -0.0355      2.8546    137.1763     30.1993
   502.2000      8.0250      2.6280      0.0079      1.3361    129.5225     29.6082
   502.3000      8.0239      2.6594      0.0025     -0.5680    122.5225     29.0212
   502.4000      8.0239      2.6798      0.0164     -1.8042    114.3041     28.4786
   502.5000      8.0225      2.6790      0.0124     -1.7555    104.6767     28.1694
   502.6000      8.0225      2.6632      0.0289     -0.8021     96.8818     27.7370
   502.7000      8.0225      2.6506      0.0160     -0.0359     93.5950     26.6384
   502.8000      8.0207      2.6476      0.0500      0.1459     94.0663     25.1756
   502.9000      8.0207      2.6508      0.0170     -0.0487     94.8629     24.1066
   503.0000      8.0191      2.6655     -0.0192     -0.9401     90.5265     23.8039
   503.1000      8.0191      2.6870      0.0367     -2.2430     80.3922     23.7744
   503.2000      8.0191      2.6919      0.0171     -2.5402     74.5965     23.4118
   503.3000      8.0153      2.6741      0.0105     -1.4605     78.9899     22.9333
   503.4000      8.0153      2.6443      0.0262      0.3431     86.1758     22.7819
   503.5000      8.0095      2.6055      0.0022      2.6955     90.9465     22.9555
   503.6000      8.0095      2.5602      0.0087      5.4413     96.2136     23.5113
   503.7000      8.0095      2.5240     -0.0150      7.6337    101.1244     24.4562
   503.8000      8.0118      2.5110      0.0056      8.4233    103.1380     24.9804
   503.9000      8.0118      2.5112      0.0395      8.4119    106.1247     24.7352
   504.0000      8.0234      2.5084     -0.0011      8.5816    112.9788     24.0578
   504.1000      8.0234      2.5062     -0.0078      8.7158    119.7304     23.4787
   504.2000      8.0234      2.5063      0.0420      8.7080    122.7925     23.8275
   504.3000      8.0316      2.4957      0.0408      9.3536    125.7560     24.8873
   504.4000      8.0316      2.4671      0.0668     11.0869    133.3780     25.7835
   504.5000      8.0342      2.4325      0.0283     13.1815    141.7990     26.3976
   504.6000      8.0342      2.4191      0.0047     13.9951    146.8183     26.9206
   504.7000      8.0342      2.4444      0.0099     12.4618    148.8147     27.5152
   504.8000      8.0348      2.4998      0.0604      9.1019    149.5570     28.1358
   504.9000      8.0348      2.5659      0.0867      5.0970    148.6443     28.2607
   505.0000      8.0345      2.6311      0.1110      1.1431    145.0976     27.9612
   505.1000      8.0345      2.6828      0.2143     -1.9892    143.4417     27.7327
   505.2000      8.0345      2.7102      0.1885     -3.6474    146.0442     27.3043
   505.3000      8.0336      2.7189      0.1987     -4.1750    148.3184     26.6969
   505.4000      8.0336      2.7059      0.1922     -3.3899    149.1513     26.6899
   505.5000      8.0336      2.6633      0.1145     -0.8057    153.9546     27.4384
   505.6000      8.0336      2.6084      0.0583      2.5238    162.3856     28.3010
   505.7000      8.0336      2.5681      0.0343      4.9665    164.9238     28.6444
   505.8000      8.0333      2.5495      0.0398      6.0882    160.1685     28.1015
   505.9000      8.0333      2.5405      0.0123      6.6387    158.2805     26.7592
   506.0000      8.0326      2.5291      0.0457      7.3249    161.6069     25.3081
   506.1000      8.0326      2.5166      0.0015      8.0823    162.1151     24.3522
   506.2000      8.0326      2.5067      0.0339      8.6878    156.2304     23.8156
   506.3000      8.0322      2.4963     -0.0014      9.3149    148.8990     23.7706
   506.4000      8.0322      2.4866      0.0140      9.9008    146.4589     24.0774
   506.5000      8.0325      2.4878     -0.0236      9.8288    147.8383     24.1169
   506.6000      8.0325      2.5086      0.0219      8.5667    148.5927     24.0469
   506.7000      8.0325      2.5358      0.0270      6.9187    148.5605     24.4479
   506.8000      8.0332      2.5462      0.0478      6.2935    150.0043     25.1104
   506.9000      8.0332      2.5345      0.0210      7.0029    155.1136     25.4310
   507.0000      8.0336      2.5104     -0.0052      8.4602    162.2267     25.1179
   507.1000      8.0336      2.4888     -0.0301      9.7696    163.9543     24.5209
