~Version Information
VERS.                      2.0: CWLS Log ASCII Standard - VERSION 2.0
WRAP.                       NO: One line per depth step
~Well Information Block
STRT.FT               550.0000: 
STOP.FT              1500.5000: 
STEP.FT                 0.2500: 
NULL.                -999.2500: 
COMP.          Pioneer Natural Resources: COMPANY
WELL.          Surtees 23-34 Tr: WELL
FLD.           Purgatoire River: FIELD
LOC.           1559' FSL & 1997' FWL: LOCATION
PROV.                 Colorado: PROVINCE
CNTY.               Las Animas: COUNTRY
SRVC.                Patterson: SERVICE COMPANY
DATE.          Tue Jul 26 23:47:42 2005: LOG DATE
UWI.           05 071 08449 00: UNIQUE WELL ID
~Curve Information Block
DEPT.FT            0 000 00 00: Depth
SN.Ohm-m                      : IEL Short Normal
SP.mV                         : IEL Spontaneous Potential
DIR.Ohm-m                     : IEL Induction Resistivity
GR.GAPI                       : Gamma Ray
~Parameter Information Block
~A  Depth        SN          SP         DIR          GR     
# ...
   717.5000   2000.0000   2000.0000      9.2990    133.1308
   717.7500   2000.0000   2000.0000      9.2415    133.9769
   718.0000   2000.0000   2000.0000      9.2217    134.9678
   718.2500   2000.0000   2000.0000      9.2455    135.1252
   718.5000   2000.0000   2000.0000      9.3127    135.2217
   718.7500   2000.0000   2000.0000      9.4165    135.7339
   719.0000   2000.0000   2000.0000      9.5434    137.1591
   719.2500   2000.0000   2000.0000      9.6732    138.0055
   719.5000   2000.0000   2000.0000      9.7797    138.4345
   719.7500   2000.0000   2000.0000      9.8348    138.2916
   720.0000   2000.0000   2000.0000      9.8185    138.1451
   720.2500   2000.0000   2000.0000      9.7303    138.3609
   720.5000   2000.0000   2000.0000      9.5929    139.0015
   720.7500   2000.0000   2000.0000      9.4428    139.3475
   721.0000   2000.0000   2000.0000      9.3133    139.5086
   721.2500   2000.0000   2000.0000      9.2217    139.5840
   721.5000   2000.0000   2000.0000      9.1669    140.2395
   721.7500   2000.0000   2000.0000      9.1362    141.2021
   722.0000   2000.0000   2000.0000      9.1152    143.1797
   722.2500   2000.0000   2000.0000      9.0961    144.5665
   722.5000   2000.0000   2000.0000      9.0788    146.5336
   722.7500   2000.0000   2000.0000      9.0665    147.9401
   723.0000   2000.0000   2000.0000      9.0604    150.7557
   723.2500   2000.0000   2000.0000      9.0567    153.2753
   723.5000   2000.0000   2000.0000      9.0478    157.5195
   723.7500   2000.0000   2000.0000      9.0261    159.9136
   724.0000   2000.0000   2000.0000      8.9875    161.6012
   724.2500   2000.0000   2000.0000      8.9341    161.2797
   724.5000   2000.0000   2000.0000      8.8728    159.5415
   724.7500   2000.0000   2000.0000      8.8127    158.4612
   725.0000   2000.0000   2000.0000      8.7630    158.1118
   725.2500   2000.0000   2000.0000      8.7310    158.6692
   725.5000   2000.0000   2000.0000      8.7218    159.5201
   725.7500   2000.0000   2000.0000      8.7364    159.4312
   726.0000   2000.0000   2000.0000      8.7721    158.1373
   726.2500   2000.0000   2000.0000      8.8234    156.8364
   726.5000   2000.0000   2000.0000      8.8878    154.8261
   726.7500   2000.0000   2000.0000      8.9690    153.5824
   727.0000   2000.0000   2000.0000      9.0768    151.7102
   727.2500   2000.0000   2000.0000      9.2215    150.2845
   727.5000   2000.0000   2000.0000      9.4081    147.7849
   727.7500   2000.0000   2000.0000      9.6364    145.9810
   728.0000   2000.0000   2000.0000      9.9057    143.2296
   728.2500   2000.0000   2000.0000     10.2202    141.3402
   728.5000   2000.0000   2000.0000     10.5883    138.3063
   728.7500   2000.0000   2000.0000     11.0162    136.1007
   729.0000   2000.0000   2000.0000     11.5021    132.4321
   729.2500   2000.0000   2000.0000     12.0357    129.6790
   729.5000   2000.0000   2000.0000     12.6035    125.0324
   729.7500   2000.0000   2000.0000     13.1909    121.7491
   730.0000   2000.0000   2000.0000     13.7770    117.3964
   730.2500   2000.0000   2000.0000     14.3259    115.5274
   730.5000   2000.0000   2000.0000     14.7861    114.8905
   730.7500   2000.0000   2000.0000     15.1065    115.8320
   731.0000   2000.0000   2000.0000     15.2604    118.8967
   731.2500   2000.0000   2000.0000     15.2632    121.8624
   731.5000   2000.0000   2000.0000     15.1678    127.2381
   731.7500   2000.0000   2000.0000     15.0414    130.9740
   732.0000   2000.0000   2000.0000     14.9393    136.0999
   732.2500   2000.0000   2000.0000     14.8917    139.0570
   732.5000   2000.0000   2000.0000     14.9059    142.6369
   732.7500   2000.0000   2000.0000     14.9771    143.9698
   733.0000   2000.0000   2000.0000     15.0994    142.8219
   733.2500   2000.0000   2000.0000     15.2747    139.1424
   733.5000   2000.0000   2000.0000     15.5199    129.0519
   733.7500   2000.0000   2000.0000     15.8657    119.9114
   734.0000   2000.0000   2000.0000     16.3493    104.3752
   734.2500   2000.0000   2000.0000     17.0022     93.9745
   734.5000   2000.0000   2000.0000     17.8464     79.9707
   734.7500   2000.0000   2000.0000     18.8989     72.1287
   735.0000   2000.0000   2000.0000     20.1787     62.4125
   735.2500   2000.0000   2000.0000     21.7054     57.0373
   735.5000   2000.0000   2000.0000     23.4874     50.5342
   735.7500   2000.0000   2000.0000     25.5083     47.3630
   736.0000   2000.0000   2000.0000     27.7201     44.4502
   736.2500   2000.0000   2000.0000     30.0489     43.5791
   736.5000   2000.0000   2000.0000     32.4129     43.2486
   736.7500   2000.0000   2000.0000     34.7440     43.2177
   737.0000   2000.0000   2000.0000     36.9988     42.8296
   737.2500   2000.0000   2000.0000     39.1424     42.2626
   737.5000   2000.0000   2000.0000     41.1183     41.3724
   737.7500   2000.0000   2000.0000     42.8282     41.1451
   738.0000   2000.0000   2000.0000     44.1462     41.7623
   738.2500   2000.0000   2000.0000     44.9686     42.7731
   738.5000   2000.0000   2000.0000     45.2759     44.8429
   738.7500   2000.0000   2000.0000     45.1690     46.4014
   739.0000   2000.0000   2000.0000     44.8444     48.7041
   739.2500   2000.0000   2000.0000     44.5239     49.9576
   739.5000   2000.0000   2000.0000     44.3935     50.9987
   739.7500   2000.0000   2000.0000     44.5712     51.0656
   740.0000   2000.0000   2000.0000     45.0851     50.2685
   740.2500   2000.0000   2000.0000     45.8433     49.1381
   740.5000   2000.0000   2000.0000     46.6186     46.8075
   740.7500   2000.0000   2000.0000     47.1009     45.2942
   741.0000   2000.0000   2000.0000     47.0229     43.9773
   741.2500   2000.0000   2000.0000     46.2871     43.9599
   741.5000   2000.0000   2000.0000     44.9937     44.9785
   741.7500   2000.0000   2000.0000     43.3681     45.9267
   742.0000   2000.0000   2000.0000     41.6620     46.6634
   742.2500   2000.0000   2000.0000     40.0794     46.1265
   742.5000   2000.0000   2000.0000     38.7424     43.7582
   742.7500   2000.0000   2000.0000     37.6842     41.7917
   743.0000   2000.0000   2000.0000     36.8526     39.6756
   743.2500   2000.0000   2000.0000     36.1114     39.3435
   743.5000   2000.0000   2000.0000     35.2557     40.8110
   743.7500   2000.0000   2000.0000     34.0701     43.1213
   744.0000   2000.0000   2000.0000     32.4265     48.2026
   744.2500   2000.0000   2000.0000     30.3558     52.1617
   744.5000   2000.0000   2000.0000     28.0292     58.1550
   744.7500   2000.0000   2000.0000     25.6668     62.1951
   745.0000   2000.0000   2000.0000     23.4520     69.4417
   745.2500   2000.0000   2000.0000     21.4961     76.0594
   745.5000   2000.0000   2000.0000     19.8440     89.7404
   745.7500   2000.0000   2000.0000     18.4931    100.9999
   746.0000   2000.0000   2000.0000     17.4093    118.5916
   746.2500   2000.0000   2000.0000     16.5407    128.8279
   746.5000   2000.0000   2000.0000     15.8309    139.4827
   746.7500   2000.0000   2000.0000     15.2333    143.1865
   747.0000   2000.0000   2000.0000     14.7212    144.9758
   747.2500   2000.0000   2000.0000     14.2880    144.7541
   747.5000   2000.0000   2000.0000     13.9385    143.4624
   747.7500   2000.0000   2000.0000     13.6787    142.0884
   748.0000   2000.0000   2000.0000     13.5090    139.1717
   748.2500   2000.0000   2000.0000     13.4219    136.8131
   748.5000   2000.0000   2000.0000     13.4001    133.2071
   748.7500   2000.0000   2000.0000     13.4144    130.8208
   749.0000   2000.0000   2000.0000     13.4282    126.6003
   749.2500   2000.0000   2000.0000     13.4075    123.0663
   749.5000   2000.0000   2000.0000     13.3349    117.7038
   749.7500   2000.0000   2000.0000     13.2156    115.4838
   750.0000   2000.0000   2000.0000     13.0718    116.2503
   750.2500   2000.0000   2000.0000     12.9295    119.6582
   750.5000   2000.0000   2000.0000     12.8082    127.4670
   750.7500   2000.0000   2000.0000     12.7161    132.9235
