~Version Information
VERS.                      2.0: CWLS Log ASCII Standard - VERSION 2.0
WRAP.                       NO: One line per depth step
~Well Information Block
STRT.FT               860.0000: 
STOP.FT              2360.5000: 
STEP.FT                 0.1000: 
NULL.                -999.2500: 
COMP.          Pioneer Natural Resources: COMPANY
WELL.            Cayenne 23-23: WELL
FLD.           Purgatoire River: FIELD
LOC.           2555' FSL & 2386' FWL: LOCATION
PROV.                 Colorado: PROVINCE
CNTY.               Las Animas: COUNTRY
SRVC.                Patterson: SERVICE COMPANY
DATE.          Wed Aug 17 08:28:25 2005: LOG DATE
UWI.           05 071 08476 00: UNIQUE WELL ID
~Curve Information Block
DEPT.FT            0 000 00 00: Depth
DCAL.in                       : CDL Caliper
RHOB.g/cc                     : CDL Bulk Density
RHOC.g/cc                     : CDL Density Correction
DPOR.pu                       : CDL Density Porosity
GR.GAPI                       : Gamma Ray
NPOR.pu                       : Neutron Porosity
~Parameter Information Block
~A  Depth       DCAL        RHOB        RHOC        DPOR         GR         NPOR    
# ...
  2146.4000      7.9969      2.5065      0.0138      8.6955     93.2603     26.9651
  2146.5000      7.9844      2.5281      0.1116      7.3887     85.4927     26.3973
  2146.6000      7.9844      2.5473      0.0777      6.2216     72.5511     24.4074
  2146.7000      7.9844      2.5507      0.0831      6.0188     65.0565     21.8631
  2146.8000      7.9743      2.5322      0.1012      7.1392     66.7018     20.6936
  2146.9000      7.9743      2.5023     -0.0088      8.9512     72.4839     21.5945
  2147.0000      7.9413      2.4928      0.0414      9.5264     75.5920     23.3414
  2147.1000      7.9413      2.5139      0.0336      8.2509     72.0857     24.5978
  2147.2000      7.9413      2.5427      0.0813      6.5002     62.4208     25.0042
  2147.3000      7.9279      2.5615      0.0690      5.3653     55.0062     24.2177
  2147.4000      7.9279      2.5691      0.0859      4.9056     58.2424     22.4097
  2147.5000      7.9282      2.5678      0.0809      4.9834     65.9663     20.8986
  2147.6000      7.9282      2.5702      0.0831      4.8353     68.9746     20.3381
  2147.7000      7.9282      2.5844      0.0851      3.9753     64.8542     20.4710
  2147.8000      7.9272      2.5988      0.0615      3.1020     56.8263     21.1124
  2147.9000      7.9272      2.6039      0.0927      2.7913     52.8267     21.8267
  2148.0000      7.9378      2.6005      0.0233      2.9995     53.9868     21.6496
  2148.1000      7.9378      2.5936      0.0476      3.4191     54.1123     20.2426
  2148.2000      7.9378      2.5925      0.0162      3.4822     52.1188     18.8052
  2148.3000      7.9608      2.6058      0.0188      2.6776     51.9165     18.9541
  2148.4000      7.9608      2.6166      0.0737      2.0273     53.6950     20.3630
  2148.5000      7.9647      2.5947      0.0557      3.3540     54.6168     20.8341
  2148.6000      7.9647      2.5424      0.0172      6.5184     56.4597     20.0638
  2148.7000      7.9647      2.4844      0.0048     10.0336     62.2371     19.6557
  2148.8000      7.9811      2.4342     -0.0367     13.0801     69.0831     20.2603
  2148.9000      7.9811      2.3933     -0.0455     15.5586     71.2940     21.6941
  2149.0000      7.9767      2.3490      0.0108     18.2406     68.9053     23.5604
  2149.1000      7.9767      2.2807     -0.0291     22.3839     68.8936     25.6266
  2149.2000      7.9767      2.1994     -0.1321     27.3117     73.5583     27.1234
  2149.3000      7.9732      2.1458     -0.1036     30.5587     78.7052     26.9684
  2149.4000      7.9732      2.1340     -0.0085     31.2706     81.7131     26.2268
  2149.5000      7.9828      2.1427      0.0149     30.7434     80.3356     26.3315
  2149.6000      7.9828      2.1591      0.0031     29.7506     76.7172     26.9259
  2149.7000      7.9828      2.1901      0.0350     27.8742     79.2386     27.4359
  2149.8000      7.9741      2.2420      0.0872     24.7298     90.4892     27.9671
  2149.9000      7.9741      2.3092      0.1482     20.6562    100.2801     28.6797
  2150.0000      7.9576      2.3727      0.2239     16.8075     98.3453     29.3972
  2150.1000      7.9576      2.4172      0.1854     14.1090     86.7165     29.7021
  2150.2000      7.9576      2.4535      0.1494     11.9086     79.2651     29.1787
  2150.3000      7.9657      2.4915      0.1865      9.6038     86.9916     28.2434
  2150.4000      7.9657      2.5183      0.1380      7.9848    101.6288     27.6893
  2150.5000      7.9673      2.5245      0.1229      7.6090    109.9920     27.6485
  2150.6000      7.9673      2.5118      0.1150      8.3751    111.0786     27.8612
  2150.7000      7.9673      2.4914      0.0202      9.6095    114.0493     27.9786
  2150.8000      7.9904      2.4829      0.0300     10.1244    123.4438     27.5140
  2150.9000      7.9904      2.4934      0.0226      9.4891    131.3861     26.2394
  2151.0000      8.0083      2.5134      0.0800      8.2795    132.1053     25.0795
  2151.1000      8.0083      2.5268      0.1214      7.4675    128.5276     25.1833
  2151.2000      8.0083      2.5310      0.0642      7.2148    122.2307     26.1812
  2151.3000      8.0148      2.5379      0.0346      6.7920    116.9493     26.7018
  2151.4000      8.0148      2.5498      0.0368      6.0719    120.1441     26.3462
  2151.5000      8.0014      2.5531      0.0884      5.8741    123.5254     25.8894
  2151.6000      8.0014      2.5409      0.0503      6.6145    115.8360     25.8292
  2151.7000      8.0014      2.5296      0.0425      7.2981    105.6671     25.6499
  2151.8000      7.9979      2.5343      0.0056      7.0107    102.0869     25.3660
  2151.9000      7.9979      2.5501      0.0612      6.0516    100.7537     25.7352
  2152.0000      7.9769      2.5576      0.1021      5.6006     98.8170     26.2178
  2152.1000      7.9769      2.5395      0.0786      6.6948    100.8809     26.1264
  2152.2000      7.9769      2.5063      0.0063      8.7116    104.6015     25.7606
  2152.3000      8.0000      2.4849      0.0025     10.0052    102.8950     25.2727
  2152.4000      8.0000      2.4788      0.0293     10.3763     98.5372     24.5409
  2152.5000      8.0006      2.4694      0.0312     10.9478     98.7516     24.1689
  2152.6000      8.0006      2.4489      0.0540     12.1906    104.5718     24.8819
  2152.7000      8.0006      2.4247     -0.0004     13.6546    108.8957     26.3146
  2152.8000      7.9955      2.4068      0.0022     14.7365    106.2677     27.4854
  2152.9000      7.9955      2.3950     -0.0105     15.4543    103.8118     27.7183
  2153.0000      7.9944      2.3863     -0.0009     15.9821    108.9376     27.3345
  2153.1000      7.9944      2.3902      0.0011     15.7477    114.9968     27.1965
  2153.2000      7.9944      2.4130      0.0373     14.3610    112.6961     27.3898
  2153.3000      7.9970      2.4456      0.0386     12.3874    105.7717     27.4352
  2153.4000      7.9970      2.4753      0.0972     10.5892    106.0480     27.2496
  2153.5000      7.9912      2.4937      0.1060      9.4722    115.5984     27.0800
  2153.6000      7.9912      2.5014      0.0610      9.0072    125.6159     26.6354
  2153.7000      7.9912      2.5048      0.0823      8.8000    127.9600     25.8755
  2153.8000      7.9969      2.5001      0.1307      9.0853    124.2775     25.1443
  2153.9000      7.9969      2.4838      0.1025     10.0751    120.7799     24.6594
  2154.0000      7.9835      2.4727      0.0422     10.7484    115.3792     24.8800
  2154.1000      7.9835      2.4749      0.0466     10.6094    107.3801     25.4623
  2154.2000      7.9835      2.4650      0.1020     11.2115    103.2895     25.3633
  2154.3000      7.9960      2.4201      0.0596     13.9349    106.3555     24.3686
  2154.4000      7.9960      2.3483      0.0354     18.2860    113.6014     23.4787
  2154.5000      8.0093      2.2654     -0.0062     23.3070    121.8377     23.8471
  2154.6000      8.0093      2.1852     -0.0403     28.1701    129.9852     25.4806
  2154.7000      8.0093      2.1200     -0.0328     32.1219    135.4680     27.6782
  2154.8000      8.0065      2.0674     -0.0034     35.3073    134.5376     29.8115
  2154.9000      8.0065      2.0155     -0.0497     38.4552    127.6464     31.1872
  2155.0000      8.0153      1.9666     -0.0670     41.4173    119.7829     31.5497
  2155.1000      8.0153      1.9373     -0.0183     43.1924    117.8490     30.9832
  2155.2000      8.0153      1.9314      0.0515     43.5521    123.4739     30.1225
  2155.3000      8.0235      1.9281      0.1387     43.7541    130.8691     29.7270
  2155.4000      8.0235      1.9157      0.0954     44.5020    133.0934     29.5771
  2155.5000      8.0311      1.9243      0.0313     43.9797    132.0658     29.1520
  2155.6000      8.0311      1.9847      0.0846     40.3232    132.0652     28.8151
  2155.7000      8.0311      2.0727      0.1019     34.9878    130.0047     29.4078
  2155.8000      7.9873      2.1382      0.1072     31.0156    125.0715     30.5477
  2155.9000      7.9873      2.1708      0.0570     29.0395    122.8645     31.2319
