~Version Information
VERS.                      2.0: CWLS Log ASCII Standard - VERSION 2.0
WRAP.                       NO: One line per depth step
~Well Information Block
STRT.FT               245.0000: 
STOP.FT              1273.7000: 
STEP.FT                 0.1000: 
NULL.                -999.2500: 
COMP.          Pioneer Natural Resources: COMPANY
WELL.                 Ray 34-6: WELL
FLD.           Purgatoire River: FIELD
LOC.           684' FSL & 2254' FEL--: LOCATION
CNTY.               Las Animas: COUNTY
SRVC.                Patterson: SERVICE COMPANY
DATE.          Fri May 26 09:17:30 2006: LOG DATE
UWI.           05 071 08695 00: UNIQUE WELL ID
STAT.                 Colorado: STATE
~Curve Information Block
DEPT.FT            0 000 00 00: Depth
DCAL.in                       : CDL Caliper
RHOB.g/cc                     : CDL Bulk Density
RHOC.g/cc                     : CDL Density Correction
DPOR.pu                       : CDL Density Porosity
NPOR.pu                       : Neutron Porosity
GR.GAPI                       : Gamma Ray
~Parameter Information Block
~A  Depth       DCAL        RHOB        RHOC        DPOR        NPOR         GR     
# ...
  1176.2000      7.8534      2.5832      0.0592      4.0509     24.3208     92.1752
  1176.3000      7.8505      2.6026      0.0989      2.8722     24.8691     95.6608
  1176.4000      7.8505      2.6109      0.0835      2.3688     25.0413     96.1333
  1176.5000      7.8497      2.6029      0.1042      2.8552     25.0870     94.9901
  1176.6000      7.8497      2.5830      0.0980      4.0603     25.2439     95.7858
  1176.7000      7.8497      2.5662      0.0313      5.0792     25.3781     99.2165
  1176.8000      7.8514      2.5655      0.0337      5.1227     25.3477    104.0822
  1176.9000      7.8514      2.5753      0.0587      4.5247     25.2861    107.6222
  1177.0000      7.8529      2.5794      0.1057      4.2785     25.3343    105.1662
  1177.1000      7.8529      2.5690      0.0414      4.9109     25.3260     99.6114
  1177.2000      7.8529      2.5438      0.0546      6.4336     25.0913     99.4749
  1177.3000      7.8517      2.5097     -0.0209      8.5010     24.9532    104.4463
  1177.4000      7.8517      2.4850      0.0048      9.9996     25.0454    106.4910
  1177.5000      7.8503      2.4838      0.0201     10.0698     25.0374    102.6231
  1177.6000      7.8503      2.5023      0.0295      8.9523     24.9079     97.1681
  1177.7000      7.8503      2.5268      0.0556      7.4676     24.5921     95.2522
  1177.8000      7.8519      2.5512      0.0231      5.9886     24.1043     99.0045
  1177.9000      7.8519      2.5721      0.0818      4.7220     23.9178    105.6013
  1178.0000      7.8530      2.5701      0.0911      4.8452     24.1255    109.6227
  1178.1000      7.8530      2.5412      0.0540      6.5941     24.3158    109.3534
  1178.2000      7.8530      2.5142      0.0350      8.2322     24.2442    108.1056
  1178.3000      7.8519      2.5047      0.0405      8.8045     23.9841    108.3696
  1178.4000      7.8519      2.5028      0.0198      8.9187     23.7157    110.2634
  1178.5000      7.8511      2.5019      0.0277      8.9775     23.7398    112.6192
  1178.6000      7.8511      2.5051      0.0183      8.7843     24.2284    113.2357
  1178.7000      7.8511      2.5131      0.0311      8.2972     24.8899    110.1771
  1178.8000      7.8516      2.5204      0.0458      7.8566     25.2073    104.6076
  1178.9000      7.8516      2.5216      0.0505      7.7812     25.0337    101.8549
  1179.0000      7.8510      2.5209      0.0383      7.8225     24.7124    105.1734
  1179.1000      7.8510      2.5315      0.0140      7.1831     24.4534    110.9856
  1179.2000      7.8510      2.5560      0.0825      5.6967     24.0977    111.6099
  1179.3000      7.8484      2.5748      0.0644      4.5588     23.7508    108.0190
  1179.4000      7.8484      2.5684      0.0868      4.9442     23.6853    107.5401
  1179.5000      7.8468      2.5513     -0.0101      5.9812     23.7596    109.0837
  1179.6000      7.8468      2.5480      0.0487      6.1808     23.8040    109.0935
  1179.7000      7.8468      2.5430      0.0835      6.4825     23.8223    108.8402
  1179.8000      7.8483      2.5196      0.0369      7.9016     23.7894    108.3158
  1179.9000      7.8483      2.5022     -0.0085      8.9566     23.8272    106.8854
  1180.0000      7.8505      2.5121      0.0094      8.3576     23.9703    106.5294
  1180.1000      7.8505      2.5328      0.0362      7.1026     24.1969    106.3826
  1180.2000      7.8505      2.5434      0.0294      6.4633     24.5058    104.4643
  1180.3000      7.8508      2.5432      0.0458      6.4732     24.6728    103.4880
  1180.4000      7.8508      2.5426      0.0293      6.5116     24.6062    102.7558
  1180.5000      7.8493      2.5466      0.0672      6.2661     24.4998     97.8877
  1180.6000      7.8493      2.5426      0.0666      6.5106     24.3253     91.5066
  1180.7000      7.8493      2.5239      0.0214      7.6425     23.9035     88.0042
  1180.8000      7.8486      2.5074      0.0447      8.6416     23.3569     86.9578
  1180.9000      7.8486      2.5047      0.0356      8.8037     22.9918     89.9336
  1181.0000      7.8507      2.5106      0.0233      8.4496     23.0477     98.1342
  1181.1000      7.8507      2.5156      0.0621      8.1480     23.3838    106.0492
  1181.2000      7.8507      2.5153      0.0460      8.1611     23.4609    108.5002
  1181.3000      7.8526      2.5154      0.0414      8.1570     23.1541    106.7347
  1181.4000      7.8526      2.5181      0.0769      7.9917     22.8824    103.8107
  1181.5000      7.8534      2.5139      0.0528      8.2498     22.8283    100.7547
  1181.6000      7.8534      2.4961      0.0534      9.3247     22.7813     98.7931
  1181.7000      7.8534      2.4753      0.0059     10.5893     22.6884     98.0188
  1181.8000      7.8542      2.4696      0.0257     10.9322     22.8241     95.2655
  1181.9000      7.8542      2.4855      0.0155      9.9701     23.3983     91.0990
  1182.0000      7.8531      2.5124      0.0471      8.3421     23.9723     91.1042
  1182.1000      7.8531      2.5242      0.1054      7.6268     23.9120     97.8678
  1182.2000      7.8531      2.5036      0.0443      8.8753     23.3449    108.2473
  1182.3000      7.8506      2.4733     -0.0048     10.7091     22.8144    115.0806
  1182.4000      7.8506      2.4640      0.0176     11.2717     22.5938    111.2804
  1182.5000      7.8504      2.4766      0.0004     10.5121     22.4532    100.5012
  1182.6000      7.8504      2.4941      0.0519      9.4499     22.1723     94.3319
  1182.7000      7.8504      2.5030      0.0375      8.9109     22.0994     95.5176
  1182.8000      7.8517      2.5068      0.0226      8.6769     22.4440     95.7420
  1182.9000      7.8517      2.5174      0.0304      8.0345     22.7547     91.2646
  1183.0000      7.8511      2.5329      0.0688      7.0952     22.5963     87.5236
  1183.1000      7.8511      2.5348      0.0808      6.9823     22.2593     86.4574
  1183.2000      7.8511      2.5134      0.0691      8.2781     22.2659     86.3434
  1183.3000      7.8479      2.4861      0.0176      9.9358     22.4255     87.3072
  1183.4000      7.8479      2.4701      0.0332     10.9002     22.4146     90.1064
  1183.5000      7.8459      2.4611      0.0324     11.4508     22.5044     93.9852
  1183.6000      7.8459      2.4586      0.0286     11.5988     22.7251     97.9072
  1183.7000      7.8459      2.4724      0.0065     10.7633     22.6878    101.5723
  1183.8000      7.8479      2.4956      0.0533      9.3593     22.3845    101.9814
  1183.9000      7.8479      2.5130      0.0143      8.3026     22.1016     98.7770
  1184.0000      7.8504      2.5283      0.0410      7.3768     21.9979     97.7257
  1184.1000      7.8504      2.5492      0.0924      6.1076     22.0475    101.9206
  1184.2000      7.8504      2.5686      0.0887      4.9348     22.2465    108.0233
  1184.3000      7.8504      2.5744      0.1108      4.5843     22.4967    111.2634
  1184.4000      7.8504      2.5627      0.0661      5.2903     22.5584    107.9441
  1184.5000      7.8488      2.5421      0.0463      6.5407     22.4842     99.7490
  1184.6000      7.8488      2.5253      0.0564      7.5579     22.5288     94.5413
  1184.7000      7.8488      2.5197      0.0175      7.8991     22.7124     95.1255
  1184.8000      7.8494      2.5248      0.0286      7.5896     22.9500     98.4960
  1184.9000      7.8494      2.5336      0.0403      7.0538     23.3252     99.5568
  1185.0000      7.8495      2.5373      0.0392      6.8318     23.6492     97.4758
  1185.1000      7.8495      2.5319      0.0296      7.1550     23.5388     95.7996
  1185.2000      7.8495      2.5215      0.0441      7.7867     23.3126     93.8515
  1185.3000      7.8488      2.5111      0.0443      8.4182     23.5292     92.0851
  1185.4000      7.8488      2.5049      0.0528      8.7947     23.9407     92.9393
  1185.5000      7.8508      2.5091      0.0075      8.5417     24.0000     92.2156
  1185.6000      7.8508      2.5229      0.0528      7.7037     23.7311     87.7084
  1185.7000      7.8508      2.5329      0.0740      7.0975     23.5085     86.6117
