~Version Information
VERS.                      2.0: CWLS Log ASCII Standard - VERSION 2.0
WRAP.                       NO: One line per depth step
~Well Information Block
STRT.FT               -10.0000: 
STOP.FT              2073.0000: 
STEP.FT                 0.2500: 
NULL.                -999.2500: 
COMP.          Pioneer Natural Resources: COMPANY
WELL.              Joplin 44-5: WELL
FLD.           Purgatorie River: FIELD
LOC.           262' FSL & 418' FEL--: LOCATION
PROV.                       CO: PROVINCE
CNTY.               Las Animas: COUNTRY
SRVC.          Patterson Wireline: SERVICE COMPANY
DATE.          Mon Dec 19 09:21:33 2005: LOG DATE
UWI.           05 071 08623 00: UNIQUE WELL ID
~Curve Information Block
DEPT.FT            0 000 00 00: Depth
CCL.                          : Casing Collar Locator
TT3.usec                      : CBL 3' Travel Time
AMP3.mV                       : CBL 3' Amplitude
GR.GAPI                       : Gamma Ray
~Parameter Information Block
~A  Depth       CCL         TT3         AMP3         GR     
# ...
   258.0000      0.0000    762.8435      7.4762    104.9806
   258.2500      0.0000    762.5305      7.3933    102.8788
   258.5000      0.0000    761.4847      7.3176    101.8206
   258.7500      0.0000    759.5564      7.2587    102.2271
   259.0000      0.0000    756.8993      7.2239    103.6733
   259.2500      0.0000    754.3943      7.2149    105.1101
   259.5000      0.0000    753.3525      7.2266    105.5768
   259.7500      0.0000    754.4671      7.2475    104.6603
   260.0000      0.0000    757.1937      7.2639    102.4472
   260.2500      0.0000    760.4543      7.2655     99.3381
   260.5000      0.0000    763.9045      7.2507     95.7983
   260.7500      0.0000    768.4246      7.2287     92.0473
   261.0000      0.0000    775.5490      7.2143     88.0202
   261.2500      0.0000    786.5911      7.2181     83.7253
   261.5000      0.0000    802.4221      7.2401     79.6223
   261.7500      0.0000    823.8558      7.2725     76.5099
   262.0000      0.0000    851.0353      7.3103     74.8497
   262.2500      0.0000    881.1091      7.3590     74.2565
   262.5000      0.0000    906.9448      7.4279     73.8633
   262.7500      0.0000    920.1166      7.5152     73.1857
   263.0000      0.0000    916.7810      7.6038     72.5164
   263.2500      0.0000    901.1192      7.6779     72.5425
   263.5000      0.0000    882.6656      7.7414     73.7024
   263.7500      0.0000    869.1687      7.8147     75.8263
   264.0000      0.0000    861.3955      7.9147     78.1684
   264.2500      0.0000    855.0239      8.0408     79.9043
   264.5000      0.0000    846.8879      8.1754     81.0146
   264.7500      0.0000    838.1550      8.2936     82.6194
   265.0000      0.0000    832.0873      8.3714     85.8662
   265.2500      0.0000    830.4876      8.3940     90.4569
   265.5000      0.0000    832.6182      8.3607     94.8741
   265.7500      0.0000    836.2760      8.2819     98.0457
   266.0000      0.0000    838.9689      8.1701    100.0574
   266.2500      0.0000    838.6370      8.0361    101.2295
   266.5000      0.0000    834.4610      7.8913    101.2538
   266.7500      0.0000    827.3121      7.7483     99.5617
   267.0000      0.0000    818.8735      7.6176     96.1010
   267.2500      0.0000    810.2171      7.5046     91.5585
   267.5000      0.0000    801.7576      7.4094     87.1138
   267.7500      0.0000    794.3619      7.3313     84.1255
   268.0000      0.0000    789.0973      7.2702     83.5862
   268.2500      0.0000    785.0984      7.2249     85.3188
   268.5000      0.0000    778.9669      7.1893     87.6525
   268.7500      0.0000    767.9786      7.1551     88.4308
   269.0000      0.0000    753.7709      7.1173     86.9168
   269.2500      0.0000    741.9727      7.0785     84.7281
   269.5000      0.0000    738.1889      7.0456     84.3975
   269.7500      0.0000    744.3074      7.0231     86.8620
   270.0000      0.0000    757.5931      7.0112     90.7148
   270.2500      0.0000    773.3346      7.0067     93.7542
   270.5000      0.0000    789.1901      7.0062     94.5109
   270.7500      0.0000    805.8626      7.0079     92.4511
   271.0000      0.0000    822.0550      7.0102     87.8577
   271.2500      0.0000    831.6147      7.0117     82.0990
   271.5000      0.0000    829.2144      7.0133     77.3609
   271.7500      0.0000    816.8994      7.0199     75.5410
   272.0000      0.0000    801.9699      7.0376     77.3721
   272.2500      0.0000    790.1507      7.0673     82.3988
   272.5000      0.0000    782.6318      7.1022     89.1523
   272.7500      0.0000    777.7985      7.1327     95.3186
   273.0000      0.0000    773.9117      7.1528     98.6412
   273.2500      0.0000    770.4598      7.1630     98.4074
   273.5000      0.0000    767.8501      7.1657     95.9281
   273.7500      0.0000    766.5388      7.1578     93.2719
   274.0000      0.0000    766.8032      7.1301     91.5418
   274.2500      0.0000    769.1350      7.0783     90.3388
   274.5000      0.0000    774.0716      7.0113     88.6702
   274.7500      0.0000    781.2592      6.9467     86.2430
   275.0000      0.0000    788.7267      6.9008     83.8862
   275.2500      0.0000    793.4866      6.8821     82.7944
   275.5000      0.0000    793.2781      6.8915     83.3602
   275.7500      0.0000    788.0636      6.9233     84.7883
   276.0000      0.0000    780.0500      6.9688     85.8906
   276.2500      0.0000    772.2179      7.0189     86.2793
   276.5000      0.0000    766.5567      7.0648     86.7388
   276.7500      0.0000    763.3840      7.0992     88.2456
   277.0000      0.0000    761.9567      7.1206     90.5617
   277.2500      0.0000    761.4135      7.1345     92.2874
   277.5000      0.0000    761.2345      7.1488     92.7783
   277.7500      0.0000    761.2027      7.1677     93.4148
   278.0000      0.0000    761.2294      7.1905     96.0990
   278.2500      0.0000    761.2183      7.2144    100.7023
   278.5000      0.0000    760.9796      7.2382    104.9264
   278.7500      0.0000    760.1777      7.2633    106.6282
   279.0000      0.0000    758.4432      7.2913    105.5830
   279.2500      0.0000    755.7731      7.3206    103.1103
   279.5000      0.0000    752.8934      7.3451    100.8100
   279.7500      0.0000    750.7948      7.3565     99.7104
   280.0000      0.0000    749.5425      7.3459     99.9058
   280.2500      0.0000    747.7783      7.2994    100.5232
   280.5000      0.0000    743.7784      7.1897    100.2874
   280.7500      0.0000    736.9077      6.9865     98.6742
   281.0000      0.0000    728.3841      6.7016     96.5558
   281.2500      0.0000    721.9543      6.4141     95.2504
   281.5000      0.0000    724.5645      6.2069     94.9035
   281.7500      0.0000    744.3753      6.0719     94.1221
   282.0000      0.0000    783.9852      5.9319     91.1148
   282.2500      0.0000    833.7807      5.7537     84.9522
   282.5000      0.0000    875.2009      5.5846     76.2798
   282.7500      2.0000    894.0176      5.4782     67.3761
   283.0000      0.0000    889.3815      5.4419     61.1353
   283.2500      0.0000    869.1802      5.4650     59.2367
   283.5000      0.0000    841.7202      5.5765     61.2420
   283.7500      0.0000    815.2256      5.8530     65.4758
   284.0000      0.0000    799.7971      6.3466     70.5056
   284.2500      0.0000    802.9338      6.9844     75.6600
   284.5000      0.0000    823.4202      7.5689     80.5035
   284.7500      0.0000    852.2101      7.9275     84.3525
   285.0000      0.0000    878.5889      8.0433     86.5159
   285.2500      0.0000    895.1406      8.0198     86.6941
   285.5000      0.0000    899.8773      7.9585     85.0567
   285.7500      0.0000    896.1927      7.8991     82.2062
   286.0000      0.0000    890.2916      7.8400     79.0115
   286.2500      0.0000    887.2197      7.7739     76.1768
   286.5000      0.0000    888.0338      7.7087     74.1427
   286.7500      0.0000    889.6684      7.6653     73.6013
   287.0000      0.0000    887.3453      7.6587     75.5830
   287.2500      0.0000    878.0615      7.6819     80.4343
   287.5000      0.0000    863.0382      7.7116     86.9627
   287.7500      0.0000    847.5543      7.7265     93.1097
   288.0000      0.0000    838.8295      7.7208     97.4688
   288.2500      0.0000    842.1730      7.7016     99.9691
   288.5000      0.0000    855.7813      7.6796    101.2764
   288.7500      0.0000    868.8428      7.6635    101.7450
   289.0000      0.0000    868.1107      7.6619    100.8375
   289.2500      0.0000    848.8027      7.6857     97.4722
   289.5000      0.0000    818.2162      7.7440     91.1957
   289.7500      0.0000    788.2252      7.8309     83.0630
   290.0000      0.0000    766.4188      7.9197     75.1266
   290.2500      0.0000    755.4344      7.9738     69.0615
   290.5000      0.0000    757.5612      7.9686     65.3868
   290.7500      0.0000    775.8872      7.9057     63.8886
   291.0000      0.0000    809.7475      7.8112     64.5120
   291.2500      0.0000    850.9219      7.7205     67.4583
