~Version Information
VERS.                      2.0: CWLS Log ASCII Standard - VERSION 2.0
WRAP.                       NO: One line per depth step
~Well Information Block
STRT.FT                10.0000: 
STOP.FT               907.0000: 
STEP.FT                 0.1000: 
NULL.                -999.2500: 
COMP.          Pioneer Natural Resources: COMPANY
WELL.           Hartford 31-18: WELL
FLD.           Purgatorie River: FIELD
LOC.           375' FNL & 1660' FEL: LOCATION
PROV.                 Colorado: PROVINCE
CNTY.               Las Animas: COUNTRY
SRVC.                Patterson: SERVICE COMPANY
DATE.          Mon Nov 21 07:39:41 2005: LOG DATE
UWI.            05-071-08555              : UNIQUE WELL ID
~Curve Information Block
DEPT.FT            0 000 00 00: Depth
DCAL.in                       : CDL Caliper
RHOB.g/cc                     : CDL Bulk Density
RHOC.g/cc                     : CDL Density Correction
DPOR.pu                       : CDL Density Porosity
GR.GAPI                       : Gamma Ray
NPOR.pu                       : Neutron Porosity
~Parameter Information Block
~A  Depth       DCAL        RHOB        RHOC        DPOR         GR         NPOR    
# ...
   653.2000      7.9615      2.7287      0.0673     -4.7725     85.7823     27.2736
   653.3000      7.9364      2.7527      0.0917     -6.2249     91.0698     27.5398
   653.4000      7.9364      2.7554      0.0596     -6.3865     93.6709     27.5998
   653.5000      7.9314      2.7453      0.1045     -5.7770     91.8974     27.7015
   653.6000      7.9314      2.7110      0.0810     -3.6988     89.1343     26.8144
   653.7000      7.9314      2.6473     -0.0098      0.1645     88.5458     25.8017
   653.8000      7.9375      2.5769      0.0124      4.4300     89.4004     26.5178
   653.9000      7.9375      2.5214     -0.0189      7.7953     90.2819     28.0974
   654.0000      7.9180      2.4799      0.0856     10.3077     92.0236     29.0067
   654.1000      7.9180      2.4476     -0.0091     12.2696     96.9690     25.4168
   654.2000      7.9180      2.4341     -0.0039     13.0826    104.6442     25.4841
   654.3000      7.9323      2.4366      0.0442     12.9338    109.0965     25.0222
   654.4000      7.9323      2.4344      0.0583     13.0666    107.1684     24.2845
   654.5000      8.0369      2.4249      0.0228     13.6430    105.2377     23.4573
   654.6000      8.0369      2.4200      0.0367     13.9365    107.8639     23.1500
   654.7000      8.0369      2.4185      0.0653     14.0287    110.4639     24.0957
   654.8000      8.1040      2.4108      0.0277     14.4967    110.0484     25.8179
   654.9000      8.1040      2.3975      0.0396     15.3015    109.6607     26.7255
   655.0000      8.1111      2.3848      0.0111     16.0757    111.4946     26.0493
   655.1000      8.1111      2.3754      0.0142     16.6411    114.8407     25.5428
   655.2000      8.1111      2.3632      0.0225     17.3790    116.5944     26.6312
   655.3000      8.0581      2.3349      0.0389     19.0975    115.4904     27.7859
   655.4000      8.0581      2.2888     -0.0163     21.8926    113.9470     27.4998
   655.5000      8.0316      2.2367      0.0194     25.0460    113.0168     26.3777
   655.6000      8.0316      2.1795      0.0194     28.5148    112.7992     25.5671
   655.7000      8.0316      2.1060      0.0196     32.9676    112.9622     25.5174
   655.8000      8.0703      2.0125      0.0013     38.6339    110.5847     26.0854
   655.9000      8.0703      1.9070     -0.0264     45.0321    105.2221     26.6586
   656.0000      8.0882      1.8004     -0.0785     51.4920    100.7193     27.2668
   656.1000      8.0882      1.7018     -0.1218     57.4663     98.0327     28.3004
   656.2000      8.0882      1.6162     -0.0777     62.6554     94.6763     29.1942
   656.3000      8.1358      1.5426     -0.0526     67.1165     90.1945     29.4710
   656.4000      8.1358      1.4778     -0.0327     71.0450     86.5453     29.4470
   656.5000      8.1807      1.4240     -0.0599     74.3035     83.8296     29.2085
   656.6000      8.1807      1.3914     -0.0738     76.2788     79.7465     28.5695
   656.7000      8.1807      1.3828     -0.0473     76.8026     74.0665     28.0143
   656.8000      8.2435      1.3819      0.0032     76.8565     69.6275     27.9818
   656.9000      8.2435      1.3735     -0.0502     77.3637     67.9525     28.0964
   657.0000      8.2067      1.3623     -0.0238     78.0446     67.9976     28.7485
   657.1000      8.2067      1.3591     -0.0175     78.2342     68.5489     30.2408
   657.2000      8.2067      1.3754     -0.0481     77.2508     68.7202     31.2791
   657.3000      8.1428      1.4205     -0.0136     74.5149     68.1711     31.2380
   657.4000      8.1428      1.4881      0.0303     70.4207     67.8050     30.7150
   657.5000      8.1418      1.5635      0.0448     65.8486     67.7479     30.2604
   657.6000      8.1418      1.6452      0.0387     60.8970     67.5051     30.0932
   657.7000      8.1418      1.7423      0.0852     55.0120     69.4921     30.1712
   657.8000      8.0831      1.8606      0.1412     47.8406     74.9637     30.2708
   657.9000      8.0831      1.9969      0.1796     39.5795     81.0323     30.0398
   658.0000      8.0959      2.1359      0.2122     31.1603     85.8696     29.7935
   658.1000      8.0959      2.2569      0.2304     23.8257     90.1844     29.9397
   658.2000      8.0959      2.3502      0.2020     18.1683     93.5529     30.0179
   658.3000      8.0913      2.4200      0.1344     13.9422     95.9460     29.8214
   658.4000      8.0913      2.4761      0.1231     10.5411     97.9963     29.7363
   658.5000      8.0321      2.5221      0.1321      7.7490     99.4272     29.9366
   658.6000      8.0321      2.5504      0.1409      6.0346     99.9830     30.0298
   658.7000      8.0321      2.5554      0.1305      5.7361    100.2361     29.8587
   658.8000      8.0595      2.5491      0.0742      6.1166    101.7455     29.7042
   658.9000      8.0595      2.5543      0.0660      5.8003    105.5322     29.4228
   659.0000      8.0195      2.5750      0.0890      4.5425    109.3323     28.7790
   659.1000      8.0195      2.5923      0.0943      3.4976    110.1528     28.0725
   659.2000      8.0195      2.5986      0.0601      3.1181    108.5386     27.5050
   659.3000      8.0139      2.6013      0.1050      2.9537    107.7756     27.2019
   659.4000      8.0139      2.5947      0.0916      3.3505    108.7915     27.2721
   659.5000      7.9795      2.5737      0.0426      4.6222    110.3843     27.0266
   659.6000      7.9795      2.5498      0.0703      6.0720    112.2664     25.9284
   659.7000      7.9795      2.5357      0.0296      6.9301    114.0057     24.9929
   659.8000      7.9741      2.5317      0.0246      7.1669    114.1417     25.0857
   659.9000      7.9741      2.5301      0.0323      7.2691    111.7533     25.6704
   660.0000      7.9976      2.5254      0.0798      7.5529    109.6591     26.1948
   660.1000      7.9976      2.5227      0.0442      7.7171    109.7385     26.7082
   660.2000      7.9976      2.5304      0.0894      7.2468    108.7307     27.0450
   660.3000      8.0022      2.5435      0.0707      6.4560    105.6989     26.7706
   660.4000      8.0022      2.5474      0.0761      6.2185    104.7215     25.7189
   660.5000      8.0000      2.5350      0.0453      6.9710    107.0400     24.7696
   660.6000      8.0000      2.5069      0.0616      8.6755    108.4158     24.8219
   660.7000      8.0000      2.4710     -0.0374     10.8457    107.3426     25.3000
   660.8000      7.9865      2.4437     -0.0023     12.5019    105.8752     25.3710
   660.9000      7.9865      2.4307      0.0068     13.2917    105.0290     25.0478
   661.0000      8.0130      2.4283     -0.0138     13.4383    106.5851     25.0382
   661.1000      8.0130      2.4380      0.0338     12.8458    110.5433     25.7773
   661.2000      8.0130      2.4637      0.0134     11.2905    113.1526     26.4401
   661.3000      8.0223      2.4947      0.0893      9.4094    113.7237     26.3444
   661.4000      8.0223      2.5039      0.0769      8.8534    115.0024     25.9159
   661.5000      8.0172      2.4842      0.0205     10.0472    116.1067     25.5786
   661.6000      8.0172      2.4631      0.0003     11.3290    115.4445     25.6205
   661.7000      8.0172      2.4632      0.0299     11.3229    114.8098     26.0919
   661.8000      8.0281      2.4788      0.0618     10.3746    114.9605     26.3489
   661.9000      8.0281      2.4908      0.0823      9.6503    114.5680     26.0551
   662.0000      8.0085      2.4888      0.0842      9.7684    114.5343     25.5613
   662.1000      8.0085      2.4780      0.0399     10.4265    117.6012     25.0467
   662.2000      8.0085      2.4679      0.0429     11.0371    120.5362     24.5773
   662.3000      7.9926      2.4667      0.0268     11.1073    117.7730     24.3071
   662.4000      7.9926      2.4748      0.0447     10.6204    112.7261     24.7705
   662.5000      7.9826      2.4769      0.0484     10.4906    111.9494     26.0946
   662.6000      7.9826      2.4651      0.0328     11.2051    114.5040     27.0272
   662.7000      7.9826      2.4551     -0.0142     11.8114    117.1384     26.6728
