~Version Information
 VERS.                                  2.0 : CWLS LAS VERSION
 WRAP.                                   NO : WRAPING MODE
 SWARE .                 MController 2.5.0J : SOFTWARE VERSION
~Well Information
 WELL.                         Croc 42-09Tr : WELL
 COMP.    Pioneer Natural Resources USA Inc : COMPANY
 FLD.                      Purgatoire River : FIELD
 LOC.                 SE/NE Sec09 T32S R66W : LOCATION
 DATE.                             10/13/05 : DATE(S) LOGGED
 SRVC.       Blanco Geological Services LLC : SERVICE COMPANY
 STAT.                             Colorado : STATE
 CNTY.                           Las Animas : COUNTY
 CTRY.                                  USA : COUNTRY
 API.                       05-071-08550-00 : API NUMBER
 STRT.FT                             326.00 : START DEPTH
 STOP.FT                            1150.00 : STOP DEPTH
 STEP.FT                               1.00 : DEPTH INCREMENT
 NULL.                                -9999 : NULL VALUE
~Curve information
 DEPTH.FT                                   :
 ROP.MIN/FT                                 :
 GAS.UNITS                                  :
~ASCII Log data
       326.0     -9999.00          1.7 
       327.0         0.47          2.0 
       328.0         0.20          2.1 
       329.0         0.17          2.3 
       330.0         0.15          2.2 
       331.0         0.13          2.3 
       332.0         0.13          2.2 
       333.0         0.13          2.2 
       334.0         0.13          2.4 
       335.0         0.13          2.6 
       336.0         0.13          2.5 
       337.0         0.13          2.6 
       338.0         0.17          2.8 
       339.0         0.13          2.6 
       340.0         0.13          2.8 
       341.0         0.13          3.1 
       342.0         0.13          2.8 
       343.0         0.13          3.0 
       344.0         0.13          2.9 
       345.0         0.15          3.2 
       346.0         0.13          3.3 
       347.0         0.17          3.3 
       348.0         0.13          3.5 
       349.0         0.13          3.3 
       350.0         0.13          3.3 
       351.0         0.13          3.3 
       352.0         0.20          3.4 
       353.0         0.13          3.6 
       354.0         0.13          3.6 
       355.0         0.27          4.0 
       356.0         7.23          7.6 
       357.0         0.30          7.0 
       358.0         0.55          7.5 
       359.0         0.43          7.9 
       360.0         0.40          7.3 
       361.0         0.43          7.7 
       362.0         0.40          7.1 
       363.0         0.43          7.9 
       364.0         0.33          7.8 
       365.0         0.33          7.9 
       366.0         0.27          7.7 
       367.0         0.28          8.6 
       368.0         0.27          8.9 
       369.0         0.30          9.6 
       370.0         0.30         10.4 
       371.0         0.33          8.9 
       372.0         0.27          9.0 
       373.0         0.30          8.9 
       374.0         0.20          8.9 
       375.0         0.23          8.8 
       376.0         0.23          9.3 
       377.0         0.27          9.5 
       378.0         0.30          8.6 
       379.0         0.25          8.3 
       380.0         0.27          9.4 
       381.0         0.27          9.7 
       382.0         0.33          9.4 
       383.0         0.53          9.1 
       384.0         0.40          8.1 
       385.0         0.50          7.2 
       386.0         2.92          7.4 
       387.0         0.67          7.4 
       388.0         0.40          7.8 
       389.0         0.33          8.4 
       390.0         0.32          8.8 
       391.0         0.33          9.6 
       392.0         0.37         10.3 
       393.0         0.33         10.1 
       394.0         0.37          9.1 
       395.0         0.30          8.1 
       396.0         0.33          7.2 
       397.0         0.37          6.9 
       398.0         0.43          7.2 
       399.0         0.48          7.0 
       400.0         0.40          7.1 
       401.0         0.30          7.1 
       402.0         0.37          6.9 
       403.0         0.40          6.9 
       404.0         0.40          7.2 
       405.0         0.37          7.3 
       406.0         0.33          7.1 
       407.0         0.33          6.9 
       408.0         0.38          7.4 
       409.0         0.33          7.5 
       410.0         0.30          7.4 
       411.0         0.37          7.5 
       412.0         0.33          7.7 
       413.0         0.33          7.4 
       414.0         0.33          7.7 
       415.0         0.30          7.7 
       416.0         5.37          8.2 
       417.0         0.67          8.5 
       418.0         0.50          8.5 
       419.0         0.40          8.1 
       420.0         0.40          8.0 
       421.0         0.45          8.0 
       422.0         0.47          7.8 
       423.0         0.43          8.1 
       424.0         0.47          7.7 
       425.0         0.43          8.1 
       426.0         0.43          7.9 
       427.0         0.47          8.2 
       428.0         0.40          7.9 
       429.0         0.45          8.3 
       430.0         0.40          8.0 
       431.0         0.37          8.3 
       432.0         0.40          8.0 
       433.0         0.30          7.9 
       434.0         0.33          7.8 
       435.0         0.30          8.1 
       436.0         0.27          8.0 
       437.0         0.30          8.6 
       438.0         0.42          8.3 
       439.0         0.33          7.8 
       440.0         0.30         39.2 
       441.0         0.27         46.8 
       442.0         0.30         43.2 
       443.0         0.27         26.4 
       444.0         0.37         23.1 
       445.0         0.33         10.6 
       446.0         7.23          8.8 
       447.0         0.58          8.7 
       448.0         0.43          9.5 
       449.0         0.37          9.5 
       450.0         0.30          9.7 
       451.0         0.30          8.8 
       452.0         0.33          8.8 
       453.0         0.30          8.3 
       454.0         0.33          8.9 
       455.0         0.27          8.9 
       456.0         0.30          8.6 
       457.0         0.35          8.8 
       458.0         0.30          8.7 
       459.0         0.30          8.7 
       460.0         0.30          8.9 
       461.0         0.33          8.6 
       462.0         0.30          9.2 
       463.0         0.37          8.4 
       464.0         0.40          8.6 
       465.0         0.33          8.4 
       466.0         0.30          8.5 
       467.0         0.33          8.6 
       468.0         0.38          8.6 
       469.0         0.40          8.9 
       470.0         0.37          8.5 
       471.0         0.40          8.8 
       472.0         0.40          8.9 
       473.0         0.37          8.8 
       474.0         0.37          8.4 
       475.0         0.50          8.6 
       476.0         3.45          9.0 
       477.0         0.58          8.6 
       478.0         0.50          8.6 
       479.0         0.50          9.1 
       480.0         0.40          9.0 
       481.0         0.33          8.8 
       482.0         0.33          8.7 
       483.0         0.33          9.0 
       484.0         0.37          8.7 
       485.0         0.38          8.6 
       486.0         0.40          8.8 
       487.0         0.40          9.1 
       488.0         0.37          8.5 
       489.0         0.37          8.7 
       490.0         0.40          8.8 
       491.0         0.40          8.8 
       492.0         0.40          8.6 
       493.0         0.48          8.8 
       494.0         0.43          8.7 
       495.0         0.50          8.8 
       496.0         0.43          8.9 
       497.0         0.53          8.5 
       498.0         0.47          8.9 
       499.0         0.43          9.1 
       500.0         0.40          8.6 
       501.0         0.45          8.9 
       502.0         0.40          8.8 
       503.0         0.43          9.3 
       504.0         0.40          9.2 
       505.0         0.50          9.4 
       506.0         5.77          9.6 
       507.0         0.57          9.4 
       508.0         0.50          9.1 
       509.0         0.50          9.1 
       510.0         0.47          9.5 
       511.0         0.48          9.5 
       512.0         0.67          9.5 
       513.0         0.60          9.0 
       514.0         0.70          9.2 
       515.0         0.63          9.2 
       516.0         0.62          9.2 
       517.0         0.53          9.6 
       518.0         0.70          9.2 
       519.0         0.53          9.5 
       520.0         0.53          9.6 
       521.0         0.67          9.4 
       522.0         0.75          9.1 
       523.0         0.77          9.3 
       524.0         0.77          9.0 
       525.0         0.80          9.2 
