~Version Information
VERS.                      2.0: CWLS Log ASCII Standard - VERSION 2.0
WRAP.                       NO: One line per depth step
~Well Information Block
STRT.FT               240.0000: 
STOP.FT              1456.0000: 
STEP.FT                 0.1000: 
NULL.                -999.2500: 
COMP.          Pioneer Natural Resources: COMPANY
WELL.              Darren 11-7: WELL
FLD.           Purgatoire River: FIELD
LOC.           230' FNL & 596' FWL: LOCATION
CNTY.               Las Animas: COUNTY
SRVC.                Patterson: SERVICE COMPANY
DATE.          Mon Mar 20 07:16:06 2006: LOG DATE
UWI.           05 071 08720 00: UNIQUE WELL ID
STAT.                 Colorado: STATE
~Curve Information Block
DEPT.FT            0 000 00 00: Depth
DCAL.in                       : CDL Caliper
RHOB.g/cc                     : CDL Bulk Density
RHOC.g/cc                     : CDL Density Correction
DPOR.pu                       : CDL Density Porosity
GR.GAPI                       : Gamma Ray
NPOR.pu                       : Neutron Porosity
~Parameter Information Block
~A  Depth       DCAL        RHOB        RHOC        DPOR         GR         NPOR    
# ...
  1276.8000      7.9820      2.4647      0.1029     11.2324    117.5599     26.8243
  1276.9000      7.9820      2.4622      0.0405     11.3799    113.9085     27.7131
  1277.0000      7.9157      2.4728      0.0292     10.7407    115.3835     28.1582
  1277.1000      7.9157      2.4893      0.0691      9.7371    121.2749     26.9543
  1277.2000      7.9157      2.5004      0.0887      9.0664    124.5286     25.5121
  1277.3000      7.9082      2.5010      0.0959      9.0323    121.3814     25.7205
  1277.4000      7.9082      2.4954      0.0931      9.3699    117.5470     27.7918
  1277.5000      7.9119      2.4973      0.0792      9.2540    121.7446     30.3196
  1277.6000      7.9119      2.5086      0.0950      8.5725    131.0455     31.4942
  1277.7000      7.9119      2.5117      0.0573      8.3807    134.4443     30.6644
  1277.8000      7.9225      2.5006      0.0822      9.0566    130.7065     27.9838
  1277.9000      7.9225      2.4879      0.0805      9.8259    126.5689     25.3274
  1278.0000      7.9977      2.4821      0.0810     10.1744    125.4262     25.0730
  1278.1000      7.9977      2.4823      0.0639     10.1649    124.6997     27.2031
  1278.2000      7.9977      2.4855      0.0853      9.9668    120.2286     29.2632
  1278.3000      8.0077      2.4879      0.0560      9.8233    115.1977     29.9716
  1278.4000      8.0077      2.4879      0.0190      9.8242    115.3578     30.5937
  1278.5000      8.0099      2.4808      0.0964     10.2552    120.5989     31.1450
  1278.6000      8.0099      2.4626      0.0529     11.3551    128.7548     29.8279
  1278.7000      8.0099      2.4515      0.0107     12.0318    134.1009     27.2754
  1278.8000      8.0076      2.4668      0.0524     11.1004    131.0264     25.6439
  1278.9000      8.0076      2.4914      0.0851      9.6098    124.5750     25.4777
  1279.0000      7.9608      2.4866      0.0834      9.9022    121.3286     26.0360
  1279.1000      7.9608      2.4375      0.0520     12.8783    118.8776     26.8199
  1279.2000      7.9608      2.3591     -0.0077     17.6325    113.4289     28.1725
  1279.3000      7.9428      2.2614      0.0153     23.5514    106.6552     29.2156
  1279.4000      7.9428      2.1442     -0.0125     30.6538    104.5360     28.1148
  1279.5000      7.9925      2.0203     -0.0652     38.1618    108.1747     24.0560
  1279.6000      7.9925      1.9022     -0.0619     45.3187    110.9550     20.3406
  1279.7000      7.9925      1.7967     -0.1550     51.7165    107.4076     20.2277
  1279.8000      7.9753      1.7305     -0.2188     55.7244    102.7892     23.6269
  1279.9000      7.9753      1.7301     -0.1506     55.7535    104.0870     26.7776
  1280.0000      7.9718      1.7908     -0.0488     52.0756    105.4470     26.7008
  1280.1000      7.9718      1.8867      0.0842     46.2617    101.6331     26.8331
  1280.2000      7.9718      1.9923      0.1156     39.8587     97.5738     29.6290
  1280.3000      7.9173      2.0925      0.1811     33.7852    100.1567     32.9320
  1280.4000      7.9173      2.1800      0.2042     28.4864    108.7820     33.1461
  1280.5000      7.9211      2.2623      0.1776     23.4950    113.4324     30.5130
  1280.6000      7.9211      2.3461      0.1887     18.4159    111.4422     28.1033
  1280.7000      7.9211      2.4107      0.1793     14.5040    110.2105     27.5717
  1280.8000      7.9961      2.4407      0.0863     12.6827    112.0346     28.0306
  1280.9000      7.9961      2.4524      0.0823     11.9784    113.0235     28.7467
  1281.0000      8.0009      2.4594      0.0890     11.5505    111.4095     29.1196
  1281.1000      8.0009      2.4584      0.0555     11.6105    110.1750     28.3850
  1281.2000      8.0009      2.4484      0.0570     12.2202    113.4617     27.0493
  1281.3000      7.9399      2.4393      0.0235     12.7713    120.6052     26.8516
  1281.4000      7.9399      2.4377      0.0807     12.8663    124.1024     28.6917
  1281.5000      7.9578      2.4364      0.0730     12.9429    119.4958     30.6696
  1281.6000      7.9578      2.4348      0.0436     13.0403    115.5592     30.3739
  1281.7000      7.9578      2.4420      0.0732     12.6063    119.6709     28.1603
  1281.8000      7.9388      2.4555      0.1109     11.7892    124.6295     26.8497
  1281.9000      7.9388      2.4625      0.1086     11.3663    125.0156     28.3071
  1282.0000      7.9467      2.4604      0.1060     11.4927    122.4468     30.2121
  1282.1000      7.9467      2.4619      0.0793     11.4022    117.7655     29.4876
  1282.2000      7.9467      2.4744      0.0829     10.6408    114.6506     27.8473
  1282.3000      7.9090      2.4925      0.0889      9.5437    115.4264     26.6006
  1282.4000      7.9090      2.5116      0.0771      8.3899    116.2392     24.5969
  1282.5000      7.9148      2.5258      0.1326      7.5260    116.7871     23.6983
  1282.6000      7.9148      2.5196      0.1510      7.9014    121.4686     25.8307
  1282.7000      7.9148      2.4912      0.0351      9.6270    129.4110     28.0601
  1282.8000      7.9640      2.4605      0.0252     11.4859    135.3551     27.6383
  1282.9000      7.9640      2.4399      0.0190     12.7319    136.7371     27.3650
  1283.0000      7.9918      2.4268      0.0193     13.5284    132.1936     28.1017
  1283.1000      7.9918      2.4134      0.0250     14.3393    124.6671     27.8105
  1283.2000      7.9918      2.4000      0.0187     15.1505    121.4536     25.9541
  1283.3000      7.9333      2.3958     -0.0023     15.4061    124.4319     24.7253
  1283.4000      7.9333      2.3957      0.0737     15.4136    131.0109     26.1917
  1283.5000      7.9571      2.3789      0.0639     16.4290    138.5994     29.7331
  1283.6000      7.9571      2.3377      0.0448     18.9251    141.4319     32.0599
  1283.7000      7.9571      2.2677      0.0777     23.1709    136.6691     32.0940
  1283.8000      7.9297      2.1607      0.0176     29.6538    130.0557     31.5449
  1283.9000      7.9297      2.0282     -0.0471     37.6860    125.0750     31.5281
  1284.0000      7.9149      1.8960     -0.0573     45.6978    120.7770     32.3852
  1284.1000      7.9149      1.7820     -0.1237     52.6067    116.6256     33.0585
  1284.2000      7.9149      1.6931     -0.1069     57.9925    111.1472     32.1141
  1284.3000      7.9177      1.6287     -0.0991     61.8985    107.5327     30.8801
  1284.4000      7.9177      1.5773     -0.0546     65.0142    106.5352     31.2250
  1284.5000      7.9569      1.5274     -0.0483     68.0370    101.6362     32.6030
  1284.6000      7.9569      1.4816     -0.0080     70.8104     95.4339     32.7789
  1284.7000      7.9569      1.4475      0.0213     72.8795     93.2607     30.5442
  1284.8000      8.0124      1.4231      0.0216     74.3550     89.3590     26.6536
  1284.9000      8.0124      1.4006      0.0277     75.7186     79.3088     23.7589
  1285.0000      7.9871      1.3771      0.0296     77.1451     70.2844     24.2907
  1285.1000      7.9871      1.3607     -0.0029     78.1373     66.7174     27.8679
  1285.2000      7.9871      1.3631     -0.0091     77.9922     66.0201     30.1220
  1285.3000      8.0694      1.3893     -0.0099     76.4062     67.8267     29.9203
  1285.4000      8.0694      1.4434     -0.0154     73.1300     69.8943     30.9229
  1285.5000      8.2055      1.5329      0.0054     67.7009     68.8725     33.0996
  1285.6000      8.2055      1.6564      0.0858     60.2183     65.0681     34.4007
  1285.7000      8.2055      1.7967      0.1352     51.7132     62.3056     34.3246
  1285.8000      8.3156      1.9374      0.1621     43.1882     66.3343     32.9816
  1285.9000      8.3156      2.0693      0.2251     35.1966     78.1673     31.6108
  1286.0000      8.3256      2.1874      0.2215     28.0369     90.1632     31.7631
  1286.1000      8.3256      2.2900      0.2599     21.8208     93.4965     32.9160
  1286.2000      8.3256      2.3693      0.2376     17.0124     88.6051     33.9366
  1286.3000      8.0245      2.4154      0.1744     14.2184     83.9735     33.3666
