~Version Information
VERS.                      2.0: CWLS Log ASCII Standard - VERSION 2.0
WRAP.                       NO: One line per depth step
~Well Information Block
STRT.FT               830.0000: 
STOP.FT              1792.5000: 
STEP.FT                 0.1000: 
NULL.                -999.2500: 
COMP.          Pioneer Natural Resources: COMPANY
WELL.           Rolls 14-14 Tr: WELL
FLD.           Purgatoire River: FIELD
LOC.           473' FSL & 817' FWL: LOCATION
PROV.                 Colorado: PROVINCE
CNTY.               Las Animas: COUNTRY
SRVC.                Patterson: SERVICE COMPANY
DATE.          Wed Aug 03 07:11:37 2005: LOG DATE
UWI.           05 071 08454 00: UNIQUE WELL ID
~Curve Information Block
DEPT.FT            0 000 00 00: Depth
DCAL.in                       : CDL Caliper
RHOB.g/cc                     : CDL Bulk Density
RHOC.g/cc                     : CDL Density Correction
DPOR.pu                       : CDL Density Porosity
GR.GAPI                       : Gamma Ray
NPOR.pu                       : Neutron Porosity
~Parameter Information Block
~A  Depth       DCAL        RHOB        RHOC        DPOR         GR         NPOR    
# ...
  1655.6000      7.9146      2.5104     -0.0127      8.4624     95.6423     22.6567
  1655.7000      7.9146      2.5209      0.0480      7.8266     99.6914     23.1951
  1655.8000      7.9343      2.5355      0.1148      6.9385    103.1871     23.5855
  1655.9000      7.9343      2.5216      0.0575      7.7832    107.6528     24.0477
  1656.0000      7.9519      2.4894      0.0411      9.7312    117.1016     23.8505
  1656.1000      7.9519      2.4694      0.0136     10.9475    133.2340     23.2457
  1656.2000      7.9519      2.4702      0.0501     10.8985    145.8102     23.5716
  1656.3000      7.9345      2.4866      0.0155      9.9037    143.1511     24.6893
  1656.4000      7.9345      2.5103      0.0984      8.4644    131.1547     24.9178
  1656.5000      7.9491      2.5275      0.0741      7.4232    123.2819     23.9143
  1656.6000      7.9491      2.5333      0.1277      7.0740    121.4047     22.9679
  1656.7000      7.9491      2.5391      0.0624      6.7195    120.4086     22.8280
  1656.8000      7.9629      2.5558      0.1344      5.7107    118.8209     23.4247
  1656.9000      7.9629      2.5718      0.1642      4.7394    118.7525     24.3860
  1657.0000      7.9649      2.5655      0.1128      5.1188    119.3826     24.8504
  1657.1000      7.9649      2.5362      0.0533      6.8949    118.3495     24.3942
  1657.2000      7.9649      2.5127     -0.0090      8.3202    116.6336     23.7140
  1657.3000      7.9708      2.5235     -0.0036      7.6640    115.9532     23.1878
  1657.4000      7.9708      2.5608      0.0613      5.4033    115.8921     22.3850
  1657.5000      7.9680      2.5919      0.0583      3.5241    116.1181     21.0857
  1657.6000      7.9680      2.6012      0.0476      2.9585    117.3898     20.1141
  1657.7000      7.9680      2.5980      0.0454      3.1487    118.4442     20.5593
  1657.8000      7.9694      2.5857      0.1043      3.8966    118.2451     22.3423
  1657.9000      7.9694      2.5627      0.0246      5.2919    117.0140     24.0311
  1658.0000      7.9546      2.5432      0.0825      6.4705    113.2054     24.6998
  1658.1000      7.9546      2.5345      0.0718      6.9993    107.9946     24.9155
  1658.2000      7.9546      2.5364      0.0097      6.8830    108.0488     25.2273
  1658.3000      7.9393      2.5518      0.0786      5.9492    113.6338     25.5876
  1658.4000      7.9393      2.5723      0.0687      4.7070    116.4458     25.9949
  1658.5000      7.9548      2.5852      0.0685      3.9292    115.4563     26.5272
  1658.6000      7.9548      2.5835      0.0808      4.0294    116.5356     26.6938
  1658.7000      7.9548      2.5744      0.0712      4.5811    116.1118     26.1803
  1658.8000      7.9611      2.5757      0.0299      4.5039    108.8909     25.0665
  1658.9000      7.9611      2.5874      0.0274      3.7951    101.5628     23.4128
  1659.0000      7.9705      2.5927      0.0678      3.4707    101.1519     22.0527
  1659.1000      7.9705      2.5890      0.0059      3.6994    104.6545     21.5609
  1659.2000      7.9705      2.5884      0.0272      3.7305    105.1049     21.6281
  1659.3000      7.9724      2.5934      0.0360      3.4324    101.0119     22.1847
  1659.4000      7.9724      2.5981      0.0545      3.1453     94.8024     22.7362
  1659.5000      7.9465      2.6021      0.0496      2.9014     88.4337     22.4308
  1659.6000      7.9465      2.6088      0.0713      2.4957     83.5906     21.7035
  1659.7000      7.9465      2.6197      0.0553      1.8361     83.7071     21.1690
  1659.8000      7.9413      2.6245      0.0994      1.5454     88.4358     21.0093
  1659.9000      7.9413      2.6118      0.0824      2.3151     93.8717     21.5293
  1660.0000      7.9683      2.5922      0.0668      3.5058     98.8111     22.7310
  1660.1000      7.9683      2.5795      0.0638      4.2754    100.8768     24.2720
  1660.2000      7.9683      2.5678      0.0602      4.9836     99.4635     25.3873
  1660.3000      7.9796      2.5594     -0.0644      5.4922    100.3382     25.2633
  1660.4000      7.9796      2.5635      0.0853      5.2433    104.8640     23.9560
  1660.5000      7.9386      2.5729      0.0483      4.6704    107.6317     22.3002
  1660.6000      7.9386      2.5899      0.0515      3.6411    107.4001     20.7912
  1660.7000      7.9386      2.6171      0.0890      1.9966    106.7981     19.7466
  1660.8000      7.9325      2.6403      0.0832      0.5887    103.6932     19.5160
  1660.9000      7.9325      2.6530      0.1152     -0.1802     97.7067     19.7276
  1661.0000      7.9357      2.6603      0.1066     -0.6231     96.6818     19.6708
  1661.1000      7.9357      2.6677      0.0780     -1.0722    100.7660     19.5133
  1661.2000      7.9357      2.6787      0.0775     -1.7405     99.5168     19.8629
  1661.3000      7.9301      2.6951      0.0711     -2.7307     91.4673     20.3633
  1661.4000      7.9301      2.7100      0.1129     -3.6366     86.1719     20.0469
  1661.5000      7.9284      2.7082      0.1428     -3.5260     85.8362     19.2535
  1661.6000      7.9284      2.6932      0.0845     -2.6185     84.3309     19.2037
  1661.7000      7.9284      2.6882      0.1053     -2.3148     80.3703     19.9662
  1661.8000      7.9278      2.7053      0.1037     -3.3500     77.5790     20.8225
  1661.9000      7.9278      2.7403      0.1166     -5.4718     78.8507     21.3477
  1662.0000      7.9200      2.7782      0.1095     -7.7713     81.8975     21.1537
  1662.1000      7.9200      2.7947      0.1308     -8.7692     83.9269     20.5111
  1662.2000      7.9200      2.7658      0.1279     -7.0168     87.2968     20.1322
  1662.3000      7.9112      2.7038      0.0525     -3.2596     90.6238     20.1481
  1662.4000      7.9112      2.6581     -0.0000     -0.4919     92.2581     20.1638
  1662.5000      7.9243      2.6437      0.0705      0.3845     95.9607     19.9445
  1662.6000      7.9243      2.6308      0.0563      1.1625    101.7758     19.8530
  1662.7000      7.9243      2.6177     -0.0137      1.9599    105.1444     20.1505
  1662.8000      7.9546      2.6271      0.0400      1.3890    104.1372     20.6869
  1662.9000      7.9546      2.6459      0.1116      0.2475    103.0614     21.4157
  1663.0000      7.9451      2.6415      0.0887      0.5143    106.0740     22.0584
  1663.1000      7.9451      2.6174      0.0455      1.9766    110.7412     22.1927
  1663.2000      7.9451      2.6009      0.0461      2.9734    114.8393     22.1717
  1663.3000      7.9370      2.5930      0.0533      3.4531    120.0600     22.7115
  1663.4000      7.9370      2.5816      0.0333      4.1429    125.3869     23.4026
  1663.5000      7.9717      2.5771      0.0265      4.4161    127.9089     23.0465
  1663.6000      7.9717      2.5901      0.0686      3.6279    127.5697     22.0827
  1663.7000      7.9717      2.6178      0.0213      1.9524    127.4976     22.0475
  1663.8000      8.0060      2.6493      0.0748      0.0452    128.1403     23.0025
  1663.9000      8.0060      2.6590      0.1069     -0.5460    123.8526     23.8522
  1664.0000      8.0171      2.6420      0.0288      0.4854    116.1439     23.9056
  1664.1000      8.0171      2.6257      0.0394      1.4734    114.0538     23.6278
  1664.2000      8.0171      2.6259      0.0361      1.4606    118.7366     23.8912
  1664.3000      7.9806      2.6362      0.0654      0.8347    122.8983     24.3996
  1664.4000      7.9806      2.6398      0.0914      0.6152    123.3197     24.3212
  1664.5000      7.9797      2.6306      0.0686      1.1728    123.2114     24.0908
  1664.6000      7.9797      2.6295     -0.0070      1.2416    122.5799     24.1649
  1664.7000      7.9797      2.6514      0.0820     -0.0866    121.7407     24.4205
  1664.8000      7.9475      2.6807      0.1195     -1.8593    122.2119     24.9041
  1664.9000      7.9475      2.6998      0.0963     -3.0204    122.3478     25.4060
  1665.0000      7.9083      2.7014      0.1307     -3.1170    124.6145     25.7136
  1665.1000      7.9083      2.6757      0.1373     -1.5584    132.8159     25.9180
