~Version Information
VERS.                      2.0: CWLS Log ASCII Standard - VERSION 2.0
WRAP.                       NO: One line per depth step
~Well Information Block
STRT.FT                -5.5000: 
STOP.FT               791.0000: 
STEP.FT                 0.2500: 
NULL.                -999.2500: 
COMP.          Pioneer Natural Resources: COMPANY
WELL.           Beringer 33-18: WELL
FLD.           Purgatoire River: FIELD
LOC.           2356' FSL & 2338' FEL--: LOCATION
CNTY.               Las Animas: COUNTY
SRVC.                Patterson: SERVICE COMPANY
DATE.          Mon Apr 03 11:39:01 2006: LOG DATE
UWI.           05 071 08725 00: UNIQUE WELL ID
STAT.                 Colorado: STATE
~Curve Information Block
DEPT.FT            0 000 00 00: Depth
CCL.                          : Casing Collar Locator
TT3.usec                      : CBL 3' Travel Time
AMP3.mV                       : CBL 3' Amplitude
GR.GAPI                       : Gamma Ray
~Parameter Information Block
~A  Depth       CCL         TT3         AMP3         GR     
# ...
   262.5000      0.0000    753.0416      4.5676    110.7537
   262.7500      0.0000    755.9212      4.5731    111.9965
   263.0000      0.0000    759.1495      4.5686    117.2187
   263.2500      0.0000    759.6940      4.5594    122.6443
   263.5000      0.0000    756.2508      4.5415    131.8438
   263.7500      0.0000    750.2950      4.5284    137.2216
   264.0000      0.0000    736.6277      4.5054    142.8439
   264.2500      0.0000    726.3350      4.4874    145.4718
   264.5000      0.0000    713.3341      4.4637    149.2620
   264.7500      0.0000    707.9589      4.4588    151.7114
   265.0000      0.0000    705.6996      4.4784    154.1687
   265.2500      0.0000    707.8510      4.5075    154.9782
   265.5000      0.0000    715.1527      4.5577    156.6727
   265.7500      0.0000    720.8267      4.5840    158.9644
   266.0000      0.0000    726.0995      4.6023    162.9962
   266.2500      0.0000    726.2603      4.6029    164.0258
   266.5000      0.0000    725.0220      4.5998    160.0007
   266.7500      0.0000    727.0072      4.6016    153.5649
   267.0000      0.0000    736.8252      4.6092    141.1719
   267.2500      0.0000    745.8014      4.6116    133.0634
   267.5000      0.0000    757.4828      4.6071    123.0627
   267.7500      0.0000    762.5693      4.6049    118.2488
   268.0000      0.0000    766.4848      4.6223    114.0562
   268.2500      0.0000    767.2338      4.6550    113.1244
   268.5000      0.0000    766.4117      4.7325    113.4793
   268.7500      0.0000    765.0467      4.7948    114.0102
   269.0000      0.0000    762.2776      4.8888    114.1120
   269.2500      0.0000    759.8657      4.9441    113.7361
   269.5000      0.0000    755.1187      5.0053    113.7464
   269.7500      0.0000    751.4408      5.0300    114.8848
   270.0000      0.0000    746.3298      5.0515    117.9919
   270.2500      0.0000    743.8557      5.0630    119.7532
   270.5000      0.0000    741.8512      5.0832    119.4656
   270.7500      0.0000    741.3702      5.0967    116.7144
   271.0000      0.0000    741.2122      5.1061    109.9990
   271.2500      0.0000    741.1722      5.0989    105.5903
   271.5000      0.0000    740.9801      5.0665    102.2217
   271.7500      0.0000    740.7557      5.0371    102.7984
   272.0000      0.0000    740.3184      4.9997    106.1989
   272.2500      0.0000    739.9570      4.9887    108.4699
   272.5000      0.0000    739.2440      5.0009    110.6496
   272.7500      0.0000    738.6526      5.0288    112.1604
   273.0000      0.0000    737.7773      5.0958    117.1383
   273.2500      0.0000    737.3334      5.1478    123.0156
   273.5000      0.0000    736.7535      5.2036    134.3430
   273.7500      0.0000    736.2279      5.2008    141.7776
   274.0000      0.0000    736.1901      5.1069    149.8095
   274.2500      0.0000    739.0417      4.9876    152.1637
   274.5000      0.0000    754.6343      4.7643    151.4139
   274.7500      0.0000    776.0583      4.6116    149.1053
   275.0000      0.0000    822.9631      4.3911    145.3030
   275.2500      0.0000    857.0634      4.2493    143.4500
   275.5000      0.0000    896.2939      4.0699    141.4931
   275.7500      0.0000    908.4099      3.9993    139.8306
   276.0000      0.0000    906.3425      3.9763    135.1265
   276.2500      2.0000    897.2222      3.9891    130.1221
   276.5000      2.0000    884.4449      3.9921    120.7445
   276.7500      0.0000    881.3727      3.9666    114.6414
   277.0000      0.0000    883.6714      3.9049    108.7337
   277.2500      0.0000    884.0538      3.8846    108.4554
   277.5000      0.0000    872.2869      3.9544    114.4787
   277.7500      0.0000    854.3220      4.0751    122.0393
   278.0000      0.0000    818.4485      4.3079    135.4787
   278.2500      0.0000    794.7574      4.4593    143.4878
   278.5000      0.0000    767.1374      4.6666    150.8109
   278.7500      0.0000    755.1067      4.7998    151.7557
   279.0000      0.0000    744.8365      4.9858    147.7672
   279.2500      0.0000    741.5907      5.0852    142.2527
   279.5000      0.0000    740.1154      5.1804    130.7802
   279.7500      0.0000    740.8058      5.2098    121.8264
   280.0000      0.0000    744.0212      5.2140    109.3036
   280.2500      0.0000    747.4139      5.1956    103.7339
   280.5000      0.0000    753.2756      5.1444    101.7314
   280.7500      0.0000    756.6740      5.1027    104.1782
   281.0000      0.0000    759.4442      5.0466    111.0705
   281.2500      0.0000    759.3732      5.0219    116.7177
   281.5000      0.0000    757.0097      5.0080    125.8092
   281.7500      0.0000    754.8423      5.0093    131.4654
   282.0000      0.0000    752.0640      5.0127    137.3947
   282.2500      0.0000    750.5744      5.0102    139.1972
   282.5000      0.0000    747.9958      5.0014    139.7421
   282.7500      0.0000    745.7705      4.9972    139.3033
   283.0000      0.0000    742.3417      4.9965    137.0437
   283.2500      0.0000    740.6442      4.9977    134.0384
   283.5000      0.0000    739.5388      4.9967    128.0491
   283.7500      0.0000    739.6629      4.9928    124.3299
   284.0000      0.0000    740.5897      4.9821    121.2552
   284.2500      0.0000    741.2921      4.9730    121.5097
   284.5000      0.0000    741.7501      4.9623    125.0975
   284.7500      0.0000    741.3927      4.9643    128.9404
   285.0000      0.0000    740.0106      4.9920    135.9318
   285.2500      0.0000    738.9001      5.0273    141.4196
   285.5000      0.0000    737.5652      5.0917    151.3113
   285.7500      0.0000    737.0367      5.1333    158.6331
   286.0000      0.0000    736.7200      5.1885    167.5905
   286.2500      0.0000    736.7570      5.2213    169.2441
   286.5000      0.0000    737.2490      5.2610    161.8593
   286.7500      0.0000    738.0974      5.2753    151.5850
   287.0000      0.0000    740.8781      5.2687    135.1791
   287.2500      0.0000    744.1348      5.2438    127.6281
   287.5000      0.0000    750.9132      5.1866    123.7942
   287.7500      0.0000    755.7546      5.1504    125.1913
   288.0000      0.0000    761.1867      5.1304    130.4948
   288.2500      0.0000    762.6151      5.1486    135.3182
   288.5000      0.0000    761.1188      5.2122    144.3229
   288.7500      0.0000    758.0394      5.2657    151.4460
   289.0000      0.0000    751.4081      5.3483    163.1654
   289.2500      0.0000    746.4748      5.4048    171.2436
   289.5000      0.0000    739.3318      5.4987    183.1433
   289.7500      0.0000    734.7006      5.5725    190.1805
   290.0000      0.0000    727.1902      5.7053    197.5924
   290.2500      0.0000    721.6995      5.8089    200.2596
   290.5000      0.0000    713.8967      5.9829    202.7637
   290.7500      0.0000    710.1367      6.1072    204.3216
   291.0000      0.0000    708.3229      6.2984    205.1016
   291.2500      0.0000    710.0412      6.4266    202.9625
   291.5000      0.0000    716.3082      6.6251    195.0079
   291.7500      0.0000    721.8008      6.7688    187.6656
   292.0000      0.0000    729.6884      7.0099    175.9905
   292.2500      0.0000    733.9174      7.1843    168.4042
   292.5000      0.0000    738.8865      7.4455    157.5770
   292.7500      0.0000    741.7353      7.6050    151.0480
   293.0000      0.0000    745.2602      7.8062    142.9214
   293.2500      0.0000    746.4929      7.9125    138.4206
   293.5000      0.0000    745.8768      8.0318    131.7790
   293.7500      0.0000    744.1547      8.0860    126.8965
   294.0000      0.0000    741.1713      8.1328    119.3010
   294.2500      0.0000    739.7034      8.1452    114.8369
   294.5000      0.0000    738.7307      8.1463    110.3119
   294.7500      0.0000    738.8357      8.1428    109.1344
   295.0000      0.0000    740.0727      8.1407    110.0990
   295.2500      0.0000    741.7315      8.1418    112.0590
   295.5000      0.0000    745.5871      8.1360    115.3500
   295.7500      0.0000    748.8629      8.1178    116.7904
