~Version Information
VERS.                      2.0: CWLS Log ASCII Standard - VERSION 2.0
WRAP.                       NO: One line per depth step
~Well Information Block
STRT.FT               260.0000: 
STOP.FT              1230.0000: 
STEP.FT                 0.2500: 
NULL.                -999.2500: 
COMP.          Pioneer Natural Resources: COMPANY
WELL.             Mahalo 12-20: WELL
FLD.           Purgatoire River: FIELD
LOC.           1689' FNL & 479' FWL: LOCATION
CNTY.               Las Animas: COUNTY
SRVC.                Patterson: SERVICE COMPANY
DATE.          Thu Feb 23 20:25:01 2006: LOG DATE
UWI.           05 071 08700 00: UNIQUE WELL ID
STAT.                 Colorado: STATE
~Curve Information Block
DEPT.FT            0 000 00 00: Depth
SN.Ohm-m                      : IEL Short Normal
SP.mV                         : IEL Spontaneous Potential
DIR.Ohm-m                     : IEL Induction Resistivity
GR.GAPI                       : Gamma Ray
~Parameter Information Block
~A  Depth        SN          SP         DIR          GR     
# ...
   628.5000   2000.0000   2000.0000     11.9936    113.6803
   628.7500   2000.0000   2000.0000     12.3881    112.9743
   629.0000   2000.0000   2000.0000     12.7172    113.1859
   629.2500   2000.0000   2000.0000     12.9394    113.7922
   629.5000   2000.0000   2000.0000     13.0175    115.5291
   629.7500   2000.0000   2000.0000     12.9330    117.6428
   630.0000   2000.0000   2000.0000     12.6988    123.0108
   630.2500   2000.0000   2000.0000     12.3591    128.2250
   630.5000   2000.0000   2000.0000     11.9740    138.1384
   630.7500   2000.0000   2000.0000     11.5968    145.7335
   631.0000   2000.0000   2000.0000     11.2607    157.6644
   631.2500   2000.0000   2000.0000     10.9791    165.0931
   631.5000   2000.0000   2000.0000     10.7558    173.5235
   631.7500   2000.0000   2000.0000     10.5933    176.6265
   632.0000   2000.0000   2000.0000     10.4928    177.9822
   632.2500   2000.0000   2000.0000     10.4497    177.6912
   632.5000   2000.0000   2000.0000     10.4526    176.9206
   632.7500   2000.0000   2000.0000     10.4891    176.1678
   633.0000   2000.0000   2000.0000     10.5531    172.9513
   633.2500   2000.0000   2000.0000     10.6469    168.1442
   633.5000   2000.0000   2000.0000     10.7777    156.5218
   633.7500   2000.0000   2000.0000     10.9513    147.1398
   634.0000   2000.0000   2000.0000     11.1719    134.0353
   634.2500   2000.0000   2000.0000     11.4459    127.3261
   634.5000   2000.0000   2000.0000     11.7849    120.7044
   634.7500   2000.0000   2000.0000     12.2002    118.1337
   635.0000   2000.0000   2000.0000     12.6915    116.1765
   635.2500   2000.0000   2000.0000     13.2341    115.7030
   635.5000   2000.0000   2000.0000     13.7780    115.4504
   635.7500   2000.0000   2000.0000     14.2605    115.1626
   636.0000   2000.0000   2000.0000     14.6272    114.2153
   636.2500   2000.0000   2000.0000     14.8456    113.3450
   636.5000   2000.0000   2000.0000     14.9053    112.3357
   636.7500   2000.0000   2000.0000     14.8123    112.4575
   637.0000   2000.0000   2000.0000     14.5887    114.9323
   637.2500   2000.0000   2000.0000     14.2736    118.5354
   637.5000   2000.0000   2000.0000     13.9157    126.7453
   637.7500   2000.0000   2000.0000     13.5585    133.4427
   638.0000   2000.0000   2000.0000     13.2267    143.6969
   638.2500   2000.0000   2000.0000     12.9234    149.8254
   638.5000   2000.0000   2000.0000     12.6370    156.9788
   638.7500   2000.0000   2000.0000     12.3528    160.0436
   639.0000   2000.0000   2000.0000     12.0631    162.0542
   639.2500   2000.0000   2000.0000     11.7712    162.1775
   639.5000   2000.0000   2000.0000     11.4879    162.1035
   639.7500   2000.0000   2000.0000     11.2262    162.7132
   640.0000   2000.0000   2000.0000     10.9950    164.9599
   640.2500   2000.0000   2000.0000     10.7985    166.7959
   640.5000   2000.0000   2000.0000     10.6376    168.5734
   640.7500   2000.0000   2000.0000     10.5132    168.4931
   641.0000   2000.0000   2000.0000     10.4269    166.2166
   641.2500   2000.0000   2000.0000     10.3816    163.3867
   641.5000   2000.0000   2000.0000     10.3796    157.6648
   641.7500   2000.0000   2000.0000     10.4219    153.3492
   642.0000   2000.0000   2000.0000     10.5054    147.1618
   642.2500   2000.0000   2000.0000     10.6220    143.7123
   642.5000   2000.0000   2000.0000     10.7596    139.9265
   642.7500   2000.0000   2000.0000     10.9061    138.3784
   643.0000   2000.0000   2000.0000     11.0534    137.5944
   643.2500   2000.0000   2000.0000     11.2013    138.0502
   643.5000   2000.0000   2000.0000     11.3594    139.4632
   643.7500   2000.0000   2000.0000     11.5464    140.0908
   644.0000   2000.0000   2000.0000     11.7838    139.3513
   644.2500   2000.0000   2000.0000     12.0868    137.4765
   644.5000   2000.0000   2000.0000     12.4572    132.8137
   644.7500   2000.0000   2000.0000     12.8832    128.7798
   645.0000   2000.0000   2000.0000     13.3443    121.9382
   645.2500   2000.0000   2000.0000     13.8177    117.2107
   645.5000   2000.0000   2000.0000     14.2829    110.6302
   645.7500   2000.0000   2000.0000     14.7230    107.2078
   646.0000   2000.0000   2000.0000     15.1267    104.4802
   646.2500   2000.0000   2000.0000     15.4911    104.2275
   646.5000   2000.0000   2000.0000     15.8227    104.7421
   646.7500   2000.0000   2000.0000     16.1336    104.5766
   647.0000   2000.0000   2000.0000     16.4337    102.7047
   647.2500   2000.0000   2000.0000     16.7248    100.7306
   647.5000   2000.0000   2000.0000     17.0043     97.9996
   647.7500   2000.0000   2000.0000     17.2717     96.9377
   648.0000   2000.0000   2000.0000     17.5351     96.6534
   648.2500   2000.0000   2000.0000     17.8082     96.9400
   648.5000   2000.0000   2000.0000     18.1029     97.1118
   648.7500   2000.0000   2000.0000     18.4208     96.7531
   649.0000   2000.0000   2000.0000     18.7503     95.7978
   649.2500   2000.0000   2000.0000     19.0736     95.2753
   649.5000   2000.0000   2000.0000     19.3814     94.9851
   649.7500   2000.0000   2000.0000     19.6817     94.9088
   650.0000   2000.0000   2000.0000     19.9919     94.0245
   650.2500   2000.0000   2000.0000     20.3221     92.2752
   650.5000   2000.0000   2000.0000     20.6665     87.3627
   650.7500   2000.0000   2000.0000     21.0099     82.9026
   651.0000   2000.0000   2000.0000     21.3404     76.0326
   651.2500   2000.0000   2000.0000     21.6558     72.3403
   651.5000   2000.0000   2000.0000     21.9603     68.9876
   651.7500   2000.0000   2000.0000     22.2573     68.0843
   652.0000   2000.0000   2000.0000     22.5392     67.9903
   652.2500   2000.0000   2000.0000     22.7799     68.3746
   652.5000   2000.0000   2000.0000     22.9355     69.2447
   652.7500   2000.0000   2000.0000     22.9627     69.9093
   653.0000   2000.0000   2000.0000     22.8466     70.8082
   653.2500   2000.0000   2000.0000     22.6150     71.2448
   653.5000   2000.0000   2000.0000     22.3219     72.0512
   653.7500   2000.0000   2000.0000     22.0114     73.4437
   654.0000   2000.0000   2000.0000     21.6925     78.4988
   654.2500   2000.0000   2000.0000     21.3398     84.3577
   654.5000   2000.0000   2000.0000     20.9164     95.8738
   654.7500   2000.0000   2000.0000     20.4011    103.8343
   655.0000   2000.0000   2000.0000     19.8016    113.5293
   655.2500   2000.0000   2000.0000     19.1486    117.7227
   655.5000   2000.0000   2000.0000     18.4749    120.9945
   655.7500   2000.0000   2000.0000     17.7968    122.1259
   656.0000   2000.0000   2000.0000     17.1166    124.2559
   656.2500   2000.0000   2000.0000     16.4428    126.7247
   656.5000   2000.0000   2000.0000     15.8067    131.9757
   656.7500   2000.0000   2000.0000     15.2539    136.0183
   657.0000   2000.0000   2000.0000     14.8156    142.2494
   657.2500   2000.0000   2000.0000     14.4880    146.3377
   657.5000   2000.0000   2000.0000     14.2354    151.7812
   657.7500   2000.0000   2000.0000     14.0125    154.2915
   658.0000   2000.0000   2000.0000     13.7887    155.3354
   658.2500   2000.0000   2000.0000     13.5589    154.0979
   658.5000   2000.0000   2000.0000     13.3374    150.1673
   658.7500   2000.0000   2000.0000     13.1423    147.0813
   659.0000   2000.0000   2000.0000     12.9859    143.5867
   659.2500   2000.0000   2000.0000     12.8750    142.8785
   659.5000   2000.0000   2000.0000     12.8181    144.5507
   659.7500   2000.0000   2000.0000     12.8307    146.7887
   660.0000   2000.0000   2000.0000     12.9321    149.8095
   660.2500   2000.0000   2000.0000     13.1344    150.5501
   660.5000   2000.0000   2000.0000     13.4307    148.9399
   660.7500   2000.0000   2000.0000     13.7903    146.2340
   661.0000   2000.0000   2000.0000     14.1667    140.8386
   661.2500   2000.0000   2000.0000     14.5148    137.1408
   661.5000   2000.0000   2000.0000     14.8067    132.4263
   661.7500   2000.0000   2000.0000     15.0388    130.0605
