~Version Information
 VERS.                                  2.0 : CWLS LAS VERSION
 WRAP.                                   NO : WRAPING MODE
 SWARE .                 MController 2.5.0N : SOFTWARE VERSION
~Well Information
 WELL.                   Old Faithful 21-02 : WELL
 COMP.    Pioneer Natural Resouces USA Inc. : COMPANY
 FLD.                      Purgatoire River : FIELD
 LOC.              NE/NW Sec 2 , T35S, R65W : LOCATION
 DATE.                             12/06/05 : DATE(S) LOGGED
 SRVC.       BLANCO Geological Services LLC : SERVICE COMPANY
 STAT.                                   CO : STATE
 CNTY.                           Las Animas : COUNTY
 CTRY.                                  USA : COUNTRY
 API.                          05-071-08617 : API NUMBER
 STRT.FT                             182.00 : START DEPTH
 STOP.FT                            1470.00 : STOP DEPTH
 STEP.FT                               1.00 : DEPTH INCREMENT
 NULL.                                -9999 : NULL VALUE
~Curve information
 DEPTH.FT                                   :
 ROP.MIN/FT                                 :
 GAS.UNITS                                  :
~ASCII Log data
# ...
       382.0         0.27         12.3 
       383.0         0.20         13.1 
       384.0         0.20         13.1 
       385.0         0.20         12.6 
       386.0         0.23         12.3 
       387.0         0.20         12.5 
       388.0         0.20         12.3 
       389.0         0.27         11.8 
       390.0         0.37         11.2 
       391.0         0.23         11.7 
       392.0         0.20         11.5 
       393.0         0.23         11.7 
       394.0         0.25         12.4 
       395.0         0.17         11.8 
       396.0         0.13         11.7 
       397.0         0.13         11.7 
       398.0         0.27         12.3 
       399.0         0.23         11.7 
       400.0         0.40         11.5 
       401.0         0.17         11.1 
       402.0         0.13         11.7 
       403.0         0.17         10.8 
       404.0         0.27         11.7 
       405.0         0.27         10.9 
       406.0         0.30         11.5 
       407.0         0.30         11.5 
       408.0         0.32         11.2 
       409.0         0.43         11.6 
       410.0         0.10         11.2 
       411.0         3.85         12.8 
       412.0         0.30         11.8 
       413.0         0.37         11.9 
       414.0         0.30         11.7 
       415.0         0.23         12.8 
       416.0         0.23         12.6 
       417.0         0.23         12.3 
       418.0         0.23         12.7 
       419.0         0.27         12.2 
       420.0         0.45         12.2 
       421.0         0.40         11.7 
       422.0         0.27         11.5 
       423.0         0.27         11.2 
       424.0         0.27         11.2 
       425.0         0.27         10.7 
       426.0         0.27         11.2 
       427.0         0.23         11.6 
       428.0         0.30         11.4 
       429.0         0.30         11.5 
       430.0         0.30         11.7 
       431.0         0.35         11.3 
       432.0         0.30         11.6 
       433.0         0.30         11.8 
       434.0         0.30         11.3 
       435.0         0.37         11.7 
       436.0         0.30         12.0 
       437.0         0.50         11.6 
       438.0         0.53         12.0 
       439.0         0.50         11.7 
       440.0         0.12         12.0 
       441.0         4.25         13.4 
       442.0         0.20         12.2 
       443.0         0.17         13.1 
       444.0         0.17         11.9 
       445.0         0.17         12.6 
       446.0         0.17         12.2 
       447.0         0.23         12.5 
       448.0         0.30         12.9 
       449.0         0.30         12.1 
       450.0         0.30         12.2 
       451.0         0.33         11.9 
       452.0         0.35         11.7 
       453.0         0.30         12.3 
       454.0         0.27         11.9 
       455.0         0.27         13.0 
       456.0         0.27         12.4 
       457.0         0.30         13.1 
       458.0         0.20         13.0 
       459.0         0.30         13.0 
       460.0         0.33         12.2 
       461.0         0.27         13.0 
       462.0         0.27         12.5 
       463.0         0.32         12.0 
       464.0         0.30         11.9 
       465.0         0.27         12.3 
       466.0         0.27         12.3 
       467.0         0.30         12.2 
       468.0         0.10         12.1 
       469.0         0.30         11.8 
       470.0         0.27         11.4 
       471.0         1.95         13.4 
       472.0         0.47         12.7 
       473.0         0.47         12.6 
       474.0         0.37         12.3 
       475.0         0.43         12.1 
       476.0         0.27         12.2 
       477.0         0.23         12.4 
       478.0         0.23         12.4 
       479.0         0.33         12.6 
       480.0         0.22         13.1 
       481.0         0.17         13.9 
       482.0         0.17         14.8 
       483.0         0.27         15.6 
       484.0         0.33         51.8 
       485.0         0.27        383.3 
       486.0         0.33        382.8 
       487.0         0.30         13.2 
       488.0         0.23         12.3 
       489.0         0.23         12.4 
       490.0         0.30         12.0 
       491.0         0.27         13.0 
       492.0         0.23         12.5 
       493.0         0.38         13.1 
       494.0         0.47         12.8 
       495.0         0.20         12.5 
       496.0         0.23         13.2 
       497.0         0.20         12.7 
       498.0         0.23         12.9 
       499.0         0.37         13.0 
       500.0         0.40         13.2 
       501.0         3.15         18.5 
       502.0         0.10         18.5 
       503.0         0.50         13.5 
       504.0         0.33         13.5 
       505.0         0.38         12.9 
       506.0         0.33         12.7 
       507.0         0.33         12.5 
       508.0         0.30         12.7 
       509.0         0.30         13.3 
       510.0         0.33         12.9 
       511.0         0.27         12.4 
       512.0         0.27         12.3 
       513.0         0.27         12.6 
       514.0         0.27         12.6 
       515.0         0.27         12.8 
       516.0         0.28         12.7 
       517.0         0.37         11.7 
       518.0         0.30         12.6 
       519.0         0.27         13.1 
       520.0         0.40         13.0 
       521.0         0.37         13.3 
       522.0         0.23         13.3 
       523.0         0.23         14.4 
       524.0         0.23         16.5 
       525.0         0.27         16.9 
       526.0         0.37         16.2 
       527.0         0.23         15.1 
       528.0         0.28         13.7 
       529.0         0.23         13.4 
       530.0         0.33         12.1 
       531.0         2.92         14.9 
       532.0         0.23         13.0 
       533.0         0.37         13.9 
       534.0         0.27         14.1 
       535.0         0.27         13.3 
       536.0         0.20         13.6 
       537.0         0.33         13.6 
       538.0         0.27         12.7 
       539.0         0.47         12.6 
       540.0         0.23         12.2 
       541.0         0.23         12.4 
       542.0         0.22         12.4 
       543.0         0.23         12.4 
       544.0         0.23         13.3 
       545.0         0.23         12.6 
       546.0         0.23         12.8 
       547.0         0.23         12.8 
       548.0         0.23         12.3 
       549.0         0.23         12.9 
       550.0         0.23         12.8 
       551.0         0.23         12.3 
       552.0         0.23         12.9 
       553.0         0.27         12.6 
       554.0         0.23         12.8 
       555.0         0.23         12.7 
       556.0         0.28         13.0 
       557.0         0.27         12.9 
       558.0         0.23         12.1 
       559.0         0.37         13.1 
       560.0         0.43         13.5 
       561.0         2.58         17.1 
       562.0         0.37         16.4 
       563.0         0.27         13.0 
       564.0         0.37         13.4 
       565.0         0.27         14.0 
       566.0         0.33         14.6 
       567.0         0.30         15.6 
       568.0         0.40         14.4 
       569.0         0.33         13.1 
       570.0         0.32         13.1 
       571.0         0.27         13.1 
       572.0         0.27         13.2 
       573.0         0.23         13.4 
       574.0         0.27         13.3 
       575.0         0.27         14.3 
       576.0         0.27         15.4 
       577.0         0.27         15.0 
       578.0         0.27         15.0 
       579.0         0.27         14.2 
       580.0         0.27         13.7 
       581.0         0.27         13.4 
