~Version Information
VERS.                      2.0: CWLS Log ASCII Standard - VERSION 2.0
WRAP.                       NO: One line per depth step
~Well Information Block
STRT.FT               390.0000: 
STOP.FT              1434.5000: 
STEP.FT                 0.1000: 
NULL.                -999.2500: 
COMP.          Pioneer Natural Resources: COMPANY
WELL.             John K 12-28: WELL
FLD.           Purgatoire River: FIELD
LOC.           1476' FNL & 465' FWL: LOCATION
CNTY.               Las Animas: COUNTY
SRVC.                Patterson: SERVICE COMPANY
DATE.          Mon Apr 10 06:53:47 2006: LOG DATE
UWI.           05 071 08723 00: UNIQUE WELL ID
STAT.                 Colorado: STATE
~Curve Information Block
DEPT.FT            0 000 00 00: Depth
DCAL.in                       : CDL Caliper
RHOB.g/cc                     : CDL Bulk Density
RHOC.g/cc                     : CDL Density Correction
DPOR.pu                       : CDL Density Porosity
GR.GAPI                       : Gamma Ray
NPOR.pu                       : Neutron Porosity
~Parameter Information Block
~A  Depth       DCAL        RHOB        RHOC        DPOR         GR         NPOR    
# ...
   735.6000      7.8219      2.4996      0.0232      9.1177    101.9014     24.9819
   735.7000      7.8219      2.5002     -0.0023      9.0817    104.0934     25.2566
   735.8000      7.8309      2.5216      0.0774      7.7825    105.7432     25.5522
   735.9000      7.8309      2.5512      0.1645      5.9903    108.6369     25.7102
   736.0000      7.8410      2.5647      0.1692      5.1675    116.8958     25.6527
   736.1000      7.8410      2.5627      0.1828      5.2914    126.6341     25.3985
   736.2000      7.8410      2.5553      0.1475      5.7387    132.4894     25.1411
   736.3000      7.8507      2.5433      0.1642      6.4664    136.3324     25.3754
   736.4000      7.8507      2.5322      0.0625      7.1417    138.8370     26.1042
   736.5000      7.8565      2.5425      0.0618      6.5126    138.6972     26.9340
   736.6000      7.8565      2.5799      0.1026      4.2460    138.9187     27.6880
   736.7000      7.8565      2.6214      0.1343      1.7334    140.0477     28.3759
   736.8000      7.8591      2.6490      0.1115      0.0604    138.8507     28.8725
   736.9000      7.8591      2.6632      0.1326     -0.8001    134.2012     28.9816
   737.0000      7.8590      2.6693      0.1293     -1.1697    128.7334     28.8260
   737.1000      7.8590      2.6705      0.1582     -1.2427    126.8279     28.6857
   737.2000      7.8590      2.6659      0.1484     -0.9635    128.2739     28.5666
   737.3000      7.8584      2.6554      0.1246     -0.3296    128.0993     28.2697
   737.4000      7.8584      2.6399      0.1139      0.6121    123.0669     27.7911
   737.5000      7.8564      2.6208      0.0626      1.7710    115.5219     27.5344
   737.6000      7.8564      2.6034      0.0679      2.8257    108.5168     27.7015
   737.7000      7.8564      2.5942     -0.0087      3.3788    101.4199     27.6432
   737.8000      7.8499      2.5937      0.0281      3.4112     95.5489     26.8082
   737.9000      7.8499      2.5873      0.0522      3.8023     92.1584     25.5527
   738.0000      7.8353      2.5690      0.0534      4.9063     87.1934     24.6028
   738.1000      7.8353      2.5573      0.0335      5.6207     79.6978     24.3770
   738.2000      7.8353      2.5685      0.0519      4.9402     74.5925     24.3976
   738.3000      7.8177      2.5945      0.0324      3.3609     73.5138     24.0162
   738.4000      7.8177      2.6088      0.1153      2.4942     75.2446     23.3825
   738.5000      7.8091      2.5990      0.0434      3.0918     78.3675     22.9902
   738.6000      7.8091      2.5794      0.0794      4.2775     78.4136     22.6072
   738.7000      7.8091      2.5637      0.0786      5.2324     75.6639     21.8204
   738.8000      7.8093      2.5545      0.0622      5.7862     73.4581     21.0453
   738.9000      7.8093      2.5477      0.0673      6.2002     71.7258     20.7392
   739.0000      7.8104      2.5420      0.0236      6.5466     71.0569     20.9125
   739.1000      7.8104      2.5494      0.0406      6.0988     71.6471     21.3067
   739.2000      7.8104      2.5719      0.0444      4.7354     71.4350     21.3758
   739.3000      7.8081      2.5865      0.0999      3.8455     69.9224     20.9556
   739.4000      7.8081      2.5745      0.0865      4.5750     68.1902     20.6428
   739.5000      7.8047      2.5470      0.0840      6.2403     66.8864     21.0219
   739.6000      7.8047      2.5219      0.0730      7.7650     66.8132     21.9247
   739.7000      7.8047      2.5055      0.0585      8.7567     69.7278     22.6122
   739.8000      7.8044      2.4960      0.0608      9.3324     76.8711     22.5394
   739.9000      7.8044      2.4824      0.0593     10.1574     85.9155     22.0133
   740.0000      7.8037      2.4639      0.0382     11.2810     93.1596     21.7218
   740.1000      7.8037      2.4524      0.0432     11.9754     98.9182     21.7198
   740.2000      7.8037      2.4528      0.0635     11.9501    106.0387     21.7374
   740.3000      7.7977      2.4624      0.1052     11.3686    112.5852     21.9726
   740.4000      7.7977      2.4766      0.1418     10.5092    115.5981     22.4386
   740.5000      7.7936      2.4975      0.1628      9.2406    115.4682     22.9062
   740.6000      7.7936      2.5382      0.2064      6.7762    114.2399     23.4065
   740.7000      7.7936      2.5986      0.2217      3.1144    113.3047     23.8504
   740.8000      7.7992      2.6500      0.2854     -0.0019    114.4814     24.1076
   740.9000      7.7992      2.6637      0.2729     -0.8294    118.8770     24.3327
   741.0000      7.8189      2.6468      0.2084      0.1930    124.1023     24.6847
   741.1000      7.8189      2.6240      0.2258      1.5751    129.3582     24.9556
   741.2000      7.8189      2.6036      0.1923      2.8102    135.1241     25.1848
   741.3000      7.8453      2.5880      0.1307      3.7596    136.3647     25.5976
   741.4000      7.8453      2.5876      0.0765      3.7811    129.2595     25.8051
   741.5000      7.8592      2.6122      0.0706      2.2912    120.9222     25.7363
   741.6000      7.8592      2.6490      0.1088      0.0585    119.2148     25.8993
   741.7000      7.8592      2.6662      0.1372     -0.9828    119.2211     26.3744
   741.8000      7.8613      2.6518      0.1231     -0.1067    114.2530     26.9013
   741.9000      7.8613      2.6307      0.0765      1.1679    105.4191     27.3025
   742.0000      7.8602      2.6263      0.1259      1.4355     96.8435     27.3556
   742.1000      7.8602      2.6310      0.1059      1.1519     91.9418     26.8983
   742.2000      7.8602      2.6312      0.0460      1.1418     88.5261     26.4869
   742.3000      7.8571      2.6179      0.0566      1.9483     82.6761     26.6252
   742.4000      7.8571      2.5898      0.0004      3.6498     76.8753     26.7171
   742.5000      7.8506      2.5586      0.0312      5.5404     77.9075     26.3034
   742.6000      7.8506      2.5341     -0.0392      7.0253     88.3334     25.8963
   742.7000      7.8506      2.5205      0.0015      7.8507    101.1417     25.9970
   742.8000      7.8395      2.5151     -0.0051      8.1763    107.4929     26.2158
   742.9000      7.8395      2.5089      0.0145      8.5525    105.2967     25.9893
   743.0000      7.8233      2.4988      0.0075      9.1616    100.4257     25.4334
   743.1000      7.8233      2.5020     -0.0607      8.9703    100.2710     24.9004
   743.2000      7.8233      2.5299      0.0262      7.2815    106.2337     24.5745
   743.3000      7.8071      2.5617      0.0578      5.3519    113.6367     24.6463
   743.4000      7.8071      2.5831      0.0677      4.0556    116.8013     25.1559
   743.5000      7.8051      2.5967      0.1423      3.2321    116.6391     26.0153
   743.6000      7.8051      2.5897      0.1627      3.6536    116.5580     27.0788
   743.7000      7.8051      2.5543      0.0765      5.7980    113.9420     27.9067
   743.8000      7.8172      2.5116      0.0529      8.3902    107.6099     28.0394
   743.9000      7.8172      2.4837      0.0525     10.0807    103.5644     27.4619
   744.0000      7.8234      2.4782      0.0391     10.4098    103.8072     26.5330
   744.1000      7.8234      2.4950      0.0484      9.3931    103.2536     25.6183
   744.2000      7.8234      2.5253      0.0989      7.5551     99.9287     25.1743
   744.3000      7.8251      2.5568      0.1080      5.6464     98.6365     25.3191
   744.4000      7.8251      2.5810      0.1454      4.1840    100.9821     25.4604
   744.5000      7.8289      2.5900      0.1355      3.6333    102.3543     25.2667
   744.6000      7.8289      2.5831      0.1318      4.0575    100.7665     24.8892
   744.7000      7.8289      2.5689      0.1105      4.9144     97.4025     24.5709
   744.8000      7.8374      2.5536      0.0726      5.8421     95.2464     24.5550
   744.9000      7.8374      2.5295      0.1060      7.3018     98.7802     24.5666
   745.0000      7.8444      2.4922      0.0674      9.5644    108.6193     24.1214
   745.1000      7.8444      2.4581      0.0482     11.6332    119.1609     23.6305
