~Version Information
VERS.                      2.0: CWLS Log ASCII Standard - VERSION 2.0
WRAP.                       NO: One line per depth step
~Well Information Block
STRT.FT                -8.7500: 
STOP.FT              1727.2500: 
STEP.FT                 0.2500: 
NULL.                -999.2500: 
COMP.          XTO Energy Inc.: COMPANY
WELL.          Apache Canyon 34-08: WELL
FLD.              Vermejo Coal: FIELD
LOC.           1668' FNL & 275' FEL: LOCATION
STAT.                       CO: State
CNTY.               Las Animas: COUNTY
CTRY. USA : Country
SECT. 34 : Section
TOWN. 33S : Township
RANG. 67W : Range
SRVC.          Patterson Wireline: SERVICE COMPANY
DATE.          Mon Jan 09 09:34:21 2006: LOG DATE
API.           05 071 08541 00: UNIQUE WELL ID
~Curve Information Block
DEPT.FT            0 000 00 00: Depth
CCL.                          : Casing Collar Locator
TT3.usec                      : CBL 3' Travel Time
AMP3.mV                       : CBL 3' Amplitude
GR.GAPI                       : Gamma Ray
~Parameter Information Block
~A  Depth       CCL         TT3         AMP3         GR     
# ...
  1465.2500      0.0000    763.7779      4.7290     76.9919
  1465.5000      0.0000    758.5623      4.6964     76.0353
  1465.7500      0.0000    754.3950      4.6783     76.9726
  1466.0000      0.0000    747.4831      4.6592     78.0107
  1466.2500      0.0000    733.3626      4.6269     78.6251
  1466.5000      0.0000    708.8909      4.5815     79.7561
  1466.7500      0.0000    674.9070      4.5341     82.3314
  1467.0000      0.0000    636.7686      4.4954     85.9083
  1467.2500      0.0000    601.2830      4.4658     88.9157
  1467.5000      0.0000    572.8597      4.4376     89.9627
  1467.7500      0.0000    552.5049      4.4054     88.6533
  1468.0000      0.0000    539.4012      4.3720     85.5411
  1468.2500      0.0000    532.4220      4.3450     81.7802
  1468.5000      0.0000    530.5649      4.3296     78.6040
  1468.7500      0.0000    532.7559      4.3274     76.6778
  1469.0000      0.0000    537.4175      4.3373     75.8326
  1469.2500      0.0000    542.3795      4.3579     75.4424
  1469.5000      0.0000    545.8796      4.3881     74.9109
  1469.7500      0.0000    548.0381      4.4274     73.8890
  1470.0000      0.0000    551.3564      4.4758     72.4495
  1470.2500      0.0000    559.6805      4.5308     71.2243
  1470.5000      0.0000    575.7433      4.5859     71.1013
  1470.7500      0.0000    597.8626      4.6340     72.5624
  1471.0000      0.0000    618.5731      4.6760     75.2066
  1471.2500      0.0000    628.4974      4.7245     77.7548
  1471.5000      0.0000    623.3926      4.7966     78.6666
  1471.7500      0.0000    607.3097      4.9014     77.3374
  1472.0000      0.0000    588.7682      5.0346     74.8878
  1472.2500      0.0000    574.7057      5.1821     73.4134
  1472.5000      0.0000    567.6448      5.3311     74.3351
  1472.7500      0.0000    566.3738      5.4796     77.5873
  1473.0000      0.0000    567.8935      5.6350     82.2598
  1473.2500      0.0000    569.4175      5.8027     87.6143
  1473.5000      0.0000    570.0815      5.9766     93.1797
  1473.7500      0.0000    571.7040      6.1426     98.0368
  1474.0000      0.0000    578.1593      6.2871    100.6744
  1474.2500      0.0000    593.2559      6.4009     99.9805
  1474.5000      0.0000    618.1000      6.4755     96.1994
  1474.7500      0.0000    649.9507      6.4995     90.7282
  1475.0000      0.0000    683.9144      6.4622     85.2607
  1475.2500      0.0000    715.8490      6.3611     81.2025
  1475.5000      0.0000    743.1523      6.2060     79.4127
  1475.7500      0.0000    763.3094      6.0145     79.8446
  1476.0000      0.0000    772.9789      5.8052     81.3164
  1476.2500      0.0000    768.8803      5.5952     82.1116
  1476.5000      0.0000    749.7974      5.4013     81.3658
  1476.7500      0.0000    719.3192      5.2378     79.9254
  1477.0000      0.0000    687.1414      5.1114     79.5233
  1477.2500      0.0000    665.6538      5.0210     81.0070
  1477.5000      0.0000    663.0671      4.9632     83.6784
  1477.7500      0.0000    679.1124      4.9378     86.2463
  1478.0000      0.0000    706.5969      4.9454     87.8116
  1478.2500      0.0000    735.8467      4.9795     87.8035
  1478.5000      0.0000    758.3994      5.0232     85.7728
  1478.7500      0.0000    769.1837      5.0540     81.9762
  1479.0000      0.0000    767.2308      5.0538     77.8579
  1479.2500      0.0000    754.6567      5.0165     75.1405
  1479.5000      0.0000    734.8416      4.9485     74.3025
  1479.7500      0.0000    711.3520      4.8642     74.3489
  1480.0000      0.0000    687.9796      4.7789     74.1166
  1480.2500      0.0000    669.1487      4.7044     73.2850
  1480.5000      0.0000    659.2548      4.6431     72.0341
  1480.7500      0.0000    660.1915      4.5865     70.4907
  1481.0000      0.0000    668.7017      4.5216     69.0668
  1481.2500      0.0000    677.4294      4.4405     68.9022
  1481.5000      0.0000    680.3171      4.3476     71.0994
  1481.7500      0.0000    677.4315      4.2564     75.3189
  1482.0000      0.0000    674.1686      4.1806     79.6310
  1482.2500      0.0000    675.8780      4.1259     82.1230
  1482.5000      0.0000    683.5581      4.0886     82.5190
  1482.7500      0.0000    693.9564      4.0622     82.0550
  1483.0000      0.0000    702.5112      4.0424     81.9951
  1483.2500      0.0000    706.4257      4.0275     82.8066
  1483.5000      0.0000    706.4532      4.0170     84.6725
  1483.7500      0.0000    705.9563      4.0114     87.6924
  1484.0000      0.0000    707.1545      4.0104     91.0182
  1484.2500      0.0000    708.0170      4.0117     92.7944
  1484.5000      0.0000    704.0779      4.0123     91.7830
  1484.7500      0.0000    694.3135      4.0156     88.5351
  1485.0000      0.0000    684.5892      4.0338     84.5720
  1485.2500      0.0000    683.8137      4.0797     81.0032
  1485.5000      0.0000    695.8636      4.1560     78.1413
  1485.7500      0.0000    715.4792      4.2548     75.7457
  1486.0000      0.0000    732.1857      4.3662     73.1031
  1486.2500      0.0000    738.2917      4.4855     69.2690
  1486.5000      0.0000    733.5869      4.6115     63.8697
  1486.7500      0.0000    723.1722      4.7391     57.7998
  1487.0000      0.0000    711.6030      4.8525     52.7817
  1487.2500      0.0000    699.6846      4.9291     50.0211
  1487.5000      0.0000    686.7192      4.9566     49.4672
  1487.7500      0.0000    674.5286      4.9481     50.5570
  1488.0000      0.0000    667.7632      4.9357     53.2820
  1488.2500      0.0000    670.0433      4.9462     57.9086
  1488.5000      0.0000    681.1968      4.9831     63.7469
  1488.7500      0.0000    698.2406      5.0299     68.9865
  1489.0000      0.0000    716.4743      5.0645     72.1377
  1489.2500      0.0000    728.6798      5.0710     73.2016
  1489.5000      0.0000    726.4546      5.0430     73.1423
  1489.7500      0.0000    706.1263      4.9834     72.6362
  1490.0000      0.0000    674.0746      4.9003     71.6870
  1490.2500      0.0000    644.5577      4.8043     70.1999
  1490.5000      0.0000    630.6932      4.7081     68.4776
  1490.7500      0.0000    636.1153      4.6250     67.0965
  1491.0000      0.0000    653.3373      4.5620     66.4889
  1491.2500      0.0000    668.8980      4.5151     66.6788
  1491.5000      0.0000    670.8448      4.4726     67.2703
  1491.7500      0.0000    654.3142      4.4239     67.7439
  1492.0000      0.0000    623.3678      4.3669     67.9450
  1492.2500      0.0000    587.6919      4.3071     68.1416
  1492.5000      0.0000    554.8724      4.2524     68.4450
  1492.7500      0.0000    525.5669      4.2094     68.4456
  1493.0000      0.0000    497.9323      4.1821     67.7072
  1493.2500      0.0000    475.0844      4.1713     66.2737
  1493.5000      0.0000    464.2774      4.1744     64.3057
  1493.7500      0.0000    468.3616      4.1880     61.6590
  1494.0000      0.0000    480.3658      4.2104     58.5215
  1494.2500      0.0000    488.0173      4.2403     56.1257
  1494.5000      0.0000    483.7807      4.2761     55.9674
  1494.7500      0.0000    469.8393      4.3167     58.2999
  1495.0000      0.0000    453.7719      4.3624     61.8883
  1495.2500      0.0000    441.5640      4.4107     65.1509
  1495.5000      0.0000    435.0465      4.4565     67.1495
  1495.7500      0.0000    433.4021      4.4984     67.5496
  1496.0000      0.0000    435.6444      4.5412     66.1522
  1496.2500      0.0000    443.2690      4.5902     63.0197
  1496.5000      0.0000    461.6816      4.6457     59.1203
  1496.7500      0.0000    497.1117      4.7053     56.2823
  1497.0000      0.0000    549.0829      4.7695     55.9520
  1497.2500      0.0000    605.5463      4.8412     57.8691
  1497.5000      0.0000    647.6379      4.9189     60.1289
  1497.7500      0.0000    660.7995      4.9909     60.7385
  1498.0000      0.0000    642.0435      5.0405     59.2914
  1498.2500      0.0000    598.9615      5.0571     57.1703
  1498.5000      0.0000    544.3653      5.0455     56.0580
