~Version Information
VERS.                      2.0: CWLS Log ASCII Standard - VERSION 2.0
WRAP.                       NO: One line per depth step
~Well Information Block
STRT.FT               240.0000: 
STOP.FT              1185.5000: 
STEP.FT                 0.2500: 
NULL.                -999.2500: 
COMP.          Pioneer Natural Resources: COMPANY
WELL.          Whitecoat 14-36: WELL
FLD.           Purgatorie River: FIELD
LOC.           606' FSL & 260' FWL: LOCATION
PROV.                 Colorado: PROVINCE
CNTY.               Las Animas: COUNTRY
SRVC.                Patterson: SERVICE COMPANY
DATE.          Mon Dec 05 16:51:12 2005: LOG DATE
UWI.                          : UNIQUE WELL ID
~Curve Information Block
DEPT.FT            0 000 00 00: Depth
DIR.Ohm-m                     : IEL Induction Resistivity
GR.GAPI                       : Gamma Ray
~Parameter Information Block
~A  Depth       DIR          GR     
# ...
   964.7500     23.0237     78.2700
   965.0000     22.9341     77.7456
   965.2500     22.8507     78.1758
   965.5000     22.7786     79.3248
   965.7500     22.7298     80.1296
   966.0000     22.7189     81.2823
   966.2500     22.7586     82.0661
   966.5000     22.8572     83.1594
   966.7500     23.0187     83.6101
   967.0000     23.2419     83.5878
   967.2500     23.5190     83.2151
   967.5000     23.8332     82.5647
   967.7500     24.1607     82.1621
   968.0000     24.4790     81.3117
   968.2500     24.7774     80.3987
   968.5000     25.0620     78.5949
   968.7500     25.3518     77.2984
   969.0000     25.6676     75.3399
   969.2500     26.0192     73.9027
   969.5000     26.3944     71.3660
   969.7500     26.7526     69.5429
   970.0000     27.0250     67.1655
   970.2500     27.1290     66.1629
   970.5000     26.9923     65.9774
   970.7500     26.5799     66.8406
   971.0000     25.9058     69.2521
   971.2500     25.0258     71.0332
   971.5000     24.0161     73.0091
   971.7500     22.9539     73.7493
   972.0000     21.9041     74.4808
   972.2500     20.9126     74.9746
   972.5000     20.0037     75.7660
   972.7500     19.1806     76.2717
   973.0000     18.4303     76.9905
   973.2500     17.7314     77.5145
   973.5000     17.0653     78.8212
   973.7500     16.4292     80.5329
   974.0000     15.8429     85.1404
   974.2500     15.3447     89.6516
   974.5000     14.9734     97.8437
   974.7500     14.7479    103.4295
   975.0000     14.6573    110.3426
   975.2500     14.6678    113.2217
   975.5000     14.7403    114.6682
   975.7500     14.8465    114.2272
   976.0000     14.9750    112.7704
   976.2500     15.1267    111.7769
   976.5000     15.3076    110.4838
   976.7500     15.5244    109.7771
   977.0000     15.7829    109.0374
   977.2500     16.0853    108.6876
   977.5000     16.4269    107.9332
   977.7500     16.7920    106.9911
   978.0000     17.1512    104.7426
   978.2500     17.4654    102.8495
   978.5000     17.6968    100.1131
   978.7500     17.8249     98.8405
   979.0000     17.8570     98.2378
   979.2500     17.8300     98.6320
   979.5000     17.7980     99.8148
   979.7500     17.8138    100.5479
   980.0000     17.9093    100.9687
   980.2500     18.0846    100.7321
   980.5000     18.3103    100.1641
   980.7500     18.5414    100.2118
   981.0000     18.7422    101.5992
   981.2500     18.9103    103.3728
   981.5000     19.0843    106.8076
   981.7500     19.3262    109.3364
   982.0000     19.6877    112.9907
   982.2500     20.1811    114.8295
   982.5000     20.7705    115.6128
   982.7500     21.3862    114.4718
   983.0000     21.9500    110.6239
   983.2500     22.3954    107.2016
   983.5000     22.6729    101.6318
   983.7500     22.7492     97.8771
   984.0000     22.6087     92.4424
   984.2500     22.2608     89.1937
   984.5000     21.7451     85.4768
   984.7500     21.1263     84.0612
   985.0000     20.4773     83.6175
   985.2500     19.8592     84.2285
   985.5000     19.3070     85.9807
   985.7500     18.8256     87.4873
   986.0000     18.3943     90.1910
   986.2500     17.9757     92.3987
   986.5000     17.5284     96.4511
   986.7500     17.0207     99.4619
   987.0000     16.4425    103.6587
   987.2500     15.8108    105.7976
   987.5000     15.1652    107.6611
   987.7500     14.5561    107.9051
   988.0000     14.0306    106.3933
   988.2500     13.6223    103.8597
   988.5000     13.3465     97.7360
   988.7500     13.1992     92.5320
   989.0000     13.1602     84.3793
   989.2500     13.1957     79.5994
   989.5000     13.2657     74.8172
   989.7500     13.3327     73.8783
   990.0000     13.3730     76.2914
   990.2500     13.3841     80.1078
   990.5000     13.3845     87.7488
   990.7500     13.4077     93.2097
   991.0000     13.4925    100.7541
   991.2500     13.6752    104.9201
   991.5000     13.9841    109.5082
   991.7500     14.4364    111.4680
   992.0000     15.0361    113.1622
   992.2500     15.7732    113.7616
   992.5000     16.6234    114.0320
   992.7500     17.5527    113.6347
   993.0000     18.5246    111.8338
   993.2500     19.5074    109.7551
   993.5000     20.4733    105.3626
   993.7500     21.3928    101.6465
   994.0000     22.2340     95.1402
   994.2500     22.9823     90.4806
   994.5000     23.6712     83.7438
   994.7500     24.3879     79.8543
   995.0000     25.2298     75.3986
   995.2500     26.2269     73.3807
   995.5000     27.2842     71.4656
   995.7500     28.1889     70.6361
   996.0000     28.7006     69.5904
   996.2500     28.6814     68.8377
   996.5000     28.1773     67.5422
   996.7500     27.3931     66.6751
   997.0000     26.5906     65.7076
   997.2500     25.9808     65.4721
   997.5000     25.6639     65.8917
   997.7500     25.6226     66.6186
   998.0000     25.7517     68.0185
   998.2500     25.9109     68.9878
   998.5000     25.9804     70.5802
   998.7500     25.9010     71.8929
   999.0000     25.6785     74.1949
   999.2500     25.3598     75.6641
   999.5000     25.0018     77.1177
   999.7500     24.6497     77.3224
  1000.0000     24.3293     76.4982
  1000.2500     24.0520     75.5450
  1000.5000     23.8234     74.5288
  1000.7500     23.6463     74.6970
  1001.0000     23.5180     76.6057
  1001.2500     23.4236     78.7123
  1001.5000     23.3357     81.9711
  1001.7500     23.2247     83.5111
  1002.0000     23.0743     84.4326
  1002.2500     22.8899     84.3640
  1002.5000     22.6930     83.8118
  1002.7500     22.5036     83.2666
  1003.0000     22.3198     82.1796
  1003.2500     22.1079     81.3131
  1003.5000     21.8135     79.8890
  1003.7500     21.3907     78.8520
  1004.0000     20.8294     77.2229
  1004.2500     20.1605     76.2831
  1004.5000     19.4362     75.5902
  1004.7500     18.7055     75.7478
  1005.0000     18.0012     76.5828
  1005.2500     17.3418     77.1783
  1005.5000     16.7392     77.9911
  1005.7500     16.2032     78.8857
  1006.0000     15.7386     81.8118
  1006.2500     15.3379     85.1782
  1006.5000     14.9781     92.0621
  1006.7500     14.6299     97.2618
  1007.0000     14.2749    104.7231
  1007.2500     13.9197    108.9067
  1007.5000     13.5951    113.4665
  1007.7500     13.3449    115.2277
  1008.0000     13.2125    115.8708
  1008.2500     13.2295    115.0005
  1008.5000     13.4093    112.0595
  1008.7500     13.7445    109.4578
  1009.0000     14.2097    105.9110
  1009.2500     14.7666    104.6532
  1009.5000     15.3687    105.2574
  1009.7500     15.9639    107.0682
  1010.0000     16.5019    110.3830
  1010.2500     16.9520    111.9752
  1010.5000     17.3290    112.3656
  1010.7500     17.7036    111.2309
  1011.0000     18.1820    107.9429
  1011.2500     18.8571    104.9799
  1011.5000     19.7567     99.3768
  1011.7500     20.8093     94.6883
  1012.0000     21.8575     86.3533
  1012.2500     22.7381     80.5110
  1012.5000     23.3879     72.7663
  1012.7500     23.8813     68.9242
  1013.0000     24.3588     65.4406
  1013.2500     24.9167     64.4240
  1013.5000     25.5428     64.1405
  1013.7500     26.1305     64.3079
  1014.0000     26.5614     64.5188
  1014.2500     26.7881     64.5918
  1014.5000     26.8433     64.9431
  1014.7500     26.7716     65.5163
  1015.0000     26.5718     66.8486
  1015.2500     26.2163     67.9389
  1015.5000     25.7237     69.7172
  1015.7500     25.2006     70.8362
  1016.0000     24.8016     72.0005
  1016.2500     24.6391     72.3372
  1016.5000     24.7168     72.5183
  1016.7500     24.9296     72.7275
  1017.0000     25.1341     73.4510
  1017.2500     25.2365     74.2072
  1017.5000     25.2265     75.6202
  1017.7500     25.1423     76.5921
  1018.0000     25.0357     77.7079
  1018.2500     24.9755     78.0439
  1018.5000     25.0509     77.8804
  1018.7500     25.3333     77.3883
  1019.0000     25.8174     76.1878
  1019.2500     26.3960     75.1889
  1019.5000     26.9050     73.7804
  1019.7500     27.2174     73.1553
  1020.0000     27.3177     72.8348
  1020.2500     27.2948     72.8961
