~Version Information
 VERS.                                  2.0 : CWLS LAS VERSION
 WRAP.                                   NO : WRAPING MODE
 SWARE .                 MController 2.5.0J : SOFTWARE VERSION
~Well Information
 WELL.                   Stock Canyon 34-33 : WELL
 COMP.   Pioneer Natrural Resources USA Inc : COMPANY
 FLD.                      Purgatoire River : FIELD
 LOC.                 SW/SE SEC33 T31S R65W : LOCATION
 DATE.                             12/04/05 : DATE(S) LOGGED
 SRVC.       Blanco Geological Services LLC : SERVICE COMPANY
 STAT.                             Colorado : STATE
 CNTY.                           Las Animas : COUNTY
 CTRY.                                  USA : COUNTRY
 API.                       05-071-08601-00 : API NUMBER
 STRT.FT                             618.00 : START DEPTH
 STOP.FT                            1661.00 : STOP DEPTH
 STEP.FT                               1.00 : DEPTH INCREMENT
 NULL.                                -9999 : NULL VALUE
~Curve information
 DEPTH.FT                                   :
 ROP.MIN/FT                                 :
 GAS.UNITS                                  :
~ASCII Log data
# ...
       818.0         0.27         33.2 
       819.0         0.28         33.8 
       820.0         0.30         35.0 
       821.0         0.33         33.9 
       822.0         0.30         34.2 
       823.0         0.30         35.2 
       824.0         0.23         37.3 
       825.0         0.23         39.6 
       826.0         0.23         39.9 
       827.0         0.27         39.4 
       828.0         0.23         39.0 
       829.0         0.27         36.5 
       830.0         0.23         35.1 
       831.0         0.25         33.5 
       832.0         0.20         28.0 
       833.0         0.23         28.0 
       834.0         0.23         42.0 
       835.0         0.23         84.7 
       836.0         2.48        303.7 
       837.0         0.30         37.6 
       838.0         0.23         29.6 
       839.0         0.23         26.2 
       840.0         0.20         28.0 
       841.0         0.23         29.4 
       842.0         0.20         31.7 
       843.0         0.23         34.4 
       844.0         0.27         34.9 
       845.0         0.23         34.7 
       846.0         0.23         35.3 
       847.0         0.23         34.5 
       848.0         0.23         32.5 
       849.0         0.27         31.3 
       850.0         0.25         30.0 
       851.0         0.27         30.1 
       852.0         0.23         29.3 
       853.0         0.23         28.3 
       854.0         0.23         30.6 
       855.0         0.27         33.6 
       856.0         0.27         34.8 
       857.0         0.30         32.2 
       858.0         0.27         31.3 
       859.0         0.23         27.7 
       860.0         0.27         21.9 
       861.0         0.30         21.1 
       862.0         0.23         14.4 
       863.0         0.25         18.4 
       864.0         0.23         22.5 
       865.0         0.27         44.4 
       866.0         1.53        222.6 
       867.0         0.37        185.8 
       868.0         0.17        125.5 
       869.0         0.37         52.0 
       870.0         0.30         37.9 
       871.0         0.28         29.3 
       872.0         0.23         24.8 
       873.0         0.20         23.3 
       874.0         0.23         23.5 
       875.0         0.17         24.0 
       876.0         0.23         24.0 
       877.0         0.20         22.2 
       878.0         0.20         22.2 
       879.0         0.20         22.4 
       880.0         0.23         20.4 
       881.0         0.27         16.6 
       882.0         0.20         16.5 
       883.0         0.20         16.6 
       884.0         0.20         18.6 
       885.0         0.20         19.3 
       886.0         0.22         19.3 
       887.0         0.17         19.0 
       888.0         0.13         16.5 
       889.0         0.20         16.5 
       890.0         0.20         15.0 
       891.0         0.17         12.3 
       892.0         0.13         10.4 
       893.0         0.23         10.5 
       894.0         0.17         14.7 
       895.0         0.20         21.2 
       896.0         0.17         26.4 
       897.0         0.17         40.6 
       898.0         0.77        202.5 
       899.0         0.75        215.8 
       900.0         0.20        134.5 
       901.0         0.77         95.8 
       902.0         0.27         33.9 
       903.0         0.13         28.6 
       904.0         0.20         25.4 
       905.0         0.27         21.8 
       906.0         0.23         22.2 
       907.0         0.27         19.5 
       908.0         0.17         20.3 
       909.0         0.17         20.1 
       910.0         0.23         19.2 
       911.0         0.23         19.0 
       912.0         0.18         19.4 
       913.0         0.20         18.1 
       914.0         0.20         15.9 
       915.0         0.20         16.5 
       916.0         0.20         12.4 
       917.0         0.27         11.4 
       918.0         0.27          9.0 
       919.0         0.17          8.3 
       920.0         0.23          7.0 
       921.0         0.20          6.2 
       922.0         0.20          5.5 
       923.0         0.20          4.7 
       924.0         0.20          4.7 
       925.0         0.20          4.8 
       926.0         0.23          4.3 
       927.0         0.25          3.8 
       928.0         0.20          3.8 
       929.0         0.20          4.3 
       930.0         0.57          4.5 
       931.0         2.00          4.6 
       932.0         0.07          3.9 
       933.0         0.35          3.9 
       934.0         0.30          4.3 
       935.0         0.27          4.1 
       936.0         0.23          4.1 
       937.0         0.20          3.8 
       938.0         0.23          3.9 
       939.0         0.23          3.8 
       940.0         0.20          3.9 
       941.0         0.20          4.0 
       942.0         0.20          3.9 
       943.0         0.20          3.9 
       944.0         0.20          4.5 
       945.0         0.20          3.8 
       946.0         0.20          3.9 
       947.0         0.17          3.9 
       948.0         0.20          4.1 
       949.0         0.32          4.6 
       950.0         0.23          4.8 
       951.0         0.23          4.0 
       952.0         0.20          4.2 
       953.0         0.20          4.2 
       954.0         0.17          4.2 
       955.0         0.20          3.8 
       956.0         0.20          3.9 
       957.0         0.17          4.0 
       958.0         0.20          4.2 
       959.0         0.20          4.0 
       960.0         0.20          4.0 
       961.0         0.27          4.6 
       962.0         0.75          4.4 
       963.0         1.10          4.8 
       964.0         0.33          4.3 
       965.0         0.30          4.9 
       966.0         0.23          4.2 
       967.0         0.13          4.2 
       968.0         0.13          4.4 
       969.0         0.17          4.1 
       970.0         0.20          4.2 
       971.0         0.17          4.2 
       972.0         0.17          4.0 
       973.0         0.20          4.0 
       974.0         0.18          4.4 
       975.0         0.13          4.4 
       976.0         0.13          4.3 
       977.0         0.20          4.6 
       978.0         0.27          4.2 
       979.0         0.30          4.4 
       980.0         0.27          4.0 
       981.0         0.30          4.3 
       982.0         0.27          4.9 
       983.0         0.23          4.2 
       984.0         0.20          4.2 
       985.0         0.27          4.1 
       986.0         0.27          4.3 
       987.0         0.30          4.1 
       988.0         0.32          5.1 
       989.0         0.23          4.0 
       990.0         0.23          4.2 
       991.0         0.23          4.4 
       992.0         0.20          4.6 
       993.0         1.13          4.4 
       994.0         0.63          4.8 
       995.0         0.92          4.4 
       996.0         0.37          4.6 
       997.0         0.27          4.2 
       998.0         0.27          4.6 
       999.0         0.27          4.4 
      1000.0         0.27          4.4 
      1001.0         0.23          4.5 
      1002.0         0.20          4.5 
      1003.0         0.23          4.8 
      1004.0         0.20          4.2 
      1005.0         0.20          4.3 
      1006.0         0.17          4.3 
      1007.0         0.23          4.5 
      1008.0         0.18          4.4 
      1009.0         0.13          4.4 
      1010.0         0.17          4.2 
      1011.0         0.17          4.3 
      1012.0         0.17          4.3 
      1013.0         0.17          4.2 
      1014.0         0.43          4.7 
      1015.0         0.27          4.2 
      1016.0         1.33          5.0 
      1017.0         0.27          4.6 
