~Version Information
VERS.                      2.0: CWLS Log ASCII Standard - VERSION 2.0
WRAP.                       NO: One line per depth step
~Well Information Block
STRT.FT               315.0000: 
STOP.FT              1292.5000: 
STEP.FT                 0.1000: 
NULL.                -999.2500: 
COMP.          Pioneer Natural Resources: COMPANY
WELL.          Hot Tomatoes 22-20: WELL
FLD.           Purgatoire River: FIELD
LOC.           2120' FNL & 2585' FWL: LOCATION
CNTY.               Las Animas: COUNTY
SRVC.                Patterson: SERVICE COMPANY
DATE.          Mon Feb 27 07:06:41 2006: LOG DATE
UWI.           05 071 08701 00: UNIQUE WELL ID
STAT.                 Colorado: STATE
~Curve Information Block
DEPT.FT            0 000 00 00: Depth
DCAL.in                       : CDL Caliper
RHOB.g/cc                     : CDL Bulk Density
RHOC.g/cc                     : CDL Density Correction
DPOR.pu                       : CDL Density Porosity
GR.GAPI                       : Gamma Ray
NPOR.pu                       : Neutron Porosity
~Parameter Information Block
~A  Depth       DCAL        RHOB        RHOC        DPOR         GR         NPOR    
# ...
  1015.8000      7.8400      2.6013      0.0939      2.9512     57.2795     20.3556
  1015.9000      7.8400      2.5851      0.0703      3.9329     55.8407     20.2587
  1016.0000      7.8423      2.5763      0.0409      4.4638     59.7878     20.6726
  1016.1000      7.8423      2.5786      0.0303      4.3263     66.5900     20.9083
  1016.2000      7.8423      2.5848      0.0903      3.9486     69.9955     21.2577
  1016.3000      7.8459      2.5817      0.0640      4.1385     67.7273     21.6815
  1016.4000      7.8459      2.5663      0.0950      5.0729     64.5955     21.6647
  1016.5000      7.8740      2.5496      0.0356      6.0824     65.5519     21.5114
  1016.6000      7.8740      2.5477      0.0596      6.1990     67.3314     21.9420
  1016.7000      7.8740      2.5612      0.0427      5.3819     66.1257     22.6464
  1016.8000      7.8540      2.5774      0.0909      4.4013     65.1762     23.0616
  1016.9000      7.8540      2.5839      0.0628      4.0045     68.2304     23.8243
  1017.0000      7.8468      2.5805      0.0692      4.2145     72.5934     24.9457
  1017.1000      7.8468      2.5800      0.0529      4.2442     71.2148     24.8527
  1017.2000      7.8468      2.5850      0.1102      3.9380     64.5063     23.1894
  1017.3000      7.8424      2.5880      0.0763      3.7546     61.2010     21.7989
  1017.4000      7.8424      2.5944      0.1099      3.3690     63.1059     21.9538
  1017.5000      7.8491      2.6095      0.0712      2.4572     63.5905     22.8932
  1017.6000      7.8491      2.6357      0.0516      0.8664     59.8555     23.7039
  1017.7000      7.8491      2.6857      0.0637     -2.1640     57.4587     24.1554
  1017.8000      7.8304      2.7798      0.0395     -7.8661     58.5571     23.9507
  1017.9000      7.8304      2.9186      0.1717    -16.2759     56.6881     23.3921
  1018.0000      7.8236      3.0603      0.1855    -24.8682     49.3771     23.1942
  1018.1000      7.8236      3.1601      0.2954    -30.9175     43.2916     23.4003
  1018.2000      7.8236      3.2099      0.1497    -33.9332     44.3092     23.8889
  1018.3000      7.8193      3.2127      0.2466    -34.1040     49.8678     24.7160
  1018.4000      7.8193      3.1571      0.1120    -30.7335     54.4571     25.3895
  1018.5000      7.8061      3.0614     -0.0598    -24.9321     57.7515     25.6255
  1018.6000      7.8061      2.9687     -0.1537    -19.3174     63.5598     25.6838
  1018.7000      7.8061      2.8895     -0.1489    -14.5155     71.3615     25.5539
  1018.8000      7.7889      2.8076     -0.1465     -9.5542     78.6019     25.0780
  1018.9000      7.7889      2.7295     -0.0819     -4.8201     87.7740     24.6455
  1019.0000      7.8356      2.6691      0.0208     -1.1569     98.5512     24.6367
  1019.1000      7.8356      2.6207      0.0465      1.7737    106.9318     24.6169
  1019.2000      7.8356      2.5780      0.1190      4.3627    113.1434     24.5222
  1019.3000      7.9071      2.5399      0.0801      6.6754    120.3141     25.0384
  1019.4000      7.9071      2.5157      0.0140      8.1411    126.2679     26.1457
  1019.5000      7.9582      2.5094      0.0731      8.5185    126.8805     26.7685
  1019.6000      7.9582      2.5008      0.0473      9.0445    123.0430     26.4989
  1019.7000      7.9582      2.4769      0.0186     10.4905    117.3768     26.1658
  1019.8000      7.9650      2.4560     -0.0212     11.7581    110.1688     26.3259
  1019.9000      7.9650      2.4586      0.0055     11.5984    102.0384     26.8871
  1020.0000      7.9647      2.4748      0.0362     10.6174     99.9052     27.3033
  1020.1000      7.9647      2.4741      0.0801     10.6586    105.7856     27.3558
  1020.2000      7.9647      2.4435      0.0682     12.5141    109.9293     27.3756
  1020.3000      7.9579      2.4102     -0.0000     14.5328    107.9122     27.6243
  1020.4000      7.9579      2.4110      0.0005     14.4851    104.6557     27.8229
  1020.5000      7.9282      2.4432      0.0817     12.5326    102.5555     27.7076
  1020.6000      7.9282      2.4727      0.1093     10.7475    102.2901     27.3670
  1020.7000      7.9282      2.4769      0.1340     10.4924    104.0037     27.2057
  1020.8000      7.9193      2.4630      0.1267     11.3335    108.0738     27.5742
  1020.9000      7.9193      2.4551      0.1621     11.8147    116.5913     27.8610
  1021.0000      7.9012      2.4626      0.2064     11.3565    126.7106     27.9373
  1021.1000      7.9012      2.4673      0.2553     11.0718    133.6353     28.6204
  1021.2000      7.9012      2.4512      0.2188     12.0475    134.2533     29.7181
  1021.3000      7.9132      2.4237      0.1252     13.7156    126.5298     30.1019
  1021.4000      7.9132      2.4041      0.0938     14.9020    116.4293     29.3927
  1021.5000      7.9460      2.3977      0.0901     15.2922    111.6918     28.6609
  1021.6000      7.9460      2.3973      0.1032     15.3146    110.6293     28.7560
  1021.7000      7.9460      2.3949      0.1361     15.4577    110.7117     29.1696
  1021.8000      7.9301      2.3906      0.0834     15.7210    114.4325     29.5470
  1021.9000      7.9301      2.3917      0.0589     15.6545    119.3469     30.0329
  1022.0000      7.9100      2.4063      0.0612     14.7687    121.2002     30.2998
  1022.1000      7.9100      2.4321      0.1038     13.2059    124.0935     29.5647
  1022.2000      7.9100      2.4570      0.0678     11.6985    130.0350     28.0997
  1022.3000      7.9072      2.4767      0.0862     10.5057    132.5974     27.4865
  1022.4000      7.9072      2.4884      0.0982      9.7963    127.2912     27.9989
  1022.5000      7.9282      2.4882      0.0871      9.8047    120.3197     28.2638
  1022.6000      7.9282      2.4844      0.0365     10.0342    119.1190     27.9245
  1022.7000      7.9282      2.4813      0.0964     10.2219    119.8176     27.6842
  1022.8000      7.9183      2.4634      0.0476     11.3078    116.7065     27.7954
  1022.9000      7.9183      2.4211      0.0317     13.8713    113.3078     28.0713
  1023.0000      7.9722      2.3763     -0.0625     16.5902    113.4665     28.3933
  1023.1000      7.9722      2.3585      0.0204     17.6689    113.4653     28.6568
  1023.2000      7.9722      2.3715      0.0483     16.8775    114.3132     29.0560
  1023.3000      7.9945      2.4043      0.0442     14.8931    118.7682     29.7748
  1023.4000      7.9945      2.4372      0.1085     12.8971    122.0285     30.4682
  1023.5000      7.9859      2.4524      0.1210     11.9781    122.4428     30.7909
  1023.6000      7.9859      2.4559      0.1554     11.7651    121.0964     30.7321
  1023.7000      7.9859      2.4525      0.1959     11.9693    118.9836     30.7035
  1023.8000      8.0163      2.4317      0.1593     13.2291    119.8289     30.8810
  1023.9000      8.0163      2.3981      0.1150     15.2640    123.9268     30.7587
  1024.0000      7.9803      2.3666      0.1175     17.1783    127.0654     30.4849
  1024.1000      7.9803      2.3311      0.1227     19.3302    125.3194     30.8614
  1024.2000      7.9803      2.2733      0.1549     22.8283    119.7029     31.6472
  1024.3000      7.9964      2.1939      0.0534     27.6436    113.4872     31.8244
  1024.4000      7.9964      2.1015      0.0825     33.2409    106.7184     31.3914
  1024.5000      7.9991      1.9909      0.0623     39.9425     96.8198     31.2290
  1024.6000      7.9991      1.8657      0.0206     47.5317     86.1658     31.5891
  1024.7000      7.9991      1.7389      0.0139     55.2171     80.1317     31.7586
  1024.8000      8.0416      1.6142     -0.0193     62.7730     75.9543     31.6338
  1024.9000      8.0416      1.4996     -0.0382     69.7225     65.9798     32.1779
  1025.0000      8.0505      1.4123     -0.0508     75.0098     53.6441     33.3892
  1025.1000      8.0505      1.3592      0.0260     78.2296     49.5012     34.3644
  1025.2000      8.0505      1.3356     -0.0180     79.6592     51.6499     34.9259
  1025.3000      8.0443      1.3427      0.0019     79.2310     51.2105     35.1963
