~Version Information
VERS.                      2.0: CWLS Log ASCII Standard - VERSION 2.0
WRAP.                       NO: One line per depth step
~Well Information Block
STRT.FT               -12.2500: 
STOP.FT              1442.2500: 
STEP.FT                 0.2500: 
NULL.                -999.2500: 
COMP.          Pioneer Natural Resources: COMPANY
WELL.              Lucky 21-36: WELL
FLD.           Purgatorie River: FIELD
LOC.           799' FNL & 1578' FWL--: LOCATION
CDN. :
PROV. :
UWI. :
STAT. :
CNTY. :
CTRY. :
API. :
COMP. :
WELL. :
FLD. :
LOC. :
DATE. :
SRVC. :
CNTY.               Las Animas: COUNTY
SRVC.          Superior Well Services: SERVICE COMPANY
DATE.          Mon Jul 21 12-16-21 2008: LOG DATE
UWI.           05 071 08456 00: UNIQUE WELL ID
STAT.                       CO: STATE
~Curve Information Block
DEPT.FT            0 000 00 00: Depth
CCL.                          : Casing Collar Locator
TT3.usec                      : CBL 3' Travel Time
AMP3.mV                       : CBL 3' Amplitude
GR.GAPI                       : Gamma Ray
~Parameter Information Block
~A  Depth       CCL         TT3         AMP3         GR     
# ...
  1193.7500      0.0000    720.7615      4.0991     89.6987
  1194.0000      0.0000    713.5615      4.3616     92.9238
  1194.2500      0.0000    711.0939      4.6850     95.0475
  1194.5000      0.0000    715.4819      5.0697     95.6694
  1194.7500      0.0000    727.9720      5.5192     95.3223
  1195.0000      0.0000    747.2670      6.0247     95.2097
  1195.2500      0.0000    769.0551      6.5507     96.5417
  1195.5000      0.0000    786.9044      7.0414     99.9361
  1195.7500      0.0000    794.1478      7.4480    104.8536
  1196.0000      0.0000    787.4622      7.7573    109.4842
  1196.2500      0.0000    770.4050      7.9989    111.7839
  1196.5000      0.0000    751.3462      8.2249    111.2097
  1196.7500      0.0000    735.2331      8.4745    109.3475
  1197.0000      0.0000    718.6797      8.7468    108.3369
  1197.2500      0.0000    695.2539      9.0009    108.6438
  1197.5000      0.0000    664.2795      9.1794    108.9346
  1197.7500      0.0000    633.2024      9.2362    108.1177
  1198.0000      0.0000    612.4149      9.1547    106.5975
  1198.2500      0.0000    607.4893      8.9584    105.0751
  1198.5000      0.0000    614.2701      8.7115    102.9226
  1198.7500      0.0000    621.3864      8.4937     98.7352
  1199.0000      0.0000    619.9292      8.3603     92.3281
  1199.2500      0.0000    612.5600      8.3188     85.3442
  1199.5000      0.0000    612.5479      8.3392     79.7053
  1199.7500      0.0000    631.7996      8.3838     76.0108
  1200.0000      0.0000    668.9427      8.4327     73.6860
  1200.2500      0.0000    710.1411      8.4918     72.2529
  1200.5000      0.0000    741.2147      8.5840     71.9205
  1200.7500      0.0000    757.1223      8.7321     72.9054
  1201.0000      0.0000    760.9744      8.9489     74.5303
  1201.2500      0.0000    757.9602      9.2440     75.3084
  1201.5000      0.0000    751.4287      9.6399     74.0521
  1201.7500      0.0000    741.3235     10.1759     70.8696
  1202.0000      0.0000    723.8718     10.8837     66.9916
  1202.2500      0.0000    694.0750     11.7521     63.7290
  1202.5000      0.0000    650.1557     12.7210     61.6152
  1202.7500      0.0000    595.1705     13.7221     60.2068
  1203.0000      0.0000    534.8715     14.7311     58.5889
  1203.2500      0.0000    476.2607     15.7809     56.3955
  1203.5000      0.0000    427.1377     16.9311     54.3475
  1203.7500      0.0000    392.7031     18.2289     53.4960
  1204.0000      0.0000    371.5450     19.6900     54.0657
  1204.2500      0.0000    357.7784     21.2818     55.2614
  1204.5000      0.0000    348.4244     22.8774     56.0552
  1204.7500      0.0000    348.3319     24.2126     56.0430
  1205.0000      0.0000    367.7411     24.9372     55.7222
  1205.2500      0.0000    413.3635     24.7894     56.0889
  1205.5000      0.0000    479.4265     23.7712     57.8657
  1205.7500      0.0000    548.7083     22.1543     60.8845
  1206.0000      0.0000    606.3097     20.3008     64.0591
  1206.2500      0.0000    651.5892     18.4613     66.1342
  1206.5000      0.0000    693.3425     16.7217     66.6718
  1206.7500      0.0000    735.5423     15.0983     66.2119
  1207.0000      0.0000    771.8337     13.6332     65.4029
  1207.2500      0.0000    791.6416     12.3915     64.2669
  1207.5000      0.0000    788.1720     11.4047     62.4575
  1207.7500      0.0000    762.2374     10.6490     59.9319
  1208.0000      0.0000    721.6595     10.0712     57.1272
  1208.2500      0.0000    677.1874      9.6200     54.5813
  1208.5000      0.0000    637.5735      9.2540     52.6240
  1208.7500      0.0000    608.3970      8.9384     51.4981
  1209.0000      0.0000    594.3596      8.6454     51.5306
  1209.2500      0.0000    598.9630      8.3577     52.8550
  1209.5000      0.0000    620.3644      8.0720     55.0674
  1209.7500      0.0000    649.9992      7.8034     57.3515
  1210.0000      0.0000    677.1818      7.5810     58.8615
  1210.2500      0.0000    694.5395      7.4294     59.0768
  1210.5000      0.0000    699.2895      7.3478     58.1890
  1210.7500      0.0000    691.9527      7.3130     57.1682
  1211.0000      0.0000    675.6550      7.3045     57.0638
  1211.2500      0.0000    656.1134      7.3170     58.1767
  1211.5000      0.0000    640.7762      7.3482     60.1227
  1211.7500      0.0000    635.5583      7.3843     62.5187
  1212.0000      0.0000    640.6427      7.4075     65.1670
  1212.2500      0.0000    650.0795      7.4112     67.6492
  1212.5000      0.0000    656.9641      7.4014     69.2816
  1212.7500      0.0000    658.5567      7.3854     69.7218
  1213.0000      0.0000    656.3009      7.3664     69.3997
  1213.2500      0.0000    654.1453      7.3446     69.1832
  1213.5000      0.0000    658.4158      7.3159     69.8058
  1213.7500      0.0000    674.9907      7.2687     71.7430
  1214.0000      0.0000    703.0850      7.1870     75.1797
  1214.2500      0.0000    734.0527      7.0569     79.5738
  1214.5000      0.0000    758.3340      6.8757     83.6094
  1214.7500      0.0000    772.6249      6.6555     86.1809
  1215.0000      0.0000    780.1711      6.4218     87.2714
  1215.2500      0.0000    785.5687      6.2031     87.5536
  1215.5000      0.0000    789.5851      6.0205     87.4418
  1215.7500      0.0000    788.7159      5.8796     86.8678
  1216.0000      0.0000    780.0256      5.7679     85.7006
  1216.2500      0.0000    765.7855      5.6603     84.0002
  1216.5000      0.0000    752.2571      5.5333     81.9186
  1216.7500      0.0000    744.2629      5.3792     79.6831
  1217.0000      0.0000    741.8594      5.2113     77.7550
  1217.2500      0.0000    741.6415      5.0588     76.7816
  1217.5000      0.0000    740.3650      4.9538     77.2495
  1217.7500      0.0000    737.6566      4.9167     79.0837
  1218.0000      0.0000    735.8603      4.9464     81.4584
  1218.2500      0.0000    737.4865      5.0229     83.1677
  1218.5000      0.0000    742.8012      5.1193     83.5309
  1218.7500      0.0000    749.4396      5.2171     82.9887
  1219.0000      0.0000    753.9260      5.3125     82.6042
  1219.2500      0.0000    754.1543      5.4177     83.0124
  1219.5000      0.0000    751.2738      5.5558     84.0329
  1219.7500      0.0000    749.1980      5.7560     85.1809
  1220.0000      0.0000    751.8811      6.0437     86.2069
  1220.2500      0.0000    760.7466      6.4293     87.1655
  1220.5000      0.0000    774.3184      6.8990     88.3046
  1220.7500      0.0000    789.4800      7.4148     90.0051
  1221.0000      0.0000    802.4656      7.9278     92.4834
  1221.2500      0.0000    809.4886      8.3973     95.2117
  1221.5000      0.0000    808.5543      8.8048     96.7980
  1221.7500      0.0000    801.2293      9.1504     95.8502
  1222.0000      0.0000    791.1712      9.4370     92.1268
  1222.2500      0.0000    780.7870      9.6601     86.8913
  1222.5000      0.0000    770.5629      9.8136     82.2943
  1222.7500      0.0000    760.7443      9.9055     80.2613
  1223.0000      0.0000    750.6776      9.9679     81.4416
  1223.2500      0.0000    735.8187     10.0434     84.8277
  1223.5000      0.0000    708.5265     10.1542     88.3719
  1223.7500      0.0000    665.9422     10.2693     90.3570
  1224.0000      0.0000    617.8830     10.2953     90.6161
  1224.2500      0.0000    583.8933     10.1175     90.3909
  1224.5000      0.0000    579.5301      9.6875     90.6813
  1224.7500      0.0000    605.1876      9.0905     90.9087
  1225.0000      0.0000    647.7805      8.5022     89.5299
  1225.2500      0.0000    690.9380      8.0642     85.7614
  1225.5000      0.0000    723.2494      7.8056     80.5356
  1225.7500     -2.0000    740.5202      7.6769     75.9263
  1226.0000      0.0000    743.8835      7.6266     73.6431
  1226.2500      0.0000    736.7238      7.6377     73.9529
  1226.5000      0.0000    723.3126      7.7190     75.9475
  1226.7500      0.0000    709.2967      7.8756     78.5875
  1227.0000      0.0000    700.9254      8.0723     81.3106
