~Version Information
VERS.                      2.0: CWLS Log ASCII Standard - VERSION 2.0
WRAP.                       NO: One line per depth step
~Well Information Block
STRT.FT               410.0000: 
STOP.FT              1530.5000: 
STEP.FT                 0.1000: 
NULL.                -999.2500: 
COMP.          Pioneer Natural Resources: COMPANY
WELL.          Pioneer 34-27 Tr: WELL
FLD.           Purgatoire River: FIELD
LOC.           243' FSL & 1593' FEL: LOCATION
STAT.                 Colorado: State
CNTY.               Las Animas: COUNTY
CTRY. USA : Country
SECT. 27 : Section
TOWN. 32S : Township
RANG. 67W : Range 
SRVC.                Patterson: SERVICE COMPANY
DATE.          Fri Oct 07 07:11:38 2005: LOG DATE
API.           05 071 08548 00: UNIQUE WELL ID
~Curve Information Block
DEPT.FT            0 000 00 00: Depth
DCAL.in                       : CDL Caliper
RHOB.g/cc                     : CDL Bulk Density
RHOC.g/cc                     : CDL Density Correction
DPOR.pu                       : CDL Density Porosity
GR.GAPI                       : Gamma Ray
NPOR.pu                       : Neutron Porosity
~Parameter Information Block
~A  Depth       DCAL        RHOB        RHOC        DPOR         GR         NPOR    
# ...
   554.0000      8.1678      2.5258      0.0267      7.5258     66.5196     20.6289
   554.1000      8.1678      2.5145      0.0356      8.2124     68.9866     20.7732
   554.2000      8.1678      2.5145      0.0109      8.2113     69.4836     20.8101
   554.3000      8.1698      2.5233      0.0454      7.6768     70.0438     20.5594
   554.4000      8.1698      2.5276      0.0143      7.4195     69.2347     20.1052
   554.5000      8.1660      2.5239      0.0082      7.6448     65.0883     19.6730
   554.6000      8.1660      2.5121      0.0730      8.3590     60.1110     19.3098
   554.7000      8.1660      2.4873      0.0465      9.8577     58.6556     19.0542
   554.8000      8.1648      2.4542      0.0131     11.8657     60.9945     18.9008
   554.9000      8.1648      2.4206     -0.0180     13.9047     64.0524     18.7948
   555.0000      8.1663      2.3924     -0.0285     15.6096     65.1451     18.7678
   555.1000      8.1663      2.3754     -0.0306     16.6426     65.7687     18.8721
   555.2000      8.1663      2.3697     -0.0139     16.9880     67.2326     18.9707
   555.3000      8.1696      2.3688      0.0150     17.0405     65.9767     18.9488
   555.4000      8.1696      2.3682      0.0387     17.0817     59.6014     18.9959
   555.5000      8.2039      2.3719     -0.0069     16.8542     52.3858     19.1288
   555.6000      8.2039      2.3807      0.0355     16.3235     50.8571     19.1160
   555.7000      8.2039      2.3896      0.0037     15.7811     53.8312     18.9797
   555.8000      8.2175      2.4038      0.0287     14.9226     55.1139     18.8577
   555.9000      8.2175      2.4282      0.0352     13.4429     53.4922     18.8915
   556.0000      8.1970      2.4540      0.0703     11.8808     52.3359     19.2576
   556.1000      8.1970      2.4699      0.0483     10.9170     52.2556     19.8571
   556.2000      8.1970      2.4725      0.0879     10.7548     52.0705     20.3904
   556.3000      8.1694      2.4617      0.0569     11.4106     54.5053     20.6581
   556.4000      8.1694      2.4517      0.0205     12.0182     62.0935     20.8114
   556.5000      8.1655      2.4623      0.0226     11.3740     73.0829     21.1704
   556.6000      8.1655      2.4880      0.0428      9.8176     83.4048     21.7223
   556.7000      8.1655      2.5048      0.0602      8.7976     90.4398     22.0782
   556.8000      8.1710      2.5060      0.0114      8.7299     95.8924     22.3941
   556.9000      8.1710      2.5049      0.0212      8.7922    102.1270     23.1655
   557.0000      8.1654      2.5163     -0.0216      8.1054    108.7759     24.0809
   557.1000      8.1654      2.5423      0.0187      6.5260    118.1825     24.6437
   557.2000      8.1654      2.5641      0.0782      5.2086    132.5414     25.0066
   557.3000      8.1616      2.5689      0.0621      4.9176    144.5428     25.3965
   557.4000      8.1616      2.5671      0.0923      5.0243    149.4004     25.7626
   557.5000      8.1643      2.5672      0.1110      5.0204    152.8230     26.0880
   557.6000      8.1643      2.5707      0.0810      4.8040    153.7851     26.4249
   557.7000      8.1643      2.5734      0.1091      4.6426    148.7503     26.6700
   557.8000      8.1665      2.5677      0.0791      4.9893    143.4137     26.7683
   557.9000      8.1665      2.5584      0.0768      5.5512    142.4875     26.8806
   558.0000      8.1676      2.5525      0.0414      5.9097    143.0084     26.9874
   558.1000      8.1676      2.5487      0.0217      6.1411    141.8735     27.0080
   558.2000      8.1676      2.5438      0.0411      6.4378    139.0278     27.1455
   558.3000      8.1787      2.5396      0.0322      6.6922    136.2313     27.5515
   558.4000      8.1787      2.5416      0.0521      6.5685    135.0779     27.9402
   558.5000      8.1878      2.5515      0.0444      5.9688    133.2680     27.9853
   558.6000      8.1878      2.5614      0.0878      5.3667    130.3527     27.8747
   558.7000      8.1878      2.5681      0.0348      4.9664    127.2806     27.7838
   558.8000      8.1740      2.5848      0.0479      3.9506    122.4798     27.6970
   558.9000      8.1740      2.6052      0.0877      2.7137    116.0507     27.5737
   559.0000      8.1698      2.5992      0.0649      3.0773    110.9510     27.3782
   559.1000      8.1698      2.5721      0.0536      4.7189    110.0643     27.0678
   559.2000      8.1698      2.5583     -0.0053      5.5596    112.2334     26.6743
   559.3000      8.1648      2.5635      0.0735      5.2413    114.3434     26.4769
   559.4000      8.1648      2.5687      0.0130      4.9271    114.5863     26.6136
   559.5000      8.1701      2.5726      0.0320      4.6938    112.4488     26.8159
   559.6000      8.1701      2.5814      0.0334      4.1593    110.8432     26.7711
   559.7000      8.1701      2.5886      0.0364      3.7223    112.6670     26.5252
   559.8000      8.1662      2.5788      0.0812      4.3167    115.6931     26.3089
   559.9000      8.1662      2.5440      0.0311      6.4267    117.3111     25.9882
   560.0000      8.1619      2.5033     -0.0333      8.8886    116.1055     25.3331
   560.1000      8.1619      2.4825     -0.0508     10.1519    109.8526     24.6884
   560.2000      8.1619      2.4816      0.0185     10.2087     99.5102     24.4811
   560.3000      8.1598      2.4948     -0.0426      9.4079     91.0471     24.5521
   560.4000      8.1598      2.5314     -0.0122      7.1857     89.2118     24.6007
   560.5000      8.1476      2.5826      0.0782      4.0852     90.3351     24.5393
   560.6000      8.1476      2.6121      0.1138      2.2945     88.1774     24.4906
   560.7000      8.1476      2.6029      0.0739      2.8545     82.4982     24.4510
   560.8000      8.1401      2.5745      0.0394      4.5761     77.5453     24.1131
   560.9000      8.1401      2.5445      0.0612      6.3947     76.2826     23.5127
   561.0000      8.1257      2.5096      0.0626      8.5108     78.7469     23.1812
   561.1000      8.1257      2.4745      0.0073     10.6372     82.8784     23.3080
   561.2000      8.1257      2.4557     -0.0284     11.7746     85.4410     23.5658
   561.3000      8.1321      2.4576     -0.0010     11.6594     84.8039     23.6765
   561.4000      8.1321      2.4818     -0.0244     10.1927     82.3986     23.5798
   561.5000      8.1147      2.5286      0.0394      7.3596     80.0430     23.3523
   561.6000      8.1147      2.5782      0.0972      4.3529     77.1387     23.1431
   561.7000      8.1147      2.6078      0.1428      2.5563     75.3907     22.8796
   561.8000      8.1471      2.6132      0.1022      2.2311     76.5368     22.5221
   561.9000      8.1471      2.5976      0.1129      3.1755     77.3024     22.3237
   562.0000      8.1464      2.5698      0.0578      4.8580     76.4761     22.2819
   562.1000      8.1464      2.5444      0.0581      6.3983     75.4328     22.0290
   562.2000      8.1464      2.5233      0.0937      7.6812     73.6873     21.6077
   562.3000      8.1560      2.5072     -0.0043      8.6526     71.4382     21.4506
   562.4000      8.1560      2.5021      0.0306      8.9641     72.0051     21.5596
   562.5000      8.1598      2.4975      0.0326      9.2442     76.9974     21.6534
   562.6000      8.1598      2.4744      0.0649     10.6410     80.4659     21.7860
   562.7000      8.1598      2.4331      0.0114     13.1441     77.8623     21.9476
   562.8000      8.1679      2.4044     -0.0244     14.8876     73.9235     21.8183
   562.9000      8.1679      2.4099      0.0256     14.5545     72.7982     21.4081
   563.0000      8.1739      2.4335      0.0957     13.1198     71.7305     21.2115
   563.1000      8.1739      2.4673      0.0605     11.0739     68.4774     21.6709
   563.2000      8.1739      2.5226      0.1397      7.7197     64.5282     22.5547
   563.3000      8.1607      2.5819      0.2214      4.1277     62.1008     23.1923
   563.4000      8.1607      2.6199      0.1892      1.8273     64.3910     23.4403
   563.5000      8.1344      2.6412      0.2458      0.5333     74.0406     23.5915
