~Version Information
VERS.                      2.0: CWLS Log ASCII Standard - VERSION 2.0
WRAP.                       NO: One line per depth step
~Well Information Block
STRT.FT               245.0000: 
STOP.FT              1273.7500: 
STEP.FT                 0.2500: 
NULL.                -999.2500: 
COMP.          Pioneer Natural Resources: COMPANY
WELL.                 Ray 34-6: WELL
FLD.           Purgatoire River: FIELD
LOC.           684' FSL & 2254' FEL--: LOCATION
CNTY.               Las Animas: COUNTY
SRVC.                Patterson: SERVICE COMPANY
DATE.          Fri May 26 03:08:09 2006: LOG DATE
UWI.           05 071 08695 00: UNIQUE WELL ID
STAT.                 Colorado: STATE
~Curve Information Block
DEPT.FT            0 000 00 00: Depth
SN.Ohm-m                      : IEL Short Normal
SP.mV                         : IEL Spontaneous Potential
DIR.Ohm-m                     : IEL Induction Resistivity
GR.GAPI                       : Gamma Ray
~Parameter Information Block
~A  Depth        SN          SP         DIR          GR     
# ...
   848.0000    685.7410   -564.2273     10.8643    113.3298
   848.2500    685.7410   -564.2223     10.6337    111.1917
   848.5000    685.7410   -564.2176     10.5061    107.1380
   848.7500    685.7410   -564.2131     10.4621    103.9655
   849.0000    685.7410   -564.2086     10.4814     98.5489
   849.2500    685.7410   -564.2039     10.5422     94.7296
   849.5000    685.7410   -564.1992     10.6231     89.7738
   849.7500    685.7410   -564.1943     10.7050     87.7864
   850.0000    685.7410   -564.1893     10.7772     87.6579
   850.2500    685.7410   -564.1842     10.8404     89.4011
   850.5000    685.7410   -564.1789     10.9069     93.6433
   850.7500    685.7410   -564.1734     10.9928     96.7568
   851.0000    685.7410   -564.1676     11.1070    101.1841
   851.2500    685.7410   -564.1614     11.2424    103.9885
   851.5000    685.7410   -564.1547     11.3750    107.8350
   851.7500    685.7410   -564.1476     11.4748    109.8481
   852.0000    685.7410   -564.1401     11.5221    111.9156
   852.2500    685.7410   -564.1326     11.5198    113.0898
   852.5000    685.7410   -564.1251     11.4908    115.3643
   852.7500    685.7410   -564.1179     11.4648    117.1543
   853.0000    685.7410   -564.1114     11.4657    119.2991
   853.2500    685.7410   -564.1057     11.5047    119.9758
   853.5000    685.7410   -564.1010     11.5813    120.1244
   853.7500    685.7410   -564.0974     11.6878    119.9863
   854.0000    685.7410   -564.0947     11.8136    119.5065
   854.2500    685.7410   -564.0930     11.9492    118.9705
   854.5000    685.7410   -564.0921     12.0892    118.4571
   854.7500    685.7410   -564.0917     12.2323    118.8401
   855.0000    685.7410   -564.0918     12.3793    120.4557
   855.2500    685.7410   -564.0920     12.5307    121.5223
   855.5000    685.7410   -564.0923     12.6852    121.8720
   855.7500    685.7410   -564.0924     12.8404    121.0591
   856.0000    685.7410   -564.0923     12.9936    118.7585
   856.2500    685.7410   -564.0917     13.1432    117.0946
   856.5000    685.7410   -564.0906     13.2874    115.6144
   856.7500    685.7410   -564.0889     13.4222    115.7885
   857.0000    685.7410   -564.0866     13.5390    117.5376
   857.2500    685.7410   -564.0836     13.6263    118.9377
   857.5000    685.7410   -564.0802     13.6753    119.9998
   857.7500    685.7410   -564.0764     13.6843    119.6897
   858.0000    685.7410   -564.0723     13.6586    118.0302
   858.2500    685.7410   -564.0682     13.6040    116.4816
   858.5000    685.7410   -564.0643     13.5215    114.0021
   858.7500    685.7410   -564.0607     13.4074    112.5266
   859.0000    685.7410   -564.0574     13.2594    110.9486
   859.2500    685.7410   -564.0545     13.0833    110.3366
   859.5000    685.7410   -564.0519     12.8942    109.9294
   859.7500    685.7410   -564.0494     12.7112    109.9768
   860.0000    685.7410   -564.0470     12.5485    110.4985
   860.2500    685.7410   -564.0445     12.4107    111.0062
   860.5000    685.7410   -564.0419     12.2929    111.6909
   860.7500    685.7410   -564.0389     12.1863    112.0824
   861.0000    685.7410   -564.0356     12.0833    112.9974
   861.2500    685.7410   -564.0319     11.9800    114.1307
   861.5000    685.7410   -564.0280     11.8764    116.6750
   861.7500    685.7410   -564.0239     11.7731    118.6033
   862.0000    685.7410   -564.0195     11.6701    120.9258
   862.2500    685.7410   -564.0152     11.5690    121.5811
   862.5000    685.7410   -564.0109     11.4776    120.8350
   862.7500    685.7410   -564.0066     11.4111    119.4113
   863.0000    685.7410   -564.0024     11.3908    116.8541
   863.2500    685.7410   -563.9984     11.4408    115.4695
   863.5000    685.7410   -563.9945     11.5848    114.4371
   863.7500    685.7410   -563.9907     11.8463    114.3497
   864.0000    685.7410   -563.9869     12.2460    114.3598
   864.2500    685.7410   -563.9831     12.8003    113.9105
   864.5000    685.7410   -563.9793     13.5186    111.6337
   864.7500    685.7410   -563.9755     14.4064    108.4749
   865.0000    685.7410   -563.9716     15.4735    100.6632
   865.2500    685.7410   -563.9677     16.7467     93.8070
   865.5000    685.7410   -563.9638     18.2768     83.1582
   865.7500    685.7410   -563.9600     20.1252     77.1188
   866.0000    685.7410   -563.9564     22.3179     70.4991
   866.2500    685.7410   -563.9530     24.7601     67.3628
   866.5000    685.7410   -563.9501     27.1368     63.5388
   866.7500    685.7410   -563.9477     28.8986     61.1608
   867.0000    685.7410   -563.9461     29.4735     57.7486
   867.2500    685.7410   -563.9453     28.6420     55.9267
   867.5000    685.7410   -563.9453     26.6993     55.0407
   867.7500    685.7410   -563.9462     24.2108     56.3520
   868.0000    685.7410   -563.9479     21.6700     61.5985
   868.2500    685.7410   -563.9503     19.3542     67.0032
   868.5000    685.7410   -563.9532     17.3586     76.8323
   868.7500    685.7410   -563.9564     15.6773     83.6882
   869.0000    685.7410   -563.9597     14.2651     93.0627
   869.2500    685.7410   -563.9629     13.0730     98.1298
   869.5000    685.7410   -563.9656     12.0621    103.4405
   869.7500    685.7410   -563.9675     11.2066    105.4283
   870.0000    685.7410   -563.9686     10.4894    106.5473
   870.2500    685.7410   -563.9684      9.8976    106.5641
   870.5000    685.7410   -563.9670      9.4190    106.3463
   870.7500    685.7410   -563.9642      9.0402    106.2741
   871.0000    685.7410   -563.9602      8.7470    106.2562
   871.2500    685.7410   -563.9551      8.5254    106.2496
   871.5000    685.7410   -563.9492      8.3642    106.1554
   871.7500    685.7410   -563.9427      8.2571    105.8667
   872.0000    685.7410   -563.9363      8.2028    104.7487
   872.2500    685.7410   -563.9301      8.2039    103.5912
   872.5000    685.7410   -563.9246      8.2635    101.8435
   872.7500    685.7410   -563.9203      8.3841    100.9986
   873.0000    685.7410   -563.9174      8.5674    100.0770
   873.2500    685.7410   -563.9161      8.8155     99.2334
   873.5000    685.7410   -563.9167      9.1328     96.8848
   873.7500    685.7410   -563.9192      9.5244     94.5498
   874.0000    685.7410   -563.9234      9.9928     90.5400
   874.2500    685.7410   -563.9292     10.5325     88.0635
   874.5000    685.7410   -563.9363     11.1259     85.2323
   874.7500    685.7410   -563.9445     11.7429     83.9818
   875.0000    685.7410   -563.9532     12.3440     82.9708
   875.2500    685.7410   -563.9623     12.8878     82.9571
   875.5000    685.7410   -563.9715     13.3391     84.3073
   875.7500    685.7410   -563.9804     13.6759     86.2703
   876.0000    685.7410   -563.9890     13.8917     90.5889
   876.2500    685.7410   -563.9973     13.9950     93.9333
   876.5000    685.7410   -564.0049     14.0052     98.5318
   876.7500    685.7410   -564.0120     13.9464    100.7471
   877.0000    685.7410   -564.0185     13.8422    102.4508
   877.2500    685.7410   -564.0241     13.7119    102.7345
   877.5000    685.7410   -564.0288     13.5700    102.6466
   877.7500    685.7410   -564.0322     13.4256    102.6110
   878.0000    685.7410   -564.0342     13.2807    102.7245
   878.2500    685.7410   -564.0345     13.1296    102.7513
   878.5000    685.7410   -564.0330     12.9622    102.4662
   878.7500    685.7410   -564.0295     12.7727    102.1216
   879.0000    685.7410   -564.0240     12.5666    101.8011
   879.2500    685.7410   -564.0167     12.3608    101.8956
   879.5000    685.7410   -564.0075     12.1769    102.1970
   879.7500    685.7410   -563.9966     12.0314    102.0409
   880.0000    685.7410   -563.9843     11.9285    100.6461
   880.2500    685.7410   -563.9704     11.8569     98.9235
   880.5000    685.7410   -563.9552     11.7907     95.5341
   880.7500    685.7410   -563.9390     11.6961     92.9307
   881.0000    685.7410   -563.9221     11.5435     88.6236
   881.2500    685.7410   -563.9052     11.3209     85.6688
