~Version Information
VERS.                      2.0: CWLS Log ASCII Standard - VERSION 2.0
WRAP.                       NO: One line per depth step
~Well Information Block
STRT.FT              1186.0000: 
STOP.FT              1577.0000: 
STEP.FT                 0.2500: 
NULL.                -999.2500: 
COMP.          XTO Energy Inc.: COMPANY
WELL.          Golden Eagle 19-10: WELL
FLD.           Purgatorie River: FIELD
LOC.           2684' FSL & 1825' FEL--: LOCATION
CNTY.               Las Animas: COUNTY
SRVC.          Superior Well Services: SERVICE COMPANY
DATE.          Mon Dec 11 16:19:11 2006: LOG DATE
UWI.           05 071 08697 00: UNIQUE WELL ID
STAT.                       CO: STATE
~Curve Information Block
DEPT.FT            0 000 00 00: Depth
CCL.                          : Casing Collar Locator
TT3.usec                      : CBL 3' Travel Time
AMP3.mV                       : CBL 3' Amplitude
GR.GAPI                       : Gamma Ray
~Parameter Information Block
~A  Depth       CCL         TT3         AMP3         GR     
# ...
  1454.0000      0.0000    718.5522      9.7592     47.9671
  1454.2500      0.0000    717.3990     10.1994     51.1301
  1454.5000      0.0000    716.8867     10.7389     56.8686
  1454.7500      0.0000    716.4929     11.3853     63.3256
  1455.0000      0.0000    715.4916     12.1374     69.3346
  1455.2500      0.0000    712.2228     12.9684     75.2147
  1455.5000      0.0000    702.9658     13.8323     81.9197
  1455.7500      0.0000    682.3756     14.6862     89.4014
  1456.0000      0.0000    647.8758     15.5024     96.1818
  1456.2500      0.0000    606.3896     16.2600    100.6522
  1456.5000      0.0000    574.2938     16.9301    102.5795
  1456.7500      0.0000    565.5554     17.4758    103.0923
  1457.0000      0.0000    579.7433     17.8702    103.2054
  1457.2500      0.0000    605.2203     18.1154    102.7780
  1457.5000      0.0000    631.9125     18.2411    101.3292
  1457.7500      0.0000    656.2157     18.2858     99.5174
  1458.0000      0.0000    676.6672     18.2740     98.9637
  1458.2500      0.0000    691.6822     18.2040    100.6398
  1458.5000      0.0000    701.9185     18.0535    104.2435
  1458.7500      0.0000    710.0032     17.8057    109.0627
  1459.0000      0.0000    714.5323     17.4736    114.5162
  1459.2500      0.0000    706.4393     17.1008    119.7285
  1459.5000      0.0000    676.8038     16.7274    123.4931
  1459.7500      0.0000    630.2072     16.3511    125.1270
  1460.0000      0.0000    586.8140     15.9273    125.0686
  1460.2500      0.0000    567.0153     15.4145    124.2401
  1460.5000      0.0000    574.1605     14.8165    122.9671
  1460.7500      0.0000    594.9735     14.1776    120.8714
  1461.0000      0.0000    614.6980     13.5449    117.6998
  1461.2500      0.0000    627.5637     12.9408    113.8578
  1461.5000      0.0000    634.7458     12.3659    110.0950
  1461.7500      0.0000    639.1545     11.8228    106.9317
  1462.0000      0.0000    644.0258     11.3256    104.4840
  1462.2500      0.0000    652.5865     10.8722    102.6905
  1462.5000      0.0000    667.3170     10.4238    101.4323
  1462.7500      0.0000    690.0681      9.9481    100.4820
  1463.0000      0.0000    720.7508      9.4786     99.6847
  1463.2500      0.0000    753.9005      9.1001     99.0562
  1463.5000      0.0000    778.2544      8.8820     98.3434
  1463.7500      2.0000    781.9241      8.8412     96.8769
  1464.0000      0.0000    759.2125      8.9575     94.4677
  1464.2500      0.0000    713.7655      9.2126     92.0634
  1464.5000      0.0000    657.0995      9.6090     90.8301
  1464.7500      0.0000    604.9141     10.1310     90.8574
  1465.0000      0.0000    572.2558     10.6920     91.5297
  1465.2500      0.0000    567.3926     11.1674     93.0310
  1465.5000      0.0000    587.3446     11.5089     96.5505
  1465.7500      0.0000    619.3239     11.7829    102.6546
  1466.0000      0.0000    647.8725     12.0748    109.8896
  1466.2500      0.0000    661.9903     12.3954    115.4317
  1466.5000      0.0000    657.4134     12.6929    117.1501
  1466.7500      0.0000    636.3287     12.9188    115.0820
  1467.0000      0.0000    608.7078     13.0614    111.1457
  1467.2500      0.0000    591.3671     13.1351    107.7193
  1467.5000      0.0000    598.1448     13.1567    106.4551
  1467.7500      0.0000    627.9081     13.1358    107.9742
  1468.0000      0.0000    665.5609     13.0797    111.9772
  1468.2500      0.0000    695.8796     13.0040    117.2886
  1468.5000      0.0000    713.8455     12.9346    122.2382
  1468.7500      0.0000    722.7635     12.8986    125.6158
  1469.0000      0.0000    727.2062     12.9134    127.2836
  1469.2500      0.0000    729.4175     12.9803    127.7990
  1469.5000      0.0000    729.6190     13.0881    127.7324
  1469.7500      0.0000    726.7270     13.2244    127.4280
  1470.0000      0.0000    718.2311     13.3878    127.0371
  1470.2500      0.0000    701.3234     13.5877    126.4381
  1470.5000      0.0000    676.7345     13.8281    125.1406
  1470.7500      0.0000    651.9355     14.0931    122.6228
  1471.0000      0.0000    637.3757     14.3532    118.9438
  1471.2500      0.0000    636.0102     14.5825    114.8687
  1471.5000      0.0000    637.3259     14.7687    111.3252
  1471.7500      0.0000    624.9724     14.9114    108.8522
  1472.0000      0.0000    591.8621     15.0156    107.4537
  1472.2500      0.0000    547.4060     15.0865    106.8502
  1472.5000      0.0000    509.1324     15.1223    106.9553
  1472.7500      0.0000    487.3660     15.1128    108.1087
  1473.0000      0.0000    480.6369     15.0454    110.6914
  1473.2500      0.0000    486.2668     14.9118    114.5223
  1473.5000      0.0000    508.9099     14.7117    118.8267
  1473.7500      0.0000    553.2170     14.4537    122.8085
  1474.0000      0.0000    611.9822     14.1553    126.0781
  1474.2500      0.0000    668.2285     13.8399    128.5162
  1474.5000      0.0000    708.4880     13.5318    129.9703
  1474.7500      0.0000    730.6631     13.2513    130.3417
  1475.0000      0.0000    740.6233     13.0114    129.9127
  1475.2500      0.0000    745.1357     12.8144    129.2778
  1475.5000      0.0000    747.8990     12.6516    128.7581
  1475.7500      0.0000    749.0165     12.5044    127.9130
  1476.0000      0.0000    746.3257     12.3526    125.7486
  1476.2500      0.0000    737.4299     12.1847    121.6354
  1476.5000      0.0000    721.7625     12.0052    116.2451
  1476.7500      0.0000    701.6050     11.8302    111.6124
  1477.0000      0.0000    680.9985     11.6754    110.0161
  1477.2500      0.0000    662.5896     11.5495    112.3411
  1477.5000      0.0000    644.7169     11.4540    117.0924
  1477.7500      0.0000    622.0096     11.3851    121.0011
  1478.0000      0.0000    590.0713     11.3353    121.1371
  1478.2500      0.0000    549.9026     11.2954    117.0797
  1478.5000      0.0000    507.2570     11.2588    111.2970
  1478.7500      0.0000    468.3333     11.2210    107.2865
  1479.0000      0.0000    437.0033     11.1787    107.1708
  1479.2500      0.0000    414.8035     11.1288    110.8721
  1479.5000      0.0000    401.3285     11.0709    117.0444
  1479.7500      0.0000    394.3703     11.0093    124.0660
  1480.0000      0.0000    390.6955     10.9516    130.2346
  1480.2500      0.0000    387.2226     10.9045    133.9900
  1480.5000      0.0000    381.9161     10.8708    134.5367
  1480.7500      0.0000    374.3439     10.8507    131.9970
  1481.0000      0.0000    365.7437     10.8422    127.1130
  1481.2500      0.0000    358.1295     10.8414    121.3382
  1481.5000      0.0000    352.8882     10.8416    116.8886
  1481.7500      0.0000    350.0902     10.8380    115.7238
  1482.0000      0.0000    348.9330     10.8320    117.9974
  1482.2500      0.0000    348.5989     10.8316    121.6188
  1482.5000      0.0000    348.7953     10.8446    123.6269
  1482.7500      0.0000    349.9688     10.8714    122.3565
  1483.0000      0.0000    353.4185     10.9021    118.3628
  1483.2500      0.0000    361.2493     10.9187    113.2666
  1483.5000      0.0000    375.9810     10.9027    108.2709
  1483.7500      0.0000    399.7733     10.8427    104.0746
  1484.0000      0.0000    433.6115     10.7363    101.4610
  1484.2500      0.0000    476.8842     10.5886    101.1748
  1484.5000      0.0000    527.2474     10.4099    103.3373
  1484.7500      0.0000    580.2315     10.2139    107.1837
  1485.0000      0.0000    629.2493     10.0110    111.2321
  1485.2500      0.0000    667.7186      9.8040    113.7752
  1485.5000      0.0000    692.5496      9.5883    113.8846
  1485.7500      0.0000    705.4478      9.3579    112.4302
  1486.0000      0.0000    710.7264      9.1166    111.6177
  1486.2500      0.0000    712.3097      8.8833    112.7421
  1486.5000      0.0000    712.4636      8.6834    114.4517
  1486.7500      0.0000    712.1453      8.5309    113.8621
  1487.0000      0.0000    711.7121      8.4192    109.4518
  1487.2500      0.0000    711.3276      8.3277    102.3109
