~Version Information
VERS.                      2.0: CWLS Log ASCII Standard - VERSION 2.0
WRAP.                       NO: One line per depth step
~Well Information Block
STRT.FT               350.0000: 
STOP.FT              2803.2000: 
STEP.FT                 0.1000: 
NULL.                -999.2500: 
COMP.          Pioneer Natural Resources: COMPANY
WELL.          Grey Goose 33-30: WELL
FLD.           Purgatoire River: FIELD
LOC.           2136' FSL & 2065' FEL--: LOCATION
STAT.                 Colorado: State
CNTY.               Las Animas: COUNTY
CTRY. USA : Country
SECT. 30 : Section
TOWN. 32S : Township
RANG. 67W : Range
SRVC.                Patterson: SERVICE COMPANY
DATE.          Fri Nov 04 09:27:53 2005: LOG DATE
API.           05 071 08546 00: UNIQUE WELL ID
~Curve Information Block
DEPT.FT            0 000 00 00: Depth
DCAL.in                       : CDL Caliper
DPOR.pu                       : CDL Density Porosity
NPOR.pu                       : Neutron Porosity
RHOB.g/cc                     : CDL Bulk Density
RHOC.g/cc                     : CDL Density Correction
GR.GAPI                       : Gamma Ray
~Parameter Information Block
~A  Depth       DCAL        DPOR        NPOR        RHOB        RHOC         GR     
# ...
  1982.0000      8.1685      3.9480     23.8044      2.5849      0.0627     93.7695
  1982.1000      8.1685      4.2515     24.5884      2.5799      0.0553    103.7574
  1982.2000      8.1685      4.8391     25.2800      2.5702      0.0502    115.0949
  1982.3000      8.1685      5.6724     26.0768      2.5564      0.0543    129.7238
  1982.4000      8.1685      6.6883     26.7882      2.5396      0.0484    143.7878
  1982.5000      8.1701      7.6493     27.0487      2.5238      0.0087    149.7862
  1982.6000      8.1701      8.1419     27.0377      2.5157      0.0357    147.8025
  1982.7000      8.1701      8.1765     26.8436      2.5151      0.0501    140.7624
  1982.8000      8.1720      8.1223     26.0467      2.5160      0.0240    130.4375
  1982.9000      8.1720      8.5995     24.6126      2.5081      0.0455    119.3283
  1983.0000      8.1718      9.9830     23.2959      2.4853      0.0296    108.8164
  1983.1000      8.1718     11.2302     22.6842      2.4647     -0.0034     98.6228
  1983.2000      8.1718     11.2304     22.4088      2.4647      0.0148     90.2005
  1983.3000      8.1715     10.7360     21.8604      2.4729      0.0551     84.3635
  1983.4000      8.1715     10.7503     21.4518      2.4726      0.0173     79.0950
  1983.5000      8.1718     10.9539     21.8467      2.4693      0.0210     73.4739
  1983.6000      8.1718     11.2043     22.4418      2.4651      0.0783     68.8745
  1983.7000      8.1718     12.1619     22.0268      2.4493      0.0667     67.1336
  1983.8000      8.1726     13.4980     20.5075      2.4273      0.0041     66.8396
  1983.9000      8.1726     14.0890     19.1466      2.4175      0.0185     64.9140
  1984.0000      8.1734     13.7635     18.9398      2.4229      0.0194     60.5681
  1984.1000      8.1734     13.0552     19.5365      2.4346      0.0683     54.2064
  1984.2000      8.1734     12.5504     20.1405      2.4429      0.0730     48.0445
  1984.3000      8.1726     12.5429     20.4524      2.4430      0.0587     46.9481
  1984.4000      8.1726     12.9750     20.2570      2.4359      0.0600     51.6918
  1984.5000      8.1687     13.3634     19.5439      2.4295      0.0331     59.7270
  1984.6000      8.1687     13.0774     19.0214      2.4342      0.0251     68.5796
  1984.7000      8.1687     12.4933     19.2847      2.4439      0.0646     74.8136
  1984.8000      8.1663     12.6913     20.1423      2.4406      0.0874     76.5973
  1984.9000      8.1663     13.5484     20.9049      2.4265      0.0037     72.8988
  1985.0000      8.1668     13.7406     21.1430      2.4233      0.0287     63.3269
  1985.1000      8.1668     12.9195     21.2826      2.4368      0.0551     53.9238
  1985.2000      8.1668     11.8919     21.5899      2.4538      0.0562     50.5115
  1985.3000      8.1672     11.2557     21.5209      2.4643      0.0408     52.6441
  1985.4000      8.1672     11.1183     20.9628      2.4665      0.0617     58.0849
  1985.5000      8.1671     11.5481     20.4056      2.4595      0.0472     63.3316
  1985.6000      8.1671     12.3715     19.8560      2.4459      0.0401     65.7070
  1985.7000      8.1671     13.0195     19.4541      2.4352      0.0126     66.1482
  1985.8000      8.1672     13.0705     19.4248      2.4343      0.0266     68.3101
  1985.9000      8.1672     12.8306     19.4805      2.4383      0.0290     72.1456
  1986.0000      8.1672     12.6413     19.3833      2.4414      0.0252     74.5366
  1986.1000      8.1672     12.2082     19.1372      2.4486      0.0128     73.9187
  1986.2000      8.1672     11.7610     19.2323      2.4559      0.0763     70.6943
  1986.3000      8.1684     12.1558     19.9417      2.4494      0.0587     68.7789
  1986.4000      8.1684     12.8612     20.7216      2.4378      0.0125     69.4670
  1986.5000      8.1712     13.0713     21.2211      2.4343      0.0294     69.1129
  1986.6000      8.1712     13.2829     21.6548      2.4308     -0.0028     66.5446
  1986.7000      8.1712     13.6583     21.9511      2.4246     -0.0225     64.6401
  1986.8000      8.1732     13.7682     21.8783      2.4228      0.0174     65.5209
  1986.9000      8.1732     13.2868     21.3517      2.4308     -0.0036     69.2635
  1987.0000      8.1738     12.1543     20.3905      2.4495      0.0334     72.5935
  1987.1000      8.1738     11.1604     19.4473      2.4659      0.0625     70.5473
  1987.2000      8.1738     11.1726     19.1347      2.4657      0.0636     65.5722
  1987.3000      8.1734     11.9464     19.3423      2.4529     -0.0018     63.4560
  1987.4000      8.1734     12.4167     19.4011      2.4451      0.0271     65.7132
  1987.5000      8.1724     11.9839     19.2249      2.4523      0.0283     69.3290
  1987.6000      8.1724     11.2329     19.1221      2.4647      0.0674     70.5785
  1987.7000      8.1724     11.3679     19.0436      2.4624      0.0558     67.6973
  1987.8000      8.1720     12.5156     18.8222      2.4435      0.0668     62.5984
  1987.9000      8.1720     13.1721     18.5554      2.4327     -0.0121     59.3791
  1988.0000      8.1725     12.1728     18.6110      2.4491      0.0288     59.0134
  1988.1000      8.1725     10.9007     18.9584      2.4701      0.0973     59.4525
  1988.2000      8.1725     11.1539     19.0189      2.4660      0.0300     57.9328
  1988.3000      8.1720     12.3857     18.5102      2.4456      0.0240     52.9879
  1988.4000      8.1720     13.0672     17.7240      2.4344     -0.0200     48.1107
  1988.5000      8.1705     12.7007     17.1820      2.4404      0.0321     47.7559
  1988.6000      8.1705     12.1415     17.1767      2.4497      0.0065     50.1237
  1988.7000      8.1705     12.4074     17.1313      2.4453      0.0291     52.5241
  1988.8000      8.1676     13.2680     16.5840      2.4311     -0.0032     54.7161
  1988.9000      8.1676     13.3699     16.0259      2.4294      0.0298     53.5930
  1989.0000      8.1668     12.7514     15.9170      2.4396      0.0675     49.4046
  1989.1000      8.1668     12.3141     16.1827      2.4468      0.0105     47.8214
  1989.2000      8.1668     11.7015     16.5536      2.4569      0.0158     50.1465
  1989.3000      8.1686     10.7364     16.8912      2.4728      0.0414     50.8590
  1989.4000      8.1686      9.8420     17.2796      2.4876      0.0373     48.4705
  1989.5000      8.1702      9.2936     17.6883      2.4967      0.0585     47.6546
  1989.6000      8.1702      9.6512     17.8992      2.4908      0.0716     49.1045
  1989.7000      8.1702     10.9327     18.0995      2.4696      0.0255     50.6366
  1989.8000      8.1708     12.0063     18.3045      2.4519      0.0145     50.7163
  1989.9000      8.1708     12.1148     18.1070      2.4501      0.0110     48.7703
  1990.0000      8.1716     11.2338     17.8030      2.4646      0.0312     44.8061
  1990.1000      8.1716      9.7855     17.9645      2.4885      0.0586     39.3884
  1990.2000      8.1716      8.6861     18.2753      2.5067      0.0582     35.9465
  1990.3000      8.1729      8.7353     18.2114      2.5059      0.0519     36.9599
  1990.4000      8.1729     10.0222     17.9202      2.4846      0.0623     39.5038
  1990.5000      8.1735     11.3514     17.7046      2.4627      0.0240     40.5629
  1990.6000      8.1735     11.3249     17.7793      2.4631      0.0302     41.3124
  1990.7000      8.1735     10.3712     18.1576      2.4789      0.0869     42.4889
  1990.8000      8.1737      9.6416     18.3588      2.4909      0.0536     43.1214
  1990.9000      8.1737      9.3285     18.1118      2.4961      0.0387     43.1025
  1991.0000      8.1732      9.5581     17.9236      2.4923      0.0675     43.4050
  1991.1000      8.1732     10.0898     18.1279      2.4835      0.0522     44.1415
  1991.2000      8.1732      9.7606     18.3835      2.4890      0.0184     44.7973
  1991.3000      8.1734      8.2103     18.3956      2.5145      0.0421     45.9075
  1991.4000      8.1734      6.6297     18.4750      2.5406      0.0586     48.0628
  1991.5000      8.1745      5.9633     19.2146      2.5516      0.0607     51.5345
