~Version Information
VERS.                      2.0: CWLS Log ASCII Standard - VERSION 2.0
WRAP.                       NO: One line per depth step
~Well Information Block
STRT.FT               310.0000: 
STOP.FT              2298.0000: 
STEP.FT                 0.2500: 
NULL.                -999.2500: 
COMP.          Pioneer Natural Resources: COMPANY
WELL.               Relay 12-7: WELL
FLD.           Purgatoire River: FIELD
LOC.           1999' FNL & 848' FWL: LOCATION
PROV.                 Colorado: PROVINCE
CNTY.               Las Animas: COUNTRY
SRVC.                Patterson: SERVICE COMPANY
DATE.          Fri Dec 16 17:39:57 2005: LOG DATE
UWI.           05 071 08453 00: UNIQUE WELL ID
~Curve Information Block
DEPT.FT            0 000 00 00: Depth
SN.Ohm-m                      : IEL Short Normal
SP.mV                         : IEL Spontaneous Potential
DIR.Ohm-m                     : IEL Induction Resistivity
GR.GAPI                       : Gamma Ray
~Parameter Information Block
~A  Depth        SN          SP         DIR          GR     
# ...
  2119.0000     28.9046     65.4066     26.1656     71.8166
  2119.2500     27.5228     65.1672     25.1628     74.0621
  2119.5000     26.0611     64.9447     24.1162     79.1045
  2119.7500     24.8460     64.7344     23.0804     82.9742
  2120.0000     23.9818     64.5155     22.1038     87.8168
  2120.2500     23.3862     64.2582     21.2239     89.3470
  2120.5000     22.9559     63.9412     20.4690     88.3571
  2120.7500     22.5840     63.5661     19.8591     86.0958
  2121.0000     22.1599     63.1582     19.3997     82.4647
  2121.2500     21.6406     62.7550     19.0734     80.9955
  2121.5000     21.1009     62.3894     18.8410     80.7210
  2121.7500     20.6692     62.0791     18.6569     81.3390
  2122.0000     20.4333     61.8222     18.4886     82.2584
  2122.2500     20.3931     61.6003     18.3287     82.3652
  2122.5000     20.4359     61.3845     18.1928     81.3731
  2122.7500     20.3871     61.1439     18.1070     79.8904
  2123.0000     20.1898     60.8569     18.0897     76.5589
  2123.2500     20.0088     60.5221     18.1344     73.8436
  2123.5000     20.0560     60.1605     18.2010     69.8793
  2123.7500     20.3358     59.8058     18.2297     67.9800
  2124.0000     20.6358     59.4873     18.1726     67.0775
  2124.2500     20.7892     59.2175     18.0226     67.7556
  2124.5000     20.8730     58.9918     17.8126     70.0092
  2124.7500     21.0174     58.7963     17.5905     71.9294
  2125.0000     21.1680     58.6175     17.3921     74.9869
  2125.2500     21.2151     58.4475     17.2317     76.9138
  2125.5000     21.1790     58.2848     17.1067     79.3608
  2125.7500     21.1106     58.1323     17.0101     80.8121
  2126.0000     20.9833     57.9918     16.9422     83.3734
  2126.2500     20.8116     57.8568     16.9149     85.5986
  2126.5000     20.6931     57.7120     16.9495     89.3693
  2126.7500     20.6670     57.5431     17.0688     91.6711
  2127.0000     20.6944     57.3470     17.2898     94.2994
  2127.2500     20.7712     57.1340     17.6186     95.5027
  2127.5000     20.9857     56.9202     18.0492     96.2203
  2127.7500     21.4598     56.7188     18.5712     95.4441
  2128.0000     22.1907     56.5350     19.1818     91.7985
  2128.2500     23.0307     56.3674     19.8954     88.1704
  2128.5000     23.9006     56.2152     20.7418     82.7683
  2128.7500     24.9179     56.0899     21.7550     79.9618
  2129.0000     26.3336     56.0249     22.9602     76.3964
  2129.2500     28.4866     56.0709     24.3716     73.2785
  2129.5000     31.8292     56.2737     25.9993     65.9099
  2129.7500     36.8633     56.6514     27.8628     59.3809
  2130.0000     43.8546     57.1860     29.9985     49.1982
  2130.2500     52.5610     57.8315     32.4521     43.5551
  2130.5000     62.2616     58.5320     35.2514     38.2033
  2130.7500     71.9174     59.2384     38.3653     36.7093
  2131.0000     80.2874     59.9202     41.6719     36.5698
  2131.2500     86.2260     60.5686     44.9587     37.0689
  2131.5000     89.1753     61.1912     47.9603     37.6198
  2131.7500     89.3701     61.7983     50.4014     37.7142
  2132.0000     87.5342     62.3894     52.0219     38.0610
  2132.2500     84.4547     62.9475     52.6103     38.8799
  2132.5000     80.7900     63.4518     52.0645     41.0283
  2132.7500     77.0040     63.9092     50.4338     42.5622
  2133.0000     73.2211     64.3894     47.8948     43.8778
  2133.2500     69.2188     65.0356     44.6980     43.8486
  2133.5000     64.8151     66.0247     41.1493     43.4270
  2133.7500     60.2282     67.4919     37.5936     44.1177
  2134.0000     55.9169     69.4768     34.3519     48.5364
  2134.2500     52.0970     71.9272     31.6432     54.1555
  2134.5000     48.4876     74.7365     29.5531     66.2252
  2134.7500     44.6492     77.7691     28.0556     76.4465
  2135.0000     40.6120     80.8658     27.0531     95.0650
  2135.2500     36.9946     83.8528     26.4123    109.4298
  2135.5000     34.4082     86.5641     25.9964    131.6255
  2135.7500     32.9140     88.8728     25.6922    144.4169
  2136.0000     32.1362     90.7186     25.4248    156.4140
  2136.2500     31.7317     92.1179     25.1535    158.4424
  2136.5000     31.6332     93.1472     24.8635    153.7210
  2136.7500     31.9316     93.9025     24.5690    147.4906
  2137.0000     32.7030     94.4615     24.3218    137.4836
  2137.2500     33.9567     94.8738     24.2070    131.9323
  2137.5000     35.6133     95.1760     24.3166    126.1968
  2137.7500     37.4724     95.4080     24.7197    123.9459
  2138.0000     39.2827     95.6098     25.4495    122.1880
  2138.2500     40.8769     95.8074     26.5136    121.4147
  2138.5000     42.2039     96.0050     27.9134    119.0554
  2138.7500     43.3007     96.1891     29.6489    115.4767
  2139.0000     44.3099     96.3389     31.6918    105.9471
  2139.2500     45.4902     96.4371     33.9391     97.1535
  2139.5000     47.0992     96.4812     36.1810     82.3912
  2139.7500     49.2311     96.4924     38.1268     73.1357
  2140.0000     51.8760     96.5160     39.4935     62.7522
  2140.2500     54.9956     96.6111     40.1108     59.1748
  2140.5000     58.2661     96.8307     39.9759     59.3203
  2140.7500     60.8644     97.2044     39.2354     62.7206
  2141.0000     61.8199     97.7302     38.1175     71.2063
  2141.2500     60.6515     98.3802     36.8507     77.8435
  2141.5000     57.5797     99.1120     35.6014     87.1793
  2141.7500     53.2379     99.8806     34.4447     92.1952
  2142.0000     48.4187    100.6423     33.3737     97.3530
  2142.2500     43.9061    101.3538     32.3372     99.2376
  2142.5000     40.1458    101.9719     31.2850    100.2455
  2142.7500     37.0970    102.4600     30.1978    100.1290
  2143.0000     34.5069    102.7972     29.0882     98.9975
  2143.2500     32.2125    102.9865     27.9849     97.2783
  2143.5000     30.2214    103.0540     26.9220     92.8134
  2143.7500     28.6534    103.0396     25.9354     89.0906
  2144.0000     27.5847    102.9831     25.0559     84.4923
  2144.2500     26.9089    102.9122     24.2954     83.1482
  2144.5000     26.3890    102.8353     23.6409     83.8758
  2144.7500     25.8704    102.7394     23.0707     85.4744
  2145.0000     25.4054    102.5977     22.5802     88.2057
  2145.2500     25.1069    102.3869     22.1919     89.7553
  2145.5000     24.9414    102.1025     21.9403     91.1028
  2145.7500     24.7807    101.7638     21.8454     91.1820
  2146.0000     24.5844    101.4038     21.8964     90.4071
  2146.2500     24.4350    101.0528     22.0514     89.7350
  2146.5000     24.4453    100.7234     22.2531     88.8110
  2146.7500     24.6374    100.4085     22.4506     87.9756
  2147.0000     24.9079    100.0917     22.6178     85.7239
  2147.2500     25.1247     99.7598     22.7581     83.4842
  2147.5000     25.2274     99.4073     22.8949     79.5898
  2147.7500     25.2508     99.0347     23.0563     77.1448
  2148.0000     25.2731     98.6409     23.2614     74.4316
  2148.2500     25.3191     98.2152     23.5162     73.4599
  2148.5000     25.3587     97.7342     23.8148     73.0819
  2148.7500     25.3797     97.1734     24.1438     73.1455
  2149.0000     25.3996     96.5230     24.4885     72.8724
  2149.2500     25.4814     95.7971     24.8419     72.1895
  2149.5000     25.7318     95.0311     25.2107     70.7550
  2149.7500     26.1566     94.2718     25.6076     69.9933
  2150.0000     26.6053     93.5637     26.0261     69.5569
  2150.2500     26.9657     92.9384     26.4213     69.5362
  2150.5000     27.2748     92.4077     26.7240     69.3733
  2150.7500     27.5885     91.9604     26.8879     69.0850
  2151.0000     27.8640     91.5682     26.9299     68.5264
  2151.2500     28.0246     91.1998     26.9209     68.1745
  2151.5000     28.1028     90.8359     26.9406     68.0223
  2151.7500     28.2348     90.4696     27.0362     68.4786
  2152.0000     28.4893     90.1009     27.2112     70.1505
  2152.2500     28.8014     89.7318     27.4371     71.5528
