~Version Information
VERS.                      2.0: CWLS Log ASCII Standard - VERSION 2.0
WRAP.                       NO: One line per depth step
~Well Information Block
STRT.FT               245.0000: 
STOP.FT              1006.0000: 
STEP.FT                 0.1000: 
NULL.                -999.2500: 
COMP.          Pioneer Natural Resources: COMPANY
WELL.              Atlas 32-18: WELL
FLD.           Purgatoire River: FIELD
LOC.           1892' FNL & 1456' FEL: LOCATION
PROV.                 Colorado: PROVINCE
CNTY.               Las Animas: COUNTRY
SRVC.                Patterson: SERVICE COMPANY
DATE.          Mon Nov 21 08:58:56 2005: LOG DATE
UWI.           05 071 08556 00: UNIQUE WELL ID
~Curve Information Block
DEPT.FT            0 000 00 00: Depth
DCAL.in                       : CDL Caliper
RHOB.g/cc                     : CDL Bulk Density
RHOC.g/cc                     : CDL Density Correction
DPOR.pu                       : CDL Density Porosity
GR.GAPI                       : Gamma Ray
NPOR.pu                       : Neutron Porosity
~Parameter Information Block
~A  Depth       DCAL        RHOB        RHOC        DPOR         GR         NPOR    
# ...
   494.6000      8.2261      2.3330      0.1244     19.2149    162.1321     22.7414
   494.7000      8.2261      2.2782      0.1359     22.5331    168.6047     22.2306
   494.8000      8.3005      2.2477      0.1764     24.3806    168.9542     22.0062
   494.9000      8.3005      2.2542      0.1510     23.9900    167.7060     22.3676
   495.0000      8.4022      2.3083      0.1914     20.7095    168.5861     23.2640
   495.1000      8.4022      2.4014      0.2197     15.0679    168.1103     24.2182
   495.2000      8.4022      2.4962      0.3848      9.3205    166.3257     24.7873
   495.3000      8.5688      2.5573      0.3879      5.6166    167.9012     24.9541
   495.4000      8.5688      2.5771      0.4403      4.4200    171.3719     24.6682
   495.5000      8.5406      2.5567      0.4753      5.6556    174.7641     23.9956
   495.6000      8.5406      2.5110      0.3180      8.4254    180.3404     23.4359
   495.7000      8.5406      2.4696      0.2903     10.9312    184.5533     23.3549
   495.8000      8.6865      2.4367      0.2254     12.9247    181.2197     23.6076
   495.9000      8.6865      2.4126      0.1536     14.3888    173.5525     23.8129
   496.0000      8.6244      2.4259      0.1466     13.5847    170.3111     24.0024
   496.1000      8.6244      2.4890      0.2210      9.7600    174.5806     24.4783
   496.2000      8.6244      2.5727      0.3047      4.6842    180.6808     25.1229
   496.3000      8.4393      2.6445      0.3530      0.3307    182.6360     25.6816
   496.4000      8.4393      2.6896      0.3904     -2.4025    178.0695     26.2948
   496.5000      8.4286      2.7077      0.3959     -3.4977    170.4644     26.9894
   496.6000      8.4286      2.7125      0.3419     -3.7897    163.9880     27.4515
   496.7000      8.4286      2.7166      0.3144     -4.0382    159.5729     27.8218
   496.8000      8.4172      2.7211      0.2962     -4.3076    159.8159     28.3555
   496.9000      8.4172      2.7216      0.2166     -4.3390    164.0379     28.6417
   497.0000      8.4131      2.7156      0.1351     -3.9787    163.6927     28.6393
   497.1000      8.4131      2.7039      0.1399     -3.2662    153.1002     28.7027
   497.2000      8.4131      2.6922      0.0544     -2.5582    136.7507     28.6436
   497.3000      8.2311      2.6865      0.0734     -2.2119    121.3229     28.1377
   497.4000      8.2311      2.6760      0.1200     -1.5786    109.1424     27.2605
   497.5000      8.0799      2.6485      0.0119      0.0887    102.4033     26.5138
   497.6000      8.0799      2.6107     -0.0047      2.3815    101.0897     26.1885
   497.7000      8.0799      2.5757     -0.0508      4.5044    103.0340     25.8617
   497.8000      7.9954      2.5489     -0.0163      6.1293    105.6940     25.3401
   497.9000      7.9954      2.5268     -0.0735      7.4641    108.0547     24.7429
   498.0000      7.9843      2.5097     -0.0531      8.5054    111.5044     23.8585
   498.1000      7.9843      2.4956      0.0115      9.3573    113.1533     22.8296
   498.2000      7.9843      2.4841      0.0122     10.0567    110.8057     22.1455
   498.3000      7.9862      2.4847      0.0405     10.0181    111.2590     21.8110
   498.4000      7.9862      2.5006      0.0629      9.0561    118.3845     21.6430
   498.5000      7.9907      2.5264      0.0414      7.4903    127.3423     21.6100
   498.6000      7.9907      2.5620      0.0915      5.3360    133.9719     21.5344
   498.7000      7.9907      2.6015      0.1193      2.9392    139.7857     21.5376
   498.8000      7.9632      2.6255      0.1935      1.4861    145.5287     22.3515
   498.9000      7.9632      2.6229      0.1681      1.6401    148.0990     24.1108
   499.0000      7.9764      2.6140      0.1405      2.1847    148.7322     25.8537
   499.1000      7.9764      2.6150      0.1523      2.1186    151.2965     26.7796
   499.2000      7.9764      2.6163      0.1346      2.0453    155.7838     26.9821
   499.3000      8.0348      2.6112      0.1110      2.3540    159.4102     26.8220
   499.4000      8.0348      2.6060      0.1133      2.6650    160.6093     26.6061
   499.5000      8.2354      2.6079      0.0708      2.5507    160.7694     26.5533
   499.6000      8.2354      2.6139      0.0612      2.1901    164.2978     26.5555
   499.7000      8.2354      2.6065      0.1049      2.6346    170.2217     26.5628
   499.8000      8.1978      2.5772      0.0695      4.4130    170.5459     26.7747
   499.9000      8.1978      2.5394      0.0868      6.7052    167.0408     27.0693
   500.0000      8.0807      2.5073      0.0249      8.6508    167.4337     27.1763
   500.1000      8.0807      2.4906     -0.0024      9.6635    168.9356     27.0969
   500.2000      8.0807      2.4955      0.0428      9.3621    169.3288     26.8421
   500.3000      8.0504      2.5194      0.0023      7.9137    171.1015     26.5492
   500.4000      8.0504      2.5530      0.0764      5.8789    171.7424     26.4157
   500.5000      8.0510      2.5858      0.1561      3.8901    170.7698     26.4046
   500.6000      8.0510      2.6156      0.1643      2.0828    172.9023     26.3800
   500.7000      8.0510      2.6396      0.2524      0.6324    175.2596     26.2944
   500.8000      8.0625      2.6397      0.2381      0.6230    173.4434     26.2399
   500.9000      8.0625      2.6107      0.1423      2.3830    170.6457     26.3415
   501.0000      8.0233      2.5778      0.0868      4.3780    169.4865     26.3581
   501.1000      8.0233      2.5577      0.0900      5.5949    168.8742     25.8981
   501.2000      8.0233      2.5335      0.1019      7.0624    166.0352     25.1001
   501.3000      8.0270      2.4915      0.0751      9.6069    162.8764     24.3844
   501.4000      8.0270      2.4490      0.0006     12.1820    163.4088     23.9729
   501.5000      8.0524      2.4272     -0.0161     13.5002    167.0644     23.7551
   501.6000      8.0524      2.4244     -0.0186     13.6756    169.0776     23.2072
   501.7000      8.0524      2.4274     -0.0224     13.4896    167.4358     22.2803
   501.8000      8.0949      2.4305      0.0162     13.3049    164.0462     21.6171
   501.9000      8.0949      2.4328      0.0559     13.1610    160.6359     21.2717
   502.0000      8.1570      2.4359      0.0296     12.9782    157.9468     20.8475
   502.1000      8.1570      2.4405      0.0240     12.6978    156.6952     20.2277
   502.2000      8.1570      2.4392      0.0860     12.7769    160.9118     19.5061
   502.3000      8.2423      2.4165      0.1141     14.1498    167.1972     18.7839
   502.4000      8.2423      2.3633      0.0606     17.3756    166.6369     18.1621
   502.5000      8.2938      2.2806      0.0498     22.3885    161.3973     17.6336
   502.6000      8.2938      2.1833      0.0467     28.2848    157.6825     17.3915
   502.7000      8.2938      2.1008      0.0194     33.2824    156.0189     17.9404
   502.8000      8.3072      2.0458      0.0895     36.6192    153.9191     19.0052
   502.9000      8.3072      2.0061      0.0279     39.0251    149.3048     19.7446
   503.0000      8.2769      1.9820     -0.0226     40.4875    143.9499     20.2367
   503.1000      8.2769      1.9853      0.0653     40.2829    139.8649     21.0090
   503.2000      8.2769      2.0261      0.0917     37.8102    135.3563     22.1068
   503.3000      8.1864      2.1123      0.2177     32.5897    129.8045     23.1631
   503.4000      8.1864      2.2240      0.3069     25.8193    123.7751     23.6559
   503.5000      8.0635      2.3235      0.2814     19.7882    115.6791     23.6902
   503.6000      8.0635      2.3921      0.2602     15.6306    107.4218     23.7051
   503.7000      8.0635      2.4287      0.1668     13.4094    101.9006     23.8307
   503.8000      8.0503      2.4451      0.0981     12.4167    100.3245     24.1273
   503.9000      8.0503      2.4664      0.0433     11.1251    105.1880     24.4633
   504.0000      8.1327      2.5064      0.1366      8.7045    114.0500     24.3587
   504.1000      8.1327      2.5469      0.2227      6.2493    118.5539     23.6905
