~Version Information
VERS.                      2.0: CWLS Log ASCII Standard - VERSION 2.0
WRAP.                       NO: One line per depth step
~Well Information Block
STRT.FT               491.0000: 
STOP.FT              1911.5000: 
STEP.FT                 0.2500: 
NULL.                -999.2500: 
COMP.          Pioneer Natural Resources: COMPANY
WELL.            Corazon 13-10: WELL
FLD.           Purgatoire River: FIELD
LOC.           2510' FSL & 439' FWL: LOCATION
PROV.                 Colorado: PROVINCE
CNTY.               Las Animas: COUNTRY
SRVC.                Patterson: SERVICE COMPANY
DATE.          Wed Nov 30 22:14:48 2005: LOG DATE
UWI.           05 071 08613 00: UNIQUE WELL ID
~Curve Information Block
DEPT.FT            0 000 00 00: Depth
SN.Ohm-m                      : IEL Short Normal
SP.mV                         : IEL Spontaneous Potential
DIR.Ohm-m                     : IEL Induction Resistivity
GR.GAPI                       : Gamma Ray
~Parameter Information Block
~A  Depth        SN          SP         DIR          GR     
# ...
  1328.5000      9.6898     28.8267      8.3088     95.9438
  1328.7500     10.6110     28.9592      8.6351     90.9842
  1329.0000     11.9350     29.1154      8.9754     90.3983
  1329.2500     13.3942     29.2745      9.3186     92.8589
  1329.5000     14.5770     29.4174      9.6435     96.7452
  1329.7500     15.2579     29.5384      9.9206     98.1076
  1330.0000     15.4805     29.6451     10.1208     98.7594
  1330.2500     15.3776     29.7515     10.2255     99.2954
  1330.5000     15.0276     29.8692     10.2320    101.5528
  1330.7500     14.4312     30.0031     10.1517    104.3973
  1331.0000     13.5643     30.1499     10.0027    111.1177
  1331.2500     12.4858     30.3011      9.8027    117.2870
  1331.5000     11.3622     30.4460      9.5638    128.2140
  1331.7500     10.4056     30.5745      9.2928    135.6295
  1332.0000      9.7586     30.6780      8.9944    145.4341
  1332.2500      9.3723     30.7497      8.6753    150.7217
  1332.5000      9.1046     30.7842      8.3467    156.7175
  1332.7500      8.8904     30.7806      8.0239    159.3522
  1333.0000      8.7390     30.7490      7.7229    161.1237
  1333.2500      8.6708     30.7136      7.4566    161.1192
  1333.5000      8.6398     30.7038      7.2325    160.4356
  1333.7500      8.5279     30.7366      7.0529    160.0342
  1334.0000      8.2663     30.8062      6.9155    159.3418
  1334.2500      7.9022     30.8927      6.8150    158.3692
  1334.5000      7.5684     30.9787      6.7437    155.9539
  1334.7500      7.3690     31.0599      6.6938    154.1293
  1335.0000      7.2896     31.1421      6.6588    151.8779
  1335.2500      7.2718     31.2333      6.6353    150.7813
  1335.5000      7.2858     31.3361      6.6223    149.4979
  1335.7500      7.3177     31.4453      6.6190    148.9436
  1336.0000      7.3589     31.5506      6.6244    149.0209
  1336.2500      7.4022     31.6417      6.6374    149.6814
  1336.5000      7.4584     31.7121      6.6575    150.5588
  1336.7500      7.5723     31.7582      6.6853    150.1132
  1337.0000      7.7675     31.7731      6.7211    146.7294
  1337.2500      7.9692     31.7443      6.7641    142.7363
  1337.5000      8.0720     31.6603      6.8111    135.7546
  1337.7500      8.0794     31.5226      6.8580    131.9496
  1338.0000      8.0789     31.3498      6.9002    129.9011
  1338.2500      8.0998     31.1711      6.9338    131.5055
  1338.5000      8.1078     31.0123      6.9543    137.2088
  1338.7500      8.1010     30.8840      6.9579    141.7764
  1339.0000      8.0821     30.7771      6.9424    147.6649
  1339.2500      7.9996     30.6712      6.9096    150.4529
  1339.5000      7.8387     30.5496      6.8656    152.9807
  1339.7500      7.6855     30.4108      6.8173    153.5933
  1340.0000      7.6114     30.2677      6.7707    152.6134
  1340.2500      7.5631     30.1401      6.7285    150.6267
  1340.5000      7.4424     30.0457      6.6905    146.1320
  1340.7500      7.2725     29.9934      6.6548    142.5553
  1341.0000      7.2091     29.9803      6.6188    136.7443
  1341.2500      7.3720     29.9951      6.5809    132.6539
  1341.5000      7.6800     30.0243      6.5417    126.4594
  1341.7500      7.9043     30.0577      6.5042    122.6992
  1342.0000      7.9409     30.0914      6.4718    118.8739
  1342.2500      7.8960     30.1307      6.4461    118.3558
  1342.5000      7.8643     30.1887      6.4249    120.9308
  1342.7500      7.8243     30.2788      6.4039    123.9845
  1343.0000      7.7564     30.4049      6.3794    128.0561
  1343.2500      7.7068     30.5553      6.3512    129.3353
  1343.5000      7.7229     30.7066      6.3234    128.8030
  1343.7500      7.7582     30.8355      6.3037    127.4520
  1344.0000      7.7040     30.9337      6.3021    125.6857
  1344.2500      7.5447     31.0121      6.3288    125.6421
  1344.5000      7.3838     31.0883      6.3921    128.0898
  1344.7500      7.3156     31.1672      6.4957    131.1275
  1345.0000      7.3725     31.2352      6.6378    135.9084
  1345.2500      7.5567     31.2715      6.8098    137.5624
  1345.5000      7.8190     31.2650      6.9974    135.2479
  1345.7500      8.0474     31.2191      7.1837    130.1944
  1346.0000      8.1756     31.1438      7.3518    119.1855
  1346.2500      8.2709     31.0453      7.4896    111.2580
  1346.5000      8.4352     30.9217      7.5925    100.7077
  1346.7500      8.6324     30.7668      7.6642     95.1839
  1347.0000      8.7417     30.5833      7.7153     89.5512
  1347.2500      8.7515     30.3906      7.7589     87.5999
  1347.5000      8.7455     30.2156      7.8044     87.1338
  1347.7500      8.7762     30.0764      7.8532     88.1923
  1348.0000      8.8625     29.9756      7.8980     91.2615
  1348.2500      8.9710     29.9078      7.9251     93.8663
  1348.5000      8.9769     29.8687      7.9189     97.9357
  1348.7500      8.8028     29.8540      7.8659    100.6676
  1349.0000      8.5518     29.8543      7.7589    105.1036
  1349.2500      8.3592     29.8563      7.5985    108.3202
  1349.5000      8.2099     29.8516      7.3937    112.9226
  1349.7500      8.0176     29.8414      7.1582    115.4091
  1350.0000      7.7516     29.8326      6.9071    118.2112
  1350.2500      7.4171     29.8306      6.6535    119.8421
  1350.5000      7.0600     29.8361      6.4070    122.5853
  1350.7500      6.8020     29.8458      6.1753    124.6907
  1351.0000      6.7657     29.8550      5.9654    127.9272
  1351.2500      6.9386     29.8603      5.7842    129.8196
  1351.5000      7.1407     29.8617      5.6381    131.7535
  1351.7500      7.1849     29.8618      5.5303    132.3127
  1352.0000      7.0512     29.8618      5.4600    132.2034
  1352.2500      6.8671     29.8603      5.4230    131.6826
  1352.5000      6.7557     29.8543      5.4142    130.6212
  1352.7500      6.7342     29.8413      5.4302    130.1016
  1353.0000      6.7505     29.8180      5.4704    130.4066
  1353.2500      6.7940     29.7791      5.5355    131.5554
  1353.5000      6.8975     29.7203      5.6261    134.1365
  1353.7500      7.0426     29.6439      5.7412    135.6514
  1354.0000      7.1870     29.5618      5.8796    136.1728
  1354.2500      7.3530     29.4923      6.0417    134.7496
  1354.5000      7.5490     29.4572      6.2303    129.6973
  1354.7500      7.6801     29.4751      6.4508    124.8087
  1355.0000      7.6476     29.5532      6.7093    116.8029
  1355.2500      7.5252     29.6814      7.0109    112.0915
  1355.5000      7.6515     29.8340      7.3599    106.9802
  1355.7500      8.3904     29.9818      7.7597    104.5753
  1356.0000      9.6678     30.1047      8.2125    100.7779
  1356.2500     10.9792     30.2002      8.7156     97.3009
  1356.5000     11.9700     30.2803      9.2555     91.0384
  1356.7500     12.7573     30.3603      9.8042     87.3063
  1357.0000     13.5943     30.4461     10.3216     84.1392
  1357.2500     14.4608     30.5302     10.7637     83.7971
  1357.5000     15.1338     30.6017     11.0892     84.8399
  1357.7500     15.5359     30.6646     11.2646     85.6563
  1358.0000     15.7922     30.7402     11.2684     85.6644
  1358.2500     15.9814     30.8485     11.1016     84.3742
  1358.5000     16.0140     30.9895     10.7953     80.8083
  1358.7500     15.7186     31.1468     10.4048     78.3772
  1359.0000     14.9948     31.3050      9.9904     77.4208
  1359.2500     13.9337     31.4589      9.5995     80.0563
  1359.5000     12.7851     31.6098      9.2593     89.6628
  1359.7500     11.7679     31.7570      8.9788     98.9461
  1360.0000     10.9312     31.8935      8.7540    114.4150
  1360.2500     10.2079     32.0072      8.5718    124.1994
  1360.5000      9.5628     32.0895      8.4147    136.2345
  1360.7500      9.0614     32.1433      8.2651    141.9371
  1361.0000      8.7787     32.1839      8.1118    146.8596
  1361.2500      8.7106     32.2306      7.9531    148.0021
  1361.5000      8.8243     32.2944      7.7976    147.2254
  1361.7500      9.0693     32.3684      7.6606    145.3512
