~Version Information
VERS.                      2.0: CWLS Log ASCII Standard - VERSION 2.0
WRAP.                       NO: One line per depth step
~Well Information Block
STRT.FT               452.0000: 
STOP.FT              1726.5000: 
STEP.FT                 0.1000: 
NULL.                -999.2500: 
COMP.          Pioneer Natural Resources: COMPANY
WELL.          Parrothead 31-31 Tr: WELL
FLD.           Purgatoire River: FIELD
LOC.           496' FNL & 1546' FEL: LOCATION
PROV.                 Colorado: PROVINCE
CNTY.               Las Animas: COUNTRY
SRVC.                Patterson: SERVICE COMPANY
DATE.          Thu Nov 10 07:29:36 2005: LOG DATE
UWI.           05 071 08610 00: UNIQUE WELL ID
~Curve Information Block
DEPT.FT            0 000 00 00: Depth
DCAL.in                       : CDL Caliper
RHOB.g/cc                     : CDL Bulk Density
RHOC.g/cc                     : CDL Density Correction
DPOR.pu                       : CDL Density Porosity
GR.GAPI                       : Gamma Ray
NPOR.pu                       : Neutron Porosity
~Parameter Information Block
~A  Depth       DCAL        RHOB        RHOC        DPOR         GR         NPOR    
# ...
  1460.0000      8.2126      2.3973      0.1792     15.3158    128.2101     23.5844
  1460.1000      8.2126      2.4204      0.1877     13.9177    127.7464     24.1518
  1460.2000      8.2126      2.4428      0.1595     12.5582    126.3458     23.9720
  1460.3000      8.1038      2.4607      0.1616     11.4757    125.8918     23.8693
  1460.4000      8.1038      2.4747      0.1976     10.6220    130.0977     24.3757
  1460.5000      8.0690      2.4901      0.2154      9.6881    136.2551     25.0471
  1460.6000      8.0690      2.5062      0.1755      8.7180    136.7394     25.1474
  1460.7000      8.0690      2.5142      0.1815      8.2291    131.9055     24.6679
  1460.8000      8.1169      2.5115      0.1363      8.3948    130.0478     24.1981
  1460.9000      8.1169      2.5098      0.1351      8.5000    135.4708     24.0537
  1461.0000      8.0783      2.5177      0.1419      8.0201    141.3689     23.9425
  1461.1000      8.0783      2.5353      0.0601      6.9525    139.6866     23.6925
  1461.2000      8.0783      2.5564      0.1236      5.6755    134.1501     23.6076
  1461.3000      8.0119      2.5624      0.1372      5.3120    131.8403     24.1190
  1461.4000      8.0119      2.5395      0.1340      6.6998    133.7413     25.0646
  1461.5000      8.0034      2.4987      0.0751      9.1675    136.4960     25.5032
  1461.6000      8.0034      2.4740      0.0173     10.6649    137.0078     25.1626
  1461.7000      8.0034      2.4809      0.1060     10.2469    137.2724     24.7719
  1461.8000      7.9896      2.4926      0.1023      9.5412    139.0920     24.7570
  1461.9000      7.9896      2.4914      0.0731      9.6147    139.8548     24.8163
  1462.0000      7.9954      2.4907      0.0617      9.6531    136.3089     24.6814
  1462.1000      7.9954      2.4934      0.0873      9.4910    129.9232     24.3515
  1462.2000      7.9954      2.4926      0.0718      9.5403    125.1451     24.0501
  1462.3000      7.9876      2.4966      0.1320      9.2963    124.0991     24.4057
  1462.4000      7.9876      2.5129      0.1005      8.3077    124.7919     25.3510
  1462.5000      7.9871      2.5342      0.1075      7.0208    126.0803     25.6988
  1462.6000      7.9871      2.5458      0.0794      6.3160    132.5935     25.1372
  1462.7000      7.9871      2.5477      0.0577      6.2025    144.7700     24.4370
  1462.8000      7.9885      2.5541      0.1073      5.8150    154.1549     23.9320
  1462.9000      7.9885      2.5652      0.1173      5.1424    152.3198     23.6792
  1463.0000      7.9881      2.5676      0.0564      4.9944    139.6242     23.8052
  1463.1000      7.9881      2.5566      0.1022      5.6611    126.1430     24.0594
  1463.2000      7.9881      2.5388      0.0795      6.7364    121.6293     24.0676
  1463.3000      7.9898      2.5283      0.0312      7.3748    125.8858     23.9488
  1463.4000      7.9898      2.5295      0.0612      7.3053    130.1856     23.8448
  1463.5000      8.0071      2.5294      0.0658      7.3119    130.3625     23.4832
  1463.6000      8.0071      2.5211      0.0254      7.8096    130.8950     22.7028
  1463.7000      8.0071      2.5082      0.0427      8.5931    137.9360     21.8697
  1463.8000      7.9949      2.4833      0.0638     10.1057    149.8725     21.5729
  1463.9000      7.9949      2.4378      0.0413     12.8579    155.2688     21.8160
  1464.0000      8.0226      2.3869      0.0002     15.9456    148.0297     21.8784
  1464.1000      8.0226      2.3565     -0.0113     17.7896    135.0901     21.3449
  1464.2000      8.0226      2.3587     -0.0409     17.6569    127.5071     20.3170
  1464.3000      8.0259      2.3834      0.0438     16.1572    130.0448     19.0720
  1464.4000      8.0259      2.4043      0.0835     14.8884    137.4913     18.2917
  1464.5000      8.0339      2.4024      0.1064     15.0065    142.7652     18.4180
  1464.6000      8.0339      2.3875      0.0721     15.9080    144.2802     19.0338
  1464.7000      8.0339      2.3843      0.1190     16.1013    140.8240     19.8404
  1464.8000      8.0654      2.4025      0.1571     14.9993    133.1286     20.6290
  1464.9000      8.0654      2.4325      0.1987     13.1825    128.7564     20.9588
  1465.0000      8.0944      2.4543      0.2022     11.8584    128.9422     21.1447
  1465.1000      8.0944      2.4624      0.1579     11.3678    127.1210     21.9473
  1465.2000      8.0944      2.4779      0.1132     10.4307    121.6572     23.1637
  1465.3000      8.1773      2.5113      0.1812      8.4046    112.9999     24.0272
  1465.4000      8.1773      2.5466      0.1714      6.2665    104.8570     24.5310
  1465.5000      8.1383      2.5763      0.1418      4.4655    105.0159     24.8061
  1465.6000      8.1383      2.6034      0.1689      2.8229    110.5677     24.6683
  1465.7000      8.1383      2.6186      0.1494      1.9055    110.5634     24.3977
  1465.8000      8.0319      2.6133      0.0913      2.2213    105.7341     24.5267
  1465.9000      8.0319      2.5969      0.0790      3.2168    104.0608     24.9172
  1466.0000      7.9711      2.5803      0.0990      4.2219    106.1566     25.0510
  1466.1000      7.9711      2.5609      0.0584      5.3993    108.6511     24.6328
  1466.2000      7.9711      2.5349      0.0770      6.9728    109.9018     23.6376
  1466.3000      7.9168      2.5102      0.0400      8.4714    108.4016     22.4818
  1466.4000      7.9168      2.4965      0.0135      9.3016    103.1289     21.7523
  1466.5000      7.8930      2.4970     -0.0123      9.2703     98.0507     21.5918
  1466.6000      7.8930      2.5132      0.0169      8.2914     98.0687     21.8216
  1466.7000      7.8930      2.5356      0.0373      6.9312    102.2018     22.0637
  1466.8000      7.8785      2.5485      0.0510      6.1536    105.7235     22.0059
  1466.9000      7.8785      2.5523      0.0611      5.9192    107.0869     21.7634
  1467.0000      7.9329      2.5563      0.0846      5.6815    108.5546     21.6166
  1467.1000      7.9329      2.5603      0.0741      5.4385    111.2280     21.3205
  1467.2000      7.9329      2.5560      0.0910      5.6957    113.4951     20.8843
  1467.3000      7.9536      2.5360      0.1028      6.9109    115.0692     20.9866
  1467.4000      7.9536      2.5082      0.0477      8.5915    117.3077     21.6312
  1467.5000      7.9761      2.4869      0.0352      9.8819    120.6551     22.0087
  1467.6000      7.9761      2.4705      0.0545     10.8758    125.7560     22.0728
  1467.7000      7.9761      2.4505      0.0369     12.0908    133.3358     22.1965
  1467.8000      7.9605      2.4215      0.0653     13.8515    141.3719     22.1017
  1467.9000      7.9605      2.3786      0.0435     16.4484    147.1141     21.5113
  1468.0000      7.9453      2.3353     -0.0324     19.0737    149.3250     20.5576
  1468.1000      7.9453      2.3252     -0.0315     19.6823    148.2934     19.7526
  1468.2000      7.9453      2.3525      0.0319     18.0292    143.8977     19.4876
  1468.3000      7.9876      2.3823      0.0712     16.2256    138.5476     19.3122
  1468.4000      7.9876      2.3928      0.0962     15.5884    138.1245     18.6956
  1468.5000      8.0030      2.3834      0.1301     16.1575    143.6274     17.9181
  1468.6000      8.0030      2.3500      0.1969     18.1834    148.5223     17.3407
  1468.7000      8.0030      2.2972      0.1660     21.3823    145.7023     17.0626
  1468.8000      8.0649      2.2514      0.1330     24.1579    134.7692     17.0278
  1468.9000      8.0649      2.2269      0.1496     25.6430    123.6939     16.9745
  1469.0000      8.2501      2.2123      0.1529     26.5272    120.7132     16.8558
  1469.1000      8.2501      2.2028      0.1174     27.1006    123.4750     16.8608
  1469.2000      8.2501      2.2062      0.2037     26.8946    125.6210     17.1080
  1469.3000      8.2919      2.2240      0.2514     25.8174    127.3590     17.5936
  1469.4000      8.2919      2.2480      0.2786     24.3652    128.3868     18.2070
  1469.5000      8.3119      2.2615      0.2921     23.5440    127.6035     18.6032
