~Version Information
VERS.                      2.0: CWLS Log ASCII Standard - VERSION 2.0
WRAP.                       NO: One line per depth step
~Well Information Block
STRT.FT               620.0000: 
STOP.FT              3067.2000: 
STEP.FT                 0.1000: 
NULL.                -999.2500: 
COMP.          Pioneer Natural Resources: COMPANY
WELL.          Interceptor 43-13 Kv: WELL
FLD.           Purgatoire River: FIELD
LOC.           2073' FSL & 519' FEL--: LOCATION
PROV.                 Colorado: PROVINCE
CNTY.               Las Animas: COUNTRY
SRVC.                Patterson: SERVICE COMPANY
DATE.          Sat Jan 14 20:27:27 2006: LOG DATE
UWI.           05 071 08655 00: UNIQUE WELL ID
~Curve Information Block
DEPT.FT            0 000 00 00: Depth
DCAL.in                       : CDL Caliper
RHOB.g/cc                     : CDL Bulk Density
RHOC.g/cc                     : CDL Density Correction
DPOR.pu                       : CDL Density Porosity
NPOR.pu                       : Neutron Porosity
GR.GAPI                       : Gamma Ray
~Parameter Information Block
~A  Depth       DCAL        RHOB        RHOC        DPOR        NPOR         GR     
# ...
  1752.8000      8.0154      2.4690      0.0448     10.9723     13.5242     64.2975
  1752.9000      8.0154      2.4832      0.0628     10.1078     13.4144     57.9872
  1753.0000      8.0139      2.4882      0.0896      9.8085     12.5314     55.2540
  1753.1000      8.0139      2.4817      0.0611     10.2003     12.0326     52.6525
  1753.2000      8.0139      2.4808      0.0796     10.2566     12.3246     49.0111
  1753.3000      8.0163      2.4960      0.0656      9.3363     12.9893     48.4036
  1753.4000      8.0163      2.5109      0.1272      8.4303     13.3083     52.2926
  1753.5000      8.0218      2.4998      0.1077      9.1056     13.1483     56.6456
  1753.6000      8.0218      2.4693      0.0410     10.9489     12.9882     59.3544
  1753.7000      8.0218      2.4497      0.0460     12.1395     12.9562     63.1510
  1753.8000      8.0262      2.4517      0.0502     12.0188     12.8194     67.4045
  1753.9000      8.0262      2.4643      0.0551     11.2564     12.5109     69.1871
  1754.0000      8.0304      2.4725      0.0770     10.7549     12.2147     68.8992
  1754.1000      8.0304      2.4703      0.0785     10.8881     12.1342     67.2800
  1754.2000      8.0304      2.4645      0.0470     11.2404     12.1464     64.7674
  1754.3000      8.0339      2.4605      0.0758     11.4829     12.0340     63.8381
  1754.4000      8.0339      2.4523      0.0554     11.9792     11.9021     64.6453
  1754.5000      8.0339      2.4408      0.0406     12.6797     11.9058     64.3457
  1754.6000      8.0339      2.4329      0.0542     13.1556     11.9269     61.2129
  1754.7000      8.0339      2.4293      0.0431     13.3775     11.7829     56.4972
  1754.8000      8.0312      2.4304      0.0410     13.3101     11.7279     53.8302
  1754.9000      8.0312      2.4338      0.0674     13.1017     12.1370     53.6567
  1755.0000      8.0321      2.4373      0.0562     12.8926     12.4994     55.1413
  1755.1000      8.0321      2.4478      0.0757     12.2534     12.1216     57.3441
  1755.2000      8.0321      2.4647      0.0672     11.2325     11.4344     56.0744
  1755.3000      8.0358      2.4745      0.0632     10.6372     11.1162     50.9314
  1755.4000      8.0358      2.4723      0.0499     10.7709     11.1752     48.4633
  1755.5000      8.0393      2.4686      0.0447     10.9955     11.4282     52.1883
  1755.6000      8.0393      2.4731      0.0744     10.7202     11.8327     57.9904
  1755.7000      8.0393      2.4827      0.0793     10.1399     12.2989     59.9336
  1755.8000      8.0392      2.4844      0.0548     10.0379     12.4610     56.7011
  1755.9000      8.0392      2.4699      0.0828     10.9175     12.1335     53.0637
  1756.0000      8.0371      2.4436      0.0378     12.5070     11.7006     53.1145
  1756.1000      8.0371      2.4178      0.0147     14.0743     11.5025     55.1966
  1756.2000      8.0371      2.4057      0.0250     14.8068     11.3021     55.6174
  1756.3000      8.0358      2.4135      0.0326     14.3328     10.9440     55.7691
  1756.4000      8.0358      2.4321      0.0479     13.2072     10.7956     59.1159
  1756.5000      8.0369      2.4492      0.0455     12.1710     11.1182     64.3091
  1756.6000      8.0369      2.4625      0.0617     11.3640     11.8584     66.2458
  1756.7000      8.0369      2.4653      0.0738     11.1962     12.7441     64.3313
  1756.8000      8.0397      2.4495      0.0599     12.1521     13.3726     64.2781
  1756.9000      8.0397      2.4306      0.0033     13.2981     13.7143     63.8818
  1757.0000      8.0413      2.4335      0.0358     13.1233     13.9919     58.0840
  1757.1000      8.0413      2.4617      0.0522     11.4097     14.1931     51.2164
  1757.2000      8.0413      2.4974      0.0928      9.2501     14.1777     50.3234
  1757.3000      8.0379      2.5133      0.0964      8.2823     13.7631     56.1351
  1757.4000      8.0379      2.4955      0.0855      9.3662     13.3089     62.8006
  1757.5000      8.0347      2.4636      0.0323     11.2980     13.4780     65.8655
  1757.6000      8.0347      2.4519      0.0336     12.0047     14.0001     65.6842
  1757.7000      8.0347      2.4695      0.0202     10.9394     13.9884     63.9466
  1757.8000      8.0341      2.4965      0.0636      9.3032     13.6135     64.3066
  1757.9000      8.0341      2.5091      0.0725      8.5390     13.5447     68.8647
  1758.0000      8.0343      2.5085      0.0536      8.5786     13.5813     71.4736
  1758.1000      8.0343      2.5104      0.0839      8.4598     13.6612     69.6397
  1758.2000      8.0343      2.5116      0.1048      8.3898     14.1280     68.6547
  1758.3000      8.0343      2.5047      0.0185      8.8086     14.5296     68.6337
  1758.4000      8.0343      2.4961      0.0433      9.3271     14.5065     69.8114
  1758.5000      8.0338      2.4873      0.0308      9.8593     14.5725     73.1597
  1758.6000      8.0338      2.4794      0.0496     10.3416     15.0017     74.0468
  1758.7000      8.0338      2.4767      0.0732     10.5030     15.3909     71.3996
  1758.8000      8.0344      2.4847      0.0015     10.0211     15.3707     70.8740
  1758.9000      8.0344      2.5082      0.0695      8.5910     14.9466     77.6759
  1759.0000      8.0372      2.5383      0.0856      6.7686     14.6705     86.9827
  1759.1000      8.0372      2.5596      0.0923      5.4769     15.0465     90.5367
  1759.2000      8.0372      2.5614      0.1262      5.3667     15.6165     88.7608
  1759.3000      8.0387      2.5496      0.0443      6.0829     15.8739     87.7298
  1759.4000      8.0387      2.5446      0.0484      6.3862     16.0920     90.4732
  1759.5000      8.0385      2.5475      0.0946      6.2107     16.2005     94.3906
  1759.6000      8.0385      2.5432      0.0370      6.4751     15.8329     94.6843
  1759.7000      8.0385      2.5262      0.0124      7.5030     15.5145     91.4392
  1759.8000      8.0381      2.4971      0.0491      9.2669     15.7690     90.6550
  1759.9000      8.0381      2.4667     -0.0416     11.1081     16.1739     92.3656
  1760.0000      8.0376      2.4610     -0.0143     11.4545     16.2990     91.3532
  1760.1000      8.0376      2.4889     -0.0008      9.7619     16.3007     87.2958
  1760.2000      8.0376      2.5279      0.0573      7.3976     16.3283     81.3517
  1760.3000      8.0379      2.5421      0.1032      6.5410     16.2599     74.0883
  1760.4000      8.0379      2.5213      0.0393      7.8017     16.0048     70.2900
  1760.5000      8.0394      2.4877      0.0288      9.8340     15.8081     73.2135
  1760.6000      8.0394      2.4579      0.0426     11.6451     15.8367     78.6202
  1760.7000      8.0394      2.4413     -0.0340     12.6489     15.8879     81.8233
  1760.8000      8.0393      2.4483     -0.0339     12.2270     15.9627     82.5388
  1760.9000      8.0393      2.4678      0.0206     11.0424     16.1341     81.4081
  1761.0000      8.0383      2.4851     -0.0442      9.9920     16.3530     78.6803
  1761.1000      8.0383      2.5034      0.0045      8.8873     16.2394     77.0275
  1761.2000      8.0383      2.5206      0.0338      7.8430     15.7766     79.0419
  1761.3000      8.0384      2.5249      0.0424      7.5811     15.5589     82.0269
  1761.4000      8.0384      2.5140      0.0679      8.2447     15.3610     81.3046
  1761.5000      8.0396      2.5067      0.0297      8.6832     14.5605     78.9405
  1761.6000      8.0396      2.5187      0.0851      7.9572     13.6182     79.5890
  1761.7000      8.0396      2.5295      0.0874      7.3052     13.3662     82.2887
  1761.8000      8.0419      2.5142      0.0471      8.2299     13.7573     81.9657
  1761.9000      8.0419      2.4809     -0.0001     10.2456     14.1444     77.3652
  1762.0000      8.0454      2.4519     -0.0091     12.0046     14.2084     75.7675
  1762.1000      8.0454      2.4396      0.0055     12.7534     14.1216     79.7294
  1762.2000      8.0454      2.4436     -0.0120     12.5080     14.1982     83.0903
  1762.3000      8.0503      2.4526      0.0525     11.9658     14.5450     83.3932
