~Version Information
VERS.                      2.0: CWLS Log ASCII Standard - VERSION 2.0
WRAP.                       NO: One line per depth step
~Well Information Block
STRT.FT                -8.0000: 
STOP.FT              1661.0000: 
STEP.FT                 0.2500: 
NULL.                -999.2500: 
COMP.          Pioneer Natural Resources: COMPANY
WELL.          Rollerball 34-30: WELL
FLD.           Purgatorie River: FIELD
LOC.           893' FSL & 2408' FEL----: LOCATION
CNTY.               Las Animas: COUNTY
SRVC.          Patterson Wireline: SERVICE COMPANY
DATE.          Mon Feb 20 08:34:38 2006: LOG DATE
UWI.           05 071 08581 00: UNIQUE WELL ID
STAT.                       CO: STATE
~Curve Information Block
DEPT.FT            0 000 00 00: Depth
CCL.                          : Casing Collar Locator
TT3.usec                      : CBL 3' Travel Time
AMP3.mV                       : CBL 3' Amplitude
GR.GAPI                       : Gamma Ray
~Parameter Information Block
~A  Depth       CCL         TT3         AMP3         GR     
# ...
   226.5000      0.0000    687.0803      7.0970     88.8034
   226.7500      0.0000    687.0235      7.1076     88.3581
   227.0000      0.0000    686.9104      7.1185     88.6283
   227.2500      0.0000    686.7631      7.1244     90.5641
   227.5000      0.0000    686.6128      7.1216     94.6058
   227.7500      0.0000    686.4914      7.1106    100.1132
   228.0000      0.0000    686.4139      7.0960    105.1530
   228.2500      0.0000    686.3573      7.0831    107.5777
   228.5000      0.0000    686.2338      7.0753    106.8483
   228.7500      0.0000    685.8389      7.0734    104.3233
   229.0000      0.0000    684.7704      7.0763    101.5081
   229.2500      0.0000    682.4747      7.0818     98.7789
   229.5000      0.0000    678.6986      7.0888     96.1104
   229.7500      0.0000    674.1874      7.0978     93.9566
   230.0000      0.0000    670.6329      7.1110     92.6109
   230.2500      0.0000    669.1857      7.1268     91.2137
   230.5000      0.0000    668.8130      7.1342     88.1171
   230.7500      0.0000    667.0004      7.1083     82.3224
   231.0000      0.0000    662.9136      7.0149     74.4322
   231.2500      0.0000    659.8930      6.8286     66.1824
   231.5000      0.0000    663.7551      6.5611     59.0996
   231.7500      0.0000    677.4264      6.2789     53.6275
   232.0000      0.0000    696.9017      6.0727     49.4113
   232.2500      0.0000    713.2455      5.9933     46.1058
   232.5000      0.0000    719.0692      6.0195     43.5355
   232.7500      0.0000    712.9340      6.0913     41.2970
   233.0000     -2.0000    698.5071      6.1616     38.9438
   233.2500      0.0000    681.8610      6.2174     36.8950
   233.5000      0.0000    669.7991      6.2802     36.7172
   233.7500      0.0000    667.3399      6.4028     40.0238
   234.0000      0.0000    673.8632      6.6386     47.0654
   234.2500      0.0000    683.0087      6.9810     56.4530
   234.5000      0.0000    688.5434      7.3400     66.0447
   234.7500      0.0000    689.4582      7.6038     74.0550
   235.0000      0.0000    688.5275      7.7210     79.7992
   235.2500      0.0000    688.0835      7.7168     83.7869
   235.5000      0.0000    688.5062      7.6480     87.0074
   235.7500      0.0000    689.3813      7.5608     89.8935
   236.0000      0.0000    690.5763      7.4795     91.8233
   236.2500      0.0000    692.4769      7.4144     91.5451
   236.5000      0.0000    695.7360      7.3676     88.3596
   236.7500      0.0000    700.6488      7.3350     83.2235
   237.0000      0.0000    706.6499      7.3079     78.3382
   237.2500      0.0000    712.9235      7.2770     75.2427
   237.5000      0.0000    719.6630      7.2392     73.7272
   237.7500      0.0000    727.9087      7.1979     72.8956
   238.0000      0.0000    737.6646      7.1586     72.6332
   238.2500      0.0000    747.0211      7.1252     73.6365
   238.5000      0.0000    753.6452      7.0982     76.4230
   238.7500      0.0000    756.4099      7.0760     80.6173
   239.0000      0.0000    755.2578      7.0560     85.1448
   239.2500      0.0000    750.2840      7.0353     89.1195
   239.5000      0.0000    741.6414      7.0124     92.4714
   239.7500      0.0000    730.1889      6.9871     95.5928
   240.0000      0.0000    717.7599      6.9615     98.6214
   240.2500      0.0000    706.5683      6.9402    101.3849
   240.5000      0.0000    698.2210      6.9292    103.8072
   240.7500      0.0000    693.1136      6.9321    105.8319
   241.0000      0.0000    690.5933      6.9467    106.8997
   241.2500      0.0000    689.6167      6.9653    106.0605
   241.5000      0.0000    689.3241      6.9791    102.9826
   241.7500      0.0000    689.2277      6.9823     98.7097
   242.0000      0.0000    689.1315      6.9725     95.2202
   242.2500      0.0000    688.9954      6.9507     94.1283
   242.5000      0.0000    688.8438      6.9213     95.6427
   242.7500      0.0000    688.7184      6.8935     98.6772
   243.0000      0.0000    688.6599      6.8793    101.8387
   243.2500      0.0000    688.6902      6.8857    103.9703
   243.5000      0.0000    688.8004      6.9060    103.9221
   243.7500      0.0000    688.9520      6.9213    100.8485
   244.0000      0.0000    689.0989      6.9153     95.3303
   244.2500      0.0000    689.2122      6.8869     89.4963
   244.5000      0.0000    689.2917      6.8475     85.3555
   244.7500      0.0000    689.3617      6.8084     83.3174
   245.0000      0.0000    689.5113      6.7737     82.6265
   245.2500      0.0000    689.9956      6.7458     82.6903
   245.5000      0.0000    691.3323      6.7343     83.4831
   245.7500      0.0000    694.1011      6.7535     85.0435
   246.0000      0.0000    698.2136      6.8120     87.1062
   246.2500      0.0000    702.2086      6.9039     89.3050
   246.5000      0.0000    703.8279      7.0099     91.6967
   246.7500      0.0000    701.9157      7.1084     94.9872
   247.0000      0.0000    697.4598      7.1875     99.6779
   247.2500      0.0000    692.2896      7.2490    104.6416
   247.5000      0.0000    686.9880      7.3008    107.0531
   247.7500      0.0000    680.6290      7.3420    104.4537
   248.0000      0.0000    672.7576      7.3601     96.8980
   248.2500      0.0000    665.3940      7.3442     86.8741
   248.5000      0.0000    662.2356      7.2987     77.4056
   248.7500      0.0000    665.1832      7.2405     70.4020
   249.0000      0.0000    672.2266      7.1834     66.2091
   249.2500      0.0000    679.3896      7.1326     64.1423
   249.5000      0.0000    684.1069      7.0896     63.5466
   249.7500      0.0000    686.2473      7.0580     64.5473
   250.0000      0.0000    686.8613      7.0413     67.6882
   250.2500      0.0000    686.8806      7.0390     72.9742
   250.5000      0.0000    686.7529      7.0473     79.6000
   250.7500      0.0000    686.6122      7.0603     86.5376
   251.0000      0.0000    686.4825      7.0725     92.9337
   251.2500      0.0000    686.3838      7.0817     98.0635
   251.5000      0.0000    686.3306      7.0873    101.4355
   251.7500      0.0000    686.3209      7.0877    103.0617
   252.0000      0.0000    686.3340      7.0794    103.3073
   252.2500      0.0000    686.3416      7.0608    102.4669
   252.5000      0.0000    686.3179      7.0364    100.6138
   252.7500      0.0000    686.2534      7.0133     97.7577
   253.0000      0.0000    686.1617      6.9945     94.0677
   253.2500      0.0000    686.0682      6.9783     90.1423
   253.5000      0.0000    685.9858      6.9645     87.0127
   253.7500      0.0000    685.9049      6.9575     85.5747
   254.0000      0.0000    685.8057      6.9602     85.8707
   254.2500      0.0000    685.6764      6.9688     87.1087
   254.5000      0.0000    685.5195      6.9751     88.4962
   254.7500      0.0000    685.3506      6.9747     89.7912
   255.0000      0.0000    685.2001      6.9686     90.8768
   255.2500      0.0000    685.1074      6.9587     91.2705
   255.5000      0.0000    685.0964      6.9464     90.5237
   255.7500      0.0000    685.1520      6.9347     88.8568
   256.0000      0.0000    685.2286      6.9284     86.8395
   256.2500      0.0000    685.2850      6.9300     84.5794
   256.5000      0.0000    685.3092      6.9375     81.7702
   256.7500      0.0000    685.3164      6.9466     78.5353
   257.0000      0.0000    685.3197      6.9538     75.7925
   257.2500      0.0000    685.2960      6.9575     74.7145
   257.5000      0.0000    685.1928      6.9558     75.8615
   257.7500      0.0000    684.9883      6.9470     78.5502
   258.0000      0.0000    684.7382      6.9327     80.9237
   258.2500      0.0000    684.5455      6.9184     81.1581
   258.5000      0.0000    684.4815      6.9075     79.0521
   258.7500      0.0000    684.5369      6.8979     76.3671
   259.0000      0.0000    684.6375      6.8830     75.4501
   259.2500      0.0000    684.6985      6.8566     77.4357
   259.5000      0.0000    684.6830      6.8146     81.4665
   259.7500      0.0000    684.6289      6.7546     85.3164
