~Version Information
VERS.                      2.0: CWLS Log ASCII Standard - VERSION 2.0
WRAP.                       NO: One line per depth step
~Well Information Block
STRT.FT               660.0000: 
STOP.FT              2488.5000: 
STEP.FT                 0.1000: 
NULL.                -999.2500: 
COMP.          Petrogulf Corporation: COMPANY
WELL.          Montoya 18-11V-B: WELL
FLD.           Purgatorie River: FIELD
LOC.           848' FNL & 619' FWL: LOCATION
PROV.                 Colorado: PROVINCE
CNTY.               Las Animas: COUNTRY
SRVC.                Patterson: SERVICE COMPANY
DATE.          Wed Oct 05 07:28:13 2005: LOG DATE
UWI.                          : UNIQUE WELL ID
~Curve Information Block
DEPT.FT            0 000 00 00: Depth
DCAL.in                       : CDL Caliper
RHOB.g/cc                     : CDL Bulk Density
RHOC.g/cc                     : CDL Density Correction
DPOR.pu                       : CDL Density Porosity
GR.GAPI                       : Gamma Ray
NPOR.pu                       : Neutron Porosity
~Parameter Information Block
~A  Depth       DCAL        RHOB        RHOC        DPOR         GR         NPOR    
# ...
  1744.8000      7.9551      2.5440      0.0223      6.4263     52.5442     19.1077
  1744.9000      7.9551      2.5333      0.0496      7.0717     46.8381     19.4142
  1745.0000      7.9478      2.5189      0.0030      7.9442     43.3646     19.3225
  1745.1000      7.9478      2.5099     -0.0270      8.4906     43.3325     18.6265
  1745.2000      7.9478      2.5158      0.0062      8.1362     44.1434     17.6280
  1745.3000      7.9539      2.5346     -0.0145      6.9943     43.3698     17.0187
  1745.4000      7.9539      2.5487      0.0660      6.1378     41.7837     17.0182
  1745.5000      7.9558      2.5501      0.0229      6.0568     41.6850     17.4493
  1745.6000      7.9558      2.5572      0.0201      5.6248     44.3662     17.9259
  1745.7000      7.9558      2.5764      0.0551      4.4592     47.6028     17.9805
  1745.8000      7.9631      2.5884      0.0575      3.7353     49.4912     17.7850
  1745.9000      7.9631      2.5833      0.0735      4.0400     51.1900     17.7444
  1746.0000      7.9724      2.5698      0.0479      4.8631     52.0285     17.7101
  1746.1000      7.9724      2.5501      0.0688      6.0531     50.9992     17.5971
  1746.2000      7.9724      2.5256     -0.0055      7.5410     49.8275     17.6928
  1746.3000      7.9752      2.5133      0.0060      8.2857     50.1453     17.8193
  1746.4000      7.9752      2.5184      0.0150      7.9759     52.2684     17.6363
  1746.5000      7.9817      2.5187      0.0684      7.9595     54.1980     17.4369
  1746.6000      7.9817      2.5004      0.0068      9.0680     53.1942     17.6416
  1746.7000      7.9817      2.4820     -0.0128     10.1815     49.8783     18.0190
  1746.8000      7.9912      2.4789      0.0060     10.3695     47.3231     18.0263
  1746.9000      7.9912      2.4821      0.0432     10.1783     46.1204     17.7740
  1747.0000      7.9979      2.4857      0.0174      9.9605     45.3351     17.7284
  1747.1000      7.9979      2.4974      0.0302      9.2458     44.1944     17.8478
  1747.2000      7.9979      2.5160      0.0662      8.1205     42.5750     18.0047
  1747.3000      8.0093      2.5259      0.0854      7.5212     41.0849     18.5009
  1747.4000      8.0093      2.5181      0.0661      7.9918     40.4530     19.1979
  1747.5000      8.0156      2.5008      0.0426      9.0450     41.8199     19.4868
  1747.6000      8.0156      2.4870      0.0634      9.8776     44.2127     19.2708
  1747.7000      8.0156      2.4851      0.0732      9.9952     45.1285     18.6865
  1747.8000      8.0205      2.4912      0.0700      9.6224     43.0439     17.8967
  1747.9000      8.0205      2.4931      0.0739      9.5073     38.4365     17.0836
  1748.0000      8.0168      2.4945      0.0248      9.4225     34.2152     16.4757
  1748.1000      8.0168      2.5093      0.0703      8.5267     32.0321     16.4776
  1748.2000      8.0168      2.5264      0.0748      7.4917     30.9834     17.0046
  1748.3000      8.0290      2.5252      0.0723      7.5655     30.6765     17.3617
  1748.4000      8.0290      2.5135     -0.0126      8.2697     30.5783     17.3315
  1748.5000      8.0287      2.5120      0.0962      8.3646     30.1711     17.3467
  1748.6000      8.0287      2.5183      0.0749      7.9809     31.1690     17.5400
  1748.7000      8.0287      2.5256      0.0348      7.5420     35.4142     17.5155
  1748.8000      8.0345      2.5310      0.0984      7.2127     40.6053     16.9718
  1748.9000      8.0345      2.5294      0.0476      7.3114     42.5087     16.3329
  1749.0000      8.0284      2.5296      0.0446      7.2949     41.0921     16.3042
  1749.1000      8.0284      2.5438      0.0223      6.4337     39.4813     16.8690
  1749.2000      8.0284      2.5669      0.0321      5.0352     40.3572     17.6597
  1749.3000      8.0279      2.5821      0.0261      4.1123     43.2174     18.5947
  1749.4000      8.0279      2.5792      0.0493      4.2892     44.8470     19.5963
  1749.5000      8.0237      2.5634      0.0324      5.2475     45.6632     20.5415
  1749.6000      8.0237      2.5482      0.0131      6.1673     49.2494     21.4887
  1749.7000      8.0237      2.5406      0.0013      6.6310     56.6376     22.4368
  1749.8000      8.0216      2.5421      0.0357      6.5379     66.5428     23.0938
  1749.9000      8.0216      2.5495      0.0337      6.0934     77.7318     23.4910
  1750.0000      8.0183      2.5522      0.0569      5.9275     91.2015     24.0503
  1750.1000      8.0183      2.5505      0.0197      6.0300    106.4850     24.8824
  1750.2000      8.0183      2.5575      0.0460      5.6070    117.8177     25.6921
  1750.3000      8.0244      2.5801      0.0985      4.2339    122.0332     26.2714
  1750.4000      8.0244      2.6114      0.0970      2.3375    123.3750     26.6056
  1750.5000      8.0225      2.6274      0.1219      1.3668    125.4389     26.9756
  1750.6000      8.0225      2.6045      0.0964      2.7583    128.2221     27.5683
  1750.7000      8.0225      2.5572      0.0058      5.6263    132.9903     28.1349
  1750.8000      8.0320      2.5204      0.0289      7.8519    139.1924     28.6186
  1750.9000      8.0320      2.5044      0.0081      8.8214    144.8007     28.9496
  1751.0000      8.0394      2.5017      0.0474      8.9855    149.1035     29.0403
  1751.1000      8.0394      2.5076     -0.0030      8.6299    152.3066     29.4043
  1751.2000      8.0394      2.5175      0.0494      8.0275    155.8733     30.1211
  1751.3000      8.0479      2.5222      0.0659      7.7424    159.8554     30.3187
  1751.4000      8.0479      2.5173      0.0467      8.0400    163.0384     29.6630
  1751.5000      8.0527      2.5055      0.0301      8.7579    164.1309     28.6526
  1751.6000      8.0527      2.4896      0.0355      9.7198    162.1554     27.8457
  1751.7000      8.0527      2.4759      0.0590     10.5515    156.1875     27.6702
  1751.8000      8.0511      2.4703      0.0401     10.8900    146.9496     28.0866
  1751.9000      8.0511      2.4726      0.0465     10.7497    141.2252     28.6552
  1752.0000      8.0510      2.4784      0.0890     10.3989    141.7890     29.0400
  1752.1000      8.0510      2.4886      0.0448      9.7833    144.4976     29.1937
  1752.2000      8.0510      2.5032      0.0981      8.8947    146.5583     29.2032
  1752.3000      8.0607      2.5120      0.0836      8.3628    148.4850     29.2249
  1752.4000      8.0607      2.5105      0.1011      8.4569    150.9998     29.4657
  1752.5000      8.0653      2.5050      0.1093      8.7865    153.3003     29.9534
  1752.6000      8.0653      2.5023      0.1142      8.9487    154.4009     30.3887
  1752.7000      8.0653      2.5025      0.1031      8.9404    153.0509     30.4576
  1752.8000      8.0602      2.5043      0.0890      8.8300    150.0850     30.1547
  1752.9000      8.0602      2.5077      0.0910      8.6231    150.3501     29.6822
  1753.0000      8.0642      2.5097      0.0989      8.5052    155.5003     29.2080
  1753.1000      8.0642      2.5141      0.0971      8.2382    157.7861     28.9467
  1753.2000      8.0642      2.5347      0.0858      6.9886    151.1490     29.0574
  1753.3000      8.0694      2.5727      0.1317      4.6849    143.3012     29.3554
  1753.4000      8.0694      2.6059      0.1691      2.6735    143.7743     29.4287
  1753.5000      8.0682      2.6154      0.1843      2.0943    150.5996     29.0903
  1753.6000      8.0682      2.6080      0.1257      2.5463    156.8851     28.7606
  1753.7000      8.0682      2.5955      0.1137      3.3054    159.4610     28.9318
  1753.8000      8.0815      2.5779      0.0897      4.3690    159.0088     29.2652
  1753.9000      8.0815      2.5575      0.0952      5.6075    155.6058     29.3303
  1754.0000      8.0644      2.5444      0.0346      6.4011    150.8479     29.3073
  1754.1000      8.0644      2.5433      0.0300      6.4682    149.4336     29.3261
  1754.2000      8.0644      2.5501      0.0076      6.0531    151.6868     29.2035
  1754.3000      8.0644      2.5613      0.0449      5.3785    153.5413     28.9192
