~Version Information
VERS.                      2.0: CWLS Log ASCII Standard - VERSION 2.0
WRAP.                       NO: One line per depth step
~Well Information Block
STRT.FT               240.0000: 
STOP.FT              1456.0000: 
STEP.FT                 0.1000: 
NULL.                -999.2500: 
COMP.          Pioneer Natural Resources: COMPANY
WELL.              Darren 11-7: WELL
FLD.           Purgatoire River: FIELD
LOC.           230' FNL & 596' FWL: LOCATION
CNTY.               Las Animas: COUNTY
SRVC.                Patterson: SERVICE COMPANY
DATE.          Mon Mar 20 07:16:06 2006: LOG DATE
UWI.           05 071 08720 00: UNIQUE WELL ID
STAT.                 Colorado: STATE
~Curve Information Block
DEPT.FT            0 000 00 00: Depth
DCAL.in                       : CDL Caliper
RHOB.g/cc                     : CDL Bulk Density
RHOC.g/cc                     : CDL Density Correction
DPOR.pu                       : CDL Density Porosity
GR.GAPI                       : Gamma Ray
NPOR.pu                       : Neutron Porosity
~Parameter Information Block
~A  Depth       DCAL        RHOB        RHOC        DPOR         GR         NPOR    
   240.0000      4.3418     -0.1531     -0.7416    169.8841     63.2700     16.9180
   240.1000      4.3418     -0.1579     -0.7366    170.1760     60.8411     16.5195
   240.2000      4.3418     -0.1628     -0.7889    170.4752     57.2168     16.1162
   240.3000      4.3454     -0.1633     -0.7335    170.5011     53.7121     15.8476
   240.4000      4.3454     -0.1612     -0.7898    170.3753     55.3594     15.6816
   240.5000      4.3448     -0.1561     -0.7413    170.0668     62.0975     15.5478
   240.6000      4.3448     -0.1509     -0.7566    169.7491     66.8617     15.2282
   240.7000      4.3448     -0.1508     -0.7420    169.7444     66.1780     14.9810
   240.8000      4.3410     -0.1578     -0.7477    170.1680     63.3440     14.9583
   240.9000      4.3410     -0.1673     -0.7846    170.7433     59.6516     14.5699
   241.0000      4.3448     -0.1722     -0.7573    171.0426     54.8599     14.0183
   241.1000      4.3448     -0.1693     -0.8076    170.8648     52.2845     14.1689
   241.2000      4.3448     -0.1616     -0.7346    170.4024     52.3739     14.4147
   241.3000      4.3457     -0.1555     -0.7753    170.0296     51.7666     13.7190
   241.4000      4.3457     -0.1502     -0.7582    169.7109     50.4866     12.8716
   241.5000      4.3480     -0.1492     -0.7274    169.6465     52.2340     13.0970
   241.6000      4.3480     -0.1574     -0.7622    170.1449     57.8659     14.0930
   241.7000      4.3480     -0.1632     -0.8134    170.4990     63.8786     14.6833
   241.8000      4.3454     -0.1514     -0.7804    169.7831     67.6702     14.5018
   241.9000      4.3454     -0.1270     -0.7354    168.3049     67.2228     14.1372
   242.0000      4.3424     -0.1070     -0.7199    167.0905     61.3235     14.2058
   242.1000      4.3424     -0.0999     -0.6892    166.6597     55.9241     14.6286
   242.2000      4.3424     -0.0996     -0.7511    166.6452     57.1593     15.2816
   242.3000      4.3393     -0.0949     -0.7055    166.3558     61.6556     16.3511
   242.4000      4.3393     -0.0897     -0.6992    166.0449     64.9557     17.4005
   242.5000      4.3447     -0.1017     -0.6600    166.7679     64.4508     18.0405
   242.6000      4.3447     -0.1291     -0.7964    168.4279     58.6363     18.5035
   242.7000      4.3447     -0.1440     -0.7818    169.3311     53.4131     18.4223
   242.8000      4.3463     -0.1312     -0.7815    168.5585     55.8054     17.9196
   242.9000      4.3463     -0.1066     -0.6760    167.0654     61.9932     17.9466
   243.0000      4.3451     -0.0895     -0.7149    166.0311     65.7359     18.5528
   243.1000      4.3451     -0.0787     -0.7101    165.3729     72.2392     18.8085
   243.2000      4.3451     -0.0711     -0.6620    164.9154     83.9228     18.2346
   243.3000      4.3429     -0.0689     -0.7131    164.7795     92.6013     17.1933
   243.4000      4.3429     -0.0618     -0.7056    164.3525     95.5084     16.3890
   243.5000      4.3465     -0.0436     -0.6841    163.2483     96.3844     16.2186
   243.6000      4.3465     -0.0231     -0.6659    162.0084     98.9341     16.4289
   243.7000      4.3465     -0.0022     -0.6927    160.7384    100.6217     16.9786
   243.8000      4.3468      0.0442     -0.7951    157.9282     96.4521     17.5666
   243.9000      4.3468      0.1385     -0.6633    152.2093     88.4762     17.4009
   244.0000      4.3447      0.2661     -0.5977    144.4764     81.9582     16.9066
   244.1000      4.3447      0.4096     -0.5074    135.7812     82.4230     17.0479
   244.2000      4.3447      0.5872     -0.5235    125.0185     88.1718     17.2467
   244.3000      4.3459      0.8236     -0.3369    110.6895     91.7006     16.3988
   244.4000      4.3459      1.1116     -0.2382     93.2390     91.2488     15.3842
   244.5000      4.3482      1.4269     -0.0760     74.1301     87.1166     15.3648
   244.6000      4.3482      1.7445      0.1211     54.8794     78.4129     15.6306
   244.7000      4.3482      2.0448      0.2903     36.6814     67.8033     15.4851
   244.8000      4.3561      2.3334      0.3944     19.1867     60.7813     15.2716
   244.9000      4.3561      2.6285      0.5802      1.3040     59.4837     15.3554
   245.0000      4.3464      2.9106      0.7573    -15.7939     60.6764     15.8648
   245.1000      4.3464      3.1294      0.8278    -29.0519     64.6613     16.2917
   245.2000      4.3464      3.2553      0.8391    -36.6838     72.0601     15.9556
   245.3000      4.3451      3.2872      0.7821    -38.6162     76.1105     15.1810
   245.4000      4.3451      3.2241      0.7269    -34.7947     74.9157     14.5920
   245.5000      4.3437      3.0571      0.5394    -24.6753     73.6993     14.2989
   245.6000      4.3437      2.8088      0.2247     -9.6220     72.2485     14.1241
   245.7000      4.3437      2.5402      0.0148      6.6568     68.9452     14.2552
   245.8000      4.3454      2.2993     -0.1635     21.2561     68.2182     15.0886
   245.9000      4.3454      2.1082     -0.3066     32.8368     72.7019     15.9607
   246.0000      4.3435      1.9936     -0.3308     39.7789     77.9420     16.1692
   246.1000      4.3435      2.0049     -0.3477     39.0970     76.2739     16.1625
   246.2000      4.3435      2.1679     -0.2078     29.2183     67.4391     16.3023
   246.3000      4.3451      2.4164     -0.0609     14.1558     59.9104     16.3789
   246.4000      4.3451      2.6410      0.0521      0.5440     57.4482     16.1701
   246.5000      4.7710      2.7885      0.1530     -8.3966     58.1213     15.5339
   246.6000      4.7710      2.8514      0.2477    -12.2054     61.4583     15.1119
   246.7000      4.7710      2.8081      0.3726     -9.5846     63.3728     15.6468
   246.8000      7.8946      2.6498      0.1427      0.0150     60.6783     16.6081
   246.9000      7.8946      2.4557     -0.3691     11.7737     57.0384     17.1515
   247.0000      8.3120      2.3270     -0.3801     19.5781     57.0690     17.3846
   247.1000      8.3120      2.2585     -0.2859     23.7262     61.1814     17.1784
   247.2000      8.3120      2.2077     -0.5004     26.8051     62.7179     16.4501
   247.3000      8.3151      2.1773     -0.3781     28.6477     57.9251     16.0767
   247.4000      8.3151      2.1617     -0.4348     29.5936     53.9769     16.0834
   247.5000      8.3136      2.1485     -0.4770     30.3913     57.5284     15.5674
   247.6000      8.3136      2.1545     -0.4861     30.0301     65.0702     14.8440
   247.7000      8.3136      2.1904     -0.3898     27.8530     68.4013     14.9582
   247.8000      8.3163      2.2327     -0.3533     25.2914     67.0047     15.5121
   247.9000      8.3163      2.2567     -0.3831     23.8334     66.4103     15.5554
   248.0000      8.3190      2.2650     -0.3852     23.3334     68.4416     15.5701
   248.1000      8.3190      2.2782     -0.3865     22.5306     72.1991     16.0969
   248.2000      8.3190      2.2983     -0.3100     21.3125     74.8394     16.5986
   248.3000      8.3201      2.2982     -0.3296     21.3218     75.6668     16.4108
   248.4000      8.3201      2.2782     -0.3906     22.5317     79.6904     15.9486
   248.5000      8.3193      2.2584     -0.3430     23.7318     85.0894     16.6611
   248.6000      8.3193      2.2302     -0.3223     25.4409     85.7224     18.6170
   248.7000      8.3193      2.1965     -0.4402     27.4842     82.5037     19.8260
   248.8000      8.3189      2.1889     -0.4072     27.9481     79.3229     19.3685
   248.9000      8.3189      2.2070     -0.3759     26.8473     78.6246     18.2681
   249.0000      8.3185      2.2295     -0.4752     25.4842     80.9259     17.5875
   249.1000      8.3185      2.2532     -0.3558     24.0465     80.1905     17.6838
   249.2000      8.3185      2.2703     -0.3869     23.0152     73.5292     18.1208
   249.3000      8.3281      2.2694     -0.3846     23.0661     67.8915     18.0632
   249.4000      8.3281      2.2565     -0.4680     23.8514     67.5741     17.3375
   249.5000      8.3251      2.2415     -0.3858     24.7599     70.3925     16.5457
