~Version Information
VERS.                      2.0: CWLS Log ASCII Standard - VERSION 2.0
WRAP.                       NO: One line per depth step
~Well Information Block
STRT.FT               440.0000: 
STOP.FT              1702.7000: 
STEP.FT                 0.1000: 
NULL.                -999.2500: 
COMP.          Pioneer Natural Resources: COMPANY
WELL.          Culver 14-12 Tr: WELL
FLD.           Purgatoire River: FIELD
LOC.           915' FSL & 1048' FWL--: LOCATION
STAT.                 Colorado: State
CNTY.               Las Animas: COUNTY
CTRY. USA : Country
SECT. 12 : Section
TOWN. 32S : Township
RANG. 66W : Range
SRVC.                Patterson: SERVICE COMPANY
DATE.          Wed Sep 28 10:00:59 2005: LOG DATE
API.           05 071 08520 00: UNIQUE WELL ID
~Curve Information Block
DEPT.FT            0 000 00 00: Depth
DCAL.in                       : CDL Caliper
RHOB.g/cc                     : CDL Bulk Density
RHOC.g/cc                     : CDL Density Correction
DPOR.pu                       : CDL Density Porosity
NPOR.pu                       : Neutron Porosity
GR.GAPI                       : Gamma Ray
~Parameter Information Block
~A  Depth       DCAL        RHOB        RHOC        DPOR        NPOR         GR     
# ...
   603.2000      8.1228      2.5342      0.0471      7.0183     18.7890     85.6970
   603.3000      8.1241      2.5212      0.0254      7.8078     18.6028     87.2237
   603.4000      8.1241      2.5095      0.0602      8.5144     18.5020     82.1374
   603.5000      8.1234      2.5063      0.0056      8.7065     18.5103     74.6180
   603.6000      8.1234      2.5153      0.0408      8.1666     18.7753     70.6351
   603.7000      8.1234      2.5291      0.0566      7.3289     19.2953     69.5042
   603.8000      8.1221      2.5333      0.0578      7.0713     19.5687     67.0327
   603.9000      8.1221      2.5240      0.0469      7.6377     19.4271     66.0816
   604.0000      8.1209      2.5171      0.0514      8.0556     19.2783     68.9496
   604.1000      8.1209      2.5311      0.0267      7.2068     19.2929     72.7769
   604.2000      8.1209      2.5631      0.1052      5.2646     19.3432     77.1847
   604.3000      8.1173      2.5936      0.0995      3.4160     19.5852     82.0636
   604.4000      8.1173      2.6141      0.0760      2.1775     20.3132     82.6847
   604.5000      8.1147      2.6241      0.0983      1.5674     21.1225     77.7961
   604.6000      8.1147      2.6174      0.1017      1.9778     21.3918     74.2817
   604.7000      8.1147      2.5934      0.0294      3.4277     21.4271     75.8697
   604.8000      8.1175      2.5664      0.0112      5.0690     21.7709     78.2757
   604.9000      8.1175      2.5505     -0.0204      6.0279     22.2956     76.7592
   605.0000      8.1227      2.5471      0.0146      6.2351     22.5973     72.4973
   605.1000      8.1227      2.5484      0.0173      6.1565     22.5426     68.7349
   605.2000      8.1227      2.5480      0.0383      6.1813     22.2879     66.1622
   605.3000      8.1257      2.5416      0.0177      6.5709     22.0266     65.3105
   605.4000      8.1257      2.5300      0.0232      7.2751     21.7891     65.6480
   605.5000      8.1263      2.5151      0.0317      8.1785     21.6401     66.4717
   605.6000      8.1263      2.4914     -0.0045      9.6097     21.4169     68.4025
   605.7000      8.1263      2.4573     -0.0087     11.6807     20.8328     69.3284
   605.8000      8.1245      2.4259     -0.0670     13.5829     20.1079     66.6683
   605.9000      8.1245      2.4051      0.0268     14.8441     19.6278     63.9008
   606.0000      8.1220      2.3874     -0.0026     15.9166     19.5391     65.7165
   606.1000      8.1220      2.3787     -0.0191     16.4408     19.6661     70.2132
   606.2000      8.1220      2.3870      0.0156     15.9417     19.7157     72.0829
   606.3000      8.1233      2.3994      0.0410     15.1907     19.6067     70.1123
   606.4000      8.1233      2.4114      0.0114     14.4600     19.3687     69.7400
   606.5000      8.1295      2.4318      0.0230     13.2239     19.0213     73.3830
   606.6000      8.1295      2.4516      0.0757     12.0269     18.9056     76.5444
   606.7000      8.1295      2.4504      0.0684     12.0981     19.4774     77.9577
   606.8000      8.1401      2.4295      0.0433     13.3610     20.6974     78.2850
   606.9000      8.1401      2.4101      0.0305     14.5408     22.1071     77.2578
   607.0000      8.1478      2.4048      0.0172     14.8610     23.0859     76.5638
   607.1000      8.1478      2.4146      0.0096     14.2683     23.3161     77.2475
   607.2000      8.1478      2.4354      0.0214     13.0044     23.0348     80.1187
   607.3000      8.1496      2.4566      0.0290     11.7188     22.3437     83.3856
   607.4000      8.1496      2.4624      0.0594     11.3678     21.4094     85.6548
   607.5000      8.1506      2.4459      0.0187     12.3718     20.7358     87.1025
   607.6000      8.1506      2.4191      0.0133     13.9910     20.4708     84.5006
   607.7000      8.1506      2.3937     -0.0250     15.5318     20.5229     77.9708
   607.8000      8.1535      2.3699     -0.0042     16.9739     20.6392     72.9726
   607.9000      8.1535      2.3480     -0.0242     18.3023     20.4309     72.7547
   608.0000      8.1597      2.3345     -0.0446     19.1242     19.9971     75.3137
   608.1000      8.1597      2.3350     -0.0395     19.0911     19.8000     76.4354
   608.2000      8.1597      2.3486     -0.0160     18.2672     19.8183     75.9727
   608.3000      8.1669      2.3703      0.0060     16.9526     19.4934     77.2874
   608.4000      8.1669      2.3951      0.0227     15.4458     18.6572     78.7792
   608.5000      8.1694      2.4168      0.0309     14.1315     17.8963     77.4039
   608.6000      8.1694      2.4277      0.0704     13.4757     17.6077     75.9889
   608.7000      8.1694      2.4332      0.0316     13.1400     17.7560     77.1342
   608.8000      8.1635      2.4546      0.0406     11.8439     18.0736     79.9510
   608.9000      8.1635      2.4939      0.1088      9.4631     18.2945     84.3403
   609.0000      8.1552      2.5244      0.1029      7.6102     18.5143     88.4808
   609.1000      8.1552      2.5327      0.1142      7.1112     18.9808     89.1274
   609.2000      8.1552      2.5278      0.1102      7.4062     19.5515     86.2476
   609.3000      8.1518      2.5193      0.0580      7.9200     20.1171     80.9807
   609.4000      8.1518      2.5200      0.0219      7.8784     20.7966     75.9510
   609.5000      8.1500      2.5419      0.0672      6.5535     21.5049     74.5058
   609.6000      8.1500      2.5766      0.0559      4.4479     22.0596     75.3890
   609.7000      8.1500      2.6054      0.0677      2.7030     22.6742     74.6925
   609.8000      8.1481      2.6192      0.0630      1.8665     23.5519     72.6579
   609.9000      8.1481      2.6184      0.0499      1.9162     24.2132     71.4211
   610.0000      8.1487      2.6005      0.0458      2.9997     24.3833     69.4955
   610.1000      8.1487      2.5652      0.0110      5.1386     24.3740     66.9562
   610.2000      8.1487      2.5318     -0.0567      7.1656     24.2686     66.5294
   610.3000      8.1509      2.5226     -0.0302      7.7212     23.9354     68.6001
   610.4000      8.1509      2.5320      0.0107      7.1501     23.5350     71.8176
   610.5000      8.1537      2.5378     -0.0175      6.7989     23.1848     73.2040
   610.6000      8.1537      2.5240      0.0332      7.6387     22.6181     70.3625
   610.7000      8.1537      2.4882     -0.0127      9.8050     21.7832     64.9566
   610.8000      8.1562      2.4479     -0.0364     12.2483     20.8381     59.6411
   610.9000      8.1562      2.4193      0.0113     13.9821     19.8892     56.4748
   611.0000      8.1573      2.4070     -0.0339     14.7264     18.9857     57.5447
   611.1000      8.1573      2.4116      0.0202     14.4468     18.1812     62.8145
   611.2000      8.1573      2.4178      0.0643     14.0701     17.6773     67.9497
   611.3000      8.1575      2.4095      0.0302     14.5781     17.5468     68.2488
   611.4000      8.1575      2.3953      0.0169     15.4389     17.6211     65.7750
   611.5000      8.1573      2.3926      0.0229     15.6006     17.8009     64.6081
   611.6000      8.1573      2.4081      0.0007     14.6632     17.9410     63.6335
   611.7000      8.1573      2.4342      0.0269     13.0767     17.8395     61.5281
   611.8000      8.1566      2.4495      0.0881     12.1523     17.4571     60.5482
   611.9000      8.1566      2.4411      0.0436     12.6619     17.0389     62.4257
   612.0000      8.1563      2.4197      0.0449     13.9599     16.8413     66.0232
   612.1000      8.1563      2.3963      0.0400     15.3752     16.9183     69.6166
   612.2000      8.1563      2.3823     -0.0081     16.2214     17.1415     72.0997
   612.3000      8.1556      2.3889      0.0201     15.8259     17.2079     74.8044
   612.4000      8.1556      2.4076      0.0404     14.6918     17.0107     77.6153
   612.5000      8.1531      2.4221      0.0491     13.8141     16.8848     77.0566
   612.6000      8.1531      2.4255      0.0661     13.6064     16.9783     73.9940
   612.7000      8.1531      2.4232      0.0114     13.7482     17.1276     70.9758
