~Version Information
VERS.                      2.0: CWLS Log ASCII Standard - VERSION 2.0
WRAP.                       NO: One line per depth step
~Well Information Block
STRT.FT               520.0000: 
STOP.FT              2555.2500: 
STEP.FT                 0.2500: 
NULL.                -999.2500: 
COMP.          Pioneer Natural Resources: COMPANY
WELL.          Horsefeathers 24-34: WELL
FLD.           Purgatoire River: FIELD
LOC.           183' FSL & 1570' FWL--: LOCATION
CNTY.               Las Animas: COUNTY
SRVC.                Patterson: SERVICE COMPANY
DATE.          Sun Feb 05 17:35:59 2006: LOG DATE
UWI.           05 071 08675 00: UNIQUE WELL ID
STAT.                 Colorado: STATE
~Curve Information Block
DEPT.FT            0 000 00 00: Depth
SN.Ohm-m                      : IEL Short Normal
SP.mV                         : IEL Spontaneous Potential
DIR.Ohm-m                     : IEL Induction Resistivity
GR.GAPI                       : Gamma Ray
~Parameter Information Block
NPORSHIFT.              0.0000: NPORSHIFT
~A  Depth        SN          SP         DIR          GR     
# ...
  2530.0000     24.4072     85.2338     23.5414   -999.2500
  2530.2500     24.3921     85.2474     23.6772   -999.2500
  2530.5000     24.2904     85.2797     23.7221   -999.2500
  2530.7500     24.1189     85.3320     23.6347   -999.2500
  2531.0000     23.9080     85.4028     23.4275   -999.2500
  2531.2500     23.6914     85.4884     23.1585   -999.2500
  2531.5000     23.4959     85.5835     22.8984   -999.2500
  2531.7500     23.3383     85.6811     22.6971   -999.2500
  2532.0000     23.2252     85.7733     22.5708   -999.2500
  2532.2500     23.1553     85.8512     22.5086   -999.2500
  2532.5000     23.1201     85.9063     22.4886   -999.2500
  2532.7500     23.1061     85.9298     22.4893   -999.2500
  2533.0000     23.1003     85.9142     22.4947   -999.2500
  2533.2500     23.0967     85.8536     22.4965   -999.2500
  2533.5000     23.1032     85.7443     22.4972   -999.2500
  2533.7500     23.1434     85.5853     22.5144   -999.2500
  2534.0000     23.2497     85.3788     22.5764   -999.2500
  2534.2500     23.4459     85.1292     22.7108   -999.2500
  2534.5000     23.7328     84.8431     22.9319   -999.2500
  2534.7500     24.0842     84.5280     23.2357   -999.2500
  2535.0000     24.4565     84.1917     23.6042   -999.2500
  2535.2500     24.8049     83.8417     24.0144   -999.2500
  2535.5000     25.1007     83.4852     24.4424   -999.2500
  2535.7500     25.3418     83.1293     24.8628   -999.2500
  2536.0000     25.5504     82.7819     25.2474   -999.2500
  2536.2500     25.7579     82.4510     25.5731   -999.2500
  2536.5000     25.9856     82.1443     25.8299   -999.2500
  2536.7500     26.2349     81.8684     26.0229   -999.2500
  2537.0000     26.4865     81.6272     26.1658   -999.2500
  2537.2500     26.7079     81.4219     26.2723   -999.2500
  2537.5000     26.8670     81.2508     26.3519   -999.2500
  2537.7500     26.9450     81.1103     26.4079   -999.2500
  2538.0000     26.9420     80.9968     26.4367   -999.2500
  2538.2500     26.8724     80.9078     26.4266   -999.2500
  2538.5000     26.7571     80.8429     26.3593   -999.2500
  2538.7500     26.6170     80.8034     26.2153   -999.2500
  2539.0000     26.4714     80.7916     25.9854   -999.2500
  2539.2500     26.3372     80.8082     25.6828   -999.2500
  2539.5000     26.2277     80.8509     25.3461   -999.2500
  2539.7500     26.1507     80.9128     25.0271   -999.2500
  2540.0000     26.1086     80.9817     24.7702   -999.2500
  2540.2500     26.1010     81.0412     24.5969   -999.2500
  2540.5000     26.1291     81.0724     24.5038   -999.2500
  2540.7500     26.1966     81.0567     24.4700   -999.2500
  2541.0000     26.3057     80.9784     24.4708   -999.2500
  2541.2500     26.4547     80.8277     24.4922   -999.2500
  2541.5000     26.6401     80.6027     24.5371   -999.2500
  2541.7500     26.8590     80.3097     24.6224   -999.2500
  2542.0000     27.1113     79.9632     24.7725   -999.2500
  2542.2500     27.3989     79.5834     25.2684   -999.2500
  2542.5000     27.7235     79.1936     25.6414   -999.2500
  2542.7500     28.0789     78.8168     26.1554   -999.2500
  2543.0000     28.4436     78.4727     26.7951   -999.2500
  2543.2500     28.7809     78.1752     27.5028   -999.2500
  2543.5000     29.0511     77.9317     28.1904   -999.2500
  2543.7500     29.2277     77.7435     28.7712   -999.2500
  2544.0000     29.3076     77.6068     29.1913   -999.2500
  2544.2500     29.3114     77.5145     29.4590   -999.2500
  2544.5000     29.2737     77.4582     29.6676   -999.2500
  2544.7500     29.2300     77.4292     30.0226   -999.2500
  2545.0000     29.2022     77.4187     30.8824   -999.2500
  2545.2500     29.1910     77.4187     32.8413   -999.2500
  2545.5000     29.1803     77.4213     36.9377   -999.2500
  2545.7500     29.1497     77.4190     44.3239   -999.2500
  2546.0000     29.0866     77.4052     61.2353   -999.2500
  2546.2500     28.9924     77.3744    103.0581   -999.2500
  2546.5000     28.8822     77.3190    270.1229   -999.2500
  2546.7500     28.7790     77.2337 100000.0000   -999.2500
  2547.0000     28.7016     77.1087 100000.0000   -999.2500
  2547.2500     28.6576     76.9261 100000.0000   -999.2500
  2547.5000     28.6450     76.6525 100000.0000   -999.2500
  2547.7500     28.6577     76.2297 100000.0000   -999.2500
  2548.0000     28.6881     75.5629 100000.0000   -999.2500
  2548.2500     28.7274     74.5099 100000.0000   -999.2500
  2548.5000     28.7679     72.8761 100000.0000   -999.2500
  2548.7500     28.8093     70.4217 100000.0000   -999.2500
  2549.0000     28.8597     66.8890 100000.0000   -999.2500
  2549.2500     28.9269     62.0495 100000.0000   -999.2500
  2549.5000     28.9844     55.7676 100000.0000   -999.2500
  2549.7500     28.8940     48.0627 100000.0000   -999.2500
  2550.0000     28.2899     39.1497 100000.0000   -999.2500
  2550.2500     26.5439     29.4373 100000.0000   -999.2500
  2550.5000     23.0430     19.4754 100000.0000   -999.2500
  2550.7500     17.7809      9.8635 100000.0000   -999.2500
  2551.0000     11.7166      1.1422 100000.0000   -999.2500
  2551.2500      6.3131     -6.2970 100000.0000   -999.2500
  2551.5000      2.5777    -12.2616 100000.0000   -999.2500
  2551.7500      0.5708    -16.7560 100000.0000   -999.2500
  2552.0000     -0.2678    -19.9384 100000.0000   -999.2500
  2552.2500     -0.5405    -22.0559 100000.0000   -999.2500
  2552.5000     -0.6096    -23.3797 100000.0000   -999.2500
  2552.7500     -0.6232    -24.1572 100000.0000   -999.2500
  2553.0000   -999.2500    -24.5864 100000.0000   -999.2500
  2553.2500   -999.2500    -24.8089  18311.3008   -999.2500
  2553.5000   -999.2500    -24.9172   4754.7192   -999.2500
  2553.7500   -999.2500    -24.9668   3343.1506   -999.2500
  2554.0000   -999.2500    -24.9881   2921.6699   -999.2500
  2554.2500   -999.2500    -24.9967   2776.6982   -999.2500
  2554.5000   -999.2500   -999.2500   2728.9148   -999.2500
  2554.7500   -999.2500   -999.2500   2714.8633   -999.2500
  2555.0000   -999.2500   -999.2500   2711.2815   -999.2500
  2555.2500   -999.2500   -999.2500 100000.0000   -999.2500
