~Version Information
VERS.                      2.0: CWLS Log ASCII Standard - VERSION 2.0
WRAP.                       NO: One line per depth step
~Well Information Block
STRT.FT               428.8000: 
STOP.FT               951.7000: 
STEP.FT                 0.1000: 
NULL.                -999.2500: 
COMP.          Pioneer Natural Resources: COMPANY
WELL.          Sculpin 32-30 Tr: WELL
FLD.           Purgatoire River: FIELD
LOC.           1600' FNL & 1857' FEL--: LOCATION
CNTY.               Las Animas: COUNTY
SRVC.                Patterson: SERVICE COMPANY
DATE.          Wed Jul 19 09:12:32 2006: LOG DATE
UWI.           05 071 08706 00: UNIQUE WELL ID
STAT.                 Colorado: STATE
~Curve Information Block
DEPT.FT            0 000 00 00: Depth
DCAL.in                       : CDL Caliper
RHOB.g/cc                     : CDL Bulk Density
RHOC.g/cc                     : CDL Density Correction
DPOR.pu                       : CDL Density Porosity
GR.GAPI                       : Gamma Ray
~Parameter Information Block
~A  Depth       DCAL        RHOB        RHOC        DPOR         GR     
# ...
   507.2000      8.1455      2.5334      0.0374      7.0684    108.2268
   507.3000      8.1372      2.5524      0.0578      5.9181    116.5724
   507.4000      8.1372      2.5653      0.0785      5.1324    124.9633
   507.5000      8.1356      2.5658      0.0903      5.1005    129.5484
   507.6000      8.1356      2.5514      0.0642      5.9755    126.0410
   507.7000      8.1356      2.5331      0.0505      7.0828    117.1444
   507.8000      8.1354      2.5245      0.0448      7.6046    112.6011
   507.9000      8.1354      2.5267      0.0585      7.4755    116.7629
   508.0000      8.1339      2.5352      0.0550      6.9569    125.3201
   508.1000      8.1339      2.5432      0.0745      6.4702    129.6088
   508.2000      8.1339      2.5423      0.0486      6.5300    128.0597
   508.3000      8.1299      2.5306      0.0622      7.2355    127.9186
   508.4000      8.1299      2.5095      0.0566      8.5178    129.9897
   508.5000      8.1230      2.4859      0.0547      9.9454    128.1562
   508.6000      8.1230      2.4710      0.0319     10.8467    121.2785
   508.7000      8.1230      2.4696      0.0345     10.9363    114.2730
   508.8000      8.1181      2.4770      0.0557     10.4864    110.6751
   508.9000      8.1181      2.4824      0.0647     10.1577    111.7748
   509.0000      8.1173      2.4884     -0.0028      9.7960    116.8391
   509.1000      8.1173      2.5014      0.0765      9.0076    120.6431
   509.2000      8.1173      2.5104      0.0501      8.4615    120.3908
   509.3000      8.1211      2.5077      0.0508      8.6213    118.8069
   509.4000      8.1211      2.4993      0.0747      9.1341    118.2766
   509.5000      8.1250      2.4952      0.0787      9.3808    118.2451
   509.6000      8.1250      2.4952      0.0883      9.3847    117.1405
   509.7000      8.1250      2.4927      0.0410      9.5318    115.5019
   509.8000      8.1252      2.4921      0.0314      9.5692    115.7711
   509.9000      8.1252      2.4929      0.0819      9.5217    118.0765
   510.0000      8.1247      2.4830      0.0952     10.1236    120.3975
   510.1000      8.1247      2.4655      0.0516     11.1830    122.8013
   510.2000      8.1247      2.4580      0.0514     11.6344    125.9095
   510.3000      8.1270      2.4648      0.1033     11.2268    127.7503
   510.4000      8.1270      2.4818      0.0634     10.1923    127.7467
   510.5000      8.1297      2.5099      0.1034      8.4895    125.0182
   510.6000      8.1297      2.5398      0.1185      6.6817    118.2235
   510.7000      8.1297      2.5565      0.1294      5.6687    111.1581
   510.8000      8.1315      2.5575      0.1310      5.6077    109.4157
   510.9000      8.1315      2.5540      0.1036      5.8183    111.9347
   511.0000      8.1348      2.5521      0.1339      5.9332    112.3875
   511.1000      8.1348      2.5466      0.1288      6.2654    111.1865
   511.2000      8.1348      2.5427      0.0944      6.5034    115.4792
   511.3000      8.1387      2.5404      0.1449      6.6397    123.6129
   511.4000      8.1387      2.5224      0.1046      7.7307    125.7868
   511.5000      8.1408      2.4905      0.0276      9.6655    119.3229
   511.6000      8.1408      2.4670      0.0531     11.0933    112.2101
   511.7000      8.1408      2.4598      0.0287     11.5255    111.2941
   511.8000      8.1470      2.4617      0.0453     11.4118    117.3845
   511.9000      8.1470      2.4607      0.0317     11.4712    126.0014
   512.0000      8.1579      2.4532     -0.0062     11.9267    128.5750
   512.1000      8.1579      2.4428      0.0223     12.5602    125.5841
   512.2000      8.1579      2.4260      0.0374     13.5758    126.5192
   512.3000      8.1665      2.4047      0.0046     14.8691    134.3034
   512.4000      8.1665      2.3938     -0.0021     15.5296    140.7024
   512.5000      8.1726      2.3965      0.0443     15.3609    138.7535
   512.6000      8.1726      2.4020      0.0257     15.0328    131.6751
   512.7000      8.1726      2.4099      0.0022     14.5489    126.2971
   512.8000      8.1794      2.4197      0.0802     13.9590    127.2506
   512.9000      8.1794      2.4171      0.0909     14.1135    132.3996
   513.0000      8.1836      2.4041      0.0361     14.9008    134.9397
   513.1000      8.1836      2.3979      0.0361     15.2782    133.1483
   513.2000      8.1836      2.4028      0.0279     14.9837    131.6865
   513.3000      8.1837      2.4117      0.0572     14.4412    131.4188
   513.4000      8.1837      2.4141      0.0663     14.2949    128.1493
   513.5000      8.1782      2.4008      0.0753     15.1036    122.1247
   513.6000      8.1782      2.3758      0.0477     16.6205    117.3872
   513.7000      8.1782      2.3567      0.0164     17.7757    117.0504
   513.8000      8.1659      2.3517      0.0693     18.0796    121.4513
   513.9000      8.1659      2.3493      0.0610     18.2225    128.3711
   514.0000      8.1524      2.3407      0.0708     18.7469    136.3931
   514.1000      8.1524      2.3277      0.0446     19.5361    145.5503
   514.2000      8.1524      2.3214      0.0518     19.9172    151.9434
   514.3000      8.1433      2.3350      0.0643     19.0880    149.5886
   514.4000      8.1433      2.3711      0.0973     16.9019    138.6593
   514.5000      8.1384      2.4138      0.1382     14.3164    125.4325
   514.6000      8.1384      2.4439      0.1310     12.4918    118.4230
   514.7000      8.1384      2.4605      0.1215     11.4831    122.4800
   514.8000      8.1350      2.4693      0.1212     10.9519    130.7298
   514.9000      8.1350      2.4707      0.0956     10.8689    133.4635
   515.0000      8.1263      2.4733      0.0669     10.7116    132.3471
   515.1000      8.1263      2.4971      0.0629      9.2640    132.0955
   515.2000      8.1263      2.5543      0.1034      5.8009    131.2361
   515.3000      8.1152      2.6192      0.1954      1.8644    128.5909
   515.4000      8.1152      2.6468      0.1633      0.1926    126.1827
   515.5000      8.1106      2.6290      0.1391      1.2734    125.0440
   515.6000      8.1106      2.5987      0.0466      3.1086    123.8127
   515.7000      8.1106      2.5850      0.1142      3.9418    121.1078
   515.8000      8.1102      2.5785      0.1379      4.3312    116.1138
   515.9000      8.1102      2.5550      0.0616      5.7602    113.1456
   516.0000      8.1096      2.5197      0.0084      7.8951    115.5928
   516.1000      8.1096      2.5015     -0.0448      9.0024    119.2425
   516.2000      8.1096      2.5085     -0.0061      8.5787    119.1701
   516.3000      8.1104      2.5128      0.0160      8.3142    116.2369
   516.4000      8.1104      2.4881      0.0114      9.8109    116.7593
   516.5000      8.1115      2.4535     -0.0095     11.9117    123.0410
   516.6000      8.1115      2.4488      0.0275     12.1934    129.1379
   516.7000      8.1115      2.4755      0.1053     10.5773    129.0245
   516.8000      8.1082      2.5018      0.0982      8.9810    124.6141
   516.9000      8.1082      2.5111      0.1049      8.4181    118.7887
   517.0000      8.1008      2.5095      0.0982      8.5177    113.4461
   517.1000      8.1008      2.5130      0.0489      8.3059    109.8186
   517.2000      8.1008      2.5256      0.0762      7.5397    108.6466
   517.3000      8.0961      2.5239      0.0792      7.6412    112.1369
   517.4000      8.0961      2.4978      0.0195      9.2218    119.7311
   517.5000      8.0946      2.4800     -0.0151     10.3009    127.0352
   517.6000      8.0946      2.4982      0.0315      9.1990    129.8540
   517.7000      8.0946      2.5314      0.0897      7.1866    126.9427
   517.8000      8.0940      2.5469      0.0497      6.2466    119.9364
   517.9000      8.0940      2.5448      0.0519      6.3756    113.6636
   518.0000      8.0931      2.5420      0.0437      6.5426    111.0128
   518.1000      8.0931      2.5502      0.0683      6.0468    108.6034
   518.2000      8.0931      2.5731      0.0887      4.6601    109.2836
   518.3000      8.0900      2.6055      0.0723      2.6950    118.7382
