~Version Information
VERS.                      2.0: CWLS Log ASCII Standard - VERSION 2.0
WRAP.                       NO: One line per depth step
~Well Information Block
STRT.FT               460.0000: 
STOP.FT              2811.5000: 
STEP.FT                 0.1000: 
NULL.                -999.2500: 
COMP.          Pioneer Natural Resources: COMPANY
WELL.           Dolzanie 34-12: WELL
FLD.           Purgatoire River: FIELD
LOC.           1001' FSL & 1750' FEL--: LOCATION
PROV.                 Colorado: PROVINCE
CNTY.               Las Animas: COUNTRY
SRVC.                Patterson: SERVICE COMPANY
DATE.          Wed Jul 20 07:56:24 2005: LOG DATE
UWI.           05 071 08439 00: UNIQUE WELL ID
~Curve Information Block
DEPT.FT            0 000 00 00: Depth
DCAL.in                       : CDL Caliper
DPOR.pu                       : CDL Density Porosity
NPOR.pu                       : Neutron Porosity
RHOB.g/cc                     : CDL Bulk Density
RHOC.g/cc                     : CDL Density Correction
GR.GAPI                       : Gamma Ray
~Parameter Information Block
~A  Depth       DCAL        DPOR        NPOR        RHOB        RHOC         GR     
# ...
  1084.0000      8.2342     30.1972     25.6621      2.1517     -0.0749    134.8470
  1084.1000      8.2342     29.0838     24.8971      2.1701      0.0246    133.9457
  1084.2000      8.2342     27.9797     23.8292      2.1883      0.0268    132.2329
  1084.3000      8.2174     27.9119     22.6861      2.1895      0.0230    130.5570
  1084.4000      8.2174     28.7795     21.7024      2.1751      0.1092    128.5559
  1084.5000      8.2548     31.5276     20.8488      2.1298      0.1946    125.8831
  1084.6000      8.2548     36.1186     20.2306      2.0540      0.1026    122.2667
  1084.7000      8.2548     39.3108     19.9002      2.0014      0.0217    119.2430
  1084.8000      8.3231     37.1879     19.7262      2.0364      0.0493    118.3146
  1084.9000      8.3231     28.2611     19.9057      2.1837      0.1504    117.6009
  1085.0000      8.4331     14.2959     20.5143      2.4141      0.3891    115.7400
  1085.1000      8.4331     -0.2303     21.3423      2.6538      0.6092    117.0423
  1085.2000      8.4331    -10.5820     22.1712      2.8246      0.7152    120.5442
  1085.3000      8.4402    -14.4165     22.6442      2.8879      0.6200    120.0803
  1085.4000      8.4402    -12.9651     22.7374      2.8639      0.4294    117.1289
  1085.5000      8.2881     -9.5546     22.9851      2.8077      0.3444    117.1834
  1085.6000      8.2881     -6.3177     23.4762      2.7542      0.2626    120.1498
  1085.7000      8.2881     -3.6258     23.6842      2.7098      0.1931    119.5997
  1085.8000      8.1586     -1.7146     23.6261      2.6783      0.1242    112.6207
  1085.9000      8.1586     -1.1049     23.8079      2.6682      0.0583    104.6934
  1086.0000      8.0916     -1.2525     24.3408      2.6707      0.0523     99.8141
  1086.1000      8.0916     -0.4321     25.3467      2.6571      0.0663     97.1741
  1086.2000      8.0916      1.7104     26.7607      2.6218      0.0006     98.3105
  1086.3000      8.0374      3.7191     27.5764      2.5886      0.0142    102.8161
  1086.4000      8.0374      4.7527     27.3392      2.5716     -0.0195    104.7370
  1086.5000      8.0091      5.2393     27.0220      2.5636      0.0104    104.1801
  1086.6000      8.0091      6.7308     27.1138      2.5389      0.0484    106.7548
  1086.7000      8.0091     10.1751     27.0912      2.4821      0.0145    111.6258
  1086.8000      8.0043     14.2759     27.0822      2.4144     -0.0125    114.2399
  1086.9000      8.0043     17.6941     27.5086      2.3580     -0.0369    113.5519
  1087.0000      8.0056     20.8767     27.9791      2.3055     -0.0217    111.6523
  1087.1000      8.0056     24.2365     28.0985      2.2501     -0.0666    111.3893
  1087.2000      8.0056     26.4578     27.8678      2.2134     -0.0847    112.4256
  1087.3000      8.0067     26.2492     27.1784      2.2169     -0.0694    112.9032
  1087.4000      8.0067     24.4881     25.9560      2.2459      0.0348    115.0672
  1087.5000      8.0055     22.6425     24.5170      2.2764      0.0132    120.6459
  1087.6000      8.0055     20.3944     23.3519      2.3135      0.0688    126.5162
  1087.7000      8.0055     17.7526     22.7427      2.3571      0.1588    129.0109
  1087.8000      8.0026     17.0735     22.5123      2.3683      0.2463    129.3151
  1087.9000      8.0026     20.5156     22.2270      2.3115      0.1999    131.3554
  1088.0000      8.0052     26.7597     21.7324      2.2085      0.0165    134.6550
  1088.1000      8.0052     32.3381     21.1768      2.1164     -0.0667    136.1080
  1088.2000      8.0052     36.7712     20.6572      2.0433     -0.0100    135.5521
  1088.3000      8.0220     43.6872     20.0962      1.9292      0.0198    133.4983
  1088.4000      8.0220     54.9445     19.5844      1.7434     -0.1187    129.9237
  1088.5000      8.0564     66.3250     19.4769      1.5556     -0.2282    127.8911
  1088.6000      8.0564     72.0830     19.7557      1.4606     -0.1227    130.7121
  1088.7000      8.0564     70.8992     20.0206      1.4802      0.0231    135.4576
  1088.8000      8.1495     65.0283     20.3626      1.5770      0.2603    137.6909
  1088.9000      8.1495     57.3884     21.2389      1.7031      0.4641    136.5857
  1089.0000      8.2938     49.6022     22.4836      1.8316      0.4933    133.0283
  1089.1000      8.2938     41.1614     23.7284      1.9708      0.5287    131.7648
  1089.2000      8.2938     31.2539     24.9239      2.1343      0.5531    135.3857
  1089.3000      8.3381     20.7460     25.7052      2.3077      0.6261    138.9149
  1089.4000      8.3381     11.7630     25.7974      2.4559      0.7360    139.4125
  1089.5000      8.2543      5.3948     25.5322      2.5610      0.7689    141.1069
  1089.6000      8.2543      0.6355     25.4296      2.6395      0.7199    144.6268
  1089.7000      8.2543     -3.4624     25.6987      2.7071      0.6745    145.1635
  1089.8000      8.1381     -5.6138     25.6781      2.7426      0.6138    142.0218
  1089.9000      8.1381     -4.0935     24.5796      2.7175      0.4189    138.8176
  1090.0000      8.0406      0.2791     22.7702      2.6454      0.2106    138.6724
  1090.1000      8.0406      5.1852     21.1938      2.5644      0.1515    141.1204
  1090.2000      8.0406      9.6053     20.2853      2.4915      0.1554    143.0456
  1090.3000      7.9981     13.3734     20.1185      2.4293      0.0881    142.7597
  1090.4000      7.9981     15.3283     20.5006      2.3971      0.0192    141.4680
  1090.5000      8.0363     14.1040     20.8048      2.4173      0.0117    138.1357
  1090.6000      8.0363     10.4056     20.8420      2.4783      0.0791    129.7369
  1090.7000      8.0363      7.0188     21.1826      2.5342      0.1403    121.0463
  1090.8000      8.0918      5.5602     22.0641      2.5583      0.0798    119.2254
  1090.9000      8.0918      5.1548     23.1973      2.5649      0.1137    123.6170
  1091.0000      8.0705      5.1337     24.2053      2.5653      0.1474    130.5693
  1091.1000      8.0705      5.9543     24.5461      2.5518      0.1255    135.4510
  1091.2000      8.0705      6.8798     24.3422      2.5365      0.0508    133.5184
  1091.3000      8.0238      6.2759     24.3410      2.5464      0.0893    127.8735
  1091.4000      8.0238      4.8543     24.6857      2.5699      0.1459    124.6981
  1091.5000      8.0033      4.3329     25.1455      2.5785      0.0709    124.7304
  1091.6000      8.0033      4.5157     25.5956      2.5755      0.0597    126.1621
  1091.7000      8.0033      4.7413     25.7928      2.5718      0.0912    126.7352
  1091.8000      7.9978      5.1181     25.8130      2.5656      0.0217    124.2001
  1091.9000      7.9978      6.1493     26.0344      2.5485      0.0555    118.8402
  1092.0000      7.9953      8.3360     26.3979      2.5125      0.0243    115.3045
  1092.1000      7.9953     10.7634     26.6595      2.4724     -0.0115    117.7553
  1092.2000      7.9953     12.0708     26.5355      2.4508     -0.0034    122.8439
  1092.3000      7.9924     12.5557     26.1148      2.4428      0.0016    125.1414
  1092.4000      7.9924     13.0484     25.8804      2.4347     -0.0295    125.0547
  1092.5000      7.9927     13.7644     25.8725      2.4229      0.0078    126.0062
  1092.6000      7.9927     14.6304     25.9298      2.4086     -0.0149    129.9690
  1092.7000      7.9927     14.9650     26.2079      2.4031     -0.0249    134.4085
  1092.8000      7.9985     14.1103     26.4392      2.4172      0.0120    132.6897
  1092.9000      7.9985     12.6589     26.1830      2.4411      0.0293    124.2719
  1093.0000      8.0052     12.0503     25.6776      2.4512      0.0738    117.5515
  1093.1000      8.0052     12.3955     25.2277      2.4455      0.0303    117.9616
  1093.2000      8.0052     12.2032     24.8885      2.4486      0.0841    122.7920
  1093.3000      8.0084     10.9021     24.8414      2.4701      0.0837    126.5767
  1093.4000      8.0084      9.2088     25.1733      2.4981      0.0885    126.7649
  1093.5000      8.0085      7.7841     25.5543      2.5216      0.1263    128.0656
