~Version Information
VERS.                      2.0: CWLS Log ASCII Standard - VERSION 2.0
WRAP.                       NO: One line per depth step
~Well Information Block
STRT.FT                10.0000: 
STOP.FT              1485.0000: 
STEP.FT                 0.1000: 
NULL.                -999.2500: 
COMP.          Pioneer Natural Resources: COMPANY
WELL.          Old Faithful 21-2: WELL
FLD.           Purgatorie River: FIELD
LOC.           806' FNL & 2509' FWL: LOCATION
PROV.                 Colorado: PROVINCE
CNTY.               Las Animas: COUNTRY
SRVC.                Patterson: SERVICE COMPANY
DATE.          Wed Dec 07 13:17:12 2005: LOG DATE
UWI.                          : UNIQUE WELL ID
~Curve Information Block
DEPT.FT            0 000 00 00: Depth
DCAL.in                       : CDL Caliper
RHOB.g/cc                     : CDL Bulk Density
RHOC.g/cc                     : CDL Density Correction
DPOR.pu                       : CDL Density Porosity
GR.GAPI                       : Gamma Ray
NPOR.pu                       : Neutron Porosity
~Parameter Information Block
~A  Depth       DCAL        RHOB        RHOC        DPOR         GR         NPOR    
# ...
   979.6000      8.1144      2.5050      0.0361      8.7904     90.3910     22.0890
   979.7000      8.1144      2.5020      0.0291      8.9689     94.2014     22.4468
   979.8000      8.1163      2.5091      0.0589      8.5379     95.8720     22.7833
   979.9000      8.1163      2.5215      0.0636      7.7877     95.7046     22.7549
   980.0000      8.1211      2.5346      0.0559      6.9970     97.5018     22.3288
   980.1000      8.1211      2.5446      0.0584      6.3870    101.4947     21.9380
   980.2000      8.1211      2.5491      0.0600      6.1140    104.8047     21.8382
   980.3000      8.1197      2.5518      0.0744      5.9537    105.3219     21.7227
   980.4000      8.1197      2.5556      0.0512      5.7233    103.6321     21.1826
   980.5000      8.1206      2.5559      0.0733      5.7032    102.9602     20.3971
   980.6000      8.1206      2.5480      0.0540      6.1814    105.0667     19.8279
   980.7000      8.1206      2.5419     -0.0027      6.5499    106.4883     19.7131
   980.8000      8.0989      2.5512      0.0427      5.9892    105.9649     19.8233
   980.9000      8.0989      2.5739      0.0457      4.6145    106.0130     19.7316
   981.0000      8.0797      2.6066      0.0136      2.6284    106.7091     19.5941
   981.1000      8.0797      2.6417      0.1228      0.5046    107.3008     19.6947
   981.2000      8.0797      2.6574      0.1101     -0.4503    108.4333     19.7375
   981.3000      8.0818      2.6464      0.0705      0.2161    109.5471     19.4515
   981.4000      8.0818      2.6252      0.0174      1.5009    108.6726     18.8924
   981.5000      8.0740      2.6071      0.0261      2.5973    107.1121     18.1902
   981.6000      8.0740      2.5893      0.0226      3.6775    107.5429     17.6751
   981.7000      8.0740      2.5744      0.0040      4.5794    108.6942     17.4219
   981.8000      8.0572      2.5764      0.0028      4.4633    108.8271     17.1453
   981.9000      8.0572      2.6014      0.0203      2.9444    109.3652     17.0207
   982.0000      8.0354      2.6457      0.0243      0.2636    110.7265     17.4422
   982.1000      8.0354      2.6978      0.0682     -2.8963    111.6903     18.2248
   982.2000      8.0354      2.7411      0.1018     -5.5208    110.4832     18.9429
   982.3000      8.0328      2.7644      0.1051     -6.9335    106.4276     19.6088
   982.4000      8.0328      2.7675      0.0901     -7.1198    101.9093     20.3792
   982.5000      8.0331      2.7532      0.0776     -6.2549     99.1398     21.1429
   982.6000      8.0331      2.7273      0.0154     -4.6854     98.2233     21.7037
   982.7000      8.0331      2.6924     -0.0121     -2.5705     98.5742     22.1559
   982.8000      8.0340      2.6420     -0.0782      0.4820    100.4717     22.7524
   982.9000      8.0340      2.5814     -0.1343      4.1583    103.7753     23.3219
   983.0000      8.0380      2.5327     -0.0991      7.1070    106.7656     23.5266
   983.1000      8.0380      2.5077     -0.0684      8.6222    108.7389     23.3273
   983.2000      8.0380      2.4981     -0.0221      9.2070    109.8765     22.9466
   983.3000      8.1575      2.4951      0.0388      9.3900    109.8891     22.6567
   983.4000      8.1575      2.4991      0.0297      9.1463    109.3499     22.5526
   983.5000      8.1476      2.5052      0.0492      8.7739    109.2784     22.5905
   983.6000      8.1476      2.5003      0.0530      9.0701    110.3547     22.6537
   983.7000      8.1476      2.4827      0.0465     10.1376    111.8050     22.5762
   983.8000      8.1324      2.4646     -0.0072     11.2373    111.1910     22.2889
   983.9000      8.1324      2.4608     -0.0078     11.4689    109.3865     21.9985
   984.0000      8.1294      2.4705      0.0443     10.8797    109.7254     22.0077
   984.1000      8.1294      2.4810      0.0086     10.2426    113.1215     22.2981
   984.2000      8.1294      2.4858      0.0256      9.9530    117.8356     22.5061
   984.3000      8.1072      2.4831      0.0211     10.1144    119.1735     22.2999
   984.4000      8.1072      2.4748      0.0451     10.6207    114.8940     21.8967
   984.5000      8.0848      2.4654      0.0188     11.1856    111.0364     21.8326
   984.6000      8.0848      2.4623     -0.0103     11.3751    111.9992     22.0269
   984.7000      8.0848      2.4675      0.0195     11.0618    113.6498     22.0937
   984.8000      8.0763      2.4742      0.0032     10.6525    112.4306     22.1537
   984.9000      8.0763      2.4774      0.0385     10.4601    109.7223     22.4629
   985.0000      8.0904      2.4810     -0.0234     10.2405    107.7183     22.8145
   985.1000      8.0904      2.4845      0.0729     10.0302    107.8045     23.0803
   985.2000      8.0904      2.4724      0.0703     10.7666    108.8795     23.4278
   985.3000      8.0962      2.4479     -0.0230     12.2505    108.9666     23.5660
   985.4000      8.0962      2.4348      0.0081     13.0405    109.5598     23.2571
   985.5000      8.0954      2.4420      0.0166     12.6065    111.0236     22.7861
   985.6000      8.0954      2.4615      0.0548     11.4253    111.1985     22.4442
   985.7000      8.0954      2.4819      0.0793     10.1909    110.1739     22.3340
   985.8000      8.0952      2.4968      0.0601      9.2820    108.4122     22.5625
   985.9000      8.0952      2.5070      0.0752      8.6666    106.7866     23.0047
   986.0000      8.0957      2.5125      0.0829      8.3343    108.5707     23.2221
   986.1000      8.0957      2.5133      0.0639      8.2856    114.0458     23.1220
   986.2000      8.0957      2.5138      0.0647      8.2519    119.1381     23.0435
   986.3000      8.0988      2.5188      0.0366      7.9510    122.8215     23.2057
   986.4000      8.0988      2.5215      0.0710      7.7902    126.4508     23.3549
   986.5000      8.0934      2.5121      0.0464      8.3592    128.1718     23.3196
   986.6000      8.0934      2.4983      0.0199      9.1944    127.5005     23.2813
   986.7000      8.0934      2.4898      0.0155      9.7112    128.2438     23.1849
   986.8000      8.0971      2.4795      0.0379     10.3338    130.3167     22.9398
   986.9000      8.0971      2.4663     -0.0121     11.1353    128.6042     22.8660
   987.0000      8.0924      2.4654     -0.0083     11.1858    124.1569     23.0211
   987.1000      8.0924      2.4739      0.0301     10.6705    120.0055     23.1488
   987.2000      8.0924      2.4719      0.0183     10.7921    116.2993     23.4240
   987.3000      8.0903      2.4576      0.0153     11.6594    114.0129     24.0019
   987.4000      8.0903      2.4489      0.0178     12.1898    111.9298     24.4376
   987.5000      8.0901      2.4548      0.0234     11.8315    106.8930     24.3856
   987.6000      8.0901      2.4666      0.0545     11.1135    101.0246     23.9732
   987.7000      8.0901      2.4787      0.0572     10.3848     99.7365     23.4896
   987.8000      8.0910      2.4923      0.0577      9.5582    103.0228     23.3862
   987.9000      8.0910      2.5019      0.0937      8.9739    106.2282     23.7102
   988.0000      8.0980      2.5012      0.0672      9.0170    107.4828     24.0312
   988.1000      8.0980      2.4919      0.0371      9.5789    106.7014     24.2268
   988.2000      8.0980      2.4796      0.0481     10.3300    104.6977     24.2998
   988.3000      8.1014      2.4694      0.0305     10.9427    104.0499     24.0635
   988.4000      8.1014      2.4630      0.0538     11.3314    105.2649     23.5215
   988.5000      8.1004      2.4597      0.0409     11.5348    106.4419     22.8966
   988.6000      8.1004      2.4624      0.0546     11.3720    106.6555     22.4464
   988.7000      8.1004      2.4715      0.0336     10.8192    107.9329     22.3043
   988.8000      8.0990      2.4832      0.0421     10.1082    111.7408     22.3027
   988.9000      8.0990      2.4923      0.0510      9.5550    114.7709     22.2951
   989.0000      8.0910      2.4986      0.0445      9.1747    113.4711     22.3874
   989.1000      8.0910      2.5049      0.0879      8.7943    109.8031     22.5613
