~Version Information
VERS.                      2.0: CWLS Log ASCII Standard - VERSION 2.0
WRAP.                       NO: One line per depth step
~Well Information Block
STRT.FT               294.3000: 
STOP.FT              1461.0000: 
STEP.FT                 0.1000: 
NULL.                -999.2500: 
COMP.          Pioneer Natural Resources: COMPANY
WELL.              Lucky 21-36: WELL
FLD.           Purgatoire River: FIELD
CDN. :
PROV. :
UWI. :
STAT. :
CNTY. :
CTRY. :
API. :
COMP. :
WELL. :
FLD. :
LOC. :
DATE. :
SRVC. :
LOC.           799' FNL & 1578' FWL--: LOCATION
CNTY.               Las Animas: COUNTY
SRVC.          Superior Well Services: SERVICE COMPANY
DATE.          Tue Jul 08 08-29-33 2008: LOG DATE
UWI.           05 071 08456 00: UNIQUE WELL ID
STAT.                 Colorado: STATE
~Curve Information Block
DEPT.FT            0 000 00 00: Depth
DCAL.in                       : CDL Caliper
RHOB.g/cc                     : CDL Bulk Density
RHOC.g/cc                     : CDL Density Correction
DPOR.pu                       : CDL Density Porosity
NPOR.pu                       : Neutron Porosity
GR.GAPI                       : Gamma Ray
~Parameter Information Block
~A  Depth       DCAL        RHOB        RHOC        DPOR        NPOR         GR     
# ...
   755.1000      7.9982      2.5125      0.1081      8.3351     23.7559    150.8119
   755.2000      7.9980      2.5181      0.1187      7.9919     24.2606    154.2531
   755.3000      7.9975      2.5230      0.1153      7.6993     24.3281    159.5069
   755.4000      7.9966      2.5360      0.1296      6.9066     24.3354    159.7681
   755.5000      7.9951      2.5551      0.1125      5.7526     24.7289    155.2081
   755.6000      7.9932      2.5676      0.1379      4.9952     25.1322    147.8247
   755.7000      7.9909      2.5665      0.1068      5.0625     25.3748    141.6271
   755.8000      7.9888      2.5513      0.1055      5.9841     25.7088    138.5451
   755.9000      7.9872      2.5341      0.0295      7.0252     26.1413    137.1431
   756.0000      7.9864      2.5388      0.0476      6.7376     26.5591    138.0332
   756.1000      7.9863      2.5677      0.0788      4.9857     26.8343    141.1397
   756.2000      7.9871      2.5995      0.0573      3.0603     27.0242    142.9623
   756.3000      7.9885      2.6167      0.0814      2.0205     27.1618    141.9309
   756.4000      7.9905      2.6111      0.0763      2.3572     27.1910    140.8962
   756.5000      7.9928      2.5872      0.0466      3.8091     27.1850    141.6858
   756.6000      7.9951      2.5597      0.0478      5.4734     27.1761    144.5591
   756.7000      7.9971      2.5439      0.0189      6.4291     27.1054    146.3340
   756.8000      7.9985      2.5416      0.0459      6.5672     26.9326    143.1957
   756.9000      7.9995      2.5372      0.0230      6.8356     26.5473    141.7406
   757.0000      8.0002      2.5212     -0.0056      7.8036     26.0414    149.4507
   757.1000      8.0010      2.5063     -0.0308      8.7065     25.8114    158.5416
   757.2000      8.0021      2.5030      0.0410      8.9068     25.8452    160.5831
   757.3000      8.0037      2.5041      0.0027      8.8417     25.6693    158.1733
   757.4000      8.0055      2.5013      0.0286      9.0099     25.1532    155.0978
   757.5000      8.0073      2.4971     -0.0135      9.2672     24.6981    153.2863
   757.6000      8.0088      2.4997      0.0356      9.1062     24.5778    153.0764
   757.7000      8.0099      2.5072      0.0456      8.6544     24.5998    152.5543
   757.8000      8.0104      2.5081      0.0543      8.5979     24.5029    151.2066
   757.9000      8.0104      2.5026      0.0268      8.9307     24.2627    150.4259
   758.0000      8.0100      2.5077      0.0230      8.6218     24.1314    150.8095
   758.1000      8.0095      2.5264      0.0943      7.4906     24.2704    151.3149
   758.2000      8.0093      2.5350      0.0920      6.9682     24.5054    151.7030
   758.3000      8.0099      2.5234      0.0177      7.6698     24.6560    150.1747
   758.4000      8.0112      2.5088      0.0340      8.5592     24.6087    146.1677
   758.5000      8.0130      2.4997      0.0551      9.1120     24.3295    143.8761
   758.6000      8.0149      2.4888      0.0759      9.7695     23.9561    141.8781
   758.7000      8.0164      2.4693      0.0452     10.9523     23.4616    135.5707
   758.8000      8.0173      2.4309      0.0029     13.2800     22.7575    128.4214
   758.9000      8.0176      2.3586     -0.0382     17.6590     21.9636    126.6846
   759.0000      8.0173      2.2546     -0.0535     23.9647     21.0228    130.3340
   759.1000      8.0165      2.1457     -0.1051     30.5632     19.8488    130.5654
   759.2000      8.0154      2.0581     -0.0969     35.8747     18.4857    123.1733
   759.3000      8.0141      2.0013     -0.1510     39.3151     17.0030    115.6587
   759.4000      8.0127      1.9806     -0.1289     40.5710     15.6671    114.3875
   759.5000      8.0111      1.9929     -0.0727     39.8227     14.4910    117.3107
   759.6000      8.0091      2.0230     -0.0239     37.9978     13.3166    118.3484
   759.7000      8.0061      2.0598      0.0404     35.7718     12.5062    113.4821
   759.8000      8.0018      2.1107      0.0681     32.6843     12.3306    105.6550
   759.9000      7.9957      2.1952      0.1404     27.5631     12.6582    100.1354
   760.0000      7.9875      2.3125      0.2494     20.4535     13.4498     97.5272
   760.1000      7.9779      2.4292      0.3333     13.3836     14.5938     96.0145
   760.2000      7.9679      2.5111      0.3060      8.4207     15.8974     93.8707
   760.3000      7.9588      2.5522      0.2250      5.9273     17.2744     89.1644
   760.4000      7.9516      2.5678      0.1470      4.9848     18.4496     85.0185
   760.5000      7.9465      2.5718      0.1612      4.7365     19.2148     85.8058
   760.6000      7.9431      2.5647      0.1356      5.1673     19.7236     90.5645
   760.7000      7.9411      2.5436      0.0756      6.4487     20.2156     98.7976
   760.8000      7.9401      2.5147      0.0917      8.1998     20.7042    108.4076
   760.9000      7.9400      2.4963      0.0373      9.3176     21.1209    113.0334
   761.0000      7.9408      2.5078      0.0401      8.6153     21.4778    112.0681
   761.1000      7.9422      2.5404      0.0847      6.6434     21.8462    109.0361
   761.2000      7.9438      2.5608      0.0962      5.4069     22.3642    106.9635
   761.3000      7.9450      2.5565      0.0592      5.6663     23.0646    107.3353
   761.4000      7.9455      2.5494      0.0234      6.0988     23.9084    108.9019
   761.5000      7.9454      2.5614      0.0297      5.3698     24.8769    110.6061
   761.6000      7.9452      2.5876      0.0870      3.7838     25.9256    109.7799
   761.7000      7.9452      2.6051      0.1426      2.7237     26.9945    107.1477
   761.8000      7.9456      2.6007      0.0388      2.9903     27.9368    108.3946
   761.9000      7.9464      2.5844      0.0531      3.9771     28.6384    114.0196
   762.0000      7.9474      2.5740      0.0414      4.6036     29.0345    119.7327
   762.1000      7.9487      2.5767      0.0287      4.4406     29.0062    123.7211
   762.2000      7.9500      2.5763      0.0490      4.4660     28.4816    125.4724
   762.3000      7.9513      2.5514      0.0104      5.9774     27.6831    123.6672
   762.4000      7.9522      2.5146     -0.0456      8.2051     27.0235    118.3719
   762.5000      7.9527      2.4975     -0.0328      9.2432     26.7099    112.2634
   762.6000      7.9526      2.5070      0.0101      8.6677     26.4970    110.8707
   762.7000      7.9519      2.5287      0.0118      7.3508     26.1196    114.3190
   762.8000      7.9505      2.5534      0.0123      5.8539     25.8562    117.8346
   762.9000      7.9486      2.5789      0.0710      4.3061     25.8971    121.5894
   763.0000      7.9465      2.6012      0.0469      2.9596     26.0022    123.5507
   763.1000      7.9446      2.6158      0.0755      2.0725     26.3571    119.9293
   763.2000      7.9433      2.6218      0.0455      1.7116     27.1924    114.7444
   763.3000      7.9428      2.6239      0.0664      1.5830     27.9449    112.2829
   763.4000      7.9431      2.6230      0.0345      1.6365     27.9732    112.0042
   763.5000      7.9439      2.6131      0.0609      2.2347     27.6501    113.6572
   763.6000      7.9447      2.5980      0.0165      3.1500     27.7056    115.4066
   763.7000      7.9451      2.5911      0.0331      3.5724     28.0048    116.6470
   763.8000      7.9451      2.5930      0.0099      3.4516     28.1256    119.3381
   763.9000      7.9448      2.5965     -0.0083      3.2420     28.1737    120.4537
   764.0000      7.9446      2.5956      0.0171      3.2996     28.3068    115.8187
   764.1000      7.9445      2.5855     -0.0039      3.9066     28.3892    108.7675
   764.2000      7.9446      2.5701     -0.0061      4.8394     28.0255    106.4574
   764.3000      7.9448      2.5526     -0.0149      5.9022     27.0297    109.7350
   764.4000      7.9449      2.5273      0.0010      7.4375     25.9789    116.0598
   764.5000      7.9447      2.4992     -0.0356      9.1394     25.5001    124.8099
   764.6000      7.9442      2.4806     -0.0126     10.2687     25.5736    130.0979
