~Version Information
VERS.                      2.0: CWLS Log ASCII Standard - VERSION 2.0
WRAP.                       NO: One line per depth step
~Well Information Block
STRT.FT                10.0000: 
STOP.FT              1485.0000: 
STEP.FT                 0.1000: 
NULL.                -999.2500: 
COMP.          Pioneer Natural Resources: COMPANY
WELL.          Old Faithful 21-2: WELL
FLD.           Purgatorie River: FIELD
LOC.           806' FNL & 2509' FWL: LOCATION
PROV.                 Colorado: PROVINCE
CNTY.               Las Animas: COUNTRY
SRVC.                Patterson: SERVICE COMPANY
DATE.          Wed Dec 07 13:17:12 2005: LOG DATE
UWI.                          : UNIQUE WELL ID
~Curve Information Block
DEPT.FT            0 000 00 00: Depth
DCAL.in                       : CDL Caliper
RHOB.g/cc                     : CDL Bulk Density
RHOC.g/cc                     : CDL Density Correction
DPOR.pu                       : CDL Density Porosity
GR.GAPI                       : Gamma Ray
NPOR.pu                       : Neutron Porosity
~Parameter Information Block
~A  Depth       DCAL        RHOB        RHOC        DPOR         GR         NPOR    
# ...
  1469.2000      7.9217      2.5426      0.0518      6.5120     98.8126   -999.2500
  1469.3000      7.9316      2.5312      0.0302      7.2003     99.0484   -999.2500
  1469.4000      7.9316      2.5291     -0.0100      7.3255     98.9241   -999.2500
  1469.5000      7.9544      2.5417      0.0460      6.5642    102.2187   -999.2500
  1469.6000      7.9544      2.5464      0.0995      6.2807    109.3047   -999.2500
  1469.7000      7.9544      2.5349      0.0307      6.9739    113.7223   -999.2500
  1469.8000      7.9345      2.5342      0.0435      7.0171    115.0984   -999.2500
  1469.9000      7.9345      2.5559      0.0922      5.7053    117.6502   -999.2500
  1470.0000      7.8938      2.5751      0.1274      4.5381    120.2280   -999.2500
  1470.1000      7.8938      2.5670      0.1119      5.0299    120.9280   -999.2500
  1470.2000      7.8938      2.5349      0.0774      6.9758    122.6017   -999.2500
  1470.3000      7.8565      2.5043      0.0457      8.8328    126.7531   -999.2500
  1470.4000      7.8565      2.5067     -0.0003      8.6842    127.6181   -999.2500
  1470.5000      7.8853      2.5479      0.0582      6.1890    122.3108   -999.2500
  1470.6000      7.8853      2.5885      0.1234      3.7292    117.0116   -999.2500
  1470.7000      7.8853      2.5972      0.0623      3.2018    115.1684   -999.2500
  1470.8000      7.9058      2.5864      0.0674      3.8570    114.5391   -999.2500
  1470.9000      7.9058      2.5746      0.0669      4.5703    113.6532   -999.2500
  1471.0000      7.9208      2.5671      0.0507      5.0234    111.6276   -999.2500
  1471.1000      7.9208      2.5666      0.0744      5.0548    102.6552   -999.2500
  1471.2000      7.9208      2.5715      0.0989      4.7596     77.6818   -999.2500
  1471.3000      7.9311      2.5742      0.0373      4.5917     41.1291   -999.2500
  1471.4000      7.9311      2.5662      0.0725      5.0811     13.4002   -999.2500
  1471.5000      7.9370      2.5479      0.0200      6.1909      2.4910   -999.2500
  1471.6000      7.9370      2.5399      0.0037      6.6734      0.2538   -999.2500
  1471.7000      7.9370      2.5577      0.0366      5.5935      0.0136   -999.2500
  1471.8000      7.9337      2.5848      0.0848      3.9492      0.0000   -999.2500
  1471.9000      7.9337      2.5966      0.0952      3.2354   -999.2500   -999.2500
  1472.0000      7.9245      2.5918      0.0895      3.5274   -999.2500   -999.2500
  1472.1000      7.9245      2.5852      0.1033      3.9265   -999.2500   -999.2500
  1472.2000      7.9245      2.5861      0.0766      3.8730   -999.2500   -999.2500
  1472.3000      7.8682      2.5898      0.0634      3.6475   -999.2500   -999.2500
  1472.4000      7.8682      2.5836      0.0838      4.0246   -999.2500   -999.2500
  1472.5000      7.9185      2.5643      0.0528      5.1940   -999.2500   -999.2500
  1472.6000      7.9185      2.5420      0.0241      6.5445   -999.2500   -999.2500
  1472.7000      7.9185      2.5236      0.0134      7.6582   -999.2500   -999.2500
  1472.8000      7.9550      2.5155     -0.0117      8.1544   -999.2500   -999.2500
  1472.9000      7.9550      2.5271      0.0104      7.4515   -999.2500   -999.2500
  1473.0000      7.9252      2.5514      0.0373      5.9776   -999.2500   -999.2500
  1473.1000      7.9252      2.5679      0.0648      4.9757   -999.2500   -999.2500
  1473.2000      7.9252      2.5662      0.0657      5.0813   -999.2500   -999.2500
  1473.3000      7.8902      2.5492      0.0435      6.1097   -999.2500   -999.2500
  1473.4000      7.8902      2.5335     -0.0351      7.0618   -999.2500   -999.2500
  1473.5000      7.9352      2.5363      0.0027      6.8886   -999.2500   -999.2500
  1473.6000      7.9352      2.5515      0.0439      5.9681   -999.2500   -999.2500
  1473.7000      7.9352      2.5626      0.0757      5.2968   -999.2500   -999.2500
  1473.8000      7.8996      2.5670      0.0248      5.0292   -999.2500   -999.2500
  1473.9000      7.8996      2.5692      0.0405      4.8967   -999.2500   -999.2500
  1474.0000      7.8879      2.5711      0.0553      4.7847   -999.2500   -999.2500
  1474.1000      7.8879      2.5714      0.0614      4.7611   -999.2500   -999.2500
  1474.2000      7.8879      2.5616      0.0444      5.3573   -999.2500   -999.2500
  1474.3000      7.9487      2.5399      0.0160      6.6698   -999.2500   -999.2500
  1474.4000      7.9487      2.5189      0.0059      7.9437   -999.2500   -999.2500
  1474.5000      7.9587      2.5094     -0.0027      8.5185   -999.2500   -999.2500
  1474.6000      7.9587      2.5108      0.0258      8.4335   -999.2500   -999.2500
  1474.7000      7.9587      2.5125      0.0442      8.3326   -999.2500   -999.2500
  1474.8000      7.9443      2.5195     -0.0126      7.9083   -999.2500   -999.2500
  1474.9000      7.9443      2.5444      0.1003      6.4016   -999.2500   -999.2500
  1475.0000      7.8888      2.5761      0.1162      4.4762   -999.2500   -999.2500
  1475.1000      7.8888      2.6028      0.1148      2.8596   -999.2500   -999.2500
  1475.2000      7.8888      2.6240      0.1115      1.5747   -999.2500   -999.2500
  1475.3000      7.8497      2.6381      0.1238      0.7197   -999.2500   -999.2500
  1475.4000      7.8497      2.6393      0.1371      0.6487   -999.2500   -999.2500
  1475.5000      7.8291      2.6234      0.1148      1.6141   -999.2500   -999.2500
  1475.6000      7.8291      2.6017      0.0713      2.9264   -999.2500   -999.2500
  1475.7000      7.8291      2.5936      0.0816      3.4156   -999.2500   -999.2500
  1475.8000      7.8754      2.6020      0.0865      2.9074   -999.2500   -999.2500
  1475.9000      7.8754      2.6173      0.0890      1.9793   -999.2500   -999.2500
  1476.0000      7.9214      2.6314      0.1152      1.1294   -999.2500   -999.2500
  1476.1000      7.9214      2.6371      0.1255      0.7789   -999.2500   -999.2500
  1476.2000      7.9214      2.6362      0.1434      0.8335   -999.2500   -999.2500
  1476.3000      7.8991      2.6364      0.1301      0.8272   -999.2500   -999.2500
  1476.4000      7.8991      2.6347      0.1286      0.9258   -999.2500   -999.2500
  1476.5000      7.7584      2.6227      0.1184      1.6519   -999.2500   -999.2500
  1476.6000      7.7584      2.5998      0.1357      3.0395   -999.2500   -999.2500
  1476.7000      7.7584      2.5782      0.0325      4.3518   -999.2500   -999.2500
  1476.8000      7.8034      2.5755      0.0483      4.5164   -999.2500   -999.2500
  1476.9000      7.8034      2.5926      0.0619      3.4780   -999.2500   -999.2500
  1477.0000      7.8733      2.6101      0.0922      2.4196   -999.2500   -999.2500
  1477.1000      7.8733      2.6093      0.0778      2.4668   -999.2500   -999.2500
  1477.2000      7.8733      2.5918      0.0425      3.5300   -999.2500   -999.2500
  1477.3000      7.9125      2.5739      0.0353      4.6109   -999.2500   -999.2500
  1477.4000      7.9125      2.5624      0.0331      5.3078   -999.2500   -999.2500
  1477.5000      7.9379      2.5485      0.0699      6.1521   -999.2500   -999.2500
  1477.6000      7.9379      2.5249      0.0539      7.5821   -999.2500   -999.2500
  1477.7000      7.9379      2.4965      0.0186      9.3044   -999.2500   -999.2500
  1477.8000      7.9096      2.4746     -0.0240     10.6278   -999.2500   -999.2500
  1477.9000      7.9096      2.4662      0.0055     11.1375   -999.2500   -999.2500
  1478.0000      7.8715      2.4680      0.0230     11.0325   -999.2500   -999.2500
  1478.1000      7.8715      2.4776      0.0395     10.4462   -999.2500   -999.2500
  1478.2000      7.8715      2.5019      0.0540      8.9787   -999.2500   -999.2500
  1478.3000      7.8985      2.5433      0.0938      6.4650   -999.2500   -999.2500
  1478.4000      7.8985      2.5895      0.1437      3.6687   -999.2500   -999.2500
  1478.5000      7.9159      2.6199      0.1597      1.8252   -999.2500   -999.2500
  1478.6000      7.9159      2.6221      0.1508      1.6936   -999.2500   -999.2500
  1478.7000      7.9159      2.6098      0.0520      2.4370   -999.2500   -999.2500
