~Version Information
VERS.                      2.0: CWLS Log ASCII Standard - VERSION 2.0
WRAP.                       NO: One line per depth step
~Well Information Block
STRT.FT               400.0000: 
STOP.FT              2232.0000: 
STEP.FT                 0.2500: 
NULL.                -999.2500: 
COMP.          Evergreen Operating Corporation: COMPANY
WELL.                Croc 42-9: WELL
FLD.           Purgatorie River: FIELD
LOC.           2262' FNL & 238' FEL: LOCATION
STAT.                 Colorado: State
CNTY.               Las Animas: COUNTY
CTRY. USA : Country
SECT. 9 : Section
TOWN. 32S : Township
RANG. 66W : Range
SRVC.                Patterson: SERVICE COMPANY
DATE.          Wed Jul 21 23:25:54 2004: LOG DATE
API.           05 071 08106 00: UNIQUE WELL ID
~Curve Information Block
DEPT.FT            0 000 00 00: Depth
SN.Ohm-m                      : IEL Short Normal
SP.mV                         : IEL Spontaneous Potential
DIR.Ohm-m                     : IEL Induction Resistivity
GR.GAPI                       : Gamma Ray
~Parameter Information Block
~A  Depth        SN          SP         DIR          GR     
# ...
  1606.0000     15.0256    108.1216     11.6906    141.1223
  1606.2500     15.1920    108.0768     11.8143    136.8982
  1606.5000     15.3865    108.0272     11.9674    131.3385
  1606.7500     15.5918    107.9984     12.1577    128.6973
  1607.0000     15.7819    108.0017     12.3958    126.2127
  1607.2500     15.9363    108.0294     12.6952    125.1990
  1607.5000     16.0696    108.0581     13.0615    124.5686
  1607.7500     16.2301    108.0564     13.4789    125.0360
  1608.0000     16.4477    107.9986     13.9092    127.1000
  1608.2500     16.7183    107.8909     14.3099    128.6624
  1608.5000     17.0491    107.7991     14.6580    129.3789
  1608.7500     17.4832    107.8397     14.9609    128.1095
  1609.0000     18.0707    108.1143     15.2490    124.1053
  1609.2500     18.8215    108.6252     15.5615    121.0176
  1609.5000     19.6872    109.2541     15.9336    117.2500
  1609.7500     20.5854    109.8364     16.3886    115.4507
  1610.0000     21.4300    110.2616     16.9293    112.8525
  1610.2500     22.1468    110.5145     17.5347    110.7168
  1610.5000     22.7106    110.6411     18.1633    107.6831
  1610.7500     23.1819    110.6922     18.7640    106.8764
  1611.0000     23.6445    110.6908     19.2899    108.5577
  1611.2500     24.0901    110.6349     19.7091    111.1025
  1611.5000     24.4019    110.5162     20.0106    114.8369
  1611.7500     24.4606    110.3388     20.2064    115.9905
  1612.0000     24.2602    110.1277     20.3278    114.8332
  1612.2500     23.9181    109.9271     20.4185    112.5856
  1612.5000     23.6117    109.7886     20.5242    108.7390
  1612.7500     23.5122    109.7520     20.6819    106.9806
  1613.0000     23.7092    109.8253     20.9103    107.3945
  1613.2500     24.1497    109.9755     21.2052    110.4227
  1613.5000     24.6811    110.1403     21.5392    118.2779
  1613.7500     25.1579    110.2585     21.8727    123.7196
  1614.0000     25.5092    110.2970     22.1677    127.9338
  1614.2500     25.7774    110.2593     22.3972    126.7258
  1614.5000     26.1464    110.1777     22.5420    119.7253
  1614.7500     26.8743    110.0985     22.5795    113.4125
  1615.0000     28.0993    110.0623     22.4748    104.8628
  1615.2500     29.6468    110.0874     22.1796    101.0241
  1615.5000     31.0679    110.1665     21.6449     98.1350
  1615.7500     31.9131    110.2765     20.8437     97.1651
  1616.0000     31.9333    110.3929     19.7953     95.2729
  1616.2500     31.1118    110.5027     18.5703     93.3204
  1616.5000     29.6158    110.6104     17.2687     90.2062
  1616.7500     27.6643    110.7345     15.9856     88.9168
  1617.0000     25.4199    110.8939     14.7883     89.3649
  1617.2500     23.0199    111.0949     13.7121     91.5898
  1617.5000     20.6224    111.3270     12.7655     98.1279
  1617.7500     18.3756    111.5651     11.9387    104.6741
  1618.0000     16.3655    111.7793     11.2103    117.0913
  1618.2500     14.6152    111.9436     10.5564    126.1092
  1618.5000     13.1389    112.0408      9.9592    138.6586
  1618.7500     11.9794    112.0639      9.4132    145.4264
  1619.0000     11.1681    112.0154      8.9244    152.5074
  1619.2500     10.6622    111.9065      8.5039    155.4034
  1619.5000     10.3699    111.7537      8.1609    158.2174
  1619.7500     10.2230    111.5781      7.8982    159.8531
  1620.0000     10.1719    111.4077      7.7129    162.5665
  1620.2500     10.1547    111.2755      7.5984    164.4332
  1620.5000     10.1370    111.2039      7.5476    166.7587
  1620.7500     10.1479    111.1849      7.5527    167.6718
  1621.0000     10.2262    111.1763      7.6059    167.8204
  1621.2500     10.3591    111.1255      7.6987    167.3087
  1621.5000     10.5011    111.0062      7.8248    166.4360
  1621.7500     10.6322    110.8396      7.9824    166.0308
  1622.0000     10.7687    110.6785      8.1751    165.0816
  1622.2500     10.9341    110.5673      8.4094    163.6042
  1622.5000     11.1432    110.5166      8.6909    159.6979
  1622.7500     11.4166    110.5141      9.0205    156.1940
  1623.0000     11.7961    110.5467      9.3929    150.2502
  1623.2500     12.3043    110.6036      9.7963    146.2198
  1623.5000     12.8912    110.6652     10.2126    140.7306
  1623.7500     13.5017    110.7030     10.6217    137.6330
  1624.0000     14.1585    110.6970     11.0092    133.4854
  1624.2500     14.8840    110.6481     11.3720    130.6008
  1624.5000     15.6078    110.5703     11.7211    125.5055
  1624.7500     16.2345    110.4772     12.0754    121.5324
  1625.0000     16.7246    110.3826     12.4539    115.0369
  1625.2500     17.0583    110.3070     12.8684    110.8451
  1625.5000     17.2119    110.2719     13.3153    106.3807
  1625.7500     17.1945    110.2863     13.7671    105.8367
  1626.0000     17.0629    110.3385     14.1616    110.0409
  1626.2500     16.8846    110.4009     14.3994    115.8592
  1626.5000     16.7013    110.4451     14.3757    126.1552
  1626.7500     16.5929    110.4531     14.0516    131.5228
  1627.0000     16.7144    110.4211     13.5124    133.8930
  1627.2500     17.1076    110.3582     12.9329    131.2803
  1627.5000     17.5595    110.2852     12.4741    122.9533
  1627.7500     17.8089    110.2287     12.2084    116.1821
  1628.0000     17.8244    110.2115     12.1129    107.1378
  1628.2500     17.7525    110.2411     12.1102    103.4491
  1628.5000     17.6585    110.3075     12.1228    103.4870
  1628.7500     17.4523    110.3906     12.1092    107.6240
  1629.0000     17.0339    110.4689     12.0633    119.0944
  1629.2500     16.3989    110.5252     11.9897    128.9758
  1629.5000     15.6379    110.5536     11.8865    144.0916
  1629.7500     14.8965    110.5627     11.7464    152.4379
  1630.0000     14.2980    110.5730     11.5692    160.0427
  1630.2500     13.8718    110.6036     11.3696    161.6653
  1630.5000     13.5626    110.6611     11.1743    160.5717
  1630.7500     13.3013    110.7395     11.0121    158.8306
  1631.0000     13.0678    110.8269     10.9045    156.1569
  1631.2500     12.9048    110.9082     10.8624    154.4060
  1631.5000     12.8755    110.9644     10.8891    151.1891
  1631.7500     13.0038    110.9780     10.9850    148.4084
  1632.0000     13.2696    110.9425     11.1516    143.6810
  1632.2500     13.6493    110.8646     11.3936    140.6401
  1632.5000     14.1245    110.7570     11.7182    136.6794
  1632.7500     14.6808    110.6300     12.1327    134.3503
  1633.0000     15.3442    110.4908     12.6407    130.9622
  1633.2500     16.1866    110.3470     13.2388    128.6679
  1633.5000     17.2441    110.2082     13.9146    125.3120
  1633.7500     18.4467    110.0797     14.6463    123.2966
  1634.0000     19.6677    109.9548     15.4082    120.6101
  1634.2500     20.8382    109.8163     16.1795    118.7432
  1634.5000     21.9990    109.6494     16.9529    114.8596
  1634.7500     23.2612    109.4540     17.7364    110.8955
  1635.0000     24.7121    109.2450     18.5502    102.3510
  1635.2500     26.3446    109.0386     19.4199     95.3986
  1635.5000     28.0439    108.8389     20.3698     85.0612
  1635.7500     29.6437    108.6351     21.4123     79.3223
  1636.0000     31.0085    108.4042     22.5383     73.0768
  1636.2500     32.0457    108.1206     23.7113     70.1353
  1636.5000     32.7128    107.7718     24.8746     66.4827
  1636.7500     33.0813    107.3708     25.9699     64.0754
  1637.0000     33.3230    106.9515     26.9580     60.3271
  1637.2500     33.5632    106.5526     27.8275     57.9637
  1637.5000     33.7893    106.2006     28.5844     55.1986
  1637.7500     33.9377    105.8954     29.2302     54.0843
  1638.0000     34.0041    105.6054     29.7476     53.2646
  1638.2500     34.0467    105.2831     30.1066     52.7497
  1638.5000     34.1416    104.8978     30.2907     50.9710
  1638.7500     34.3333    104.4565     30.3210     48.9276
  1639.0000     34.5979    103.9938     30.2567     45.3803
  1639.2500     34.8555    103.5469     30.1732     43.4023
