~Version Information
VERS.                      2.0: CWLS Log ASCII Standard - VERSION 2.0
WRAP.                       NO: One line per depth step
~Well Information Block
STRT.FT               380.0000: 
STOP.FT              1887.5000: 
STEP.FT                 0.1000: 
NULL.                -999.2500: 
COMP.          Pioneer Natural Resources: COMPANY
WELL.          Cortina 23-25 Tr: WELL
FLD.           Purgatoire River: FIELD
LOC.           2521' FSL & 2345' FWL: LOCATION
STAT.                 Colorado: State
CNTY.               Las Animas: COUNTY
CTRY. USA : Country
SECT. 25 : Section
TOWN. 32S : Township
RANG. 67W : Range
SRVC.                Patterson: SERVICE COMPANY
DATE.          Mon Sep 26 06:09:01 2005: LOG DATE
API.           05 071 08534 00: UNIQUE WELL ID
~Curve Information Block
DEPT.FT            0 000 00 00: Depth
DCAL.in                       : CDL Caliper
RHOB.g/cc                     : CDL Bulk Density
RHOC.g/cc                     : CDL Density Correction
DPOR.pu                       : CDL Density Porosity
GR.GAPI                       : Gamma Ray
NPOR.pu                       : Neutron Porosity
~Parameter Information Block
~A  Depth       DCAL        RHOB        RHOC        DPOR         GR         NPOR    
# ...
   677.6000      8.0002      2.6135      0.1483      2.2106    123.6528     26.4070
   677.7000      7.9830      2.5892      0.0353      3.6860    120.8874     25.6929
   677.8000      7.9664      2.5582      0.0384      5.5622    121.0197     25.2929
   677.9000      7.9517      2.5298      0.0367      7.2857    123.3514     25.1903
   678.0000      7.9398      2.5057     -0.0441      8.7443    125.0588     25.0417
   678.1000      7.9315      2.4957     -0.0249      9.3524    125.5725     25.0908
   678.2000      7.9275      2.4944      0.0556      9.4298    126.1672     25.6195
   678.3000      7.9278      2.4934     -0.0238      9.4914    127.8659     26.2881
   678.4000      7.9323      2.4968      0.0228      9.2865    130.5688     26.5929
   678.5000      7.9404      2.4962      0.0261      9.3202    134.1208     26.5666
   678.6000      7.9511      2.4894      0.0351      9.7346    135.7081     26.5908
   678.7000      7.9635      2.4961      0.0478      9.3259    132.9325     26.8050
   678.8000      7.9761      2.5293      0.0666      7.3178    127.9550     26.9730
   678.9000      7.9879      2.5821      0.0991      4.1124    121.9955     26.8468
   679.0000      7.9977      2.6316      0.1505      1.1139    117.0652     26.6466
   679.1000      8.0045      2.6545      0.1784     -0.2715    117.6580     26.6949
   679.2000      8.0078      2.6558      0.1420     -0.3533    123.6792     26.8949
   679.3000      8.0071      2.6549      0.1736     -0.2996    129.4146     27.0993
   679.4000      8.0027      2.6524      0.1873     -0.1435    129.7522     27.2321
   679.5000      7.9951      2.6346      0.1767      0.9320    125.0833     27.1974
   679.6000      7.9851      2.5931      0.1201      3.4495    120.2295     27.1529
   679.7000      7.9741      2.5412      0.0140      6.5966    115.3959     27.2118
   679.8000      7.9632      2.5059     -0.0072      8.7314    108.0645     27.1336
   679.9000      7.9539      2.4867      0.0374      9.8973    100.6164     26.7508
   680.0000      7.9472      2.4688      0.0077     10.9809     96.3458     26.3599
   680.1000      7.9438      2.4649     -0.0374     11.2161     96.0245     26.2631
   680.2000      7.9440      2.4887     -0.0181      9.7729    101.7787     26.1110
   680.3000      7.9476      2.5253      0.0233      7.5585    109.8928     25.5220
   680.4000      7.9540      2.5590      0.0609      5.5156    112.1179     24.7948
   680.5000      7.9623      2.5873      0.0846      3.8002    108.0901     24.2840
   680.6000      7.9716      2.6061      0.0529      2.6579    103.6534     24.0301
   680.7000      7.9810      2.6152      0.1486      2.1102    103.4448     23.7891
   680.8000      7.9896      2.6152      0.1570      2.1119    105.4448     23.3723
   680.9000      7.9972      2.6056      0.1281      2.6899    104.0009     22.9469
   681.0000      8.0033      2.5883      0.1389      3.7416    102.0075     22.6414
   681.1000      8.0081      2.5698      0.0834      4.8592    108.3922     22.4145
   681.2000      8.0118      2.5628      0.0833      5.2868    121.8627     22.2295
   681.3000      8.0148      2.5662      0.1284      5.0772    131.5250     22.0607
   681.4000      8.0173      2.5691      0.0588      4.9047    133.3557     22.0684
   681.5000      8.0198      2.5661      0.1414      5.0823    130.7686     22.2045
   681.6000      8.0225      2.5517      0.1016      5.9554    122.2865     22.1652
   681.7000      8.0253      2.5335      0.0881      7.0611    112.3717     22.1917
   681.8000      8.0283      2.5323      0.1056      7.1337    111.5371     22.5867
   681.9000      8.0311      2.5528      0.1309      5.8911    116.7176     23.1280
   682.0000      8.0333      2.5792      0.1254      4.2927    119.5442     23.6943
   682.1000      8.0344      2.6036      0.0844      2.8107    118.7902     24.2697
   682.2000      8.0338      2.6352      0.0942      0.8979    115.6144     24.7714
   682.3000      8.0311      2.6696      0.1791     -1.1854    111.7954     25.2547
   682.4000      8.0261      2.6822      0.2117     -1.9513    110.0566     25.6505
   682.5000      8.0186      2.6626      0.1967     -0.7642    109.5954     25.9294
   682.6000      8.0089      2.6249      0.1749      1.5208    109.8948     26.0764
   682.7000      7.9977      2.5937      0.0917      3.4114    113.5848     25.9207
   682.8000      7.9856      2.5801      0.0711      4.2347    118.2530     25.6837
   682.9000      7.9735      2.5685      0.0257      4.9383    119.1919     25.7566
   683.0000      7.9625      2.5522     -0.0300      5.9264    115.7263     25.9004
   683.1000      7.9532      2.5478     -0.0494      6.1945    111.7360     25.9202
   683.2000      7.9462      2.5580      0.0358      5.5786    110.9079     26.0314
   683.3000      7.9420      2.5637      0.0863      5.2283    112.2508     26.0761
   683.4000      7.9406      2.5599      0.0821      5.4601    110.8717     25.8720
   683.5000      7.9420      2.5615      0.0332      5.3621    105.9230     25.6348
   683.6000      7.9461      2.5740      0.0351      4.6064    104.4164     25.4337
   683.7000      7.9527      2.5807      0.0893      4.2028    110.0635     25.2012
   683.8000      7.9615      2.5684      0.0430      4.9465    117.5671     24.9464
   683.9000      7.9724      2.5422      0.0726      6.5337    120.5944     24.8260
   684.0000      7.9848      2.5133      0.0540      8.2834    119.7331     24.9329
   684.1000      7.9984      2.4974      0.0109      9.2478    118.1682     24.9597
   684.2000      8.0125      2.5090      0.0628      8.5474    115.3550     24.6059
   684.3000      8.0262      2.5444      0.1317      6.4003    111.8075     23.9418
   684.4000      8.0386      2.5861      0.1442      3.8741    108.3651     23.3466
   684.5000      8.0488      2.6255      0.1598      1.4822    103.3222     23.1747
   684.6000      8.0560      2.6672      0.1782     -1.0441     99.0596     23.3211
   684.7000      8.0597      2.7022      0.2477     -3.1634     97.4424     23.4698
   684.8000      8.0595      2.7108      0.2012     -3.6862     99.5055     23.5619
   684.9000      8.0554      2.6919      0.2124     -2.5411    105.0514     23.8082
   685.0000      8.0478      2.6619      0.1619     -0.7231    109.7098     24.0428
   685.1000      8.0374      2.6303      0.1688      1.1929    112.8935     24.1710
   685.2000      8.0250      2.5897      0.1091      3.6564    117.1023     24.6494
   685.3000      8.0116      2.5471      0.0201      6.2348    119.5840     25.2511
   685.4000      7.9981      2.5322     -0.0290      7.1385    118.0274     25.2990
   685.5000      7.9852      2.5525      0.0458      5.9100    119.0179     25.0597
   685.6000      7.9735      2.5798      0.1000      4.2547    122.2683     24.9874
   685.7000      7.9634      2.5901      0.0771      3.6319    119.3023     24.9463
   685.8000      7.9550      2.5801      0.1105      4.2367    111.0843     24.7896
   685.9000      7.9482      2.5602      0.0567      5.4444    104.3584     24.5351
   686.0000      7.9431      2.5490      0.0211      6.1207     99.8655     24.1406
   686.1000      7.9394      2.5491      0.0681      6.1128     94.4300     23.7138
   686.2000      7.9370      2.5505     -0.0080      6.0280     89.9830     23.5760
   686.3000      7.9357      2.5570      0.0617      5.6368     89.3934     23.8990
   686.4000      7.9355      2.5661      0.0566      5.0871     91.8558     24.4479
   686.5000      7.9359      2.5604      0.0679      5.4278     96.1207     24.7460
   686.6000      7.9369      2.5410      0.0094      6.6065    101.9008     24.4986
   686.7000      7.9381      2.5324      0.0274      7.1273    107.2308     23.8616
   686.8000      7.9393      2.5395      0.0926      6.6964    110.6341     23.4463
   686.9000      7.9403      2.5403      0.1179      6.6481    113.5848     23.6045
   687.0000      7.9408      2.5307      0.0586      7.2277    114.4827     24.1123
   687.1000      7.9410      2.5257      0.0733      7.5354    113.6838     24.8256
