~Version Information
 VERS.                                  2.0 : CWLS LAS VERSION
 WRAP.                                   NO : WRAPING MODE
 SWARE .                  MController 2.5.1 : SOFTWARE VERSION
~Well Information
 WELL.                 Rock Island 44-24 Tr : WELL
 COMP.  Pioneer Natural Resources USA, Inc. : COMPANY
 FLD.                      Purgatoire River : FIELD
 LOC.              SE/SE Sec.24, T32S, R66W : LOCATION
 DATE.                04/17/2006-04/18/2006 : DATE(S) LOGGED
 SRVC.                  Entrada GeoSciences : SERVICE COMPANY
 STAT.                             Colorado : STATE
 CNTY.                           Las Animas : COUNTY
 CTRY.                        United States : COUNTRY
 API.                       05-071-08680-00 : API NUMBER
 STRT.FT                             729.00 : START DEPTH
 STOP.FT                            1245.00 : STOP DEPTH
 STEP.FT                               1.00 : DEPTH INCREMENT
 NULL.                                -9999 : NULL VALUE
~Curve information
 DEPTH.FT                                   :
 ROP.MIN/FT                                 :
 GAS.UNITS                                  :
~ASCII Log data
# ...
      929.00         0.20       1391.7 
      930.00         0.07        863.4 
      931.00         0.17        800.0 
      932.00         0.13        771.9 
      933.00         0.13        753.3 
      934.00         0.13        743.4 
      935.00         0.20        725.5 
      936.00         0.17        707.3 
      937.00         0.17        693.9 
      938.00         0.20        673.1 
      939.00         0.30        672.1 
      940.00         0.28        692.6 
      941.00         0.07        694.8 
      942.00         0.27        698.0 
      943.00         0.13        690.3 
      944.00         0.20        684.3 
      945.00         0.13        680.1 
      946.00         0.17        669.2 
      947.00         0.13        664.7 
      948.00         0.13        654.2 
      949.00         0.13        645.6 
      950.00         0.17        638.5 
      951.00         0.27        649.1 
      952.00         0.27        683.6 
      953.00         0.17        691.3 
      954.00         0.13        693.9 
      955.00         0.13        694.8 
      956.00         0.37        630.5 
      957.00         0.27        685.9 
      958.00         0.12        732.9 
      959.00         0.30       1028.4 
      960.00         0.13       1141.9 
      961.00         0.13       1222.2 
      962.00         0.20       1283.6 
      963.00         0.17       1285.5 
      964.00         0.20       1236.3 
      965.00         0.20       1126.9 
      966.00         0.20       1013.4 
      967.00         0.17        937.9 
      968.00         0.17        870.7 
      969.00         0.23        807.7 
      970.00         0.27        759.7 
      971.00         0.27        725.2 
      972.00         0.13        712.4 
      973.00         0.30        690.0 
      974.00         0.17        686.2 
      975.00         0.15        680.4 
      976.00         0.17        677.5 
      977.00         0.13        671.1 
      978.00         0.13        667.3 
      979.00         0.13        667.6 
      980.00         0.17        667.3 
      981.00         0.13        666.3 
      982.00         0.17        667.9 
      983.00         0.20        675.3 
      984.00         0.27        713.7 
      985.00         0.27        729.7 
      986.00         0.20        702.5 
      987.00         0.27        686.5 
      988.00         0.20        648.8 
      989.00         0.37        731.0 
      990.00         0.17       1050.8 
      991.00         0.17        960.9 
      992.00         0.13        908.5 
      993.00         0.13        868.2 
      994.00         0.20        822.7 
      995.00         0.13        799.4 
      996.00         0.13        781.5 
      997.00         0.17        763.3 
      998.00         0.10        756.5 
      999.00         0.17        747.6 
     1000.00         0.13        745.0 
     1001.00         0.13        740.9 
     1002.00         0.20        736.7 
     1003.00         0.17        738.6 
     1004.00         0.15        744.7 
     1005.00         0.20        750.1 
     1006.00         0.10        748.9 
     1007.00         0.13        738.0 
     1008.00         0.17        724.6 
     1009.00         0.13        718.2 
     1010.00         0.37        723.6 
     1011.00         0.27        732.6 
     1012.00         0.17        697.1 
     1013.00         0.17        673.7 
     1014.00         0.40        628.0 
     1015.00         0.27        718.8 
     1016.00         0.17        832.0 
     1017.00         0.30       1359.1 
     1018.00         0.17       1554.2 
     1019.00         0.62       1530.2 
     1020.00         0.20       1010.2 
     1021.00         0.07        980.4 
     1022.00         0.13        927.3 
     1023.00         0.17        867.5 
     1024.00         0.13        821.8 
     1025.00         0.13        798.4 
     1026.00         0.10        790.8 
     1027.00         0.07        790.1 
     1028.00         0.20        814.1 
     1029.00         0.20        784.4 
     1030.00         0.27        784.7 
     1031.00         0.17        762.6 
     1032.00         0.13        730.0 
     1033.00         0.27        700.6 
     1034.00         0.13        700.2 
     1035.00         0.17        689.1 
     1036.00         0.23        682.0 
     1037.00         0.25        679.8 
     1038.00         0.27        697.7 
     1039.00         0.27        686.5 
     1040.00         0.07        683.9 
     1041.00         0.27        676.3 
     1042.00         0.27        630.8 
     1043.00         0.33        633.7 
     1044.00         0.27        790.1 
     1045.00         0.23       1091.7 
     1046.00         0.23       1264.1 
     1047.00         0.23       1326.1 
     1048.00         0.20       1304.4 
     1049.00         0.17       1229.2 
     1050.00         0.20        747.6 
     1051.00         0.27        710.5 
     1052.00         0.17        698.0 
     1053.00         0.13        692.3 
     1054.00         0.10        694.8 
     1055.00         0.17        694.8 
     1056.00         0.13        697.4 
     1057.00         0.20        697.7 
     1058.00         0.13        694.5 
     1059.00         0.13        689.1 
     1060.00         0.17        681.7 
     1061.00         0.17        673.7 
     1062.00         0.17        667.9 
     1063.00         0.27        670.5 
     1064.00         0.23        684.9 
     1065.00         0.22        699.9 
     1066.00         0.33        690.0 
     1067.00         0.27        698.3 
     1068.00         0.27        657.7 
     1069.00         0.30        623.5 
     1070.00         0.30        600.1 
     1071.00         0.40        557.3 
     1072.00         0.27        651.0 
     1073.00         0.23        845.1 
     1074.00         0.20       1171.7 
     1075.00         0.23       1390.1 
     1076.00         0.20       1452.8 
     1077.00         0.13       1438.1 
     1078.00         0.18       1360.0 
     1079.00         0.20       1209.4 
     1080.00         0.20        841.3 
     1081.00         0.20        796.5 
     1082.00         0.17        776.0 
     1083.00         0.23        755.9 
     1084.00         0.13        741.5 
     1085.00         0.17        724.6 
     1086.00         0.13        717.5 
     1087.00         0.20        712.4 
     1088.00         0.20        704.1 
     1089.00         0.17        694.5 
     1090.00         0.17        692.6 
     1091.00         0.23        693.5 
     1092.00         0.20        693.2 
     1093.00         0.18        694.2 
     1094.00         0.17        722.3 
     1095.00         0.17        704.1 
     1096.00         0.20        687.1 
     1097.00         0.27        703.8 
     1098.00         0.33        667.0 
     1099.00         0.37        651.3 
     1100.00         0.20        630.2 
     1101.00         0.23        584.2 
     1102.00         0.33        690.0 
     1103.00         0.23        819.5 
     1104.00         0.20       1104.8 
     1105.00         0.17       1488.3 
     1106.00         0.17       1701.3 
     1107.00         0.18       1760.8 
     1108.00         0.40       1670.9 
     1109.00         0.10       1584.2 
     1110.00         0.50       1075.7 
     1111.00         0.50       1006.3 
     1112.00         0.17        934.7 
     1113.00         0.10        900.5 
     1114.00         0.07        882.5 
     1115.00         0.13        843.2 
     1116.00         0.13        810.3 
     1117.00         0.17        784.4 
     1118.00         0.30        773.5 
     1119.00         0.13        771.9 
     1120.00         0.13        764.9 
     1121.00         0.13        759.1 
     1122.00         0.13        758.8 
     1123.00         0.13        757.8 
     1124.00         0.13        758.5 
     1125.00         0.17        766.8 
     1126.00         0.17        767.7 
     1127.00         0.13        770.0 
     1128.00         0.18        770.6 
