~Version Information
VERS.                      2.0: CWLS Log ASCII Standard - VERSION 2.0
WRAP.                       NO: One line per depth step
~Well Information Block
STRT.FT                -6.0000: 
STOP.FT               783.7500: 
STEP.FT                 0.2500: 
NULL.                -999.2500: 
COMP.          Pioneer Natural Resources: COMPANY
WELL.           Weissach 32-32: WELL
FLD.           Purgatorie River: FIELD
LOC.           --2193' FNL & 2256' FEL--: LOCATION
STAT.                       CO: State
CNTY.               Las Animas: COUNTY
CTRY. USA : Country
SECT. 32 : Section
TOWN. 33S : Township
RANG. 65W : Range
SRVC.          Patterson Wireline: SERVICE COMPANY
DATE.          Thu Sep 29 12:52:09 2005: LOG DATE
API.           05 071 08523 00: UNIQUE WELL ID
~Curve Information Block
DEPT.FT            0 000 00 00: Depth
CCL.                          : Casing Collar Locator
TT3.usec                      : CBL 3' Travel Time
AMP3.mV                       : CBL 3' Amplitude
GR.GAPI                       : Gamma Ray
~Parameter Information Block
~A  Depth       CCL         TT3         AMP3         GR     
# ...
   262.0000      0.0000    617.8502      3.7886    111.8815
   262.2500      0.0000    639.9633      3.8265    111.8383
   262.5000      0.0000    654.2942      3.8850    110.4078
   262.7500      0.0000    657.7235      3.9512    109.0523
   263.0000      0.0000    653.8455      4.0182    109.1608
   263.2500      0.0000    649.1981      4.0814    110.6623
   263.5000      0.0000    648.9866      4.1630    112.2632
   263.7500      0.0000    655.2734      4.3161    112.8869
   264.0000      0.0000    667.5603      4.5697    112.3739
   264.2500      0.0000    683.2659      4.8690    110.9705
   264.5000      0.0000    698.2240      5.0987    108.7970
   264.7500      0.0000    708.5720      5.1777    105.8727
   265.0000      0.0000    712.6450      5.1197    102.1990
   265.2500      0.0000    711.3981      5.0076     97.6003
   265.5000      0.0000    707.7930      4.9293     91.6783
   265.7500      0.0000    705.1798      4.9357     84.2511
   266.0000      0.0000    704.8927      5.0372     75.9499
   266.2500      0.0000    704.8034      5.2175     68.0887
   266.5000      0.0000    699.9442      5.4362     61.9005
   266.7500      0.0000    684.5793      5.6222     58.2062
   267.0000      0.0000    655.0759      5.6978     57.6094
   267.2500      0.0000    613.1115      5.6489     60.3277
   267.5000      0.0000    566.7300      5.5579     65.8262
   267.7500      0.0000    526.6474      5.5298     73.1038
   268.0000      0.0000    500.0401      5.5854     81.2190
   268.2500      0.0000    487.6329      5.6531     89.1040
   268.5000      0.0000    485.7085      5.6553     95.1560
   268.7500      0.0000    489.3280      5.5818     97.8503
   269.0000      0.0000    494.0670      5.4871     97.2259
   269.2500      0.0000    496.9173      5.4341     95.5730
   269.5000      0.0000    496.9977      5.4436     96.0197
   269.7500      0.0000    495.3430      5.4911     99.8700
   270.0000      0.0000    493.6634      5.5467    105.4291
   270.2500      0.0000    493.0241      5.6118    109.8010
   270.5000      0.0000    493.2529      5.7117    111.6964
   270.7500      0.0000    493.4499      5.8565    112.2177
   271.0000      0.0000    493.1285      6.0192    113.2033
   271.2500      0.0000    492.8622      6.1513    115.2412
   271.5000      0.0000    493.7935      6.2158    117.3722
   271.7500      0.0000    496.6252      6.2067    118.4549
   272.0000      0.0000    501.1198      6.1489    118.3233
   272.2500      0.0000    506.3025      6.0832    117.4728
   272.5000      0.0000    510.9634      6.0457    116.2192
   272.7500      0.0000    514.2359      6.0450    114.6547
   273.0000      0.0000    515.9445      6.0536    113.1234
   273.2500      0.0000    516.4079      6.0262    112.2589
   273.5000      0.0000    515.9233      5.9303    112.5169
   273.7500      0.0000    514.5361      5.7548    113.7357
   274.0000      0.0000    512.4072      5.4974    115.1890
   274.2500      0.0000    510.2788      5.1594    116.2656
   274.5000      0.0000    509.1869      4.7559    117.0594
   274.7500      0.0000    509.4148      4.3261    117.8151
   275.0000      0.0000    509.9768      3.9329    117.7321
   275.2500      0.0000    509.5764      3.6411    115.1717
   275.5000      0.0000    507.8867      3.4791    109.7601
   275.7500      0.0000    505.4135      3.4150    103.8905
   276.0000      0.0000    502.1162      3.3780    101.1551
   276.2500      0.0000    496.7022      3.3088    103.0629
   276.5000      0.0000    487.6297      3.1994    107.7316
   276.7500      0.0000    474.8109      3.0998    111.7274
   277.0000      0.0000    460.3452      3.0883    112.7417
   277.2500      0.0000    447.5159      3.2134    110.8629
   277.5000      0.0000    438.8506      3.4526    108.1395
   277.7500      0.0000    435.0751      3.7304    106.8129
   278.0000      0.0000    435.6591      3.9732    107.4511
   278.2500      0.0000    439.6772      4.1427    108.9042
   278.5000      0.0000    445.9119      4.2303    109.9840
   278.7500      0.0000    452.9080      4.2353    110.5082
   279.0000      0.0000    459.7318      4.1594    110.8477
   279.2500      0.0000    466.3330      4.0284    111.4808
   279.5000      0.0000    472.4953      3.9082    112.9677
   279.7500      0.0000    476.9474      3.8747    115.3436
   280.0000      0.0000    478.2866      3.9519    117.2324
   280.2500      0.0000    476.3049      4.0815    116.1816
   280.5000      0.0000    471.6932      4.1516    110.4423
   280.7500      0.0000    464.9980      4.0562    100.5338
   281.0000      0.0000    456.6810      3.7410     89.0307
   281.2500      0.0000    447.8810      3.2233     78.9676
   281.5000      0.0000    440.2848      2.5917     72.4502
   281.7500      0.0000    435.0706      1.9803     70.1291
   282.0000      0.0000    432.2654      1.5169     71.2853
   282.2500      0.0000    431.1211      1.2709     74.3883
   282.5000      0.0000    430.8285      1.2367     77.9727
   282.7500      0.0000    430.9813      1.3556     81.1483
   283.0000      0.0000    431.8438      1.5495     83.3765
   283.2500      0.0000    434.8518      1.7386     83.9967
   283.5000      0.0000    443.0879      1.8553     82.2178
   283.7500      0.0000    460.4409      1.8740     77.8292
   284.0000      0.0000    488.6964      1.8330     71.7882
   284.2500      0.0000    524.7249      1.8050     65.6395
   284.5000      0.0000    561.3335      1.8409     60.3082
   284.7500      0.0000    592.5762      1.9501     55.7581
   285.0000      0.0000    619.3445      2.1229     51.6600
   285.2500      0.0000    648.6000      2.3445     47.9709
   285.5000      0.0000    684.3376      2.5942     45.0773
   285.7500      2.0000    719.7504      2.8571     43.6932
   286.0000      0.0000    742.1104      3.1505     44.4919
   286.2500      0.0000    746.4871      3.5454     47.6956
   286.5000      0.0000    742.0737      4.1497     52.9777
   286.7500      0.0000    743.9865      5.0209     59.4109
   287.0000      0.0000    759.8837      6.0526     65.3380
   287.2500      0.0000    785.1535      6.9804     68.7927
   287.5000      0.0000    809.5233      7.5648     68.6117
   287.7500      0.0000    825.2751      7.7727     65.2151
   288.0000      0.0000    828.8386      7.7612     60.3584
   288.2500      0.0000    818.8200      7.7206     56.2723
   288.5000      0.0000    796.0923      7.7588     54.6106
   288.7500      0.0000    765.4351      7.8932     55.5906
   289.0000      0.0000    734.8837      8.0973     58.2128
   289.2500      0.0000    711.4708      8.3446     61.5726
   289.5000      0.0000    696.2978      8.6303     65.7027
   289.7500      0.0000    683.1854      8.9635     70.8584
   290.0000      0.0000    662.0328      9.3395     76.4993
   290.2500      0.0000    624.9781      9.7217     81.6295
   290.5000      0.0000    572.2728     10.0582     86.0500
   290.7500      0.0000    513.7419     10.3178     90.6985
   291.0000      0.0000    462.9568     10.5048     96.6454
   291.2500      0.0000    428.2954     10.6450    104.0453
   291.5000      0.0000    409.0942     10.7692    112.0608
   291.7500      0.0000    399.0730     10.9047    119.3976
   292.0000      0.0000    391.9026     11.0668    124.6299
   292.2500      0.0000    384.2930     11.2503    126.4591
   292.5000      0.0000    376.1097     11.4339    124.5280
   292.7500      0.0000    368.8241     11.5983    120.2085
   293.0000      0.0000    363.6898     11.7370    116.1921
   293.2500      0.0000    360.8388     11.8515    114.9281
   293.5000      0.0000    359.5880     11.9413    117.1056
   293.7500      0.0000    359.1461     12.0011    121.1982
   294.0000      0.0000    359.0019     12.0264    124.4659
   294.2500      0.0000    358.8981     12.0199    124.8185
   294.5000      0.0000    358.6594     11.9905    122.0876
   294.7500      0.0000    358.0528     11.9445    117.5652
   295.0000      0.0000    356.8164     11.8798    112.5883
   295.2500      0.0000    354.9295     11.7923    107.9064
