~Version Information
VERS.                      2.0: CWLS Log ASCII Standard - VERSION 2.0
WRAP.                       NO: One line per depth step
~Well Information Block
STRT.FT               330.0000: 
STOP.FT              1972.5000: 
STEP.FT                 0.1000: 
NULL.                -999.2500: 
COMP.          Pioneer Natural Resources: COMPANY
WELL.           Willys 32-8 Tr: WELL
FLD.           Purgatoire River: FIELD
LOC.           1843' FNL & 2355' FEL: LOCATION
CNTY.               Las Animas: COUNTY
SRVC.                Patterson: SERVICE COMPANY
DATE.          Thu Feb 09 10:31:59 2006: LOG DATE
UWI.           05 071 08688 00: UNIQUE WELL ID
STAT.                 Colorado: STATE
~Curve Information Block
DEPT.FT            0 000 00 00: Depth
DCAL.in                       : CDL Caliper
RHOB.g/cc                     : CDL Bulk Density
RHOC.g/cc                     : CDL Density Correction
DPOR.pu                       : CDL Density Porosity
GR.GAPI                       : Gamma Ray
~Parameter Information Block
~A  Depth       DCAL        RHOB        RHOC        DPOR         GR     
# ...
  1203.6000      8.0561      2.4849      0.3786     10.0046    140.9724
  1203.7000      8.0561      2.5501      0.3125      6.0523    144.3759
  1203.8000      8.0598      2.5610      0.1864      5.3951    144.0346
  1203.9000      8.0598      2.5511      0.1628      5.9918    140.1056
  1204.0000      7.9095      2.5469      0.1180      6.2481    136.1422
  1204.1000      7.9095      2.5608      0.1155      5.4078    134.5584
  1204.2000      7.9095      2.5886      0.1283      3.7185    136.0807
  1204.3000      7.8787      2.6118      0.1127      2.3144    140.1706
  1204.4000      7.8787      2.6185      0.1312      1.9096    143.5070
  1204.5000      7.8571      2.6174      0.1156      1.9752    140.3472
  1204.6000      7.8571      2.6210      0.1684      1.7579    127.7859
  1204.7000      7.8571      2.6230      0.1310      1.6352    111.9674
  1204.8000      7.8426      2.6173      0.0695      1.9809    101.8268
  1204.9000      7.8426      2.6108      0.1109      2.3738     97.8511
  1205.0000      7.8358      2.5987      0.1055      3.1098     96.6394
  1205.1000      7.8358      2.5732      0.0413      4.6534     97.2276
  1205.2000      7.8358      2.5455      0.0231      6.3341    100.8868
  1205.3000      7.8531      2.5293      0.0177      7.3158    106.5136
  1205.4000      7.8531      2.5218      0.0041      7.7712    108.7385
  1205.5000      7.8886      2.5136      0.0384      8.2692    106.1101
  1205.6000      7.8886      2.5047      0.0548      8.8056    104.7144
  1205.7000      7.8886      2.5020      0.0414      8.9699    110.6229
  1205.8000      7.8979      2.5080      0.0268      8.6039    123.4965
  1205.9000      7.8979      2.5258      0.0044      7.5254    134.3457
  1206.0000      7.9081      2.5596      0.0714      5.4813    137.5864
  1206.1000      7.9081      2.6088      0.0248      2.4959    137.6174
  1206.2000      7.9081      2.6627      0.1552     -0.7697    137.4596
  1206.3000      7.9113      2.6930      0.2276     -2.6041    138.4820
  1206.4000      7.9113      2.6985      0.1120     -2.9383    142.0226
  1206.5000      7.8729      2.7082      0.1111     -3.5283    145.5489
  1206.6000      7.8729      2.7145      0.1514     -3.9094    143.2466
  1206.7000      7.8729      2.6991      0.0974     -2.9777    133.1574
  1206.8000      7.8588      2.6797      0.0476     -1.7983    121.2864
  1206.9000      7.8588      2.6664      0.0731     -0.9945    114.9307
  1207.0000      7.8606      2.6490      0.0727      0.0580    114.3010
  1207.1000      7.8606      2.6319      0.0441      1.0963    113.1406
  1207.2000      7.8606      2.6302      0.0157      1.1975    108.6030
  1207.3000      7.8660      2.6370      0.0695      0.7853    102.8293
  1207.4000      7.8660      2.6219      0.0776      1.7043     99.4195
  1207.5000      7.8860      2.5808      0.0592      4.1968     98.9648
  1207.6000      7.8860      2.5498     -0.0147      6.0730     98.6375
  1207.7000      7.8860      2.5502      0.0253      6.0507     98.1936
  1207.8000      7.9042      2.5647      0.0509      5.1672     99.6122
  1207.9000      7.9042      2.5822      0.0185      4.1107    102.5578
  1208.0000      7.9092      2.6078      0.0475      2.5558    105.9399
  1208.1000      7.9092      2.6268      0.1093      1.4057    108.4821
  1208.2000      7.9092      2.6187      0.0931      1.8960    108.2928
  1208.3000      7.8756      2.5986      0.0469      3.1122    107.9916
  1208.4000      7.8756      2.5935      0.0821      3.4233    111.4583
  1208.5000      7.8986      2.6064      0.0990      2.6407    117.2309
  1208.6000      7.8986      2.6202      0.1433      1.8073    121.4364
  1208.7000      7.8986      2.6171      0.0961      1.9912    122.8581
  1208.8000      7.8599      2.6000      0.0568      3.0327    123.2402
  1208.9000      7.8599      2.5860     -0.0056      3.8787    123.6994
  1209.0000      7.8751      2.5801      0.0383      4.2358    123.6391
  1209.1000      7.8751      2.5701      0.0408      4.8406    126.2821
  1209.2000      7.8751      2.5570     -0.0085      5.6340    131.5683
  1209.3000      7.8938      2.5586     -0.0047      5.5390    133.3225
  1209.4000      7.8938      2.5820      0.0218      4.1200    131.3897
  1209.5000      7.9086      2.6142      0.0593      2.1713    130.1783
  1209.6000      7.9086      2.6414      0.0393      0.5205    127.2171
  1209.7000      7.9086      2.6676      0.0312     -1.0696    119.5065
  1209.8000      7.9024      2.7019      0.0338     -3.1469    110.6233
  1209.9000      7.9024      2.7319      0.0739     -4.9649    103.1550
  1210.0000      7.9082      2.7346      0.0547     -5.1267     96.9782
  1210.1000      7.9082      2.7080      0.0734     -3.5148     93.3581
  1210.2000      7.9082      2.6617      0.0603     -0.7075     93.3965
  1210.3000      7.9151      2.6075     -0.0013      2.5745     97.9881
  1210.4000      7.9151      2.5692     -0.0745      4.8975    103.4692
  1210.5000      7.8720      2.5666     -0.0345      5.0557    103.1513
  1210.6000      7.8720      2.5909      0.0520      3.5793     99.6169
  1210.7000      7.8720      2.6132      0.0463      2.2278     99.7439
  1210.8000      7.8499      2.6148      0.0396      2.1351    103.3215
  1210.9000      7.8499      2.5988      0.0548      3.1044    106.3704
  1211.0000      7.8437      2.5838      0.0596      4.0103    106.7279
  1211.1000      7.8437      2.5906      0.0716      3.6025    106.1946
  1211.2000      7.8437      2.6226      0.1499      1.6593    106.6311
  1211.3000      7.8352      2.6629      0.1254     -0.7790    107.9884
  1211.4000      7.8352      2.6918      0.1083     -2.5340    109.3983
  1211.5000      7.8335      2.6993      0.1468     -2.9867    108.7322
  1211.6000      7.8335      2.6893      0.1134     -2.3809    107.5903
  1211.7000      7.8335      2.6780      0.0884     -1.6961    111.3437
  1211.8000      7.8519      2.6743      0.1379     -1.4701    119.7206
  1211.9000      7.8519      2.6701      0.0975     -1.2183    123.7399
  1212.0000      7.8392      2.6554      0.1360     -0.3261    116.7713
  1212.1000      7.8392      2.6315      0.0625      1.1183    106.2870
  1212.2000      7.8392      2.6067      0.0656      2.6248    103.2353
  1212.3000      7.8558      2.5802      0.0417      4.2282    107.9386
  1212.4000      7.8558      2.5569     -0.0089      5.6410    116.4521
  1212.5000      7.8852      2.5452      0.0103      6.3536    124.6807
  1212.6000      7.8852      2.5324      0.0271      7.1254    127.2500
  1212.7000      7.8852      2.5133     -0.0563      8.2825    123.0514
  1212.8000      7.8999      2.5040     -0.0231      8.8502    118.3022
  1212.9000      7.8999      2.5096     -0.0476      8.5071    116.3095
  1213.0000      7.9180      2.5159     -0.0021      8.1294    115.2352
  1213.1000      7.9180      2.5064      0.0041      8.7006    115.3674
  1213.2000      7.9180      2.4865     -0.0489      9.9083    116.8885
  1213.3000      7.9185      2.4691      0.0067     10.9620    119.9600
  1213.4000      7.9185      2.4518     -0.0281     12.0112    125.7987
  1213.5000      7.8979      2.4402     -0.0406     12.7170    133.3121
  1213.6000      7.8979      2.4506     -0.0047     12.0842    139.1876
  1213.7000      7.8979      2.4728      0.0662     10.7401    141.1485
  1213.8000      7.8927      2.4767      0.0632     10.5058    139.7958
  1213.9000      7.8927      2.4619      0.0496     11.3992    138.0393
  1214.0000      7.8946      2.4587      0.0302     11.5942    140.0922
  1214.1000      7.8946      2.4818      0.0719     10.1917    144.4359
  1214.2000      7.8946      2.5142      0.1136      8.2275    144.3088
  1214.3000      7.9000      2.5388      0.1009      6.7385    141.1447
  1214.4000      7.9000      2.5532      0.1534      5.8652    139.9115
  1214.5000      7.9107      2.5541      0.1465      5.8113    139.6410
  1214.6000      7.9107      2.5396      0.1475      6.6916    141.3356
  1214.7000      7.9107      2.5168      0.1111      8.0731    145.7472
