~Version Information
VERS.                      2.0: CWLS Log ASCII Standard - VERSION 2.0
WRAP.                       NO: One line per depth step
~Well Information Block
STRT.FT                 0.0000: 
STOP.FT               787.2500: 
STEP.FT                 0.2500: 
NULL.                -999.2500: 
COMP.          Pioneer Natural Resources: COMPANY
WELL.             Veedol 34-28: WELL
FLD.           Purgatorie River: FIELD
LOC.           357' FSL & 2520' FEL: LOCATION
PROV.                 Colorado: PROVINCE
CNTY.               Las Animas: COUNTRY
SRVC.                Patterson: SERVICE COMPANY
DATE.          Wed Dec 28 10:10:37 2005: LOG DATE
UWI.                          : UNIQUE WELL ID
~Curve Information Block
DEPT.FT            0 000 00 00: Depth
CCL.                          : Casing Collar Locator
TT3.usec                      : CBL 3' Travel Time
AMP3.mV                       : CBL 3' Amplitude
GR.GAPI                       : Gamma Ray
~Parameter Information Block
~A  Depth       CCL         TT3         AMP3         GR     
# ...
   536.0000      0.0000    568.3210     16.4905     51.3617
   536.2500      0.0000    457.6490     17.2814     57.2842
   536.5000      0.0000    368.8183     17.8707     64.5665
   536.7500      0.0000    323.4084     18.1156     72.6227
   537.0000      0.0000    311.0615     18.0789     80.9070
   537.2500      0.0000    320.5919     17.8996     88.5835
   537.5000      0.0000    355.8651     17.6388     94.1955
   537.7500      0.0000    417.1587     17.2608     96.1927
   538.0000      0.0000    479.7290     16.7509     94.1912
   538.2500      0.0000    509.8432     16.1931     89.6009
   538.5000      0.0000    493.5511     15.6907     84.6426
   538.7500      0.0000    443.4178     15.2766     80.6505
   539.0000      0.0000    390.8180     14.9359     77.4497
   539.2500      0.0000    359.9958     14.6693     74.1781
   539.5000      0.0000    351.1153     14.4902     70.3002
   539.7500      0.0000    353.3544     14.3865     65.8933
   540.0000      0.0000    359.0135     14.3498     61.5037
   540.2500      0.0000    366.9823     14.3939     58.0870
   540.5000      0.0000    382.6495     14.4931     56.6462
   540.7500      0.0000    412.6458     14.5593     57.2931
   541.0000      0.0000    449.7115     14.5365     58.8320
   541.2500      0.0000    464.8209     14.4717     59.8238
   541.5000      0.0000    439.0927     14.4343     59.9374
   541.7500      0.0000    393.8651     14.4281     59.8635
   542.0000      0.0000    360.7559     14.4407     60.3131
   542.2500      0.0000    346.9886     14.4960     61.6085
   542.5000      0.0000    344.5849     14.5919     63.7291
   542.7500      0.0000    348.0341     14.6640     65.9875
   543.0000      0.0000    355.9329     14.6580     67.0000
   543.2500      0.0000    366.2147     14.5662     65.6824
   543.5000      0.0000    376.8665     14.3828     62.1639
   543.7500      0.0000    393.4839     14.1120     57.4636
   544.0000      0.0000    432.5688     13.8172     52.6545
   544.2500      0.0000    506.0924     13.5985     48.5736
   544.5000      0.0000    597.3746     13.4963     45.8177
   544.7500      0.0000    670.2750     13.4488     44.5185
   545.0000      0.0000    707.5815     13.3858     44.2881
   545.2500      0.0000    719.5118     13.2989     44.6538
   545.5000      0.0000    719.8129     13.2096     45.4336
   545.7500      0.0000    710.3627     13.1410     46.6399
   546.0000      0.0000    685.1138     13.1005     48.2275
   546.2500      0.0000    649.3599     13.0570     49.8978
   546.5000      0.0000    630.9283     12.9644     51.0530
   546.7500      0.0000    648.8953     12.8072     51.1874
   547.0000      0.0000    684.2800     12.6175     50.4512
   547.2500      0.0000    709.2484     12.4497     49.5166
   547.5000      0.0000    718.7062     12.3230     48.8055
   547.7500      0.0000    720.6257     12.1970     48.1627
   548.0000      0.0000    720.6619     12.0228     47.2783
   548.2500      0.0000    720.5087     11.8078     46.0947
   548.5000      0.0000    720.4106     11.6019     44.8420
   548.7500      0.0000    720.3470     11.4235     44.0138
   549.0000      0.0000    720.0317     11.2375     44.2142
   549.2500      0.0000    718.1284     10.9899     45.5943
   549.5000      0.0000    711.6567     10.6007     47.3634
   549.7500      0.0000    699.1080      9.9703     48.2605
   550.0000      0.0000    687.5723      9.1249     47.7000
   550.2500      0.0000    690.7176      8.2967     46.2019
   550.5000      0.0000    712.1028      7.7034     44.6297
   550.7500      0.0000    740.3204      7.4325     43.3456
   551.0000      0.0000    765.3141      7.5423     42.2442
   551.2500      0.0000    786.6800      7.9041     41.2972
   551.5000     -2.0000    802.7542      8.2012     40.8032
   551.7500      2.0000    803.2736      8.2994     41.0742
   552.0000      0.0000    787.4926      8.2914     41.9825
   552.2500      0.0000    773.4251      8.2543     42.9406
   552.5000      0.0000    769.2200      8.2748     43.3643
   552.7500      0.0000    762.5604      8.6239     43.0165
   553.0000      0.0000    747.0822      9.5184     41.9565
   553.2500      0.0000    731.4245     10.6606     40.5107
   553.5000      0.0000    722.8896     11.4929     39.3376
   553.7500      0.0000    720.2030     11.8510     39.1273
   554.0000      0.0000    719.6729     11.9691     39.9918
   554.2500      0.0000    719.5657     12.0729     41.2390
   554.5000      0.0000    719.5805     12.1797     41.8749
   554.7500      0.0000    719.6488     12.2079     41.3482
   555.0000      0.0000    719.6888     12.1600     39.8511
   555.2500      0.0000    719.6890     12.1107     38.0983
   555.5000      0.0000    719.6846     12.1000     36.8563
   555.7500      0.0000    719.7225     12.1142     36.4197
   556.0000      0.0000    719.8505     12.1310     36.4433
   556.2500      0.0000    720.0867     12.1627     36.5379
   556.5000      0.0000    720.3903     12.2524     37.1226
   556.7500      0.0000    720.6824     12.4017     39.2991
   557.0000      0.0000    720.8830     12.5230     43.6175
   557.2500      0.0000    720.9601     12.5258     49.1357
   557.5000      0.0000    720.9741     12.4173     54.0048
   557.7500      0.0000    721.0085     12.2657     57.1944
   558.0000      0.0000    721.0664     12.1137     59.6749
   558.2500      0.0000    721.1074     11.9694     63.7095
   558.5000      0.0000    721.1010     11.8485     70.8124
   558.7500      0.0000    720.9771     11.7750     80.3760
   559.0000      0.0000    720.6776     11.7526     90.1174
   559.2500      0.0000    720.2891     11.7736     97.5730
   559.5000      0.0000    719.9643     11.8067    101.3289
   559.7500      0.0000    719.7587     11.7706    101.4900
   560.0000      0.0000    719.6677     11.6119     99.3270
   560.2500      0.0000    719.7238     11.3875     96.3661
   560.5000      0.0000    719.9393     11.2012     93.7238
   560.7500      0.0000    720.2241     11.1135     92.1441
   561.0000      0.0000    720.4435     11.1340     92.1500
   561.2500      0.0000    720.5317     11.2301     93.7401
   561.5000      0.0000    720.5275     11.3419     96.1778
   561.7500      0.0000    720.5252     11.4269     98.4563
   562.0000      0.0000    720.5906     11.4758     99.8750
   562.2500      0.0000    720.7078     11.4841    100.1478
   562.5000      0.0000    720.7993     11.4373     99.4203
   562.7500      0.0000    720.7964     11.3379     98.4463
   563.0000      0.0000    720.6765     11.2395     98.3927
   563.2500      0.0000    720.2788     11.2084     99.9572
   563.5000      0.0000    718.7566     11.2502    102.5060
   563.7500      0.0000    714.2574     11.3234    104.3476
   564.0000      0.0000    705.6083     11.3946    104.2039
   564.2500      0.0000    695.4876     11.4367    102.4861
   564.5000      0.0000    689.5555     11.4296    100.8875
   564.7500      0.0000    690.4307     11.3905    100.6803
   565.0000      0.0000    695.2966     11.3514    101.8121
   565.2500      0.0000    700.5100     11.3126    103.9430
   565.5000      0.0000    704.1349     11.2541    107.8756
   565.7500      0.0000    704.5054     11.1769    115.2742
   566.0000      0.0000    701.3525     11.1222    127.0416
   566.2500      0.0000    695.8675     11.1332    142.4885
   566.5000      0.0000    689.1749     11.1838    159.9351
   566.7500      0.0000    683.2009     11.2022    177.3861
   567.0000      0.0000    679.6481     11.1731    192.5343
   567.2500      0.0000    678.2014     11.1488    202.9233
   567.5000      0.0000    677.7199     11.1903    206.8406
   567.7500      0.0000    677.6026     11.3233    204.1772
   568.0000      0.0000    677.8801     11.4930    196.4725
   568.2500      0.0000    679.4012     11.5950    186.3472
   568.5000      0.0000    683.9966     11.5924    176.4720
   568.7500      0.0000    692.7124     11.5370    168.2367
   569.0000      0.0000    702.7641     11.4775    161.2646
   569.2500      0.0000    708.8289     11.4076    154.4383
