~Version Information
VERS.                      2.0: CWLS Log ASCII Standard - VERSION 2.0
WRAP.                       NO: One line per depth step
~Well Information Block
STRT.FT               615.0000: 
STOP.FT              1609.0000: 
STEP.FT                 0.2500: 
NULL.                -999.2500: 
COMP.          Pioneer Natural Resources: COMPANY
WELL.          Galloway 32-13 Tr: WELL
FLD.           Purgatoire River: FIELD
LOC.           1910' FNL & 2002' FEL: LOCATION
PROV.                 Colorado: PROVINCE
CNTY.               Las Animas: COUNTRY
SRVC.                Patterson: SERVICE COMPANY
DATE.          Sat Nov 12 20:19:28 2005: LOG DATE
UWI.           05 071 08608 00: UNIQUE WELL ID
~Curve Information Block
DEPT.FT            0 000 00 00: Depth
SN.Ohm-m                      : IEL Short Normal
SP.mV                         : IEL Spontaneous Potential
DIR.Ohm-m                     : IEL Induction Resistivity
GR.GAPI                       : Gamma Ray
~Parameter Information Block
~A  Depth        SN          SP         DIR          GR     
# ...
   950.0000      5.8917      2.1795      0.4694    101.7982
   950.2500      8.6137      9.7639      0.4014    104.2473
   950.5000     10.8591     15.0201      0.3654    107.3968
   950.7500     12.2301     18.4831      0.3695    110.1063
   951.0000     12.8529     20.5626      0.4166    115.7823
   951.2500     13.0920     21.5499      0.5124    120.2782
   951.5000     13.1700     21.6406      0.6697    126.4260
   951.7500     13.1573     20.9439      0.9121    129.1260
   952.0000     13.1692     19.4922      1.2780    130.4833
   952.2500     13.3437     17.2513      1.8093    130.0533
   952.5000     13.6865     14.1303      2.4934    128.6177
   952.7500     14.0617      9.9894      3.1530    127.2796
   953.0000     14.3002      4.6508      3.4954    123.3820
   953.2500     14.2274     -2.0721      3.4538    118.4370
   953.5000     13.6164    -10.3128      3.2436    106.9847
   953.7500     12.2647    -20.0434      3.0653     97.5638
   954.0000     10.2006    -30.9281      2.9945     83.3909
   954.2500      7.7842    -42.1878      3.0321     75.2515
   954.5000      5.5961    -52.5674      3.1471     66.2063
   954.7500      4.1337    -60.5048      3.2934     62.4473
   955.0000      3.4841    -64.5149      3.4254     60.0137
   955.2500      3.3805    -63.6687      3.5219     60.2766
   955.5000      3.6677    -57.9452      3.6040     62.9510
   955.7500      4.6827    -48.2464      3.7319     65.9083
   956.0000      7.0751    -36.0551      3.9871     71.6165
   956.2500     11.0302    -22.9479      4.4614     76.1275
   956.5000     15.6720    -10.2268      5.2549     83.8151
   956.7500     19.5801      1.2362      6.4614     89.2916
   957.0000     21.8713     11.0029      8.1022     97.1230
   957.2500     22.5093     18.9913     10.0031    101.6441
   957.5000     21.9021     25.3537     11.7511    107.6265
   957.7500     20.5843     30.3440     12.9270    111.7135
   958.0000     19.0503     34.2174     13.4076    118.4472
   958.2500     17.6107     37.1862     13.3402    122.5727
   958.5000     16.3675     39.4235     12.9310    125.8352
   958.7500     15.3233     41.0819     12.3447    125.1544
   959.0000     14.4843     42.3007     11.7076    120.2458
   959.2500     13.8576     43.1999     11.1180    115.3890
   959.5000     13.4178     43.8746     10.6441    107.8541
   959.7500     13.1292     44.3968     10.3226    104.1024
   960.0000     12.9878     44.8232     10.1643    102.9972
   960.2500     13.0083     45.1994     10.1622    106.1424
   960.5000     13.1294     45.5571     10.2984    115.5627
   960.7500     13.2189     45.9081     10.5484    122.9984
   961.0000     13.2379     46.2442     10.8818    132.4073
   961.2500     13.2603     46.5460     11.2629    136.5242
   961.5000     13.3156     46.7991     11.6522    139.7114
   961.7500     13.3335     47.0055     12.0122    140.4378
   962.0000     13.2423     47.1828     12.3129    140.0824
   962.2500     13.1006     47.3536     12.5349    139.0097
   962.5000     13.0685     47.5325     12.6689    136.4262
   962.7500     13.1895     47.7193     12.7189    134.3138
   963.0000     13.3422     47.9008     12.7063    130.7754
   963.2500     13.4479     48.0588     12.6704    128.0731
   963.5000     13.5694     48.1797     12.6600    123.5732
   963.7500     13.7839     48.2613     12.7216    120.8672
   964.0000     14.0996     48.3161     12.8883    118.9917
   964.2500     14.5106     48.3670     13.1760    119.9208
   964.5000     15.0105     48.4382     13.5837    124.0906
   964.7500     15.5767     48.5428     14.0971    127.4362
   965.0000     16.2027     48.6761     14.6899    130.5474
   965.2500     16.9050     48.8185     15.3240    130.0589
   965.5000     17.7343     48.9498     15.9491    124.3423
   965.7500     18.7927     49.0595     16.5137    117.3260
   966.0000     20.1440     49.1455     16.9883    103.7469
   966.2500     21.7303     49.2083     17.3855     94.2636
   966.5000     23.4360     49.2479     17.7486     81.7758
   966.7500     25.2036     49.2686     18.1123     75.3551
   967.0000     27.0110     49.2824     18.4705     69.2569
   967.2500     28.6796     49.3062     18.7797     67.9734
   967.5000     29.8118     49.3539     18.9923     70.5754
   967.7500     30.0751     49.4278     19.0891     74.6795
   968.0000     29.4717     49.5172     19.0796     81.7636
   968.2500     28.2062     49.6018     18.9780     85.6628
   968.5000     26.4689     49.6605     18.7833     89.8989
   968.7500     24.4338     49.6808     18.4823     92.7087
   969.0000     22.3653     49.6656     18.0711     99.1670
   969.2500     20.6106     49.6300     17.5755    105.4016
   969.5000     19.3532     49.5892     17.0464    116.0801
   969.7500     18.4467     49.5449     16.5362    122.5046
   970.0000     17.6299     49.4807     16.0767    129.3696
   970.2500     16.7985     49.3711     15.6751    132.1050
   970.5000     16.0030     49.1975     15.3232    134.2411
   970.7500     15.3471     48.9577     15.0083    134.6199
   971.0000     14.9063     48.6613     14.7187    133.5422
   971.2500     14.6756     48.3213     14.4455    131.6298
   971.5000     14.6266     47.9492     14.1839    127.2041
   971.7500     14.7540     47.5541     13.9331    123.7646
   972.0000     15.0441     47.1426     13.6955    119.3896
   972.2500     15.4573     46.7179     13.4744    117.7708
   972.5000     15.9010     46.2828     13.2751    117.5846
   972.7500     16.2259     45.8439     13.1053    118.5649
   973.0000     16.3239     45.4134     12.9761    120.9501
   973.2500     16.1868     45.0046     12.8994    123.0176
   973.5000     15.8539     44.6268     12.8817    126.7743
   973.7500     15.3699     44.2830     12.9173    129.3670
   974.0000     14.8049     43.9712     12.9838    132.3785
   974.2500     14.2945     43.6885     13.0465    133.5534
   974.5000     13.9266     43.4358     13.0701    134.5356
   974.7500     13.5938     43.2192     13.0324    134.8952
   975.0000     13.1855     43.0488     12.9327    134.6453
   975.2500     12.7888     42.9327     12.7919    133.7443
   975.5000     12.4982     42.8722     12.6438    131.6611
   975.7500     12.3275     42.8596     12.5229    130.2154
   976.0000     12.4456     42.8819     12.4532    128.5455
   976.2500     13.1114     42.9275     12.4446    128.0451
   976.5000     14.2389     42.9910     12.4966    128.4967
   976.7500     15.3451     43.0743     12.6039    129.4208
   977.0000     15.9817     43.1813     12.7602    131.0060
   977.2500     16.0609     43.3117     12.9567    131.9731
   977.5000     15.8297     43.4579     13.1802    133.4685
   977.7500     15.5220     43.6068     13.4120    134.3889
   978.0000     15.1024     43.7458     13.6312    134.2701
   978.2500     14.5239     43.8696     13.8180    132.1034
   978.5000     13.9680     43.9860     13.9569    125.0466
   978.7500     13.6430     44.1167     14.0402    118.4956
   979.0000     13.5532     44.2918     14.0723    108.2202
   979.2500     13.5555     44.5404     14.0739    102.5038
   979.5000     13.5744     44.8800     14.0789     97.5457
   979.7500     13.7347     45.3070     14.1238     97.1938
   980.0000     14.3021     45.7935     14.2358    100.6845
   980.2500     15.4175     46.2939     14.4251    104.7585
   980.5000     16.8490     46.7578     14.6844    111.6107
   980.7500     18.1563     47.1445     14.9916    115.8994
   981.0000     19.0620     47.4315     15.3139    121.2701
   981.2500     19.5609     47.6175     15.6093    123.9221
   981.5000     19.8242     47.7190     15.8328    126.1479
   981.7500     20.0344     47.7624     15.9459    126.2596
   982.0000     20.2278     47.7735     15.9292    123.9238
   982.2500     20.3001     47.7687     15.7922    120.4343
   982.5000     20.1681     47.7523     15.5721    112.5598
   982.7500     19.8768     47.7216     15.3202    106.5262
   983.0000     19.4764     47.6751     15.0809     99.1153
   983.2500     18.9219     47.6186     14.8781     96.8350
