~Version Information
VERS.                      2.0: CWLS Log ASCII Standard - VERSION 2.0
WRAP.                       NO: One line per depth step
~Well Information Block
STRT.FT                -6.5000: 
STOP.FT              1467.0000: 
STEP.FT                 0.2500: 
NULL.                -999.2500: 
COMP.          Pioneer Natural Resources: COMPANY
WELL.          Surtees 23-34 Tr: WELL
FLD.           Purgatorie River: FIELD
LOC.           1559' FSL & 1997' FWL--: LOCATION
PROV.                       CO: PROVINCE
CNTY.               Las Animas: COUNTRY
SRVC.          Patterson Wireline: SERVICE COMPANY
DATE.          Tue Aug 02 13:04:45 2005: LOG DATE
UWI.           05 071 08449 00: UNIQUE WELL ID
~Curve Information Block
DEPT.FT            0 000 00 00: Depth
CCL.                          : Casing Collar Locator
TT3.usec                      : CBL 3' Travel Time
AMP3.mV                       : CBL 3' Amplitude
GR.GAPI                       : Gamma Ray
~Parameter Information Block
~A  Depth       CCL         TT3         AMP3         GR     
# ...
    94.0000      0.0000   1148.9753      9.0396     55.3054
    94.2500      0.0000   1148.8390      8.9978     57.3192
    94.5000      0.0000   1148.1573      8.9737     61.6435
    94.7500      0.0000   1145.6039      8.9707     68.1940
    95.0000      0.0000   1138.2175      8.9876     76.7561
    95.2500      0.0000   1121.8616      9.0215     86.0620
    95.5000      0.0000   1094.3782      9.0698     93.8014
    95.7500      0.0000   1060.1211      9.1270     98.1288
    96.0000      0.0000   1030.7167      9.1821     98.9668
    96.2500      0.0000   1019.0508      9.2255     97.3889
    96.5000      0.0000   1030.7188      9.2599     94.1340
    96.7500      0.0000   1060.1240      9.3016     89.3639
    97.0000      0.0000   1094.3807      9.3683     83.5612
    97.2500      0.0000   1121.8630      9.4676     78.1280
    97.5000      0.0000   1138.2183      9.5960     75.0873
    97.7500      0.0000   1145.6041      9.7464     75.8254
    98.0000      0.0000   1148.1575      9.9123     79.5414
    98.2500      0.0000   1148.8390     10.0824     83.2935
    98.5000      0.0000   1148.9753     10.2365     84.2971
    98.7500      0.0000   1149.0000     10.3530     82.0509
    99.0000      0.0000   1149.0000     10.4250     77.9293
    99.2500      0.0000   1149.0000     10.4638     73.3897
    99.5000      0.0000   1149.0000     10.4837     69.4370
    99.7500      0.0000   1149.0000     10.4885     67.2234
   100.0000      0.0000   1149.0000     10.4725     67.7314
   100.2500      0.0000   1149.0000     10.4287     70.5957
   100.5000      0.0000   1149.0000     10.3563     74.1104
   100.7500      0.0000   1149.0000     10.2648     76.7703
   101.0000      0.0000   1149.0000     10.1748     78.3229
   101.2500      0.0000   1149.0000     10.1088     79.1621
   101.5000      0.0000   1149.0000     10.0770     79.2439
   101.7500      0.0000   1149.0000     10.0728     77.9849
   102.0000      0.0000   1149.0000     10.0814     75.1828
   102.2500      0.0000   1149.0000     10.0889     71.8100
   102.5000      0.0000   1149.0000     10.0826     69.5499
   102.7500      0.0000   1149.0000     10.0492     69.3837
   103.0000      0.0000   1149.0000      9.9814     70.8540
   103.2500      0.0000   1149.0000      9.8862     72.8603
   103.5000      0.0000   1149.0000      9.7845     74.9781
   103.7500      0.0000   1149.0000      9.7034     77.7755
   104.0000      0.0000   1149.0000      9.6636     81.8617
   104.2500      0.0000   1149.0000      9.6710     86.8278
   104.5000      0.0000   1149.0000      9.7142     91.2280
   104.7500      0.0000   1149.0000      9.7702     93.4755
   105.0000      0.0000   1149.0000      9.8142     92.6657
   105.2500      0.0000   1149.0000      9.8288     88.8457
   105.5000      0.0000   1149.0000      9.8076     83.0494
   105.7500      0.0000   1149.0000      9.7554     77.3072
   106.0000      0.0000   1149.0000      9.6857     74.0174
   106.2500      0.0000   1149.0000      9.6130     74.4423
   106.5000      0.0000   1149.0000      9.5447     77.7253
   106.7500      0.0000   1148.9905      9.4808     81.8784
   107.0000      0.0000   1148.9384      9.4187     85.6469
   107.2500      0.0000   1148.6866      9.3573     88.9096
   107.5000      0.0000   1147.7607      9.2974     91.5957
   107.7500      0.0000   1145.1827      9.2380     92.9961
   108.0000      0.0000   1139.8180      9.1746     92.2302
   108.2500      0.0000   1131.7300      9.1016     89.0990
   108.5000      0.0000   1123.2589      9.0188     84.5971
   108.7500      0.0000   1117.3452      8.9339     80.6921
   109.0000      0.0000   1113.0741      8.8562     79.3860
   109.2500      0.0000   1103.7023      8.7886     81.7785
   109.5000      0.0000   1081.4982      8.7292     87.8630
   109.7500      0.0000   1045.4700      8.6748     96.7735
   110.0000      0.0000   1004.1512      8.6196    106.8502
   110.2500      0.0000    971.5464      8.5569    115.7398
   110.5000      0.0000    959.9390      8.4895    121.1705
   110.7500      0.0000    971.6687      8.4339    122.1924
   111.0000      0.0000    994.0537      8.4077    119.8070
   111.2500      0.0000   1007.0238      8.4163    116.2101
   111.5000      0.0000   1002.0861      8.4557    113.1045
   111.7500      0.0000    991.7494      8.5224    110.5768
   112.0000      0.0000    995.6754      8.6140    107.5632
   112.2500      0.0000   1019.9274      8.7230    103.1054
   112.5000      0.0000   1054.2228      8.8336     97.0631
   112.7500      0.0000   1085.9584      8.9281     90.0924
   113.0000      0.0000   1109.9691      8.9962     83.3284
   113.2500      0.0000   1126.2172      9.0409     77.9225
   113.5000      0.0000   1134.8508      9.0763     74.7164
   113.7500      0.0000   1135.7128      9.1213     74.1887
   114.0000      0.0000   1130.2759      9.1902     76.2018
   114.2500      0.0000   1122.3210      9.2855     79.5939
   114.5000      0.0000   1115.8170      9.3951     82.6260
   114.7500      0.0000   1111.3514      9.4974     84.1817
   115.0000      0.0000   1105.9266      9.5728     84.2006
   115.2500      0.0000   1097.9624      9.6144     82.8847
   115.5000      0.0000   1091.0272      9.6303     80.1162
   115.7500      0.0000   1089.7524      9.6361     75.8900
   116.0000      0.0000   1092.5479      9.6432     70.7531
   116.2500      0.0000   1091.4186      9.6526     65.4808
   116.5000      0.0000   1079.9677      9.6585     60.6044
   116.7500      0.0000   1059.8462      9.6563     56.4292
   117.0000      0.0000   1038.6097      9.6456     53.2768
   117.2500      0.0000   1022.8318      9.6248     51.4044
   117.5000      0.0000   1014.2424      9.5862     50.6493
   117.7500      0.0000   1011.0531      9.5188     50.3552
   118.0000      0.0000   1010.9572      9.4193     49.7921
   118.2500      0.0000   1012.6059      9.3006     48.6291
   118.5000      0.0000   1015.2488      9.1858     46.9645
   118.7500      0.0000   1017.8593      9.0944     44.9923
   119.0000      0.0000   1019.0950      9.0323     42.7858
   119.2500      0.0000   1017.9655      8.9863     40.3766
   119.5000      0.0000   1014.0110      8.9183     37.9120
   119.7500      0.0000   1006.4394      8.7659     35.7068
   120.0000      0.0000    994.5236      8.4745     34.2054
   120.2500      0.0000    981.1610      8.0550     33.8730
   120.5000      0.0000    975.7301      7.6097     34.9530
   120.7500      0.0000    988.9202      7.2662     37.1634
   121.0000      0.0000   1021.5907      7.0753     39.6117
   121.2500      0.0000   1061.6427      6.9970     41.2561
   121.5000      0.0000   1094.8074      6.9743     41.6965
   121.7500      0.0000   1115.9424      6.9857     41.5583
   122.0000     -2.0000   1128.1387      7.0301     42.1297
   122.2500      2.0000   1134.5938      7.1060     44.6589
   122.5000      0.0000   1134.0742      7.2187     49.7058
   122.7500      0.0000   1122.0052      7.3997     56.7887
   123.0000      0.0000   1094.5089      7.7071     64.6909
   123.2500      0.0000   1053.6339      8.1744     72.2862
   123.5000      0.0000   1010.0206      8.7293     79.0295
   123.7500      0.0000    977.8629      9.1923     84.7132
   124.0000      0.0000    965.2048      9.4073     89.0860
   124.2500      0.0000    969.5603      9.3684     91.9607
   124.5000      0.0000    982.5106      9.1930     93.5462
   124.7500      0.0000    996.7612      9.0012     94.3819
   125.0000      0.0000   1009.7928      8.8491     94.9324
   125.2500      0.0000   1023.6870      8.7419     95.5107
   125.5000      0.0000   1042.2518      8.6670     96.4553
   125.7500      0.0000   1066.8778      8.6126     97.9687
   126.0000      0.0000   1094.2321      8.5731     99.7331
   126.2500      0.0000   1118.2872      8.5528    100.9298
   126.5000      0.0000   1134.7665      8.5648    100.7311
   126.7500      0.0000   1143.2719      8.6218     98.8709
   127.0000      0.0000   1145.6362      8.7194     95.9051
   127.2500      0.0000   1143.1183      8.8317     92.9315
