~Version Information
VERS.                      2.0: CWLS Log ASCII Standard - VERSION 2.0
WRAP.                       NO: One line per depth step
~Well Information Block
STRT.FT               240.0000: 
STOP.FT              1159.2000: 
STEP.FT                 0.1000: 
NULL.                -999.2500: 
COMP.          Pioneer Natural Resources: COMPANY
WELL.               Ryan 41-17: WELL
FLD.           Purgatoire River: FIELD
LOC.           822' FNL & 532' FEL--: LOCATION
CNTY.               Las Animas: COUNTY
SRVC.                Patterson: SERVICE COMPANY
DATE.          Fri Mar 17 07:19:36 2006: LOG DATE
UWI.           05 071 08719 00: UNIQUE WELL ID
STAT.                 Colorado: STATE
~Curve Information Block
DEPT.FT            0 000 00 00: Depth
DCAL.in                       : CDL Caliper
RHOB.g/cc                     : CDL Bulk Density
RHOC.g/cc                     : CDL Density Correction
DPOR.pu                       : CDL Density Porosity
NPOR.pu                       : Neutron Porosity
GR.GAPI                       : Gamma Ray
~Parameter Information Block
~A  Depth       DCAL        RHOB        RHOC        DPOR        NPOR         GR     
# ...
   720.0000      7.8996      2.4910      0.0836      9.6374     18.5103     32.0401
   720.1000      7.8996      2.4862      0.0427      9.9249     18.6108     28.0211
   720.2000      7.8996      2.4895      0.0401      9.7289     18.6834     24.1755
   720.3000      7.8908      2.5039      0.0580      8.8574     19.0722     23.0523
   720.4000      7.8908      2.5201      0.0784      7.8708     19.7169     25.1988
   720.5000      7.8776      2.5288      0.0601      7.3440     20.3227     29.7838
   720.6000      7.8776      2.5375      0.0797      6.8194     21.0313     35.8270
   720.7000      7.8776      2.5566      0.0764      5.6581     21.9405     41.4652
   720.8000      7.8684      2.5762      0.0894      4.4721     22.8233     46.3880
   720.9000      7.8684      2.5762      0.1043      4.4737     23.6194     51.3622
   721.0000      7.8656      2.5610      0.0696      5.3923     24.2231     55.6365
   721.1000      7.8656      2.5577      0.0631      5.5968     24.2424     58.0754
   721.2000      7.8656      2.5710      0.0838      4.7883     23.7166     58.0902
   721.3000      7.8634      2.5816      0.0828      4.1447     23.0780     56.0036
   721.4000      7.8634      2.5778      0.0964      4.3751     22.4023     51.8630
   721.5000      7.8644      2.5630      0.0933      5.2715     21.8108     44.9588
   721.6000      7.8644      2.5487      0.0368      6.1374     21.4324     37.5326
   721.7000      7.8644      2.5380      0.0821      6.7853     21.1709     32.4818
   721.8000      7.8719      2.5203      0.0778      7.8598     20.9984     30.3326
   721.9000      7.8719      2.4963      0.0548      9.3168     21.0699     30.7226
   722.0000      7.8753      2.4790      0.0387     10.3607     21.3876     32.1882
   722.1000      7.8753      2.4791      0.0435     10.3578     21.7098     32.8466
   722.2000      7.8753      2.4993      0.0515      9.1324     21.8159     32.4079
   722.3000      7.8685      2.5251      0.0836      7.5670     21.7881     32.2823
   722.4000      7.8685      2.5451      0.0428      6.3549     21.8364     33.3369
   722.5000      7.8575      2.5712      0.0669      4.7731     21.8214     34.3828
   722.6000      7.8575      2.6085      0.0952      2.5127     21.7373     35.8905
   722.7000      7.8575      2.6398      0.0866      0.6212     22.0801     38.8298
   722.8000      7.8519      2.6420      0.1404      0.4850     23.0559     41.1296
   722.9000      7.8519      2.6121      0.0469      2.2968     23.9413     42.5196
   723.0000      7.8373      2.5844      0.0029      3.9762     23.8412     46.7885
   723.1000      7.8373      2.5836      0.0549      4.0246     23.1752     53.1688
   723.2000      7.8373      2.5951      0.0767      3.3296     22.9519     56.6128
   723.3000      7.8060      2.6002      0.0738      3.0189     23.0596     58.1613
   723.4000      7.8060      2.5858      0.0965      3.8894     22.8510     59.9990
   723.5000      7.7882      2.5526      0.0465      5.9060     22.3708     58.8581
   723.6000      7.7882      2.5289      0.0018      7.3371     22.0296     54.9030
   723.7000      7.7882      2.5269      0.0597      7.4615     21.9155     53.7846
   723.8000      7.7819      2.5235      0.0721      7.6677     21.8397     55.4971
   723.9000      7.7819      2.5108      0.0457      8.4363     21.6718     55.2058
   724.0000      7.7716      2.5034      0.0672      8.8862     21.4023     52.8726
   724.1000      7.7716      2.5063      0.0761      8.7066     21.0352     51.1971
   724.2000      7.7716      2.5146      0.0730      8.2068     20.8282     50.1853
   724.3000      7.7815      2.5192      0.0955      7.9272     20.9263     48.9682
   724.4000      7.7815      2.5120      0.0714      8.3656     20.9388     47.3696
   724.5000      7.8169      2.4973      0.0417      9.2568     20.7020     44.7661
   724.6000      7.8169      2.4814      0.0577     10.2199     20.6348     41.6264
   724.7000      7.8169      2.4669      0.0439     11.0953     20.7593     39.2492
   724.8000      7.8522      2.4646      0.0453     11.2357     20.5865     37.2948
   724.9000      7.8522      2.4747      0.0687     10.6260     19.9903     34.3203
   725.0000      7.8766      2.4764      0.1003     10.5238     19.2518     31.0030
   725.1000      7.8766      2.4575      0.0529     11.6667     18.7970     29.9260
   725.2000      7.8766      2.4302      0.0428     13.3221     18.8415     30.1555
   725.3000      7.8870      2.4072      0.0350     14.7166     19.3963     28.8784
   725.4000      7.8870      2.3932      0.0090     15.5630     20.1202     27.4839
   725.5000      7.8844      2.3883      0.0427     15.8622     20.3280     28.4220
   725.6000      7.8844      2.3864      0.0330     15.9777     20.0598     29.7377
   725.7000      7.8844      2.3893      0.0239     15.8015     19.9012     29.3173
   725.8000      7.8769      2.4021      0.0704     15.0213     19.9078     29.0882
   725.9000      7.8769      2.4197      0.0510     13.9604     19.9885     30.5586
   726.0000      7.8639      2.4367      0.0474     12.9251     20.2561     32.2553
   726.1000      7.8639      2.4527      0.1004     11.9571     20.5140     33.9039
   726.2000      7.8639      2.4704      0.0584     10.8830     20.4307     35.9917
   726.3000      7.8446      2.4970      0.0892      9.2748     20.2390     37.4284
   726.4000      7.8446      2.5242      0.1010      7.6255     20.4951     38.3056
   726.5000      7.8272      2.5367      0.0912      6.8649     21.4051     40.6965
   726.6000      7.8272      2.5404      0.0646      6.6453     22.4657     45.0524
   726.7000      7.8272      2.5502      0.0795      6.0481     22.9660     49.0416
   726.8000      7.8208      2.5647      0.1443      5.1713     22.7924     51.5418
   726.9000      7.8208      2.5688      0.1224      4.9197     22.4205     52.9684
   727.0000      7.8274      2.5629      0.0481      5.2762     22.2527     52.7118
   727.1000      7.8274      2.5610      0.0664      5.3964     22.3324     51.8904
   727.2000      7.8274      2.5617      0.0637      5.3518     22.5420     51.5010
   727.3000      7.8392      2.5629      0.0151      5.2791     22.7738     50.9969
   727.4000      7.8392      2.5707      0.0521      4.8067     22.9334     50.2145
   727.5000      7.8459      2.5759      0.0824      4.4934     22.9267     49.1541
   727.6000      7.8459      2.5717      0.0334      4.7479     22.7941     48.4699
   727.7000      7.8459      2.5696      0.0691      4.8702     22.7415     49.1148
   727.8000      7.8492      2.5747      0.0850      4.5638     23.0072     50.5312
   727.9000      7.8492      2.5814      0.0956      4.1588     23.5705     50.5410
   728.0000      7.8512      2.5814      0.1185      4.1588     24.0116     49.3005
   728.1000      7.8512      2.5742      0.0239      4.5957     24.0636     48.2121
   728.2000      7.8512      2.5740      0.0396      4.6090     23.8231     46.4705
   728.3000      7.8530      2.5862      0.0625      3.8638     23.3727     44.6598
   728.4000      7.8530      2.6013      0.0779      2.9512     22.8970     45.7514
   728.5000      7.8550      2.6081      0.0678      2.5371     22.5723     48.3981
   728.6000      7.8550      2.6028      0.0718      2.8612     22.3622     49.8961
   728.7000      7.8550      2.5850      0.0611      3.9374     22.3006     50.5716
   728.8000      7.8534      2.5585      0.0531      5.5481     22.3420     51.0730
   728.9000      7.8534      2.5370      0.0074      6.8481     22.3888     53.4444
   729.0000      7.8477      2.5315      0.0442      7.1843     22.5807     56.7305
   729.1000      7.8477      2.5355      0.0386      6.9423     22.8850     57.8491
   729.2000      7.8477      2.5407      0.0550      6.6257     23.1031     58.1090
   729.3000      7.8454      2.5501      0.0804      6.0550     23.1213     58.7153
   729.4000      7.8454      2.5668      0.0650      5.0416     22.8805     58.6305
   729.5000      7.8466      2.5829      0.0751      4.0657     22.6962     57.6978
