~Version Information
VERS.                      2.0: CWLS Log ASCII Standard - VERSION 2.0
WRAP.                       NO: One line per depth step
~Well Information Block
STRT.FT               360.0000: 
STOP.FT              1349.5000: 
STEP.FT                 0.1000: 
NULL.                -999.2500: 
COMP.          Pioneer Natural Resources: COMPANY
WELL.          Challenger 31-29: WELL
FLD.           Purgatoire River: FIELD
LOC.           51' FNL & 1923' FEL: LOCATION
STAT.                 Colorado: State
CNTY.               Las Animas: COUNTY
CTRY. USA : Country
SECT. 29 : Section
TOWN. 33S : Township
RANG. 65W : Range
SRVC.                Patterson: SERVICE COMPANY
DATE.          Thu Sep 15 13:35:50 2005: LOG DATE
API.           05 071 08514 00: UNIQUE WELL ID
~Curve Information Block
DEPT.FT            0 000 00 00: Depth
DCAL.in                       : CDL Caliper
RHOB.g/cc                     : CDL Bulk Density
RHOC.g/cc                     : CDL Density Correction
DPOR.pu                       : CDL Density Porosity
GR.GAPI                       : Gamma Ray
NPOR.pu                       : Neutron Porosity
~Parameter Information Block
~A  Depth       DCAL        RHOB        RHOC        DPOR         GR         NPOR    
# ...
  1012.8000      8.2096      1.7225      0.0432     56.2129    116.0351      9.6668
  1012.9000      8.2096      1.6223      0.0129     62.2831    108.3830      9.2199
  1013.0000      8.2589      1.5326     -0.0409     67.7228     96.6105      9.1481
  1013.1000      8.2589      1.4575      0.0150     72.2724     84.2883      9.3151
  1013.2000      8.2589      1.3929     -0.0049     76.1855     77.5155      9.5199
  1013.3000      8.4125      1.3471      0.0158     78.9661     73.8969      9.7421
  1013.4000      8.4125      1.3351      0.0347     79.6883     66.6076     10.0332
  1013.5000      8.6138      1.3598      0.1166     78.1912     57.8857     10.3266
  1013.6000      8.6138      1.4100      0.1441     75.1508     54.1130     10.7178
  1013.7000      8.6138      1.4709      0.1747     71.4587     53.5864     11.6293
  1013.8000      8.7090      1.5375      0.1587     67.4231     50.5908     13.2260
  1013.9000      8.7090      1.6207      0.1748     62.3819     46.8606     15.2574
  1014.0000      8.8768      1.7288      0.1897     55.8280     48.4706     17.6505
  1014.1000      8.8768      1.8522      0.2215     48.3540     54.5428     20.0621
  1014.2000      8.8768      1.9775      0.2525     40.7581     61.5307     21.6191
  1014.3000      8.7831      2.1017      0.2356     33.2306     70.2411     22.4256
  1014.4000      8.7831      2.2139      0.2811     26.4329     81.1743     23.2168
  1014.5000      8.6407      2.2916      0.2490     21.7230     91.4075     23.9404
  1014.6000      8.6407      2.3346      0.1701     19.1163     98.7532     24.1494
  1014.7000      8.6407      2.3628      0.1217     17.4071    104.7040     23.9228
  1014.8000      8.3841      2.3860      0.0929     16.0022    112.4467     23.9367
  1014.9000      8.3841      2.4053      0.0545     14.8280    121.0507     24.7469
  1015.0000      8.2273      2.4230      0.0392     13.7605    125.8318     25.8674
  1015.1000      8.2273      2.4412      0.1101     12.6567    128.8475     26.4508
  1015.2000      8.2273      2.4680      0.1101     11.0303    133.8434     26.6153
  1015.3000      8.1356      2.5190      0.1721      7.9378    136.3225     26.6924
  1015.4000      8.1356      2.5952      0.2476      3.3234    132.7965     26.4415
  1015.5000      8.0835      2.6660      0.3708     -0.9671    128.3773     25.7358
  1015.6000      8.0835      2.6975      0.3161     -2.8793    132.3639     25.0712
  1015.7000      8.0835      2.6841      0.2880     -2.0650    139.0077     24.6117
  1015.8000      8.0288      2.6394      0.2119      0.6398    135.5044     23.5692
  1015.9000      8.0288      2.5850      0.2010      3.9421    124.4051     22.1473
  1016.0000      7.9488      2.5411      0.1107      6.6017    114.2079     21.5778
  1016.1000      7.9488      2.5184      0.0471      7.9736    107.8214     21.6406
  1016.2000      7.9488      2.5060      0.0696      8.7257    103.7910     21.4349
  1016.3000      7.9505      2.4810      0.0130     10.2439     98.5591     21.1211
  1016.4000      7.9505      2.4455     -0.0257     12.3933     91.4234     21.0634
  1016.5000      7.9699      2.4293      0.0060     13.3774     86.7100     21.1189
  1016.6000      7.9699      2.4490      0.0897     12.1803     85.3214     21.2673
  1016.7000      7.9699      2.4836      0.2030     10.0877     83.3994     21.4417
  1016.8000      7.9812      2.5021      0.2296      8.9627     80.1940     21.4667
  1016.9000      7.9812      2.4999      0.2310      9.0959     79.9814     21.3794
  1017.0000      7.9294      2.4961      0.2281      9.3292     85.5994     20.9891
  1017.1000      7.9294      2.5111      0.2260      8.4164     93.3116     20.0301
  1017.2000      7.9294      2.5479      0.2179      6.1864     98.7003     19.0629
  1017.3000      7.8945      2.5946      0.2931      3.3559    103.8105     18.9197
  1017.4000      7.8945      2.6433      0.3171      0.4066    108.7342     19.6004
  1017.5000      7.8902      2.6861      0.3244     -2.1858    108.6752     20.8387
  1017.6000      7.8902      2.6989      0.3354     -2.9641    104.9032     22.1793
  1017.7000      7.8902      2.6716      0.3082     -1.3083    102.0389     22.8621
  1017.8000      7.9148      2.6257      0.2276      1.4715    102.3786     22.9577
  1017.9000      7.9148      2.5816      0.1122      4.1474    107.6505     22.9387
  1018.0000      7.9551      2.5466      0.0527      6.2637    114.0695     22.8139
  1018.1000      7.9551      2.5211      0.0922      7.8134    115.0839     22.7670
  1018.2000      7.9551      2.5034      0.0353      8.8861    112.3342     23.0028
  1018.3000      7.9717      2.5029      0.0173      8.9159    111.8699     22.9060
  1018.4000      7.9717      2.5256      0.0868      7.5379    114.8177     21.8691
  1018.5000      7.9846      2.5566      0.1311      5.6615    118.0838     20.9418
  1018.6000      7.9846      2.5726      0.1429      4.6920    119.1240     21.3178
  1018.7000      7.9846      2.5697      0.0945      4.8690    114.9233     22.1539
  1018.8000      7.9947      2.5640      0.0812      5.2124    107.1847     22.2124
  1018.9000      7.9947      2.5661      0.1176      5.0856    101.0638     21.9708
  1019.0000      7.9985      2.5760      0.0771      4.4843     96.8183     22.1568
  1019.1000      7.9985      2.5937      0.0866      3.4094     92.6163     22.1288
  1019.2000      7.9985      2.6083      0.1854      2.5261     90.9369     21.2572
  1019.3000      8.0043      2.6044      0.1150      2.7620     93.8714     20.4238
  1019.4000      8.0043      2.5832      0.1160      4.0463     99.7576     20.5276
  1019.5000      8.0014      2.5557      0.1021      5.7176    107.7453     20.8925
  1019.6000      8.0014      2.5408      0.0506      6.6161    113.1400     20.5883
  1019.7000      8.0014      2.5475      0.0432      6.2099    109.8514     20.0277
  1019.8000      8.0051      2.5492      0.0855      6.1081    100.9794     19.8638
  1019.9000      8.0051      2.5264      0.0621      7.4931     93.5042     19.7653
  1020.0000      8.0101      2.5082     -0.0090      8.5924     90.4053     19.5356
  1020.1000      8.0101      2.5190      0.0668      7.9369     91.4182     19.4681
  1020.2000      8.0101      2.5306      0.0727      7.2369     94.6294     19.7519
  1020.3000      8.0153      2.5134      0.0748      8.2785     99.3637     20.4356
  1020.4000      8.0153      2.4765      0.0286     10.5133    104.5834     21.3045
  1020.5000      8.0095      2.4513     -0.0109     12.0437    106.9123     21.8833
  1020.6000      8.0095      2.4620      0.0449     11.3949    104.6806     22.0621
  1020.7000      8.0095      2.5128      0.0888      8.3155     97.4829     22.2637
  1020.8000      8.0069      2.5978      0.1338      3.1662     88.5196     22.8593
  1020.9000      8.0069      2.7056      0.1352     -3.3686     85.6948     23.9695
  1021.0000      7.9725      2.8119      0.2410     -9.8125     93.4524     25.1344
  1021.1000      7.9725      2.8898      0.2728    -14.5316    104.8336     25.7560
  1021.2000      7.9725      2.9273      0.3154    -16.8072    108.1944     25.7474
  1021.3000      7.9720      2.9261      0.2856    -16.7320    100.6269     24.9711
  1021.4000      7.9720      2.8933      0.2652    -14.7442     90.8885     23.5473
  1021.5000      7.9379      2.8360      0.1410    -11.2703     87.9030     22.1785
  1021.6000      7.9379      2.7686      0.0301     -7.1855     88.3653     21.4679
  1021.7000      7.9379      2.7056     -0.0501     -3.3721     85.9557     21.4092
  1021.8000      7.9422      2.6519      0.0107     -0.1181     82.5536     21.4355
  1021.9000      7.9422      2.6156     -0.0542      2.0861     82.4247     21.4887
  1022.0000      7.9523      2.5968      0.0800      3.2260     87.8729     21.8500
  1022.1000      7.9523      2.5713      0.1054      4.7721     96.2255     22.0131
  1022.2000      7.9523      2.5335      0.0421      7.0632     98.7872     21.3805
  1022.3000      8.0095      2.5012      0.0324      9.0188     95.7490     20.3779
