~Version Information
VERS.                      2.0: CWLS Log ASCII Standard - VERSION 2.0
WRAP.                       NO: One line per depth step
~Well Information Block
STRT.FT               330.0000: 
STOP.FT              1876.2000: 
STEP.FT                 0.1000: 
NULL.                -999.2500: 
COMP.          Pioneer Natural Resources: COMPANY
WELL.          Cooper 11-13 Tr: WELL
FLD.           Purgatoire River: FIELD
LOC.           476' FNL & 738' FWL: LOCATION
STAT.                 Colorado: State
CNTY.               Las Animas: COUNTY
CTRY. USA : Country
SECT. 13 : Section
TOWN. 32S : Township
RANG. 67W : Range 
SRVC.                Patterson: SERVICE COMPANY
DATE.          Mon Sep 26 10:28:17 2005: LOG DATE
API.           05 071 08525 00: UNIQUE WELL ID
~Curve Information Block
DEPT.FT            0 000 00 00: Depth
DCAL.in                       : CDL Caliper
RHOB.g/cc                     : CDL Bulk Density
RHOC.g/cc                     : CDL Density Correction
DPOR.pu                       : CDL Density Porosity
NPOR.pu                       : Neutron Porosity
GR.GAPI                       : Gamma Ray
~Parameter Information Block
~A  Depth       DCAL        RHOB        RHOC        DPOR        NPOR         GR     
# ...
  1338.0000      8.0922      2.3168      0.1012     20.1920     30.8124    133.9168
  1338.1000      8.0922      2.3328      0.1342     19.2217     30.7412    133.7169
  1338.2000      8.0922      2.3350      0.0902     19.0880     31.1999    126.6128
  1338.3000      8.1191      2.3206      0.0649     19.9658     31.6349    121.9028
  1338.4000      8.1191      2.2891      0.0696     21.8758     31.4925    123.3072
  1338.5000      8.1443      2.2391      0.0502     24.9005     31.0350    128.0739
  1338.6000      8.1443      2.1665      0.0170     29.3013     31.1093    135.6894
  1338.7000      8.1443      2.0716     -0.0251     35.0555     31.7642    143.1831
  1338.8000      8.1617      1.9813     -0.1020     40.5269     32.3683    144.1481
  1338.9000      8.1617      1.9281     -0.0693     43.7536     32.6758    139.0701
  1339.0000      8.1494      1.9034      0.0113     45.2504     32.8577    132.2591
  1339.1000      8.1494      1.8765      0.0230     46.8765     33.0797    125.4792
  1339.2000      8.1494      1.8469     -0.0003     48.6724     33.3829    122.0395
  1339.3000      8.1465      1.8468      0.0078     48.6817     33.5540    125.2885
  1339.4000      8.1465      1.8992      0.1743     45.5003     33.2908    133.2299
  1339.5000      8.2059      1.9924      0.2914     39.8547     32.8126    139.6896
  1339.6000      8.2059      2.0988      0.3437     33.4086     32.6386    141.2498
  1339.7000      8.2059      2.2016      0.3691     27.1747     32.7234    138.6553
  1339.8000      8.3070      2.2960      0.3652     21.4548     32.5485    130.8895
  1339.9000      8.3070      2.3772      0.3964     16.5353     31.9996    118.8037
  1340.0000      8.3887      2.4359      0.4154     12.9733     31.0551    108.6045
  1340.1000      8.3887      2.4682      0.3886     11.0207     29.7543    107.1076
  1340.2000      8.3887      2.4765      0.3843     10.5149     28.9952    112.4769
  1340.3000      8.3892      2.4645      0.3324     11.2449     29.2362    119.7112
  1340.4000      8.3892      2.4471      0.2277     12.2982     29.6800    127.2528
  1340.5000      8.2763      2.4438      0.1689     12.4992     29.8333    131.2582
  1340.6000      8.2763      2.4539      0.1498     11.8847     29.7858    130.9383
  1340.7000      8.2763      2.4673      0.1237     11.0721     29.6613    131.7010
  1340.8000      8.1454      2.4830      0.1197     10.1182     29.4140    136.9384
  1340.9000      8.1454      2.4993      0.1120      9.1335     29.0201    145.4427
  1341.0000      8.0890      2.4963      0.1378      9.3131     28.6369    151.2185
  1341.1000      8.0890      2.4642      0.0796     11.2589     28.3773    146.4895
  1341.2000      8.0890      2.4334      0.0418     13.1276     28.1991    133.0213
  1341.3000      8.0714      2.4268      0.1037     13.5249     28.1917    120.9529
  1341.4000      8.0714      2.4268      0.1156     13.5299     28.3431    117.3556
  1341.5000      8.0172      2.4200      0.0775     13.9394     28.3959    121.5964
  1341.6000      8.0172      2.4222      0.0480     13.8032     28.4137    129.4728
  1341.7000      8.0172      2.4402      0.0841     12.7134     28.6025    137.6907
  1341.8000      7.9490      2.4558      0.0695     11.7721     28.8054    141.8778
  1341.9000      7.9490      2.4639      0.0406     11.2764     28.8095    139.5633
  1342.0000      7.9066      2.4808      0.0572     10.2517     28.6828    131.8760
  1342.1000      7.9066      2.5037      0.1042      8.8672     28.6889    120.8376
  1342.2000      7.9066      2.5120      0.0930      8.3661     28.8537    113.4211
  1342.3000      7.8831      2.5015      0.1242      8.9974     29.1436    116.5665
  1342.4000      7.8831      2.4858      0.0953      9.9534     29.4167    125.5923
  1342.5000      7.8713      2.4729      0.0912     10.7351     29.5348    133.5617
  1342.6000      7.8713      2.4566      0.0938     11.7239     29.7184    139.4388
  1342.7000      7.8713      2.4422      0.0008     12.5930     29.8431    141.3679
  1342.8000      7.8724      2.4485      0.0310     12.2149     29.5348    139.6198
  1342.9000      7.8724      2.4665      0.0644     11.1193     29.0670    136.0801
  1343.0000      7.8868      2.4716      0.0796     10.8121     28.8469    131.2607
  1343.1000      7.8868      2.4615      0.0607     11.4222     28.7647    126.9633
  1343.2000      7.8868      2.4519      0.0272     12.0059     28.2652    123.6827
  1343.3000      7.9046      2.4433      0.0725     12.5245     27.1797    121.5186
  1343.4000      7.9046      2.4301      0.0314     13.3290     26.1081    120.7676
  1343.5000      7.9147      2.4282      0.0296     13.4434     25.6474    122.1708
  1343.6000      7.9147      2.4492      0.0769     12.1705     25.8919    127.3421
  1343.7000      7.9147      2.4839      0.0506     10.0690     26.2013    134.8574
  1343.8000      7.9146      2.5158      0.1109      8.1303     26.0836    141.1634
  1343.9000      7.9146      2.5283      0.0898      7.3744     25.6805    141.4286
  1344.0000      7.9077      2.5293      0.0701      7.3134     24.9240    131.0927
  1344.1000      7.9077      2.5396      0.0923      6.6893     23.7721    117.8869
  1344.2000      7.9077      2.5459      0.1341      6.3106     22.8467    112.4260
  1344.3000      7.8950      2.5284      0.0481      7.3705     22.5824    112.3793
  1344.4000      7.8950      2.5098      0.0155      8.4968     22.5617    112.3067
  1344.5000      7.8767      2.5198      0.0210      7.8930     22.2052    114.3101
  1344.6000      7.8767      2.5512      0.0553      5.9850     21.5114    120.6219
  1344.7000      7.8767      2.5791      0.0821      4.2959     21.0598    127.2608
  1344.8000      7.8639      2.5939      0.0645      3.3977     20.9932    129.4691
  1344.9000      7.8639      2.6039      0.0501      2.7957     21.1156    124.6158
  1345.0000      7.8583      2.6108      0.1016      2.3773     21.1981    113.4700
  1345.1000      7.8583      2.6019      0.0842      2.9144     21.1297    104.9506
  1345.2000      7.8583      2.5722      0.0401      4.7124     21.0502    105.1876
  1345.3000      7.8561      2.5412      0.0020      6.5921     21.0064    107.5932
  1345.4000      7.8561      2.5335     -0.0088      7.0621     21.1145    105.0584
  1345.5000      7.8570      2.5438      0.0549      6.4385     21.4340     97.9227
  1345.6000      7.8570      2.5432      0.0162      6.4708     21.5476     91.2694
  1345.7000      7.8570      2.5199      0.0210      7.8823     21.0712     90.7750
  1345.8000      7.8584      2.4941     -0.0366      9.4492     20.3900     96.3987
  1345.9000      7.8584      2.4883     -0.0085      9.7996     20.1731    104.8248
  1346.0000      7.8589      2.4927      0.0263      9.5325     20.4346    110.6555
  1346.1000      7.8589      2.4976     -0.0177      9.2344     20.7639    106.8439
  1346.2000      7.8589      2.5160      0.0084      8.1210     20.8174     94.9060
  1346.3000      7.8537      2.5418      0.0617      6.5554     20.5593     83.1021
  1346.4000      7.8537      2.5538      0.0396      5.8276     20.3099     77.1726
  1346.5000      7.8404      2.5579      0.0466      5.5803     20.3817     79.0909
  1346.6000      7.8404      2.5779      0.0559      4.3678     20.7303     85.4189
  1346.7000      7.8404      2.6092      0.1121      2.4708     21.0965     89.0182
  1346.8000      7.8231      2.6197      0.0841      1.8352     21.4279     89.8804
  1346.9000      7.8231      2.6057      0.0584      2.6857     21.6543     93.2782
  1347.0000      7.8051      2.5994      0.0625      3.0645     21.6988     96.6640
  1347.1000      7.8051      2.6169      0.1100      2.0045     21.7337     94.4294
  1347.2000      7.8051      2.6357      0.1278      0.8665     21.6817     87.9934
  1347.3000      7.7953      2.6321      0.0895      1.0834     21.2331     83.6519
  1347.4000      7.7953      2.6098      0.0677      2.4379     20.4415     85.7591
  1347.5000      7.7975      2.5854      0.0624      3.9127     19.6457     89.5064
