~Version Information
VERS.                      2.0: CWLS Log ASCII Standard - VERSION 2.0
WRAP.                       NO: One line per depth step
~Well Information Block
STRT.FT                -8.5000: 
STOP.FT              1945.2500: 
STEP.FT                 0.2500: 
NULL.                -999.2500: 
COMP.          Pioneer Natural Resources: COMPANY
WELL.          Flying Horse 12-11 Tr: WELL
FLD.           Purgatorie River: FIELD
LOC.           2459' FNL & 410' FWL: LOCATION
STAT.                       CO: PROVINCE
CNTY.               Las Animas: COUNTY
CTRY.        USA : Country
SECT. 11 : Section
TOWN. 32S : Township
RANG. 66W : Range
SRVC.          Patterson Wireline: SERVICE COMPANY
DATE.          Thu Sep 08 15:44:22 2005: LOG DATE
API.           05 071 08485 00: UNIQUE WELL ID
~Curve Information Block
DEPT.FT            0 000 00 00: Depth
CCL.                          : Casing Collar Locator
TT3.usec                      : CBL 3' Travel Time
AMP3.mV                       : CBL 3' Amplitude
GR.GAPI                       : Gamma Ray
~Parameter Information Block
~A  Depth       CCL         TT3         AMP3         GR     
# ...
   259.5000      0.0000    302.7129     36.7649     84.8847
   259.7500      0.0000    302.6558     36.9208     82.3747
   260.0000      0.0000    302.5954     37.0104     79.9872
   260.2500      0.0000    302.5384     37.0331     78.6443
   260.5000      0.0000    302.4918     36.9908     78.5464
   260.7500      0.0000    302.4584     36.8873     78.6559
   261.0000      0.0000    302.4352     36.7320     77.4082
   261.2500      0.0000    302.4169     36.5350     74.2571
   261.5000      0.0000    302.4020     36.2964     70.3082
   261.7500      0.0000    302.3934     36.0091     67.1498
   262.0000      0.0000    302.3951     35.6702     65.3910
   262.2500      0.0000    302.4094     35.2877     64.6066
   262.5000      0.0000    302.4362     34.8784     64.2853
   262.7500      0.0000    302.4739     34.4683     64.5019
   263.0000      0.0000    302.5200     34.0907     65.9261
   263.2500      0.0000    302.5707     33.7749     69.3446
   263.5000      0.0000    302.6216     33.5348     74.8448
   263.7500      0.0000    302.6683     33.3654     81.0518
   264.0000      0.0000    302.7101     33.2499     85.3106
   264.2500      0.0000    302.7493     33.1721     85.2974
   264.5000      0.0000    302.7869     33.1294     80.9807
   264.7500      0.0000    302.8190     33.1373     74.8927
   265.0000      0.0000    302.8382     33.2156     70.1992
   265.2500      0.0000    302.8405     33.3657     68.5625
   265.5000      0.0000    302.8285     33.5590     69.8011
   265.7500      0.0000    302.8096     33.7482     72.8614
   266.0000      0.0000    302.7929     33.8878     76.6345
   266.2500      0.0000    302.7869     33.9507     80.3185
   266.5000      0.0000    302.7959     33.9354     83.6864
   266.7500      0.0000    302.8174     33.8615     86.9195
   267.0000      0.0000    302.8460     33.7537     89.9290
   267.2500      0.0000    302.8806     33.6268     92.0506
   267.5000      0.0000    302.9272     33.4818     92.5207
   267.7500      0.0000    302.9948     33.3141     91.1115
   268.0000      0.0000    303.0877     33.1220     88.4704
   268.2500      0.0000    303.2027     32.9106     86.0450
   268.5000      0.0000    303.3316     32.6924     85.3122
   268.7500      0.0000    303.4616     32.4879     86.5781
   269.0000      0.0000    303.5756     32.3227     88.5895
   269.2500      0.0000    303.6563     32.2207     89.5593
   269.5000      0.0000    303.6952     32.1969     88.5670
   269.7500      0.0000    303.6962     32.2526     86.0596
   270.0000      0.0000    303.6729     32.3754     83.4054
   270.2500      0.0000    303.6401     32.5420     82.0681
   270.5000      0.0000    303.6104     32.7210     82.8023
   270.7500      0.0000    303.5934     32.8797     85.0917
   271.0000      0.0000    303.5957     32.9938     87.3407
   271.2500      0.0000    303.6206     33.0516     87.9682
   271.5000      0.0000    303.6668     33.0499     86.5254
   271.7500      0.0000    303.7296     32.9872     83.8000
   272.0000      0.0000    303.8035     32.8621     80.9405
   272.2500      0.0000    303.8859     32.6773     78.5021
   272.5000      0.0000    303.9763     32.4471     76.2129
   272.7500      0.0000    304.0731     32.2003     73.5818
   273.0000      0.0000    304.1730     31.9689     70.5083
   273.2500      0.0000    304.2763     31.7674     67.1798
   273.5000      0.0000    304.3883     31.5815     63.7370
   273.7500      0.0000    304.5149     31.3770     60.2723
   274.0000      0.0000    304.6570     31.1163     56.9905
   274.2500      0.0000    304.8088     30.7735     54.2453
   274.5000      0.0000    304.9588     30.3461     52.3556
   274.7500      0.0000    305.0915     29.8600     51.2482
   275.0000      0.0000    305.1937     29.3595     50.3787
   275.2500      0.0000    305.2608     28.8844     49.1608
   275.5000      0.0000    305.2995     28.4504     47.3880
   275.7500      0.0000    305.3264     28.0482     45.2348
   276.0000      0.0000    305.3618     27.6602     43.1183
   276.2500      0.0000    305.4189     27.2829     41.6003
   276.5000      0.0000    305.4958     26.9376     41.0956
   276.7500      0.0000    305.5768     26.6628     41.4378
   277.0000      0.0000    305.6425     26.4946     41.8757
   277.2500      0.0000    305.6823     26.4460     41.7778
   277.5000      0.0000    305.6993     26.5012     41.3319
   277.7500      0.0000    305.7064     26.6282     41.3564
   278.0000      0.0000    305.7188     26.7970     42.4217
   278.2500      0.0000    305.7448     26.9901     44.2977
   278.5000      0.0000    305.7820     27.2002     46.3160
   278.7500      0.0000    305.8181     27.4250     48.1911
   279.0000      0.0000    305.8789     27.6658     50.2361
   279.2500      0.0000    306.1046     27.9314     52.6468
   279.5000      0.0000    307.2029     28.2290     54.8627
   279.7500      0.0000    311.4121     28.5259     56.0333
   280.0000      0.0000    323.6745     28.6780     55.9591
   280.2500      0.0000    350.6403     28.4008     55.1715
   280.5000      0.0000    394.7595     27.4109     54.1781
   280.7500      0.0000    446.5606     25.7149     52.9628
   281.0000      0.0000    485.6393     23.7552     51.1753
   281.2500      0.0000    494.5910     22.1781     48.6120
   281.5000      0.0000    472.7227     21.4165     45.6717
   281.7500      0.0000    434.6656     21.4717     43.4820
   282.0000     -2.0000    397.5507     22.0200     43.2241
   282.2500      2.0000    371.0311     22.6790     44.9744
   282.5000      0.0000    356.2358     23.2358     47.3676
   282.7500      0.0000    349.8131     23.7390     48.7110
   283.0000      0.0000    347.7222     24.4774     48.4022
   283.2500      0.0000    346.6013     25.8388     47.1274
   283.5000      0.0000    343.7266     28.0107     45.8934
   283.7500      0.0000    337.4022     30.6726     45.2613
   284.0000      0.0000    328.0790     33.0640     45.2620
   284.2500      0.0000    318.2650     34.5081     45.4186
   284.5000      0.0000    310.6441     34.8494     44.8757
   284.7500      0.0000    306.2508     34.3677     43.0959
   285.0000      0.0000    304.4342     33.4381     40.5663
   285.2500      0.0000    304.0028     32.3631     38.4633
   285.5000      0.0000    304.0864     31.3707     37.4714
   285.7500      0.0000    304.2763     30.6082     37.2142
   286.0000      0.0000    304.4379     30.1190     36.9398
   286.2500      0.0000    304.5476     29.8596     36.3878
   286.5000      0.0000    304.6133     29.7514     35.7476
   286.7500      0.0000    304.6526     29.7244     35.2003
   287.0000      0.0000    304.6809     29.7394     34.9654
   287.2500      0.0000    304.7128     29.7816     35.5223
   287.5000      0.0000    304.7624     29.8447     37.2078
   287.7500      0.0000    304.8394     29.9235     39.5589
   288.0000      0.0000    304.9397     30.0151     41.4492
   288.2500      0.0000    305.0447     30.1183     42.0924
   288.5000      0.0000    305.1339     30.2223     41.7916
   288.7500      0.0000    305.1969     30.3024     41.5531
   289.0000      0.0000    305.2360     30.3316     42.1354
   289.2500      0.0000    305.2610     30.2968     43.6290
   289.5000      0.0000    305.2819     30.2017     45.7415
   289.7500      0.0000    305.3023     30.0642     48.2206
   290.0000      0.0000    305.3159     29.9193     50.9469
   290.2500      0.0000    305.3093     29.8187     53.7501
   290.5000      0.0000    305.2738     29.8138     56.2901
   290.7500      0.0000    305.2202     29.9280     58.2120
   291.0000      0.0000    305.1797     30.1395     59.4111
   291.2500      0.0000    305.1767     30.3899     60.2127
   291.5000      0.0000    305.1875     30.6172     61.2241
   291.7500      0.0000    305.1408     30.7938     62.7083
   292.0000      0.0000    304.9834     30.9369     63.9733
   292.2500      0.0000    304.7381     31.0807     63.6745
   292.5000      0.0000    304.4808     31.2437     61.0968
   292.7500      0.0000    304.2722     31.4247     57.1527
