~Version Information
VERS.                      2.0: CWLS Log ASCII Standard - VERSION 2.0
WRAP.                       NO: One line per depth step
~Well Information Block
STRT.FT                 0.0000: 
STOP.FT               878.7500: 
STEP.FT                 0.2500: 
NULL.                -999.2500: 
COMP.          Pioneer Natural Resources: COMPANY
WELL.          Screamin 12-29 Tr: WELL
FLD.           Purgatoire River: FIELD
LOC.           1979' FNL & 532' FWL--: LOCATION
CNTY.               Las Animas: COUNTY
SRVC.                Patterson: SERVICE COMPANY
DATE.          Thu Apr 13 22:21:38 2006: LOG DATE
UWI.           05 071 08660 00: UNIQUE WELL ID
STAT.                 Colorado: STATE
~Curve Information Block
DEPT.FT            0 000 00 00: Depth
GR.GAPI                       : Gamma Ray
CCL.                          : Casing Collar Locator
TT3.usec                      : CBL 3' Travel Time
AMP3.mV                       : CBL 3' Amplitude
~Parameter Information Block
~A  Depth        GR         CCL         TT3         AMP3    
# ...
   569.5000     91.6252      0.0000    670.0745      4.6073
   569.7500     88.0981      0.0000    663.4993      4.5761
   570.0000     82.4461      0.0000    654.8265      4.5303
   570.2500     79.4086      0.0000    651.2220      4.5109
   570.5000     76.9239      0.0000    648.0328      4.4999
   570.7500     76.7272      0.0000    645.9828      4.4986
   571.0000     78.0170      0.0000    642.4737      4.4952
   571.2500     79.4282      0.0000    640.7952      4.4913
   571.5000     81.8948      0.0000    641.0376      4.4897
   571.7500     83.8169      0.0000    643.1138      4.4954
   572.0000     87.0979      0.0000    647.1174      4.5172
   572.2500     89.0694      0.0000    648.6391      4.5390
   572.5000     90.2414      0.0000    647.3927      4.5740
   572.7500     89.2496      0.0000    644.5890      4.5911
   573.0000     85.7204      0.0000    639.7510      4.5980
   573.2500     83.2750      0.0000    637.3640      4.5941
   573.5000     81.6908      0.0000    635.8703      4.5976
   573.7500     82.4656      0.0000    636.0214      4.6174
   574.0000     85.5842      0.0000    636.8658      4.6679
   574.2500     88.1778      0.0000    637.1459      4.7011
   574.5000     91.5700      0.0000    636.5516      4.7293
   574.7500     92.9656      0.0000    635.6485      4.7309
   575.0000     93.9399      0.0000    634.3001      4.7173
   575.2500     94.7046      0.0000    633.7637      4.7082
   575.5000     97.3431      0.0000    633.7007      4.7127
   575.7500     99.9573      0.0000    634.1658      4.7329
   576.0000    103.7956      0.0000    635.8843      4.7825
   576.2500    105.5332      0.0000    638.0677      4.8178
   576.5000    105.9321      0.0000    643.3787      4.8566
   576.7500    104.3930      0.0000    648.0682      4.8700
   577.0000     99.8671      0.0000    655.4703      4.8803
   577.2500     96.2888      0.0000    659.6889      4.8876
   577.5000     91.4819      0.0000    663.9510      4.9023
   577.7500     88.8766      0.0000    665.4063      4.9110
   578.0000     85.5716      0.0000    666.1164      4.9175
   578.2500     83.5180      0.0000    665.9377      4.9163
   578.5000     80.3485      0.0000    664.6147      4.8939
   578.7500     78.1663      0.0000    662.6729      4.8500
   579.0000     75.2240      0.0000    658.1445      4.7179
   579.2500     73.9107      0.0000    655.1876      4.5853
   579.5000     73.5040      0.0000    654.9785      4.3482
   579.7500     74.2061      0.0000    660.1720      4.1940
   580.0000     75.7921      0.0000    676.5187      4.0206
   580.2500     76.7030      0.0000    689.8391      3.9580
   580.5000     78.0828     -2.0000    704.2627      3.9232
   580.7500     79.4950     -2.0000    706.6697      3.9132
   581.0000     82.1905      0.0000    700.9238      3.8887
   581.2500     83.3717      0.0000    693.8181      3.8690
   581.5000     82.2441      0.0000    680.5316      3.8646
   581.7500     79.2482      0.0000    669.7396      3.8978
   582.0000     72.7412      0.0000    652.2638      4.0147
   582.2500     68.3081      0.0000    642.1625      4.1267
   582.5000     63.2044      0.0000    632.2816      4.3055
   582.7500     61.4258      0.0000    629.0670      4.4107
   583.0000     61.6956      0.0000    627.2472      4.5378
   583.2500     63.6996      0.0000    626.9200      4.6093
   583.5000     68.0885      0.0000    626.7813      4.7099
   583.7500     70.6105      0.0000    626.7471      4.7720
   584.0000     71.7500      0.0000    626.7464      4.8475
   584.2500     70.3988      0.0000    626.7961      4.8822
   584.5000     66.1546      0.0000    626.9775      4.9120
   584.7500     62.7198      0.0000    627.2009      4.9185
   585.0000     57.8706      0.0000    627.8278      4.9087
   585.2500     55.4213      0.0000    628.5623      4.8917
   585.5000     53.7901      0.0000    630.1850      4.8627
   585.7500     54.1955      0.0000    631.3622      4.8482
   586.0000     56.0770      0.0000    632.3895      4.8358
   586.2500     57.1928      0.0000    632.1913      4.8293
   586.5000     57.5716      0.0000    630.8638      4.8161
   586.7500     57.0860      0.0000    629.9699      4.8069
   587.0000     55.9689      0.0000    629.8110      4.8020
   587.2500     55.0406      0.0000    630.8685      4.8059
   587.5000     53.0045      0.0000    634.2664      4.8075
   587.7500     51.2571      0.0000    637.5173      4.7912
   588.0000     48.9342      0.0000    642.9182      4.7283
   588.2500     48.2822      0.0000    645.9214      4.6686
   588.5000     49.6548      0.0000    647.8734      4.5816
   588.7500     52.5114      0.0000    647.0977      4.5384
   589.0000     59.5556      0.0000    643.5903      4.4985
   589.2500     65.3509      0.0000    640.5344      4.4824
   589.5000     74.0048      0.0000    636.0800      4.4627
   589.7500     79.2693      0.0000    633.6249      4.4502
   590.0000     86.8084      0.0000    631.0767      4.4362
   590.2500     91.9003      0.0000    630.1564      4.4331
   590.5000     99.1299      0.0000    629.7820      4.4350
   590.7500    102.9079      0.0000    630.0901      4.4339
   591.0000    106.0249      0.0000    631.1727      4.4217
   591.2500    106.3438      0.0000    632.0969      4.4118
   591.5000    104.7106      0.0000    633.2808      4.4115
   591.7500    102.6389      0.0000    633.6667      4.4265
   592.0000     98.8697      0.0000    633.4487      4.4655
   592.2500     96.4877      0.0000    632.8698      4.4947
   592.5000     94.1726      0.0000    631.8615      4.5347
   592.7500     93.8547      0.0000    631.4359      4.5571
   593.0000     94.9201      0.0000    631.2522      4.5769
   593.2500     96.0301      0.0000    630.9756      4.5733
   593.5000     97.3254      0.0000    628.6714      4.5313
   593.7500     97.7039      0.0000    624.5756      4.4787
   594.0000     97.5110      0.0000    612.8940      4.3732
   594.2500     96.9175      0.0000    602.1576      4.2950
   594.5000     95.5084      0.0000    588.2357      4.1858
   594.7500     94.4725      0.0000    586.3857      4.1312
   595.0000     93.4973      0.0000    601.6648      4.0935
   595.2500     93.4916      0.0000    622.3069      4.0988
   595.5000     93.9321      0.0000    657.2606      4.1424
   595.7500     93.9616      2.0000    675.6169      4.1892
   596.0000     93.4011      0.0000    689.3254      4.2819
   596.2500     93.0537      0.0000    689.9789      4.3584
   596.5000     93.5374      0.0000    682.6649      4.4970
   596.7500     94.8160      0.0000    674.4106      4.6064
   597.0000     97.6496      0.0000    659.6174      4.7837
   597.2500     99.2773      0.0000    650.4781      4.8897
   597.5000    100.0635      0.0000    644.0173      4.9900
   597.7500     99.5972      0.0000    647.2559      5.0071
   598.0000     98.8450      0.0000    660.8678      4.9660
   598.2500     98.9980      0.0000    669.8204      4.9043
   598.5000    100.0361      0.0000    672.8284      4.7813
   598.7500    100.5939      0.0000    666.6490      4.6961
   599.0000     99.9671      0.0000    651.4574      4.5963
   599.2500     98.0576      0.0000    642.0800      4.5613
   599.5000     92.9622      0.0000    633.6904      4.5593
   599.7500     88.8568      0.0000    633.0418      4.5846
   600.0000     83.6381      0.0000    640.9818      4.6415
   600.2500     81.5038      0.0000    652.3362      4.6773
   600.5000     80.1445      0.0000    676.2223      4.7067
   600.7500     80.0225      0.0000    694.5375      4.7062
   601.0000     80.5532      0.0000    721.9263      4.6846
   601.2500     81.2585      0.0000    738.0171      4.6665
   601.5000     82.5562      0.0000    754.3675      4.6535
   601.7500     83.4075      0.0000    757.0911      4.6638
   602.0000     84.2778      0.0000    746.7305      4.7120
   602.2500     84.1267      0.0000    733.4856      4.7586
   602.5000     81.9792      0.0000    717.9372      4.8267
   602.7500     79.2543      0.0000    718.6898      4.8590
