~Version Information
VERS.                      2.0: CWLS Log ASCII Standard - VERSION 2.0
WRAP.                       NO: One line per depth step
~Well Information Block
STRT.FT               570.0000: 
STOP.FT              2090.5000: 
STEP.FT                 0.1000: 
NULL.                -999.2500: 
COMP.          XTO Energy Inc.: COMPANY
WELL.          Golden Eagle 19-10: WELL
FLD.           Purgatoire River: FIELD
LOC.           2684' FSL & 1825' FEL: LOCATION
CNTY.               Las Animas: COUNTY
SRVC.                Patterson: SERVICE COMPANY
DATE.          Mon Mar 06 07:05:15 2006: LOG DATE
UWI.           05 071 08697 00: UNIQUE WELL ID
STAT.                 Colorado: STATE
~Curve Information Block
DEPT.FT            0 000 00 00: Depth
DCAL.in                       : CDL Caliper
RHOB.g/cc                     : CDL Bulk Density
RHOC.g/cc                     : CDL Density Correction
DPOR.pu                       : CDL Density Porosity
GR.GAPI                       : Gamma Ray
NPOR.pu                       : Neutron Porosity
~Parameter Information Block
~A  Depth       DCAL        RHOB        RHOC        DPOR         GR         NPOR    
# ...
  1578.0000      7.7970      2.4627     -0.0251     11.3514     96.7306     27.9340
  1578.1000      7.7970      2.4604      0.0068     11.4927     99.3306     27.6650
  1578.2000      7.7970      2.4720      0.0285     10.7897     99.6874     27.7762
  1578.3000      7.7944      2.4910      0.0537      9.6347    100.5525     27.8274
  1578.4000      7.7944      2.5094      0.1048      8.5213    104.5721     27.4396
  1578.5000      7.7849      2.5184      0.0607      7.9782    106.8188     26.8948
  1578.6000      7.7849      2.5147      0.0824      8.1997    104.4676     26.7022
  1578.7000      7.7849      2.5034      0.0609      8.8876    102.4633     27.2764
  1578.8000      7.7763      2.4929      0.0836      9.5207    104.3110     28.1648
  1578.9000      7.7763      2.4827      0.0801     10.1385    105.8807     28.3934
  1579.0000      7.7801      2.4682      0.0745     11.0190    104.0993     27.6539
  1579.1000      7.7801      2.4554      0.0388     11.7934    103.0769     26.5976
  1579.2000      7.7801      2.4500      0.0564     12.1218    107.2896     25.7670
  1579.3000      7.7998      2.4461      0.0701     12.3568    115.6194     25.1518
  1579.4000      7.7998      2.4455      0.0337     12.3927    123.6214     24.9924
  1579.5000      7.8210      2.4556      0.0693     11.7806    128.3495     25.4379
  1579.6000      7.8210      2.4687      0.0685     10.9866    126.6909     26.2994
  1579.7000      7.8210      2.4735      0.0932     10.6948    119.6247     27.3392
  1579.8000      7.8312      2.4618      0.0947     11.4047    114.3820     27.7256
  1579.9000      7.8312      2.4178      0.1160     14.0740    114.0317     27.4398
  1580.0000      7.8313      2.3344      0.0699     19.1278    118.2936     27.5257
  1580.1000      7.8313      2.2377     -0.0225     24.9897    126.7431     28.2431
  1580.2000      7.8313      2.1558     -0.0082     29.9487    132.0508     29.4394
  1580.3000      7.8212      2.0858     -0.0106     34.1912    126.6939     31.0984
  1580.4000      7.8212      2.0221     -0.0260     38.0551    112.9670     32.3353
  1580.5000      7.8064      1.9752     -0.0359     40.8971     99.1338     32.0542
  1580.6000      7.8064      1.9514      0.0121     42.3414     90.5321     30.8205
  1580.7000      7.8064      1.9486      0.0396     42.5084     87.9769     30.2903
  1580.8000      7.7942      1.9642      0.0810     41.5631     90.3136     30.7679
  1580.9000      7.7942      1.9934      0.1046     39.7959     93.5259     31.4055
  1581.0000      7.7888      2.0386      0.1355     37.0561     92.9010     31.7924
  1581.1000      7.7888      2.1062      0.1381     32.9602     90.9950     31.6260
  1581.2000      7.7888      2.1818      0.1654     28.3745     93.4204     30.8663
  1581.3000      7.7874      2.2396      0.1871     24.8709     99.1519     29.7478
  1581.4000      7.7874      2.2860      0.1300     22.0588    102.4105     28.7871
  1581.5000      7.7866      2.3489      0.1157     18.2512    100.4655     28.6697
  1581.6000      7.7866      2.4204      0.1443     13.9141     96.7602     28.8663
  1581.7000      7.7866      2.4691      0.1297     10.9651     93.9338     28.5601
  1581.8000      7.7864      2.4898      0.0935      9.7116     92.0924     27.9160
  1581.9000      7.7864      2.4974      0.0968      9.2469     91.9833     27.2339
  1582.0000      7.7835      2.5015      0.0903      8.9991     92.2995     26.8413
  1582.1000      7.7835      2.5070      0.0893      8.6668     90.2968     26.9047
  1582.2000      7.7835      2.5111      0.1103      8.4168     87.8195     26.8510
  1582.3000      7.7794      2.5101      0.0852      8.4776     88.1537     26.2180
  1582.4000      7.7794      2.5146      0.0460      8.2085     91.4369     25.6305
  1582.5000      7.7806      2.5282      0.1024      7.3811     94.2273     25.6585
  1582.6000      7.7806      2.5350      0.0922      6.9716     95.7137     26.0025
  1582.7000      7.7806      2.5293      0.0593      7.3161     95.0922     26.2737
  1582.8000      7.7886      2.5147      0.0523      8.1996     89.2883     26.5785
  1582.9000      7.7886      2.4908      0.0239      9.6469     84.4078     27.0902
  1583.0000      7.7966      2.4698      0.0012     10.9217     87.7699     27.3053
  1583.1000      7.7966      2.4670      0.0078     11.0881     95.2327     26.8569
  1583.2000      7.7966      2.4735      0.0573     10.6980    100.6613     26.0207
  1583.3000      7.7986      2.4735      0.0175     10.6963    102.0620     25.3183
  1583.4000      7.7986      2.4693      0.0345     10.9502     98.5757     25.5525
  1583.5000      7.7970      2.4629      0.0546     11.3410     95.5940     26.4312
  1583.6000      7.7970      2.4508     -0.0014     12.0734     97.7973     26.7974
  1583.7000      7.7970      2.4392      0.0240     12.7759     99.1020     26.8511
  1583.8000      7.7959      2.4417      0.0105     12.6242     94.2682     27.2858
  1583.9000      7.7959      2.4640      0.0093     11.2699     88.7638     27.8304
  1584.0000      7.7933      2.4902      0.0635      9.6829     90.2099     27.6784
  1584.1000      7.7933      2.4977      0.0649      9.2316     96.2229     26.9679
  1584.2000      7.7933      2.4894      0.0620      9.7362    100.5965     26.8445
  1584.3000      7.7894      2.4841      0.0549     10.0556    103.2590     27.6281
  1584.4000      7.7894      2.4861      0.0759      9.9359    106.5326     28.1773
  1584.5000      7.7865      2.4854      0.0659      9.9733    107.2121     27.7381
  1584.6000      7.7865      2.4779      0.0411     10.4289    102.4633     27.0289
  1584.7000      7.7865      2.4685      0.0466     11.0011     97.1864     26.5351
  1584.8000      7.7871      2.4621      0.0621     11.3871     97.7444     26.0228
  1584.9000      7.7871      2.4599      0.0393     11.5236    103.3441     26.2477
  1585.0000      7.7884      2.4639      0.0595     11.2797    106.9229     27.1881
  1585.1000      7.7884      2.4800      0.0299     10.3028    105.5086     27.3030
  1585.2000      7.7884      2.5059      0.0627      8.7347    102.9306     26.7546
  1585.3000      7.7918      2.5269      0.0686      7.4591    100.5443     26.6136
  1585.4000      7.7918      2.5300      0.0751      7.2746     99.1579     26.4059
  1585.5000      7.7957      2.5111      0.0906      8.4193    101.4776     25.7660
  1585.6000      7.7957      2.4835      0.0454     10.0899    106.6856     25.5015
  1585.7000      7.7957      2.4706      0.0279     10.8715    108.2008     25.6254
  1585.8000      7.7933      2.4773      0.0619     10.4686    102.6088     25.4610
  1585.9000      7.7933      2.4892      0.0582      9.7466     99.6595     25.1448
  1586.0000      7.7871      2.4988      0.0763      9.1664    104.6915     25.2881
  1586.1000      7.7871      2.5154      0.0424      8.1571    108.2056     25.6494
  1586.2000      7.7871      2.5477      0.0683      6.2018    105.4227     25.4540
  1586.3000      7.7833      2.5740      0.1046      4.6090     99.5729     24.7434
  1586.4000      7.7833      2.5702      0.1098      4.8346     91.0489     24.0060
  1586.5000      7.7827      2.5505      0.0852      6.0331     83.5064     23.6364
  1586.6000      7.7827      2.5330      0.0826      7.0934     81.3553     23.9860
  1586.7000      7.7827      2.5152      0.0601      8.1682     84.2226     24.7382
  1586.8000      7.7824      2.4958      0.0516      9.3448     91.3964     25.1681
  1586.9000      7.7824      2.4880     -0.0010      9.8200     99.7319     25.1309
  1587.0000      7.7787      2.5103      0.0212      8.4680    103.5701     24.8200
  1587.1000      7.7787      2.5560      0.0648      5.6976    102.0346     24.5799
  1587.2000      7.7787      2.5913      0.1040      3.5601     99.6643     24.5978
  1587.3000      7.7679      2.5886      0.1452      3.7185    100.1558     24.2775
  1587.4000      7.7679      2.5496      0.0909      6.0872    102.3996     23.6055
  1587.5000      7.7572      2.4987      0.0653      9.1669    104.1644     23.3535
