~Version Information
VERS.                      2.0: CWLS Log ASCII Standard - VERSION 2.0
WRAP.                       NO: One line per depth step
~Well Information Block
STRT.FT               650.0000: 
STOP.FT              2053.7000: 
STEP.FT                 0.1000: 
NULL.                -999.2500: 
COMP.          Pioneer Natural Resources: COMPANY
WELL.           Alabaster 11-8: WELL
FLD.           Purgatoire River: FIELD
LOC.           1249' FNL & 215' FWL--: LOCATION
PROV.                 Colorado: PROVINCE
CNTY.               Las Animas: COUNTRY
SRVC.                Patterson: SERVICE COMPANY
DATE.          Thu Jan 19 09:16:54 2006: LOG DATE
UWI.           05 071 08642 00: UNIQUE WELL ID
~Curve Information Block
DEPT.FT            0 000 00 00: Depth
DCAL.in                       : CDL Caliper
RHOB.g/cc                     : CDL Bulk Density
RHOC.g/cc                     : CDL Density Correction
DPOR.pu                       : CDL Density Porosity
NPOR.pu                       : Neutron Porosity
GR.GAPI                       : Gamma Ray
~Parameter Information Block
~A  Depth       DCAL        RHOB        RHOC        DPOR        NPOR         GR     
# ...
  1562.0000      8.0494      2.5048      0.1502      8.8006     18.3854    107.0774
  1562.1000      8.0494      2.5237      0.1424      7.6558     18.8123    113.8244
  1562.2000      8.0494      2.5437      0.1201      6.4410     18.7362    119.5586
  1562.3000      8.0486      2.5683      0.1261      4.9526     18.6105    122.2580
  1562.4000      8.0486      2.5933      0.1368      3.4336     18.7046    119.9665
  1562.5000      8.0499      2.6047      0.1243      2.7443     18.7592    115.2160
  1562.6000      8.0499      2.5957      0.0935      3.2903     18.7505    109.6316
  1562.7000      8.0499      2.5775      0.0943      4.3935     19.0483    103.2335
  1562.8000      8.0520      2.5658      0.0631      5.1032     19.8753    100.4480
  1562.9000      8.0520      2.5587      0.0773      5.5305     21.1082    100.3100
  1563.0000      8.0535      2.5459      0.0393      6.3070     22.3352     96.4266
  1563.1000      8.0535      2.5286      0.0263      7.3583     23.1288     89.5403
  1563.2000      8.0535      2.5107      0.0200      8.4438     23.3850     85.5899
  1563.3000      8.0551      2.4926     -0.0045      9.5382     23.5187     89.3676
  1563.4000      8.0551      2.4802     -0.0077     10.2897     23.9716     97.2023
  1563.5000      8.0548      2.4825     -0.0309     10.1517     24.3187     99.4728
  1563.6000      8.0548      2.4985     -0.0138      9.1818     23.9312     95.6568
  1563.7000      8.0548      2.5136      0.0284      8.2667     23.2245     92.3421
  1563.8000      8.0530      2.5139      0.0911      8.2499     22.7037     91.5353
  1563.9000      8.0530      2.5029      0.0132      8.9180     22.4334     92.2647
  1564.0000      8.0519      2.4935      0.0477      9.4857     22.4596     94.9898
  1564.1000      8.0519      2.4878      0.0512      9.8311     22.5098     97.5479
  1564.2000      8.0519      2.4874      0.0400      9.8543     22.2066     97.8038
  1564.3000      8.0528      2.4943      0.0957      9.4380     21.7808    100.3773
  1564.4000      8.0528      2.4949      0.1229      9.3979     21.5833    108.2842
  1564.5000      8.0545      2.4800      0.0664     10.3023     21.5149    115.6069
  1564.6000      8.0545      2.4563      0.0985     11.7423     21.5364    117.3549
  1564.7000      8.0545      2.4350      0.0200     13.0298     21.6158    117.2318
  1564.8000      8.0539      2.4281      0.0449     13.4476     21.5083    118.3000
  1564.9000      8.0539      2.4369      0.0043     12.9175     21.3472    118.6143
  1565.0000      8.0518      2.4510      0.0750     12.0599     21.4270    117.7830
  1565.1000      8.0518      2.4591      0.0703     11.5727     21.5524    116.9576
  1565.2000      8.0518      2.4585      0.0855     11.6051     21.4965    116.3680
  1565.3000      8.0514      2.4576      0.0721     11.6596     21.3784    116.0292
  1565.4000      8.0514      2.4649      0.0874     11.2194     21.3909    114.5720
  1565.5000      8.0513      2.4707      0.1154     10.8697     21.7549    112.4434
  1565.6000      8.0513      2.4608      0.0795     11.4683     22.3432    110.4066
  1565.7000      8.0513      2.4451      0.0484     12.4190     22.7025    107.7470
  1565.8000      8.0516      2.4374      0.0737     12.8870     22.6348    106.3687
  1565.9000      8.0516      2.4332      0.0837     13.1417     22.2067    109.3621
  1566.0000      8.0528      2.4251      0.0792     13.6318     21.4277    114.3665
  1566.1000      8.0528      2.4198      0.0637     13.9520     20.5686    116.8733
  1566.2000      8.0528      2.4284      0.0685     13.4310     19.9993    117.5267
  1566.3000      8.0527      2.4462      0.1012     12.3503     19.6578    119.3894
  1566.4000      8.0527      2.4616      0.0918     11.4159     19.3148    120.4469
  1566.5000      8.0505      2.4734      0.1173     10.7029     19.1000    116.4472
  1566.6000      8.0505      2.4838      0.1026     10.0709     19.3775    109.9355
  1566.7000      8.0505      2.4963      0.1084      9.3158     20.0023    105.4571
  1566.8000      8.0484      2.5145      0.0890      8.2142     20.5307    103.6765
  1566.9000      8.0484      2.5285      0.1162      7.3645     20.8915    102.8938
  1567.0000      8.0489      2.5242      0.0964      7.6241     21.3404    101.9599
  1567.1000      8.0489      2.5132      0.0214      8.2938     22.0379    104.1303
  1567.2000      8.0489      2.5128      0.0905      8.3161     22.7024    111.1910
  1567.3000      8.0489      2.5155      0.0971      8.1499     23.0488    121.0891
  1567.4000      8.0489      2.5199      0.0385      7.8873     23.0663    130.0787
  1567.5000      8.0486      2.5341      0.0455      7.0273     22.9491    132.2038
  1567.6000      8.0486      2.5416      0.1126      6.5711     22.8768    124.3410
  1567.7000      8.0486      2.5306      0.0780      7.2343     22.8506    112.1287
  1567.8000      8.0503      2.5270      0.0160      7.4573     23.0146    105.0323
  1567.9000      8.0503      2.5464      0.0962      6.2816     23.3867    106.0242
  1568.0000      8.0520      2.5670      0.1087      5.0298     23.8345    111.9743
  1568.1000      8.0520      2.5725      0.0886      4.6953     24.4755    116.9763
  1568.2000      8.0520      2.5709      0.0959      4.7958     25.0577    117.0768
  1568.3000      8.0532      2.5700      0.0948      4.8513     24.8752    115.4736
  1568.4000      8.0532      2.5656      0.0896      5.1135     24.1380    115.8673
  1568.5000      8.0542      2.5563      0.0390      5.6811     23.8714    115.9719
  1568.6000      8.0542      2.5467      0.0506      6.2621     24.3746    114.1328
  1568.7000      8.0542      2.5297      0.0312      7.2880     25.2617    112.8497
  1568.8000      8.0541      2.5062      0.0100      8.7166     26.0933    112.7094
  1568.9000      8.0541      2.4985      0.0103      9.1790     26.4313    114.7928
  1569.0000      8.0532      2.5118      0.0532      8.3759     26.1865    120.0199
  1569.1000      8.0532      2.5223      0.0523      7.7378     25.7802    123.0420
  1569.2000      8.0532      2.5200      0.0279      7.8784     25.5837    118.0886
  1569.3000      8.0528      2.5163      0.0609      8.1046     25.4762    108.0307
  1569.4000      8.0528      2.5132      0.0682      8.2927     25.3166    100.5511
  1569.5000      8.0506      2.5031      0.0887      8.9019     25.0817     99.8635
  1569.6000      8.0506      2.4933      0.0031      9.4976     24.7169    102.9556
  1569.7000      8.0506      2.5006      0.0070      9.0519     24.6099    105.1920
  1569.8000      8.0456      2.5194      0.0833      7.9164     24.8492    105.4079
  1569.9000      8.0456      2.5270      0.0664      7.4541     24.8524    107.0058
  1570.0000      8.0433      2.5099      0.0835      8.4893     24.5174    115.2358
  1570.1000      8.0433      2.4714      0.0238     10.8269     24.0999    126.2638
  1570.2000      8.0433      2.4369     -0.0375     12.9179     23.7907    129.9487
  1570.3000      8.0448      2.4260      0.0140     13.5786     23.9954    126.5809
  1570.4000      8.0448      2.4309      0.0113     13.2760     24.7457    123.1871
  1570.5000      8.0465      2.4398      0.0172     12.7424     25.4856    121.2747
  1570.6000      8.0465      2.4448      0.0477     12.4369     25.6673    116.5850
  1570.7000      8.0465      2.4420      0.0140     12.6034     25.0977    108.0884
  1570.8000      8.0469      2.4340      0.0498     13.0938     24.0667    101.6687
  1570.9000      8.0469      2.4257      0.0711     13.5928     23.1785    102.3009
  1571.0000      8.0467      2.4339      0.0325     13.0991     22.6880    108.9663
  1571.1000      8.0467      2.4624      0.1594     11.3675     22.3084    116.0084
  1571.2000      8.0467      2.4819      0.1491     10.1861     21.7878    117.7013
  1571.3000      8.0456      2.4710      0.1295     10.8488     21.2981    113.6804
  1571.4000      8.0456      2.4346      0.0929     13.0576     21.1189    110.3531
  1571.5000      8.0433      2.3871      0.0750     15.9311     21.2509    111.7934
