~Version Information
VERS.                      2.0: CWLS Log ASCII Standard - VERSION 2.0
WRAP.                       NO: One line per depth step
~Well Information Block
STRT.FT                -5.0000: 
STOP.FT              1761.2500: 
STEP.FT                 0.2500: 
NULL.                -999.2500: 
COMP.          Pioneer Natural Resources: COMPANY
WELL.          Manville 42-14 Tr: WELL
FLD.           Purgatoire River: FIELD
LOC.           2018'FNL & 562' FEL: LOCATION
STAT.                 Colorado: State
CNTY.               Las Animas: COUNTY
CTRY. USA : Country
SECT. 14 : Section
TOWN. 32S : Township
RANG. 66W : Range
SRVC.                Patterson: SERVICE COMPANY
DATE.          Fri Sep 23 10:37:02 2005: LOG DATE
API. 05-071-08522             : UNIQUE WELL ID
~Curve Information Block
DEPT.FT            0 000 00 00: Depth
CCL.                          : Casing Collar Locator
TT3.usec                      : CBL 3' Travel Time
AMP3.mV                       : CBL 3' Amplitude
AMP5.mV                       : CBL 5' Amplitude
GR.GAPI                       : Gamma Ray
~Parameter Information Block
~A  Depth       CCL         TT3         AMP3        AMP5         GR     
# ...
   331.0000      0.0000    304.8814     20.8978     12.1384     55.2636
   331.2500      0.0000    304.7986     21.0732     12.3995     60.8938
   331.5000      0.0000    304.7007     21.1740     12.5736     68.7320
   331.7500      0.0000    304.6063     21.1888     12.2254     77.9062
   332.0000      0.0000    304.5298     21.1370     12.4865     86.6796
   332.2500      0.0000    304.4731     21.0567     12.6606     93.0037
   332.5000      0.0000    304.4249     20.9904     12.5736     95.5951
   332.7500      0.0000    304.3688     20.9709     12.3124     94.9257
   333.0000      0.0000    304.2967     21.0122     13.0959     92.9875
   333.2500      0.0000    304.2133     21.1096     12.4865     91.7827
   333.5000      0.0000    304.1335     21.2420     12.6606     91.9064
   333.7500      0.0000    304.0735     21.3714     11.8772     92.4790
   334.0000      0.0000    304.0449     21.4463     11.8772     92.3660
   334.2500      0.0000    304.0522     21.4236     11.6161     91.4151
   334.5000      0.0000    304.0931     21.2986     12.2254     90.5659
   334.7500      0.0000    304.1603     21.1133     11.9643     90.9069
   335.0000      0.0000    304.2437     20.9285     12.1384     92.6495
   335.2500      0.0000    304.3324     20.7894     12.2254     94.9253
   335.5000      0.0000    304.4190     20.7096     11.7902     96.5644
   335.7500      0.0000    304.5007     20.6766     12.0513     97.2908
   336.0000      0.0000    304.5757     20.6640     12.0513     98.1302
   336.2500      0.0000    304.6389     20.6475     11.5290    100.3482
   336.5000      0.0000    304.6831     20.6157     11.6161    103.8308
   336.7500      0.0000    304.7021     20.5713     12.5736    106.7565
   337.0000      0.0000    304.6927     20.5262     12.8347    107.1492
   337.2500      0.0000    304.6550     20.5007     13.0088    104.7357
   337.5000      0.0000    304.5920     20.5239     13.0959    101.2346
   337.7500      0.0000    304.5072     20.6206     13.7922     98.9740
   338.0000      0.0000    304.4051     20.7779     13.7922     99.1510
   338.2500      0.0000    304.2815     20.9129     10.4845    101.0451
   338.5000      0.0000    304.0936     20.8654      5.4358    102.7105
   338.7500      0.0000    303.7115     20.4627     14.3145    102.5668
   339.0000      0.0000    302.9648     19.6461      6.2192    100.5981
   339.2500      0.0000    301.9144     18.5415      7.6119     98.1803
   339.5000      0.0000    301.1444     17.3721      7.7860     96.7516
   339.7500      0.0000    301.5117     16.3164      7.6119     96.4508
   340.0000      0.0000    303.3255     15.4819      8.2213     95.8424
   340.2500      0.0000    305.9167     14.9406      8.1342     93.1545
   340.5000     -2.0000    308.2231     14.7069      8.3953     88.2107
   340.7500      2.0000    309.6451     14.7088      9.3529     83.1730
   341.0000      0.0000    310.2018     14.8342      9.3529     80.8713
   341.2500     -2.0000    310.0882     14.9887      8.3953     82.1908
   341.5000      0.0000    309.2441     15.1212      8.7435     85.3146
   341.7500      0.0000    307.2647     15.2756      9.0917     87.3368
   342.0000      0.0000    303.6669     15.6786      9.5270     86.1618
   342.2500      0.0000    298.3283     16.7129      9.7010     81.2594
   342.5000      0.0000    291.7472     18.6540      9.7881     73.7231
   342.7500      0.0000    284.9569     21.3488      9.8751     65.8969
   343.0000      0.0000    279.3603     24.1794     10.8327     60.0555
   343.2500      0.0000    276.5139     26.4146      5.9580     56.8704
   343.5000      0.0000    277.5125     27.6515     14.3145     55.4319
   343.7500      0.0000    282.1408     27.9600      9.6140     54.7134
   344.0000      0.0000    288.6876     27.6756     17.3612     54.4058
   344.2500      0.0000    294.8984     27.1187     17.5353     54.2774
   344.5000      0.0000    299.2996     26.4752     16.4036     53.5658
   344.7500      0.0000    301.7169     25.8197     15.7073     51.6193
   345.0000      0.0000    302.7790     25.1729     15.6202     48.8446
   345.2500      0.0000    303.1871     24.5431     15.7943     46.4945
   345.5000      0.0000    303.3708     23.9478     14.8368     45.4876
   345.7500      0.0000    303.5156     23.4087     14.9239     45.7165
   346.0000      0.0000    303.6747     22.9399     14.1404     46.4641
   346.2500      0.0000    303.8402     22.5402     13.7052     47.3031
   346.5000      0.0000    303.9846     22.1908     13.0088     48.5811
   346.7500      0.0000    304.0917     21.8558     12.8347     51.0701
   347.0000      0.0000    304.1717     21.5011     12.6606     55.0053
   347.2500      0.0000    304.2456     21.1261     12.6606     59.4287
   347.5000      0.0000    304.3232     20.7704     11.9643     62.7460
   347.7500      0.0000    304.3975     20.4806     11.7031     64.1403
   348.0000      0.0000    304.4584     20.2772     12.4865     64.3352
   348.2500      0.0000    304.5042     20.1581     12.3995     64.7440
   348.5000      0.0000    304.5405     20.1234     12.0513     65.9248
   348.7500      0.0000    304.5730     20.1785     11.9643     67.3275
   349.0000      0.0000    304.5988     20.3129     11.5290     68.5722
   349.2500      0.0000    304.6061     20.4861     11.7031     70.1031
   349.5000      0.0000    304.5829     20.6450     12.6606     72.1256
   349.7500      0.0000    304.5259     20.7647     12.7477     73.7689
   350.0000      0.0000    304.4375     20.8707     12.8347     73.9028
   350.2500      0.0000    304.3197     21.0101     12.3995     72.2459
   350.5000      0.0000    304.1779     21.1970     12.3995     69.4466
   350.7500      0.0000    304.0283     21.3930     12.2254     66.5323
   351.0000      0.0000    303.8953     21.5437     12.2254     64.1590
   351.2500      0.0000    303.7995     21.6287     12.7477     62.0943
   351.5000      0.0000    303.7488     21.6751     12.5736     59.7178
   351.7500      0.0000    303.7370     21.7294     12.6606     57.1117
   352.0000      0.0000    303.7479     21.8220     12.8347     55.1961
   352.2500      0.0000    303.7646     21.9546     12.7477     54.7077
   352.5000      0.0000    303.7777     22.1119     12.6606     55.4544
   352.7500      0.0000    303.7841     22.2762     12.8347     56.6198
   353.0000      0.0000    303.7821     22.4277     12.5736     57.4456
   353.2500      0.0000    303.7699     22.5361     13.7922     57.6971
   353.5000      0.0000    303.7497     22.5686     13.2700     57.7450
   353.7500      0.0000    303.7288     22.5150     13.0088     58.0962
   354.0000      0.0000    303.7153     22.4065     12.6606     58.6556
   354.2500      0.0000    303.7105     22.3029     12.9218     58.6767
   354.5000      0.0000    303.7088     22.2519     13.3570     57.6071
   354.7500      0.0000    303.7043     22.2572     13.2700     55.6311
   355.0000      0.0000    303.6967     22.2883     12.8347     53.2177
   355.2500      0.0000    303.6898     22.3152     12.5736     50.6351
   355.5000      0.0000    303.6871     22.3201     11.9643     48.2267
   355.7500      0.0000    303.6908     22.2776     12.5736     46.6670
   356.0000      0.0000    303.7057     22.1463     12.3995     46.3514
   356.2500      0.0000    303.7388     21.9027     12.4865     46.6971
   356.5000      0.0000    303.7930     21.5811     12.4865     46.6482
   356.7500      0.0000    303.8626     21.2636     12.1384     45.9755
   357.0000      0.0000    303.9367     21.0244     12.0513     45.6201
   357.2500      0.0000    304.0067     20.8817     11.9643     46.6150
   357.5000      0.0000    304.0695     20.8004     12.2254     49.0106
   357.7500      0.0000    304.1251     20.7334     11.8772     51.9970
   358.0000      0.0000    304.1739     20.6551     11.5290     54.7070
   358.2500      0.0000    304.2178     20.5621     11.3549     56.6396
   358.5000      0.0000    304.2621     20.4555     11.2679     57.5870
   358.7500      0.0000    304.3138     20.3347     11.0938     57.5128
