~Version Information
 VERS.                                  2.0 : CWLS LAS VERSION
 WRAP.                                   NO : WRAPING MODE
 SWARE .                 MController 2.5.0N : SOFTWARE VERSION
~Well Information
 WELL.                         Andrew 23-15 : WELL
 COMP.    Pioneer Natural Resources USA Inc : COMPANY
 FLD.                      Purgatoire River : FIELD
 LOC.               NE/SW Sec 15 T32S  R65W : LOCATION
 DATE.                             08/12/05 : DATE(S) LOGGED
 SRVC.       BLANCO Geological Services LLC : SERVICE COMPANY
 STAT.                                   CO : STATE
 CNTY.                           Las Animas : COUNTY
 CTRY.                                  USA : COUNTRY
 API.                       05 071 08460 00 : API NUMBER
 STRT.FT                             447.00 : START DEPTH
 STOP.FT                            1521.00 : STOP DEPTH
 STEP.FT                               1.00 : DEPTH INCREMENT
 NULL.                                -9999 : NULL VALUE
~Curve information
 DEPTH.FT                                   :
 ROP.MIN/FT                                 :
 GAS.UNITS                                  :
~ASCII Log data
# ...
       847.0         0.40         -2.5 
       848.0         0.30         -2.6 
       849.0         0.30         -2.6 
       850.0         0.20         -3.0 
       851.0         0.30         -2.5 
       852.0         0.42         -2.6 
       853.0         0.30         -2.5 
       854.0         0.30         -2.8 
       855.0         0.20         -3.1 
       856.0         0.40         -2.5 
       857.0         0.30         -2.4 
       858.0         0.40         -2.6 
       859.0         0.30         -2.3 
       860.0         0.40         -2.3 
       861.0         0.30         -2.3 
       862.0         4.67       1525.4 
       863.0         0.63         12.6 
       864.0         0.37          2.2 
       865.0         0.53          0.4 
       866.0         0.55         -1.4 
       867.0         0.53         -2.3 
       868.0         0.53         -2.9 
       869.0         0.37         -2.8 
       870.0         0.50         -2.9 
       871.0         0.60         -2.9 
       872.0         0.62         -2.9 
       873.0         0.30         -2.9 
       874.0         0.40         -2.8 
       875.0         0.30         -3.1 
       876.0         0.50         -2.7 
       877.0         0.50         -2.6 
       878.0         0.40         -2.6 
       879.0         0.40         -2.5 
       880.0         0.52         -2.6 
       881.0         0.30         -2.6 
       882.0         0.50         -2.6 
       883.0         0.40         -2.7 
       884.0         0.40         -2.5 
       885.0         0.50         -2.6 
       886.0         0.40         -2.5 
       887.0         0.40         -2.7 
       888.0         0.32         -2.3 
       889.0         0.40         -2.3 
       890.0         0.40         -2.1 
       891.0         0.30         -2.1 
       892.0         3.02         -1.6 
       893.0         0.30         -1.5 
       894.0         0.50         -1.6 
       895.0         0.40         -1.3 
       896.0         0.30          3.3 
       897.0         0.50          3.7 
       898.0         0.30          4.4 
       899.0         0.42          3.4 
       900.0         0.40          3.1 
       901.0         0.40          2.8 
       902.0         0.27          2.7 
       903.0         0.50          2.4 
       904.0         0.40          2.7 
       905.0         0.40          2.7 
       906.0         0.50         97.0 
       907.0         0.32        106.6 
       908.0         0.40         93.6 
       909.0         0.20         41.0 
       910.0         0.50         28.8 
       911.0         0.50          9.3 
       912.0         0.17          3.2 
       913.0         0.43          2.1 
       914.0         0.37          1.2 
       915.0         0.17          1.2 
       916.0         0.48          1.1 
       917.0         0.17          0.9 
       918.0         0.43          1.8 
       919.0         0.30          3.1 
       920.0         0.47          7.0 
       921.0         0.20          7.7 
       922.0         2.68        472.5 
       923.0         0.47         15.6 
       924.0         0.43          5.4 
       925.0         0.17          1.7 
       926.0         0.47          0.6 
       927.0         0.17          0.1 
       928.0         0.27          0.1 
       929.0         0.45          0.5 
       930.0         0.47          0.2 
       931.0         0.33          0.1 
       932.0         0.63          0.4 
       933.0         0.30          0.3 
       934.0         0.30          0.3 
       935.0         0.20          0.1 
       936.0         0.33          0.5 
       937.0         0.55          0.5 
       938.0         0.30          0.5 
       939.0         0.30          0.7 
       940.0         0.30          0.5 
       941.0         0.20          0.1 
       942.0         0.33          0.4 
       943.0         0.23          0.2 
       944.0         0.40          0.7 
       945.0         0.53          0.6 
       946.0         0.27          0.8 
       947.0         0.20          0.5 
       948.0         0.28          0.7 
       949.0         0.23          0.7 
       950.0         0.30          0.6 
       951.0         0.20          0.3 
       952.0         2.88          5.3 
       953.0         0.43          7.6 
       954.0         0.37         76.0 
       955.0         0.17        351.0 
       956.0         0.37       1217.4 
       957.0         0.20       1170.0 
       958.0         0.10        984.4 
       959.0         0.37        836.4 
       960.0         0.20        440.0 
       961.0         0.40        127.9 
       962.0         0.55         62.3 
       963.0         0.17         22.6 
       964.0         0.27         14.5 
       965.0         0.20          8.8 
       966.0         0.20          6.5 
       967.0         0.33          4.0 
       968.0         0.47          1.5 
       969.0         0.17          0.2 
       970.0         0.17          0.3 
       971.0         0.37          0.9 
       972.0         0.53          1.0 
       973.0         0.38          1.0 
       974.0         0.37          0.5 
       975.0         0.40          0.9 
       976.0         0.27          1.2 
       977.0         0.17          0.8 
       978.0         0.43          1.1 
       979.0         0.20          1.1 
       980.0         0.33          1.1 
       981.0         0.37          1.0 
       982.0         7.12       1333.7 
       983.0         0.37        934.4 
       984.0         0.60        440.0 
       985.0         0.60         66.9 
       986.0         0.53         22.2 
       987.0         0.33          5.5 
       988.0         0.27          2.6 
       989.0         0.55          0.9 
       990.0         0.37          0.9 
       991.0         0.43          0.8 
       992.0         0.53          0.8 
       993.0         0.37          0.7 
       994.0         0.20          1.0 
       995.0         0.27          0.9 
       996.0         0.30          0.7 
       997.0         0.30          1.0 
       998.0         0.28          1.0 
       999.0         0.40          1.0 
      1000.0         0.67          1.0 
      1001.0         0.37          1.0 
      1002.0         0.57          1.1 
      1003.0         0.43          0.8 
      1004.0         0.67          1.1 
      1005.0         0.65          1.0 
      1006.0         0.70          1.0 
      1007.0         0.37          0.9 
      1008.0         0.73          1.2 
      1009.0         0.47          1.3 
      1010.0         0.53          4.0 
      1011.0         0.32          5.4 
      1012.0         4.32       1318.2 
      1013.0         0.27          2.0 
      1014.0         0.53          0.8 
      1015.0         0.20          0.2 
      1016.0         0.27          0.1 
      1017.0         0.33          0.3 
      1018.0         0.27          0.5 
      1019.0         0.82          0.5 
      1020.0         0.33          0.3 
      1021.0         0.60          0.7 
      1022.0         0.67          0.5 
      1023.0         0.40          0.6 
      1024.0         0.65          0.5 
      1025.0         0.33          0.6 
      1026.0         0.50          0.8 
      1027.0         0.37          0.5 
      1028.0         0.57          0.5 
      1029.0         0.47          0.5 
      1030.0         0.70          0.6 
      1031.0         0.35          0.6 
      1032.0         0.63          0.4 
      1033.0         0.43          0.3 
      1034.0         0.43          0.3 
      1035.0         0.30          0.4 
      1036.0         0.40          0.4 
      1037.0         0.37          0.2 
      1038.0         0.30          0.5 
      1039.0         0.30          0.4 
      1040.0         0.42          1.0 
      1041.0         0.50          7.8 
      1042.0         6.43       2207.7 
      1043.0         0.37         16.9 
      1044.0         0.37          7.8 
      1045.0         0.43          2.9 
      1046.0         0.70          0.4 
