~Version Information
VERS.                      2.0: CWLS Log ASCII Standard - VERSION 2.0
WRAP.                       NO: One line per depth step
~Well Information Block
STRT.FT               -14.0000: 
STOP.FT               951.0000: 
STEP.FT                 0.2500: 
NULL.                -999.2500: 
COMP.          Pioneer Natural Resources: COMPANY
WELL.             Giggle 21-22: WELL
FLD.           Purgatoire River: FIELD
LOC.           950' FNL & 2094' FWL: LOCATION
CNTY.               Las Animas: COUNTY
SRVC.                         : SERVICE COMPANY
DATE.          Mon Apr 17 17:51:33 2006: LOG DATE
UWI.           05 071 08726 00: UNIQUE WELL ID
STAT.                       CO: STATE
~Curve Information Block
DEPT.FT            0 000 00 00: Depth
CCL.                          : Casing Collar Locator
TT3.usec                      : CBL 3' Travel Time
AMP3.mV                       : CBL 3' Amplitude
GR.GAPI                       : Gamma Ray
~Parameter Information Block
~A  Depth       CCL         TT3         AMP3         GR     
# ...
   790.0000      0.0000    691.3813      6.8025     92.5659
   790.2500      0.0000    693.8358      6.6182     96.1610
   790.5000      0.0000    696.3367      6.5509     98.1091
   790.7500      0.0000    697.5856      6.6182     99.5324
   791.0000      0.0000    696.9078      6.7833    101.2546
   791.2500      0.0000    694.9069      6.9643    103.1859
   791.5000      0.0000    692.8417      7.0637    104.5288
   791.7500      0.0000    691.5190      7.0120    104.3150
   792.0000      0.0000    690.8998      6.8059    102.0728
   792.2500      0.0000    690.5225      6.5158     98.3055
   792.5000      0.0000    690.0480      6.2581     94.3472
   792.7500      0.0000    689.4540      6.1420     91.5258
   793.0000      0.0000    688.8985      6.2021     90.1655
   793.2500      0.0000    688.5043      6.3638     89.5273
   793.5000      0.0000    688.2254      6.4893     89.1323
   793.7500      0.0000    687.8190      6.4734     89.9025
   794.0000      0.0000    686.8104      6.3025     93.2109
   794.2500      0.0000    684.5101      6.0437     98.6427
   794.5000      0.0000    680.3745      5.7928    103.3118
   794.7500      0.0000    674.7952      5.6209    103.9333
   795.0000      0.0000    669.5862      5.5521     99.6831
   795.2500      0.0000    667.2875      5.5852     93.0034
   795.5000      0.0000    669.7540      5.7130     87.5839
   795.7500      0.0000    677.4253      5.9025     85.5072
   796.0000      0.0000    689.4910      6.0760     86.2195
   796.2500      0.0000    704.0795      6.1496     87.8365
   796.5000      0.0000    718.6447      6.1003     89.0136
   796.7500      0.0000    731.2037      5.9833     89.7722
   797.0000      0.0000    741.2639      5.8754     91.0077
   797.2500      0.0000    749.0726      5.8164     93.2023
   797.5000      0.0000    754.2750      5.8106     95.4768
   797.7500      0.0000    755.7621      5.8608     96.1667
   798.0000      0.0000    752.5294      5.9764     94.3641
   798.2500      0.0000    744.4719      6.1571     90.6720
   798.5000      0.0000    732.7070      6.3802     86.7745
   798.7500      0.0000    719.4222      6.5941     84.6081
   799.0000      0.0000    707.2421      6.7347     85.2760
   799.2500      0.0000    698.3107      6.7717     88.0584
   799.5000      0.0000    693.5817      6.7399     90.8798
   799.7500      0.0000    692.7032      6.7090     92.3892
   800.0000      0.0000    694.3690      6.7241     93.3759
   800.2500      0.0000    696.7509      6.7856     95.7826
   800.5000      0.0000    698.0920      6.8716    100.5656
   800.7500      0.0000    697.5543      6.9542    106.7042
   801.0000      0.0000    695.6118      7.0053    112.0266
   801.2500      0.0000    693.4153      7.0121    114.8572
   801.5000      0.0000    691.8099      6.9918    115.1131
   801.7500      0.0000    690.9788      6.9840    114.1515
   802.0000      0.0000    690.7188      7.0340    113.5827
   802.2500      0.0000    690.8187      7.1770    113.9695
   802.5000      0.0000    691.3324      7.4142    114.3790
   802.7500      0.0000    692.6785      7.7016    113.0898
   803.0000      0.0000    695.4203      7.9702    108.9229
   803.2500      0.0000    699.7682      8.1710    102.3097
   803.5000      0.0000    705.3090      8.3055     95.3562
   803.7500      0.0000    711.2796      8.4109     90.6838
   804.0000      0.0000    717.1040      8.5123     89.7213
   804.2500      0.0000    722.8368      8.5999     91.8506
   804.5000      0.0000    728.9713      8.6594     95.1976
   804.7500      0.0000    735.0375      8.7048     98.1084
   805.0000      0.0000    738.2772      8.7568     99.7074
   805.2500      0.0000    735.1875      8.7857     99.5175
   805.5000      0.0000    725.3545      8.7031     97.4009
   805.7500      0.0000    712.7371      8.4378     93.8993
   806.0000      0.0000    702.4389      8.0289     89.9881
   806.2500      0.0000    696.9429      7.6282     86.4126
   806.5000      0.0000    695.2088      7.3976     83.5042
   806.7500      0.0000    693.4947      7.3968     81.3564
   807.0000      0.0000    685.9249      7.5582     79.8068
   807.2500      0.0000    665.4236      7.7548     78.5386
   807.5000      0.0000    626.8401      7.8811     77.5715
   807.7500      0.0000    572.0193      7.8815     77.4378
   808.0000      0.0000    512.5558      7.7357     78.6131
   808.2500      0.0000    465.7061      7.4541     80.8961
   808.5000      0.0000    445.2062      7.0946     83.5227
   808.7500      0.0000    453.3363      6.7537     85.7261
   809.0000      0.0000    478.3028      6.5217     87.0214
   809.2500      0.0000    499.1500      6.4491     87.1743
   809.5000      0.0000    498.6283      6.5460     86.2138
   809.7500      0.0000    475.4970      6.7856     84.4965
   810.0000      0.0000    443.4471      7.1116     82.7351
   810.2500      0.0000    417.6330      7.4635     81.9627
   810.5000      0.0000    403.9007      7.7906     83.1527
   810.7500      0.0000    399.5416      8.0380     86.4495
   811.0000      0.0000    399.7468      8.1512     90.7268
   811.2500      0.0000    401.3324      8.1090     94.1333
   811.5000      0.0000    402.6502      7.9350     95.2693
   811.7500      0.0000    403.2158      7.6723     94.0089
   812.0000      0.0000    404.3505      7.3561     91.3442
   812.2500      0.0000    409.2535      7.0031     88.5583
   812.5000      0.0000    422.1591      6.6274     86.6136
   812.7500      0.0000    447.4767      6.2679     86.1696
   813.0000      0.0000    487.9113      5.9927     87.6491
   813.2500      0.0000    540.6935      5.8708     90.8592
   813.5000      0.0000    595.8864      5.9466     94.7936
   813.7500      0.0000    641.2208      6.2151     98.2157
   814.0000      0.0000    669.6679      6.5877    100.4281
   814.2500      0.0000    681.4724      6.9055    101.3476
   814.5000      0.0000    679.3977      7.0421    101.0078
   814.7500      0.0000    664.1199      7.0082     99.2533
   815.0000      0.0000    635.7042      6.9325     95.8437
   815.2500      0.0000    599.4573      6.9467     90.7054
   815.5000      0.0000    567.5267      7.0993     84.3096
   815.7500      0.0000    551.2516      7.3483     77.9097
   816.0000      0.0000    552.6619      7.5956     73.0022
   816.2500      0.0000    566.5215      7.7445     70.2557
   816.5000      0.0000    588.3977      7.7623     69.0360
   816.7500      0.0000    615.8953      7.7021     68.0386
   817.0000      0.0000    644.3574      7.6619     66.3581
   817.2500      0.0000    667.3526      7.7188     64.1056
   817.5000      0.0000    681.5901      7.8804     62.1974
   817.7500      0.0000    688.5127      8.0773     61.5827
   818.0000      0.0000    691.4905      8.1950     62.5803
   818.2500      0.0000    693.1568      8.1260     64.8493
   818.5000      0.0000    694.9644      7.8213     67.7371
   818.7500      0.0000    697.7696      7.3270     70.3388
   819.0000      0.0000    702.0402      6.7750     71.3337
   819.2500      0.0000    707.4648      6.3151     69.4391
   819.5000      0.0000    712.7263      6.0279     64.6528
   819.7500      0.0000    716.3448      5.8894     58.9664
   820.0000      0.0000    717.9570      5.8050     55.2372
   820.2500      0.0000    718.5092      5.6773     54.9485
   820.5000      0.0000    718.9503      5.4730     57.1450
   820.7500      0.0000    719.0474      5.2444     59.6081
   821.0000      0.0000    717.0989      5.0702     60.7956
   821.2500      0.0000    710.0023      4.9805     60.4407
   821.5000      0.0000    694.5387      4.9763     58.7674
   821.7500      0.0000    671.0553      5.1030     56.0462
   822.0000      0.0000    645.6403      5.4329     52.9733
   822.2500      0.0000    625.7954      5.9648     50.5811
   822.5000      5.0000    614.1718      6.5800     49.2874
   822.7500     -5.0000    608.7834      7.1089     48.5034
   823.0000      0.0000    607.4545      7.4444     47.4655
   823.2500      0.0000    608.9394      7.6210     46.1221
