~Version Information
VERS.                      2.0: CWLS Log ASCII Standard - VERSION 2.0
WRAP.                       NO: One line per depth step
~Well Information Block
STRT.FT                14.0000: 
STOP.FT              1631.0000: 
STEP.FT                 0.1000: 
NULL.                -999.2500: 
COMP.          Pioneer Natural Resources: COMPANY
WELL.            Bluesky 44-17: WELL
FLD.           Purgatorie River: FIELD
LOC.           39' FSL & 288' FEL: LOCATION
STAT.                 Colorado: State
CNTY.               Las Animas: COUNTY
CTRY. USA : Country
SECT. 17 : Section
TOWN. 33S : Township
RANG. 66W : Range
SRVC.                Patterson: SERVICE COMPANY
DATE.          Thu Sep 08 07:30:20 2005: LOG DATE
API. 05-071-08511                         : UNIQUE WELL ID
~Curve Information Block
DEPT.FT            0 000 00 00: Depth
DCAL.in                       : CDL Caliper
RHOB.g/cc                     : CDL Bulk Density
RHOC.g/cc                     : CDL Density Correction
DPOR.pu                       : CDL Density Porosity
GR.GAPI                       : Gamma Ray
NPOR.pu                       : Neutron Porosity
~Parameter Information Block
~A  Depth       DCAL        RHOB        RHOC        DPOR         GR         NPOR    
# ...
   542.0000      7.9438      2.5417      0.0312      6.5650     92.7933     22.1266
   542.1000      7.9438      2.5165      0.0157      8.0883     96.5476     22.2643
   542.2000      7.9438      2.4927      0.0188      9.5351     98.2443     22.4588
   542.3000      7.9610      2.4802      0.0313     10.2932     98.9190     22.4679
   542.4000      7.9610      2.4817     -0.0023     10.1979    100.6920     22.1343
   542.5000      7.9424      2.4933      0.0349      9.4984    103.3490     21.6502
   542.6000      7.9424      2.5011      0.0311      9.0272    104.9822     21.3494
   542.7000      7.9424      2.4981      0.0544      9.2060    105.2657     21.2593
   542.8000      7.9418      2.4880      0.0473      9.8161    104.0484     21.1645
   542.9000      7.9418      2.4746      0.0225     10.6275    100.3514     20.9652
   543.0000      7.9424      2.4614      0.0465     11.4332     95.0737     20.7677
   543.1000      7.9424      2.4505      0.0294     12.0889     90.5386     20.6046
   543.2000      7.9424      2.4436      0.0422     12.5114     88.1540     20.4328
   543.3000      7.9310      2.4437      0.0046     12.5060     88.5216     20.2676
   543.4000      7.9310      2.4539      0.0406     11.8874     89.6470     20.1983
   543.5000      7.9349      2.4704      0.0439     10.8853     89.2773     20.1928
   543.6000      7.9349      2.4883      0.0684      9.7972     88.8365     20.2015
   543.7000      7.9349      2.5071      0.0830      8.6588     89.9064     20.3531
   543.8000      7.9356      2.5237      0.1077      7.6522     91.3075     20.6241
   543.9000      7.9356      2.5317      0.1073      7.1704     91.4489     20.8185
   544.0000      7.9127      2.5282      0.1054      7.3842     90.2182     20.9129
   544.1000      7.9127      2.5140      0.0796      8.2430     88.1207     20.9589
   544.2000      7.9127      2.4974      0.0677      9.2507     86.4429     20.9071
   544.3000      7.9064      2.4961      0.0461      9.3287     85.8032     20.7923
   544.4000      7.9064      2.5205      0.0661      7.8502     85.2753     20.6969
   544.5000      7.9092      2.5536      0.1608      5.8394     85.5929     20.5337
   544.6000      7.9092      2.5680      0.1225      4.9686     87.0968     20.2799
   544.7000      7.9092      2.5591      0.1099      5.5103     87.6177     20.2204
   544.8000      7.8905      2.5410      0.1240      6.6067     87.0704     20.4614
   544.9000      7.8905      2.5204      0.1084      7.8530     86.3594     20.6483
   545.0000      7.8951      2.4933      0.0678      9.4945     85.5980     20.5155
   545.1000      7.8951      2.4659      0.0441     11.1577     86.2371     20.2757
   545.2000      7.8951      2.4579     -0.0066     11.6406     88.8850     20.2701
   545.3000      7.8915      2.4719      0.0814     10.7951     90.4080     20.4907
   545.4000      7.8915      2.4906      0.0409      9.6635     88.8729     20.7286
   545.5000      7.8965      2.5091      0.0603      8.5423     86.7671     20.7717
   545.6000      7.8965      2.5268      0.0755      7.4693     86.2336     20.6530
   545.7000      7.8965      2.5365      0.0951      6.8760     85.9386     20.6220
   545.8000      7.8550      2.5403      0.0624      6.6498     84.6560     20.6784
   545.9000      7.8550      2.5405      0.1033      6.6352     84.3269     20.7542
   546.0000      7.8451      2.5291      0.0934      7.3269     86.0398     20.8018
   546.1000      7.8451      2.5087      0.0620      8.5654     88.2801     20.5773
   546.2000      7.8451      2.4908      0.0355      9.6492     90.1516     20.1197
   546.3000      7.9031      2.4799      0.0303     10.3092     90.7033     19.9362
   546.4000      7.9031      2.4779      0.0353     10.4321     89.4489     20.1269
   546.5000      7.9100      2.4841      0.0257     10.0555     87.3994     20.2218
   546.6000      7.9100      2.4901      0.0782      9.6909     84.7568     20.1425
   546.7000      7.9100      2.4901      0.0313      9.6886     82.2500     20.2485
   546.8000      7.9144      2.4944      0.0184      9.4312     82.2495     20.5439
   546.9000      7.9144      2.5047      0.0899      8.8046     84.3682     20.7063
   547.0000      7.9044      2.5046      0.0601      8.8139     85.6837     20.6619
   547.1000      7.9044      2.4885      0.0438      9.7889     84.8584     20.6555
   547.2000      7.9044      2.4682      0.0377     11.0188     83.2704     20.8017
   547.3000      7.9077      2.4549      0.0029     11.8243     82.9337     21.0092
   547.4000      7.9077      2.4496      0.0275     12.1444     83.4243     21.1401
   547.5000      7.9123      2.4508      0.0099     12.0708     84.5616     21.1407
   547.6000      7.9123      2.4638      0.0528     11.2849     86.8377     21.1678
   547.7000      7.9123      2.4835      0.1011     10.0897     88.7729     21.3583
   547.8000      7.9033      2.4992      0.1037      9.1419     89.0948     21.5337
   547.9000      7.9033      2.5181      0.0800      7.9942     87.8796     21.5252
   548.0000      7.8822      2.5453      0.1816      6.3467     85.6801     21.4549
   548.1000      7.8822      2.5626      0.1642      5.2997     85.0250     21.3731
   548.2000      7.8822      2.5592      0.1613      5.5033     87.6825     21.3394
   548.3000      7.8104      2.5507      0.1247      6.0205     90.0348     21.5606
   548.4000      7.8104      2.5549      0.1464      5.7636     89.7186     21.9134
   548.5000      7.8147      2.5691      0.1171      4.9028     89.5117     22.1046
   548.6000      7.8147      2.5769      0.1265      4.4316     90.2658     22.2115
   548.7000      7.8147      2.5699      0.1304      4.8573     90.7059     22.3968
   548.8000      7.8681      2.5563      0.0836      5.6783     90.5403     22.4155
   548.9000      7.8681      2.5470      0.0825      6.2415     89.8584     22.1293
   549.0000      7.8937      2.5434      0.0891      6.4626     89.9732     21.9347
   549.1000      7.8937      2.5426      0.0850      6.5072     91.7892     22.0973
   549.2000      7.8937      2.5451      0.0904      6.3567     93.4616     22.3226
   549.3000      7.8852      2.5458      0.1001      6.3132     94.1723     22.3937
   549.4000      7.8852      2.5311      0.1109      7.2074     95.5257     22.3412
   549.5000      7.8882      2.5000      0.0671      9.0912     97.4352     22.2040
   549.6000      7.8882      2.4681      0.0654     11.0234     98.8962     22.1086
   549.7000      7.8882      2.4440      0.0357     12.4870    100.1429     22.1051
   549.8000      7.8098      2.4229      0.0526     13.7615    100.5148     22.0595
   549.9000      7.8098      2.4062      0.0306     14.7748     98.2561     21.8773
   550.0000      7.7836      2.4105      0.0315     14.5176     95.2189     21.5963
   550.1000      7.7836      2.4429      0.1084     12.5497     95.7291     21.2652
   550.2000      7.7836      2.4881      0.1507      9.8148    100.6632     21.0924
   550.3000      7.7709      2.5231      0.2262      7.6927    105.9310     21.2458
   550.4000      7.7709      2.5382      0.1725      6.7738    107.5724     21.5635
   550.5000      7.7480      2.5408      0.1482      6.6197    106.6384     21.7800
   550.6000      7.7480      2.5346      0.1069      6.9939    104.8863     21.6344
   550.7000      7.7480      2.5228      0.0559      7.7079    102.8480     21.1754
   550.8000      7.7789      2.5126      0.0697      8.3278    101.2858     20.8188
   550.9000      7.7789      2.4991      0.0830      9.1455    100.2355     20.8372
   551.0000      7.8231      2.4799      0.0119     10.3074     99.6747     21.1415
   551.1000      7.8231      2.4635      0.0088     11.3030    101.2150     21.4138
   551.2000      7.8231      2.4518      0.0103     12.0145    104.8085     21.2545
   551.3000      7.8348      2.4453      0.0283     12.4077    105.9607     20.6446
   551.4000      7.8348      2.4462      0.0219     12.3509    101.7842     20.2154
   551.5000      7.8869      2.4530      0.0129     11.9395     95.3891     20.2523
