~Version Information
VERS.                      2.0: CWLS Log ASCII Standard - VERSION 2.0
WRAP.                       NO: One line per depth step
~Well Information Block
STRT.FT               233.8000: 
STOP.FT              1692.5000: 
STEP.FT                 0.1000: 
NULL.                -999.2500: 
COMP.          Pioneer Natural Resources: COMPANY
WELL.            Relay 12-7 Tr: WELL
FLD.           Purgatoire River: FIELD
LOC.           2025' FNL & 790' FWL: LOCATION
PROV.                 Colorado: PROVINCE
CNTY.               Las Animas: COUNTRY
SRVC.                Patterson: SERVICE COMPANY
DATE.          Mon Jan 16 13:23:17 2006: LOG DATE
UWI.           05 071 08603 00: UNIQUE WELL ID
~Curve Information Block
DEPT.FT            0 000 00 00: Depth
DCAL.in                       : CDL Caliper
RHOB.g/cc                     : CDL Bulk Density
RHOC.g/cc                     : CDL Density Correction
DPOR.pu                       : CDL Density Porosity
GR.GAPI                       : Gamma Ray
~Parameter Information Block
~A  Depth       DCAL        RHOB        RHOC        DPOR         GR     
# ...
  1678.6000      7.8614      2.4374      0.0181     12.8823   -999.2500
  1678.7000      7.8614      2.3992      0.0088     15.1997   -999.2500
  1678.8000      7.8625      2.3710     -0.0455     16.9085   -999.2500
  1678.9000      7.8625      2.3427     -0.0187     18.6255   -999.2500
  1679.0000      7.8639      2.2933     -0.0397     21.6164   -999.2500
  1679.1000      7.8639      2.2289     -0.0241     25.5237   -999.2500
  1679.2000      7.8639      2.1740     -0.0369     28.8510   -999.2500
  1679.3000      7.7920      2.1175      0.0644     32.2725   -999.2500
  1679.4000      7.7920      2.0205      0.0655     38.1535   -999.2500
  1679.5000      7.7837      1.8995     -0.0688     45.4865   -999.2500
  1679.6000      7.7837      1.8228     -0.0941     50.1314   -999.2500
  1679.7000      7.7837      1.8146     -0.0805     50.6282   -999.2500
  1679.8000      7.7827      1.8447     -0.0422     48.8073   -999.2500
  1679.9000      7.7827      1.8929     -0.0151     45.8864   -999.2500
  1680.0000      7.8390      1.9771      0.0197     40.7829   -999.2500
  1680.1000      7.8390      2.1099      0.1515     32.7324   -999.2500
  1680.2000      7.8390      2.2581      0.2531     23.7486   -999.2500
  1680.3000      7.8692      2.3729      0.2531     16.7917   -999.2500
  1680.4000      7.8692      2.4357      0.2201     12.9849   -999.2500
  1680.5000      7.8102      2.4611      0.0908     11.4507   -999.2500
  1680.6000      7.8102      2.4732      0.0779     10.7164   -999.2500
  1680.7000      7.8102      2.4812      0.0757     10.2279   -999.2500
  1680.8000      7.7543      2.4818      0.0285     10.1951   -999.2500
  1680.9000      7.7543      2.4781      0.0304     10.4203   -999.2500
  1681.0000      7.7965      2.4810     -0.0033     10.2453   -999.2500
  1681.1000      7.7965      2.4939      0.0796      9.4609   -999.2500
  1681.2000      7.7965      2.5079      0.1049      8.6116   -999.2500
  1681.3000      7.8437      2.5211      0.0815      7.8115   -999.2500
  1681.4000      7.8437      2.5351      0.1241      6.9618   -999.2500
  1681.5000      7.8441      2.5458      0.1053      6.3126   -999.2500
  1681.6000      7.8441      2.5491      0.1214      6.1170   -999.2500
  1681.7000      7.8441      2.5390      0.0783      6.7259   -999.2500
  1681.8000      7.8372      2.5211      0.1026      7.8119   -999.2500
  1681.9000      7.8372      2.5096      0.0755      8.5103   -999.2500
  1682.0000      7.8496      2.5105      0.0731      8.4562   -999.2500
  1682.1000      7.8496      2.5187      0.0714      7.9570   -999.2500
  1682.2000      7.8496      2.5288      0.0431      7.3426   -999.2500
  1682.3000      7.8905      2.5461      0.0322      6.2956   -999.2500
  1682.4000      7.8905      2.5730      0.1176      4.6684   -999.2500
  1682.5000      7.9382      2.5996      0.0882      3.0543   -999.2500
  1682.6000      7.9382      2.6160      0.0995      2.0587   -999.2500
  1682.7000      7.9382      2.6146      0.1273      2.1453   -999.2500
  1682.8000      7.8621      2.5964      0.0863      3.2488   -999.2500
  1682.9000      7.8621      2.5767      0.0623      4.4419   -999.2500
  1683.0000      7.8044      2.5716      0.0288      4.7494   -999.2500
  1683.1000      7.8044      2.5838      0.0332      4.0142   -999.2500
  1683.2000      7.8044      2.5957      0.0996      3.2901   -999.2500
  1683.3000      7.7657      2.5960      0.0520      3.2711   -999.2500
  1683.4000      7.7657      2.6002      0.0676      3.0191   -999.2500
  1683.5000      7.8120      2.6128      0.1126      2.2537   -999.2500
  1683.6000      7.8120      2.6167      0.1124      2.0204   -999.2500
  1683.7000      7.8120      2.6094      0.0666      2.4591   -999.2500
  1683.8000      7.8418      2.5988      0.0997      3.1002   -999.2500
  1683.9000      7.8418      2.5828      0.0676      4.0741   -999.2500
  1684.0000      7.8513      2.5685      0.0528      4.9374   -999.2500
  1684.1000      7.8513      2.5712     -0.0127      4.7730   -999.2500
  1684.2000      7.8513      2.5827      0.0640      4.0803   -999.2500
  1684.3000      7.8505      2.5865      0.0635      3.8489   -999.2500
  1684.4000      7.8505      2.5891      0.0332      3.6907   -999.2500
  1684.5000      7.8484      2.5945      0.0891      3.3654   -999.2500
  1684.6000      7.8484      2.5920      0.0674      3.5140   -999.2500
  1684.7000      7.8484      2.5831      0.0483      4.0548   -999.2500
  1684.8000      7.8190      2.5749      0.0546      4.5499   -999.2500
  1684.9000      7.8190      2.5724     -0.0038      4.7025   -999.2500
  1685.0000      7.8046      2.5849     -0.0155      3.9429   -999.2500
  1685.1000      7.8046      2.6027      0.0851      2.8640   -999.2500
  1685.2000      7.8046      2.6011      0.0371      2.9628   -999.2500
  1685.3000      7.8102      2.5828      0.0145      4.0744   -999.2500
  1685.4000      7.8102      2.5695      0.0044      4.8793   -999.2500
  1685.5000      7.8183      2.5719      0.0471      4.7315   -999.2500
  1685.6000      7.8183      2.5815      0.0732      4.1488   -999.2500
  1685.7000      7.8183      2.5840      0.0564      4.0029   -999.2500
  1685.8000      7.8436      2.5794      0.0462      4.2760   -999.2500
  1685.9000      7.8436      2.5760      0.0540      4.4858   -999.2500
  1686.0000      7.7941      2.5728      0.0480      4.6800   -999.2500
  1686.1000      7.7941      2.5699      0.0440      4.8537   -999.2500
  1686.2000      7.7941      2.5739      0.0829      4.6113   -999.2500
  1686.3000      7.8029      2.5840      0.0531      4.0030   -999.2500
  1686.4000      7.8029      2.5864      0.0956      3.8551   -999.2500
  1686.5000      7.8518      2.5714      0.0719      4.7662   -999.2500
  1686.6000      7.8518      2.5532      0.0386      5.8668   -999.2500
  1686.7000      7.8518      2.5492      0.0399      6.1117   -999.2500
  1686.8000      7.8668      2.5554     -0.0061      5.7305   -999.2500
  1686.9000      7.8668      2.5547      0.0617      5.7771   -999.2500
  1687.0000      7.8582      2.5339      0.0353      7.0342   -999.2500
  1687.1000      7.8582      2.5037     -0.0153      8.8696   -999.2500
  1687.2000      7.8582      2.4889     -0.0148      9.7632   -999.2500
  1687.3000      7.8579      2.4982      0.0317      9.1980   -999.2500
  1687.4000      7.8579      2.5154      0.0715      8.1551   -999.2500
  1687.5000      7.8976      2.5246      0.0642      7.6015   -999.2500
  1687.6000      7.8976      2.5298      0.0840      7.2856   -999.2500
  1687.7000      7.8976      2.5397      0.0559      6.6835   -999.2500
  1687.8000      7.9922      2.5442      0.0897      6.4107   -999.2500
  1687.9000      7.9922      2.5288      0.0480      7.3481   -999.2500
  1688.0000      8.0160      2.5066      0.0305      8.6927   -999.2500
  1688.1000      8.0160      2.5027      0.0725      8.9283   -999.2500
  1688.2000      8.0160      2.5145      0.1152      8.2106   -999.2500
  1688.3000      7.9554      2.5147      0.1295      8.1976   -999.2500
  1688.4000      7.9554      2.4950      0.0978      9.3954   -999.2500
  1688.5000      7.9122      2.4791      0.0837     10.3575   -999.2500
  1688.6000      7.9122      2.4785      0.0937     10.3910   -999.2500
  1688.7000      7.9122      2.4777      0.1048     10.4415   -999.2500
  1688.8000      7.8276      2.4895      0.0837      9.7270   -999.2500
  1688.9000      7.8276      2.5734      0.0822      4.6418   -999.2500
  1689.0000      7.7452      2.6293      0.1422      1.2561   -999.2500
  1689.1000      7.7452      2.2232      0.6430     25.8654   -999.2500
  1689.2000      7.7452      1.2706      0.0000     83.5975   -999.2500
  1689.3000      7.4716      0.4323      0.0000    134.4069   -999.2500
  1689.4000      7.4716      0.0822   -999.2500    155.6230   -999.2500
  1689.5000      6.9881      0.0085   -999.2500    160.0920   -999.2500
  1689.6000      6.9881      0.0005   -999.2500    160.5781   -999.2500
  1689.7000      6.9881      0.0000   -999.2500    160.6061   -999.2500
