~Version Information
VERS.                      2.0: CWLS Log ASCII Standard - VERSION 2.0
WRAP.                       NO: One line per depth step
~Well Information Block
STRT.FT               -15.7500: 
STOP.FT              1862.5000: 
STEP.FT                 0.2500: 
NULL.                -999.2500: 
COMP.          XTO Energy Inc.: COMPANY
WELL.          Golden Eagle 19-11: WELL
FLD.           Purgatorie River: FIELD
LOC.           2351' FSL &1926' WL--: LOCATION
CNTY.               Las Animas: COUNTY
SRVC.          Patterson Wireline: SERVICE COMPANY
DATE.          Fri Mar 24 16:29:29 2006: LOG DATE
UWI.           05 071 08696 00: UNIQUE WELL ID
STAT.                       CO: STATE
~Curve Information Block
DEPT.FT            0 000 00 00: Depth
CCL.                          : Casing Collar Locator
TT3.usec                      : CBL 3' Travel Time
AMP3.mV                       : CBL 3' Amplitude
GR.GAPI                       : Gamma Ray
~Parameter Information Block
~A  Depth       CCL         TT3         AMP3         GR     
# ...
   218.7500      0.0000    404.9889      7.4096     41.3363
   219.0000      0.0000    404.6822      7.4225     45.7259
   219.2500      0.0000    404.2977      7.4257     51.9355
   219.5000      0.0000    403.7923      7.4198     58.1807
   219.7500      0.0000    403.1430      7.4093     63.0829
   220.0000      0.0000    402.3751      7.3986     66.8440
   220.2500      0.0000    401.5728      7.3914     70.7934
   220.5000      0.0000    400.8593      7.3926     75.6584
   220.7500      0.0000    400.3691      7.4107     80.6477
   221.0000      0.0000    400.2715      7.4591     84.3689
   221.2500      0.0000    401.0182      7.5522     86.1798
   221.5000      0.0000    403.9040      7.6931     86.5594
   221.7500      0.0000    411.7212      7.8568     86.6458
   222.0000      0.0000    428.2598      7.9850     87.4183
   222.2500      0.0000    455.1817      8.0130     88.9455
   222.5000      0.0000    487.4764      7.9131     90.5218
   222.7500      0.0000    512.7786      7.7171     91.7730
   223.0000      0.0000    518.2495      7.4947     93.1661
   223.2500      0.0000    500.1293      7.3095     94.9511
   223.5000      0.0000    466.4179      7.1845     96.1474
   223.7500      0.0000    430.1921      7.1023     95.3710
   224.0000      0.0000    400.9545      7.0281     92.4227
   224.2500     -2.0000    381.5921      6.9306     88.3954
   224.5000      0.0000    370.8105      6.7872     84.4693
   224.7500      0.0000    366.2402      6.5927     81.4088
   225.0000      0.0000    365.5555      6.3808     80.0841
   225.2500      0.0000    366.4133      6.2253     81.4063
   225.5000      0.0000    366.7551      6.1991     85.2881
   225.7500      0.0000    365.8473      6.3177     90.1266
   226.0000      0.0000    365.0146      6.5256     93.7967
   226.2500      0.0000    367.3156      6.7366     95.1664
   226.5000      0.0000    376.3204      6.8903     94.7292
   226.7500      0.0000    394.3263      6.9766     94.1866
   227.0000      0.0000    420.0066      7.0195     95.3557
   227.2500      0.0000    446.8168      7.0465     98.7885
   227.5000      0.0000    464.8905      7.0717    103.0683
   227.7500      0.0000    467.0182      7.0963    105.7382
   228.0000      0.0000    454.1264      7.1159    105.2700
   228.2500      0.0000    434.2844      7.1278    102.1631
   228.5000      0.0000    415.8627      7.1346     98.2874
   228.7500      0.0000    402.0792      7.1412     95.4304
   229.0000      0.0000    391.5590      7.1501     94.4892
   229.2500      0.0000    382.2913      7.1581     95.5856
   229.5000      0.0000    374.2941      7.1598     98.2719
   229.7500      0.0000    369.3532      7.1524    101.4763
   230.0000      0.0000    369.1368      7.1394    103.8787
   230.2500      0.0000    373.6861      7.1266    104.8657
   230.5000      0.0000    381.4378      7.1171    104.9504
   230.7500      0.0000    390.5574      7.1107    104.8501
   231.0000      0.0000    400.0536      7.1071    104.2399
   231.2500      0.0000    409.4931      7.1066    101.8886
   231.5000      0.0000    417.9274      7.1076     97.1516
   231.7500      0.0000    423.7682      7.1060     91.0386
   232.0000      0.0000    425.9755      7.0984     85.6152
   232.2500      0.0000    425.1515      7.0856     82.5607
   232.5000      0.0000    423.3065      7.0726     82.4940
   232.7500      0.0000    422.5843      7.0645     85.1560
   233.0000      0.0000    424.0345      7.0641     89.5437
   233.2500      0.0000    427.1460      7.0708     94.1509
   233.5000      0.0000    430.1932      7.0829     97.9279
   233.7500      0.0000    431.0996      7.0980    101.0443
   234.0000      0.0000    428.4167      7.1128    104.0971
   234.2500      0.0000    422.0197      7.1244    106.6165
   234.5000      0.0000    413.0842      7.1325    107.0306
   234.7500      0.0000    403.1573      7.1399    104.3639
   235.0000      0.0000    393.1216      7.1496     99.5737
   235.2500      0.0000    383.2254      7.1631     94.8414
   235.5000      0.0000    373.9266      7.1786     91.6530
   235.7500      0.0000    366.1578      7.1933     89.8311
   236.0000      0.0000    360.6314      7.2076     88.2976
   236.2500      0.0000    357.2635      7.2292     86.3876
   236.5000      0.0000    355.3943      7.2692     84.3614
   236.7500      0.0000    354.3419      7.3333     82.7931
   237.0000      0.0000    353.6525      7.4158     81.5785
   237.2500      0.0000    352.9784      7.5029     79.8817
   237.5000      0.0000    351.8194      7.5811     77.3586
   237.7500      0.0000    349.4153      7.6431     74.9541
   238.0000      0.0000    345.0564      7.6880     73.7968
   238.2500      0.0000    338.7674      7.7175     73.6789
   238.5000      0.0000    331.7193      7.7335     73.4275
   238.7500      0.0000    325.7441      7.7404     72.6833
   239.0000      0.0000    322.3473      7.7467     72.5086
   239.2500      0.0000    322.2005      7.7620     73.9931
   239.5000      0.0000    325.2454      7.7894     76.8713
   239.7500      0.0000    330.7466      7.8216     79.9337
   240.0000      0.0000    337.2467      7.8458     82.3886
   240.2500      0.0000    343.0323      7.8490     84.3992
   240.5000      0.0000    347.0228      7.8213     86.5458
   240.7500      0.0000    349.1917      7.7575     89.1902
   241.0000      0.0000    350.1666      7.6605     92.3453
   241.2500      0.0000    350.5948      7.5427     95.7083
   241.5000      0.0000    350.8460      7.4218     98.4191
   241.7500      0.0000    351.0553      7.3130     99.0347
   242.0000      0.0000    351.2587      7.2242     96.5419
   242.2500      0.0000    351.4731      7.1576     91.7765
   242.5000      0.0000    351.7050      7.1142     87.3021
   242.7500      0.0000    351.9207      7.0951     85.3965
   243.0000      0.0000    352.0482      7.1005     86.3507
   243.2500      0.0000    352.0297      7.1260     88.7913
   243.5000      0.0000    351.8726      7.1611     91.1604
   243.7500      0.0000    351.6404      7.1949     92.8507
   244.0000      0.0000    351.4042      7.2232     94.2694
   244.2500      0.0000    351.2148      7.2501     95.8504
   244.5000      0.0000    351.1123      7.2818     97.2222
   244.7500      0.0000    351.1442      7.3180     97.8186
   245.0000      0.0000    351.3715      7.3494     98.0363
   245.2500      0.0000    351.8593      7.3645     98.9606
   245.5000      0.0000    352.6566      7.3575    100.9403
   245.7500      0.0000    353.7665      7.3314    103.0909
   246.0000      0.0000    355.1501      7.2939    104.1885
   246.2500      0.0000    356.8312      7.2518    103.5662
   246.5000      0.0000    359.1170      7.2084    101.1272
   246.7500      0.0000    362.7092      7.1650     96.9815
   247.0000      0.0000    368.3338      7.1224     91.4449
   247.2500      0.0000    375.9362      7.0815     85.3730
   247.5000      0.0000    384.2440      7.0427     80.0604
   247.7500      0.0000    391.4146      7.0058     76.4551
   248.0000      0.0000    396.2559      6.9722     74.4888
   248.2500      0.0000    398.7918      6.9447     73.3057
   248.5000      0.0000    399.8068      6.9258     72.0638
   248.7500      0.0000    400.0975      6.9146     70.4317
   249.0000      0.0000    400.1028      6.9084     68.5880
   249.2500      0.0000    399.9422      6.9052     67.0337
   249.5000      0.0000    399.5967      6.9059     66.3663
   249.7500      0.0000    399.0207      6.9131     66.9512
   250.0000      0.0000    398.1001      6.9280     68.5871
   250.2500      0.0000    396.4863      6.9466     70.5558
   250.5000      0.0000    393.5146      6.9616     72.0391
   250.7500      0.0000    388.5048      6.9663     72.5052
   251.0000      0.0000    381.4419      6.9604     71.9955
   251.2500      0.0000    373.4049      6.9520     71.3042
   251.5000      0.0000    366.1138      6.9531     71.6796
   251.7500      0.0000    360.9705      6.9711     74.0214
   252.0000      0.0000    358.6471      7.0031     78.1923
