~Version Information
VERS.                      2.0: CWLS Log ASCII Standard - VERSION 2.0
WRAP.                       NO: One line per depth step
~Well Information Block
STRT.FT               570.0000: 
STOP.FT              1958.5000: 
STEP.FT                 0.2500: 
NULL.                -999.2500: 
COMP.          Petrogulf Corporation: COMPANY
WELL.            Montoya 7-14R: WELL
FLD.           Purgatorie River: FIELD
LOC.           628' FSL & 454' FWL: LOCATION
PROV.                 Colorado: PROVINCE
CNTY.               Las Animas: COUNTRY
SRVC.                Patterson: SERVICE COMPANY
DATE.          Sat Oct 08 17:13:52 2005: LOG DATE
UWI.                          : UNIQUE WELL ID
~Curve Information Block
DEPT.FT            0 000 00 00: Depth
SP.mV                         : DIL Spontaneous Potential
RILD.Ohm-m                    : DIL Deep Resistivity
RILM.Ohm-m                    : DIL Medium Resistivity
RLL3.Ohm-m                    : DIL Shallow Resistivity
GR.GAPI                       : Gamma Ray
~Parameter Information Block
~A  Depth        SP         RILD        RILM        RLL3         GR     
# ...
   766.0000   2000.0000     13.4790     12.6863   2000.0000    133.9735
   766.2500   2000.0000     13.0729     12.1398   2000.0000    140.8191
   766.5000   2000.0000     12.6768     11.6785   2000.0000    147.9118
   766.7500   2000.0000     12.3040     11.2881   2000.0000    149.7897
   767.0000   2000.0000     11.9708     10.9589   2000.0000    148.8952
   767.2500   2000.0000     11.6915     10.6858   2000.0000    147.0476
   767.5000   2000.0000     11.4755     10.4677   2000.0000    144.5207
   767.7500   2000.0000     11.3261     10.3055   2000.0000    143.7449
   768.0000   2000.0000     11.2419     10.2013   2000.0000    144.6155
   768.2500   2000.0000     11.2172     10.1571   2000.0000    146.6045
   768.5000   2000.0000     11.2436     10.1736   2000.0000    150.3475
   768.7500   2000.0000     11.3114     10.2503   2000.0000    151.8195
   769.0000   2000.0000     11.4111     10.3841   2000.0000    151.0269
   769.2500   2000.0000     11.5337     10.5696   2000.0000    149.3707
   769.5000   2000.0000     11.6697     10.7983   2000.0000    148.1365
   769.7500   2000.0000     11.8076     11.0587   2000.0000    148.9895
   770.0000   2000.0000     11.9340     11.3360   2000.0000    151.7648
   770.2500   2000.0000     12.0350     11.6129   2000.0000    153.4933
   770.5000   2000.0000     12.0990     11.8692   2000.0000    154.8574
   770.7500   2000.0000     12.1177     12.0838   2000.0000    155.1222
   771.0000   2000.0000     12.0862     12.2352   2000.0000    155.5294
   771.2500   2000.0000     12.0026     12.3047   2000.0000    156.0515
   771.5000   2000.0000     11.8695     12.2788   2000.0000    156.3929
   771.7500   2000.0000     11.6950     12.1528   2000.0000    155.6417
   772.0000   2000.0000     11.4917     11.9323   2000.0000    153.0136
   772.2500   2000.0000     11.2739     11.6331   2000.0000    150.9100
   772.5000   2000.0000     11.0525     11.2787   2000.0000    148.1850
   772.7500   2000.0000     10.8337     10.8954   2000.0000    146.8650
   773.0000   2000.0000     10.6202     10.5083   2000.0000    146.2809
   773.2500   2000.0000     10.4133     10.1379   2000.0000    147.5623
   773.5000   2000.0000     10.2149      9.7995   2000.0000    152.5146
   773.7500   2000.0000     10.0280      9.5028   2000.0000    157.0876
   774.0000   2000.0000      9.8571      9.2539   2000.0000    163.7751
   774.2500   2000.0000      9.7083      9.0562   2000.0000    167.4612
   774.5000   2000.0000      9.5903      8.9118   2000.0000    172.0767
   774.7500   2000.0000      9.5136      8.8224   2000.0000    174.9209
   775.0000   2000.0000      9.4874      8.7889   2000.0000    179.0201
   775.2500   2000.0000      9.5174      8.8121   2000.0000    181.4993
   775.5000   2000.0000      9.6039      8.8920   2000.0000    184.2518
   775.7500   2000.0000      9.7432      9.0275   2000.0000    184.7307
   776.0000   2000.0000      9.9302      9.2167   2000.0000    181.7733
   776.2500   2000.0000     10.1613      9.4570   2000.0000    176.9431
   776.5000   2000.0000     10.4351      9.7458   2000.0000    167.1437
   776.7500   2000.0000     10.7527     10.0808   2000.0000    160.9919
   777.0000   2000.0000     11.1162     10.4614   2000.0000    155.0309
   777.2500   2000.0000     11.5280     10.8886   2000.0000    153.1812
   777.5000   2000.0000     11.9892     11.3650   2000.0000    151.5775
   777.7500   2000.0000     12.4963     11.8935   2000.0000    150.4358
   778.0000   2000.0000     13.0392     12.4756   2000.0000    148.9114
   778.2500   2000.0000     13.6000     13.1086   2000.0000    148.5299
   778.5000   2000.0000     14.1560     13.7833   2000.0000    148.6353
   778.7500   2000.0000     14.6854     14.4831   2000.0000    148.2550
   779.0000   2000.0000     15.1740     15.1847   2000.0000    145.4209
   779.2500   2000.0000     15.6193     15.8609   2000.0000    141.7036
   779.5000   2000.0000     16.0295     16.4861   2000.0000    134.0705
   779.7500   2000.0000     16.4212     17.0423   2000.0000    128.4174
   780.0000   2000.0000     16.8134     17.5238   2000.0000    120.5043
   780.2500   2000.0000     17.2219     17.9377   2000.0000    116.3136
   780.5000   2000.0000     17.6529     18.3015   2000.0000    112.6405
   780.7500   2000.0000     18.0989     18.6367   2000.0000    112.3257
   781.0000   2000.0000     18.5384     18.9622   2000.0000    115.4144
   781.2500   2000.0000     18.9421     19.2900   2000.0000    119.8169
   781.5000   2000.0000     19.2821     19.6217   2000.0000    128.9578
   781.7500   2000.0000     19.5423     19.9499   2000.0000    135.4209
   782.0000   2000.0000     19.7247     20.2607   2000.0000    142.9636
   782.2500   2000.0000     19.8493     20.5386   2000.0000    145.5667
   782.5000   2000.0000     19.9447     20.7706   2000.0000    145.6783
   782.7500   2000.0000     20.0358     20.9501   2000.0000    143.6569
   783.0000   2000.0000     20.1352     21.0771   2000.0000    138.6311
   783.2500   2000.0000     20.2427     21.1566   2000.0000    135.0000
   783.5000   2000.0000     20.3522     21.1967   2000.0000    131.3883
   783.7500   2000.0000     20.4607     21.2055   2000.0000    131.0148
   784.0000   2000.0000     20.5727     21.1910   2000.0000    132.6825
   784.2500   2000.0000     20.6981     21.1613   2000.0000    133.8530
   784.5000   2000.0000     20.8454     21.1258   2000.0000    133.9674
   784.7500   2000.0000     21.0164     21.0965   2000.0000    133.2126
   785.0000   2000.0000     21.2073     21.0877   2000.0000    132.6672
   785.2500   2000.0000     21.4142     21.1149   2000.0000    133.4551
   785.5000   2000.0000     21.6389     21.1923   2000.0000    136.0043
   785.7500   2000.0000     21.8899     21.3312   2000.0000    137.7570
   786.0000   2000.0000     22.1790     21.5385   2000.0000    139.1504
   786.2500   2000.0000     22.5159     21.8167   2000.0000    138.8877
   786.5000   2000.0000     22.9056     22.1654   2000.0000    136.5556
   786.7500   2000.0000     23.3491     22.5829   2000.0000    133.8062
   787.0000   2000.0000     23.8474     23.0685   2000.0000    128.5127
   787.2500   2000.0000     24.4056     23.6235   2000.0000    124.8426
   787.5000   2000.0000     25.0326     24.2510   2000.0000    120.2870
   787.7500   2000.0000     25.7367     24.9540   2000.0000    118.2329
   788.0000   2000.0000     26.5181     25.7341   2000.0000    116.2130
   788.2500   2000.0000     27.3651     26.5886   2000.0000    114.9580
   788.5000   2000.0000     28.2579     27.5097   2000.0000    112.6780
   788.7500   2000.0000     29.1769     28.4853   2000.0000    111.2794
   789.0000   2000.0000     30.1110     29.5007   2000.0000    110.6055
   789.2500   2000.0000     31.0595     30.5416   2000.0000    111.4702
   789.5000   2000.0000     32.0270     31.5970   2000.0000    114.2031
   789.7500   2000.0000     33.0148     32.6615   2000.0000    116.2938
   790.0000   2000.0000     34.0145     33.7345   2000.0000    118.7641
   790.2500   2000.0000     35.0048     34.8173   2000.0000    119.6110
   790.5000   2000.0000     35.9526     35.9089   2000.0000    119.5428
   790.7500   2000.0000     36.8204     37.0005   2000.0000    118.6913
   791.0000   2000.0000     37.5813     38.0749   2000.0000    116.2639
   791.2500   2000.0000     38.2365     39.1090   2000.0000    113.8421
   791.5000   2000.0000     38.8214     40.0817   2000.0000    109.4000
   791.7500   2000.0000     39.3937     40.9830   2000.0000    106.6071
   792.0000   2000.0000     40.0111     41.8206   2000.0000    103.9876
   792.2500   2000.0000     40.7142     42.6205   2000.0000    103.5181
   792.5000   2000.0000     41.5177     43.4210   2000.0000    104.0454
   792.7500   2000.0000     42.4086     44.2646   2000.0000    104.5629
   793.0000   2000.0000     43.3516     45.1893   2000.0000    104.7444
   793.2500   2000.0000     44.3063     46.2227   2000.0000    104.3644
   793.5000   2000.0000     45.2541     47.3787   2000.0000    103.4548
   793.7500   2000.0000     46.2183     48.6549   2000.0000    102.7596
