~Version Information
VERS.                      2.0: CWLS Log ASCII Standard - VERSION 2.0
WRAP.                       NO: One line per depth step
~Well Information Block
STRT.FT                 0.0000: 
STOP.FT              1906.7500: 
STEP.FT                 0.2500: 
NULL.                -999.2500: 
COMP.          Petrogulf Corporation: COMPANY
WELL.             Kraft 17-23R: WELL
FLD.           Purgatorie River: FIELD
LOC.           1509' FSL & 1673' FWL: LOCATION
STAT.                 Colorado: State
CNTY.               Las Animas: COUNTY
CTRY. USA : Country
SECT. 17 : Section
TOWN. 33S : Township
RANG. 67W : Range
SRVC.                Patterson: SERVICE COMPANY
DATE.          Fri Jan 06 08:59:54 2006: LOG DATE
API. 05-071-08560                         : UNIQUE WELL ID
~Curve Information Block
DEPT.FT            0 000 00 00: Depth
CCL.                          : Casing Collar Locator
TT3.usec                      : CBL 3' Travel Time
AMP3.mV                       : CBL 3' Amplitude
AMP3.mV                       : CBL 3' Amplitude
GR.GAPI                       : Gamma Ray
AMP3.mV                       : CBL 3' Amplitude
~Parameter Information Block
~A  Depth       CCL         TT3         AMP3        AMP3         GR        .AMP3    
# ...
  1368.0000      0.0000    664.2952      7.7809      7.7809    143.6666      7.7809
  1368.2500      0.0000    664.9763      7.8227      7.8227    141.0515      7.8227
  1368.5000      0.0000    667.0609      7.7642      7.7642    138.1499      7.7642
  1368.7500      0.0000    672.6554      7.6006      7.6006    134.3519      7.6006
  1369.0000      0.0000    680.7938      7.3180      7.3180    129.3686      7.3180
  1369.2500      0.0000    685.2927      6.9242      6.9242    123.7933      6.9242
  1369.5000      0.0000    682.9310      6.4584      6.4584    118.7278      6.4584
  1369.7500      0.0000    679.9740      6.0238      6.0238    114.9616      6.0238
  1370.0000      0.0000    681.8114      5.7076      5.7076    112.5757      5.7076
  1370.2500      0.0000    683.4421      5.4805      5.4805    111.1562      5.4805
  1370.5000      0.0000    678.7452      5.2791      5.2791    110.3476      5.2791
  1370.7500      0.0000    670.5432      5.1131      5.1131    110.3773      5.1131
  1371.0000      0.0000    664.5954      5.0107      5.0107    111.8821      5.0107
  1371.2500      0.0000    661.9712      4.9328      4.9328    114.9791      4.9328
  1371.5000      0.0000    660.4204      4.7954      4.7954    118.7250      4.7954
  1371.7500      0.0000    656.8965      4.5447      4.5447    121.7838      4.5447
  1372.0000      0.0000    647.7813      4.1911      4.1911    123.4652      4.1911
  1372.2500      0.0000    631.4387      3.7993      3.7993    123.9574      3.7993
  1372.5000      0.0000    613.5073      3.4569      3.4569    123.6744      3.4569
  1372.7500      0.0000    606.5842      3.2176      3.2176    122.5480      3.2176
  1373.0000      0.0000    620.5375      3.0690      3.0690    120.0662      3.0690
  1373.2500      0.0000    650.6774      2.9534      2.9534    116.0880      2.9534
  1373.5000      0.0000    676.1992      2.7984      2.7984    111.4122      2.7984
  1373.7500      0.0000    678.3469      2.5476      2.5476    107.2242      2.5476
  1374.0000      0.0000    659.7297      2.1929      2.1929    104.1054      2.1929
  1374.2500      0.0000    639.5076      1.7943      1.7943    101.8846      1.7943
  1374.5000      0.0000    633.9824      1.4353      1.4353    100.3483      1.4353
  1374.7500      0.0000    642.5090      1.1578      1.1578     99.7396      1.1578
  1375.0000      0.0000    650.3932      0.9767      0.9767    100.4181      0.9767
  1375.2500      0.0000    646.9517      0.8978      0.8978    102.3250      0.8978
  1375.5000      0.0000    636.2755      0.8770      0.8770    105.0942      0.8770
  1375.7500      0.0000    629.0849      0.8469      0.8469    108.5384      0.8469
  1376.0000      0.0000    631.8167      0.8042      0.8042    112.6458      0.8042
  1376.2500      0.0000    643.0654      0.7960      0.7960    117.0390      0.7960
  1376.5000      0.0000    653.3997      0.8259      0.8259    120.6451      0.8259
  1376.7500      0.0000    652.7675      0.8456      0.8456    121.9727      0.8456
  1377.0000      0.0000    641.9975      0.8447      0.8447    119.8805      0.8447
  1377.2500      0.0000    630.3931      0.8670      0.8670    114.4505      0.8670
  1377.5000      0.0000    623.6654      0.9239      0.9239    107.0971      0.9239
  1377.7500      0.0000    620.9921      0.9722      0.9722     99.5772      0.9722
  1378.0000      0.0000    619.9863      0.9935      0.9935     93.1999      0.9935
  1378.2500      0.0000    619.5360      1.0250      1.0250     89.1384      1.0250
  1378.5000      0.0000    619.3813      1.0947      1.0947     88.6209      1.0947
  1378.7500      0.0000    619.1837      1.1952      1.1952     91.9234      1.1952
  1379.0000      0.0000    617.6267      1.3234      1.3234     97.4085      1.3234
  1379.2500      0.0000    610.7830      1.4629      1.4629    102.2612      1.4629
  1379.5000      0.0000    593.1398      1.5656      1.5656    104.5113      1.5656
  1379.7500      0.0000    568.1573      1.6127      1.6127    104.3128      1.6127
  1380.0000      0.0000    554.8137      1.6453      1.6453    103.2403      1.6453
  1380.2500      0.0000    565.6974      1.7230      1.7230    102.6769      1.7230
  1380.5000      0.0000    588.8527      1.8562      1.8562    103.3482      1.8562
  1380.7500      0.0000    611.1837      1.9610      1.9610    106.0580      1.9610
  1381.0000      0.0000    637.4123      1.9600      1.9600    111.6933      1.9600
  1381.2500      0.0000    671.6967      1.9195      1.9195    119.9149      1.9195
  1381.5000      0.0000    700.2526      1.9557      1.9557    128.3494      1.9557
  1381.7500      0.0000    708.2639      2.1007      2.1007    133.8986      2.1007
  1382.0000     -2.0000    703.1667      2.3558      2.3558    135.3199      2.3558
  1382.2500      0.0000    702.4430      2.7028      2.7028    134.4115      2.7028
  1382.5000      0.0000    711.7372      3.0362      3.0362    134.3072      3.0362
  1382.7500      0.0000    725.6020      3.2518      3.2518    136.7534      3.2518
  1383.0000      0.0000    733.9367      3.3806      3.3806    141.2907      3.3806
  1383.2500      0.0000    727.9069      3.5431      3.5431    146.3918      3.5431
  1383.5000      0.0000    711.4882      3.7645      3.7645    150.6184      3.7645
  1383.7500      0.0000    698.0529      3.9192      3.9192    153.1691      3.9192
  1384.0000      0.0000    691.3624      3.9345      3.9345    154.1771      3.9345
  1384.2500      0.0000    683.3917      3.8780      3.8780    154.3361      3.8780
  1384.5000      0.0000    669.3470      3.7860      3.7860    153.9154      3.7860
  1384.7500      0.0000    651.4873      3.6232      3.6232    152.5650      3.6232
  1385.0000      0.0000    631.6335      3.3816      3.3816    150.1762      3.3816
  1385.2500      0.0000    612.8582      3.0811      3.0811    147.2285      3.0811
  1385.5000      0.0000    602.7429      2.7421      2.7421    144.1546      2.7421
  1385.7500      0.0000    604.5645      2.4031      2.4031    141.1199      2.4031
  1386.0000      0.0000    611.4879      2.1216      2.1216    138.3364      2.1216
  1386.2500      0.0000    615.8033      1.9210      1.9210    135.6546      1.9210
  1386.5000      0.0000    617.0873      1.7545      1.7545    131.8174      1.7545
  1386.7500      0.0000    616.8829      1.5693      1.5693    125.1186      1.5693
  1387.0000      0.0000    614.8676      1.3969      1.3969    115.2013      1.3969
  1387.2500      0.0000    612.4246      1.3208      1.3208    103.7723      1.3208
  1387.5000      0.0000    612.2983      1.3690      1.3690     93.3658      1.3690
  1387.7500      0.0000    615.0643      1.5102      1.5102     85.6457      1.5102
  1388.0000      0.0000    618.7688      1.7247      1.7247     80.8312      1.7247
  1388.2500      0.0000    621.4795      1.9806      1.9806     78.3621      1.9806
  1388.5000      0.0000    622.4366      2.1954      2.1954     77.8079      2.1954
  1388.7500      0.0000    620.6172      2.3226      2.3226     79.0079      2.3226
  1389.0000      0.0000    614.8171      2.4008      2.4008     81.5153      2.4008
  1389.2500      0.0000    607.1107      2.4973      2.4973     84.4367      2.4973
  1389.5000      0.0000    604.6570      2.6763      2.6763     87.1395      2.6763
  1389.7500      0.0000    613.6875      2.9447      2.9447     89.8599      2.9447
  1390.0000      0.0000    631.0194      3.1925      3.1925     93.3003      3.1925
  1390.2500      0.0000    646.7272      3.3079      3.3079     97.8304      3.3079
  1390.5000      0.0000    655.1025      3.3118      3.3118    103.2043      3.3118
  1390.7500      0.0000    657.6351      3.2853      3.2853    108.5562      3.2853
  1391.0000      0.0000    657.6954      3.2643      3.2643    112.3967      3.2643
  1391.2500      0.0000    657.1499      3.2508      3.2508    113.2356      3.2508
  1391.5000      0.0000    656.5728      3.2488      3.2488    110.8390      3.2488
  1391.7500      0.0000    656.0638      3.2805      3.2805    106.7780      3.2805
