~Version Information
VERS.                      2.0: CWLS Log ASCII Standard - VERSION 2.0
WRAP.                       NO: One line per depth step
~Well Information Block
STRT.FT               440.0000: 
STOP.FT              1300.5000: 
STEP.FT                 0.1000: 
NULL.                -999.2500: 
COMP.          Pioneer Natural Resources: COMPANY
WELL.              Yoshi 14-30: WELL
FLD.           Purgatoire River: FIELD
LOC.           993' FSL & 823' FWL: LOCATION
CNTY.               Las Animas: COUNTY
SRVC.                Patterson: SERVICE COMPANY
DATE.          Fri Feb 17 14:59:28 2006: LOG DATE
UWI.           05 071 08699 00: UNIQUE WELL ID
STAT.                 Colorado: STATE
~Curve Information Block
DEPT.FT            0 000 00 00: Depth
DCAL.in                       : CDL Caliper
RHOB.g/cc                     : CDL Bulk Density
RHOC.g/cc                     : CDL Density Correction
DPOR.pu                       : CDL Density Porosity
GR.GAPI                       : Gamma Ray
NPOR.pu                       : Neutron Porosity
~Parameter Information Block
~A  Depth       DCAL        RHOB        RHOC        DPOR         GR         NPOR    
# ...
   891.2000      8.0433      2.5147      0.0971      8.2006    127.6143     23.2248
   891.3000      8.0427      2.5349      0.1012      6.9749    130.2147     23.2994
   891.4000      8.0427      2.5611      0.1217      5.3888    132.1550     23.5571
   891.5000      8.0422      2.5773      0.1279      4.4050    130.8175     23.8282
   891.6000      8.0422      2.5771      0.0881      4.4185    130.0654     23.8877
   891.7000      8.0422      2.5702      0.0688      4.8350    132.7814     23.6125
   891.8000      8.0415      2.5673      0.0672      5.0131    132.5636     23.1313
   891.9000      8.0415      2.5621      0.1008      5.3257    128.4386     22.5658
   892.0000      8.0412      2.5414      0.0705      6.5838    129.1552     22.1625
   892.1000      8.0412      2.5039      0.0443      8.8534    135.7705     22.1031
   892.2000      8.0412      2.4523     -0.0010     11.9833    142.9692     22.0708
   892.3000      8.0416      2.3889      0.0008     15.8223    150.6252     21.5879
   892.4000      8.0416      2.3303     -0.0594     19.3758    160.0223     20.9033
   892.5000      8.0423      2.2946     -0.0306     21.5366    168.6709     20.7920
   892.6000      8.0423      2.2740     -0.0206     22.7857    174.3193     21.1306
   892.7000      8.0423      2.2543     -0.0601     23.9803    177.4091     21.3367
   892.8000      8.0425      2.2424     -0.0398     24.7058    178.3046     21.5532
   892.9000      8.0425      2.2482     -0.0599     24.3521    172.8654     22.1509
   893.0000      8.0421      2.2662      0.0156     23.2614    155.8693     23.2040
   893.1000      8.0421      2.2885      0.0222     21.9089    135.6890     24.2419
   893.2000      8.0421      2.3226      0.0525     19.8452    127.6033     24.5369
   893.3000      8.0405      2.3720      0.1193     16.8515    129.3115     24.0858
   893.4000      8.0405      2.4216      0.0932     13.8427    130.0179     23.4985
   893.5000      8.0356      2.4537      0.1027     11.8954    130.0350     23.0867
   893.6000      8.0356      2.4660      0.0340     11.1523    130.7111     22.8705
   893.7000      8.0356      2.4732     -0.0054     10.7136    128.5345     23.0221
   893.8000      8.0304      2.4874      0.0079      9.8535    125.1984     23.4777
   893.9000      8.0304      2.5041      0.0272      8.8406    123.2994     23.7634
   894.0000      8.0328      2.5127      0.0464      8.3188    121.8979     23.6284
   894.1000      8.0328      2.5129     -0.0003      8.3108    121.0361     23.3281
   894.2000      8.0328      2.5147      0.0368      8.1996    123.7135     23.1959
   894.3000      8.0381      2.5161      0.0261      8.1121    130.8663     23.3034
   894.4000      8.0381      2.5087      0.0163      8.5642    134.2192     23.8102
   894.5000      8.0400      2.5003     -0.0276      9.0718    128.1805     24.7929
   894.6000      8.0400      2.5010     -0.0017      9.0301    122.9572     25.6552
   894.7000      8.0400      2.5073     -0.0240      8.6459    126.0491     25.5291
   894.8000      8.0395      2.5139     -0.0058      8.2476    131.0337     24.6318
   894.9000      8.0395      2.5153      0.0063      8.1659    136.1033     23.9439
   895.0000      8.0392      2.5072      0.0106      8.6559    140.0657     23.8280
   895.1000      8.0392      2.4952     -0.0225      9.3832    138.3879     23.8552
   895.2000      8.0392      2.4928     -0.0028      9.5297    135.8291     23.7959
   895.3000      8.0396      2.4992      0.0130      9.1383    136.1351     23.9069
   895.4000      8.0396      2.4981      0.0322      9.2053    135.5491     24.2578
   895.5000      8.0396      2.4926     -0.0324      9.5418    133.4353     24.5428
   895.6000      8.0396      2.5029     -0.0169      8.9151    134.7979     24.5339
   895.7000      8.0396      2.5248      0.0116      7.5879    138.4152     24.3746
   895.8000      8.0384      2.5355      0.0198      6.9415    137.7565     24.2365
   895.9000      8.0384      2.5303     -0.0054      7.2573    137.3950     24.2266
   896.0000      8.0370      2.5263     -0.0419      7.4969    143.4552     24.6963
   896.1000      8.0370      2.5358     -0.0148      6.9189    148.2510     25.5232
   896.2000      8.0370      2.5490      0.0370      6.1219    146.2676     26.3448
   896.3000      8.0369      2.5515      0.0448      5.9691    144.6750     27.1399
   896.4000      8.0369      2.5500     -0.0162      6.0627    146.9556     27.7159
   896.5000      8.0367      2.5567      0.0190      5.6549    148.0395     27.8500
   896.6000      8.0367      2.5632      0.0541      5.2581    145.5952     27.6698
   896.7000      8.0367      2.5570      0.0126      5.6388    141.0198     27.5555
   896.8000      8.0363      2.5447     -0.0159      6.3811    136.2654     27.5645
   896.9000      8.0363      2.5367      0.0008      6.8689    133.4230     27.4502
   897.0000      8.0357      2.5333     -0.0091      7.0711    132.9845     27.4700
   897.1000      8.0357      2.5351     -0.0247      6.9653    133.9575     27.6793
   897.2000      8.0357      2.5352      0.0094      6.9567    132.0949     27.5280
   897.3000      8.0349      2.5276     -0.0043      7.4175    125.4851     27.0122
   897.4000      8.0349      2.5203     -0.0061      7.8635    119.8073     26.4827
   897.5000      8.0337      2.5172     -0.0178      8.0465    116.0130     26.0122
   897.6000      8.0337      2.5157      0.0024      8.1371    113.0044     25.8045
   897.7000      8.0337      2.5148     -0.0003      8.1931    113.9822     25.9341
   897.8000      8.0323      2.5095      0.0083      8.5170    121.2461     26.1396
   897.9000      8.0323      2.4938      0.0204      9.4647    130.8783     26.3883
   898.0000      8.0313      2.4743     -0.0014     10.6513    135.1116     26.6033
   898.1000      8.0313      2.4646     -0.0251     11.2345    131.3297     26.3792
   898.2000      8.0313      2.4690      0.0084     10.9670    124.4082     25.8545
   898.3000      8.0307      2.4802      0.0237     10.2937    118.8052     25.8057
   898.4000      8.0307      2.4891      0.0429      9.7538    113.5728     26.2589
   898.5000      8.0294      2.4871      0.0289      9.8728    109.0033     26.3819
   898.6000      8.0294      2.4670      0.0409     11.0925    107.6251     25.8801
   898.7000      8.0294      2.4247      0.0692     13.6528    110.7863     25.1438
   898.8000      8.0252      2.3635      0.0433     17.3657    117.7266     24.7235
   898.9000      8.0252      2.3024     -0.0256     21.0675    128.1136     24.7620
   899.0000      8.0187      2.2688      0.0054     23.1043    136.7747     24.8521
   899.1000      8.0187      2.2796      0.0243     22.4480    135.1100     24.8336
   899.2000      8.0187      2.3469      0.0315     18.3668    123.5714     24.8074
   899.3000      8.0148      2.4724      0.1505     10.7642    110.6239     24.6803
   899.4000      8.0148      2.6238      0.2602      1.5893    103.7079     24.3686
   899.5000      8.0149      2.7449      0.3769     -5.7499    105.0767     24.0087
   899.6000      8.0149      2.7944      0.4137     -8.7535    112.5786     23.8908
   899.7000      8.0149      2.7747      0.3656     -7.5603    119.1662     24.1269
   899.8000      8.0169      2.7177      0.2832     -4.1012    119.7679     24.1207
   899.9000      8.0169      2.6491      0.2296      0.0518    116.4252     23.3620
   900.0000      8.0215      2.5803      0.1430      4.2235    112.2411     22.4987
   900.1000      8.0215      2.5275      0.0785      7.4245    109.6530     22.2613
   900.2000      8.0215      2.5080      0.0172      8.6032    109.6371     22.6059
   900.3000      8.0265      2.5159      0.0496      8.1290    111.6270     22.8822
   900.4000      8.0265      2.5291      0.0361      7.3285    113.5993     22.7120
   900.5000      8.0257      2.5330      0.0834      7.0898    112.5545     22.4535
   900.6000      8.0257      2.5230      0.0732      7.6956    111.5899     22.3571
   900.7000      8.0257      2.5098      0.0626      8.4959    113.4758     22.2722
