~Version Information
 VERS.                                  2.0 : CWLS LAS VERSION
 WRAP.                                   NO : WRAPING MODE
 SWARE .                 MController 2.5.0J : SOFTWARE VERSION
~Well Information
 WELL.                     DAYTONA 31-14 TR : WELL
 COMP.    PIONEER NATURAL RESOURCES USA INC : COMPANY
 FLD.                      PURGATOIRE RIVER : FIELD
 LOC.                NW/NE SEC 14 T33S R67W : LOCATION
 DATE.                             01/27/06 : DATE(S) LOGGED
 SRVC.       BLANCO GEOLOGICAL SERVICES LLC : SERVICE COMPANY
 STAT.                             COLORADO : STATE
 CNTY.                           LAS ANIMAS : COUNTY
 CTRY.                                  USA : COUNTRY
 API.                       05-071-08681-00 : API NUMBER
 STRT.FT                             385.00 : START DEPTH
 STOP.FT                            1587.00 : STOP DEPTH
 STEP.FT                               1.00 : DEPTH INCREMENT
 NULL.                                -9999 : NULL VALUE
~Curve information
 DEPTH.FT                                   :
 ROP.MIN/FT                                 :
 GAS.UNITS                                  :
~ASCII Log data
       385.0     -9999.00          1.6 
       386.0         0.33          1.9 
       387.0         0.20          1.8 
       388.0         0.27          1.9 
       389.0         0.40          2.2 
       390.0         0.47          2.4 
       391.0         0.23          2.0 
       392.0         0.37          2.2 
       393.0         0.42          2.2 
       394.0         0.33          2.5 
       395.0         0.27          2.2 
       396.0         0.27          2.2 
       397.0         0.27          2.4 
       398.0         0.20          2.3 
       399.0         0.20          2.3 
       400.0         0.20          2.2 
       401.0         0.20          2.7 
       402.0         0.20          2.4 
       403.0         0.17          2.2 
       404.0         0.23          2.5 
       405.0         0.23          2.5 
       406.0         0.28          2.7 
       407.0         0.17          2.8 
       408.0         0.23          2.8 
       409.0         0.20          2.5 
       410.0         0.20          2.5 
       411.0         0.27          2.4 
       412.0         0.27          2.8 
       413.0         0.27          2.7 
       414.0         0.23          2.7 
       415.0         0.23          2.9 
       416.0         2.95          3.2 
       417.0         0.27          3.2 
       418.0         0.27          3.3 
       419.0         0.23          3.4 
       420.0         0.37          3.3 
       421.0         0.30          3.4 
       422.0         0.32          3.5 
       423.0         0.27          3.7 
       424.0         0.30          3.7 
       425.0         0.27          3.5 
       426.0         0.17          3.3 
       427.0         0.20          3.5 
       428.0         0.27          3.5 
       429.0         0.20          3.7 
       430.0         0.20          3.4 
       431.0         0.23          3.8 
       432.0         0.27          3.9 
       433.0         0.27          4.1 
       434.0         0.23          3.6 
       435.0         0.27          3.8 
       436.0         3.80          4.2 
       437.0         0.23          4.0 
       438.0         0.23          3.9 
       439.0         0.20          4.2 
       440.0         0.30          3.9 
       441.0         0.40          4.0 
       442.0         0.30          4.0 
       443.0         0.27          4.1 
       444.0         0.27          4.0 
       445.0         0.20          3.8 
       446.0         3.72          4.4 
       447.0         0.48          4.3 
       448.0         0.33          4.4 
       449.0         0.37          4.2 
       450.0         0.23          4.0 
       451.0         0.33          4.3 
       452.0         0.27          4.3 
       453.0         0.23          4.0 
       454.0         0.13          4.2 
       455.0         0.23          4.1 
       456.0         0.27          4.2 
       457.0         0.30          4.5 
       458.0         0.38          4.3 
       459.0         0.13          4.1 
       460.0         0.17          4.3 
       461.0         0.23          4.5 
       462.0         0.30          4.6 
       463.0         0.30          4.8 
       464.0         0.37          4.7 
       465.0         0.37          4.6 
       466.0         0.33          4.5 
       467.0         0.27          4.6 
       468.0         0.27          4.7 
       469.0         0.42          4.5 
       470.0         0.33          4.3 
       471.0         0.33          4.3 
       472.0         0.30          4.4 
       473.0         0.27          4.4 
       474.0         0.30          4.7 
       475.0         0.27          4.9 
       476.0         0.83          4.8 
       477.0         0.27          4.6 
       478.0         0.33          4.5 
       479.0         0.22          4.5 
       480.0         0.23          4.4 
       481.0         0.17          4.3 
       482.0         0.13          4.9 
       483.0         0.17          4.6 
       484.0         0.17          4.8 
       485.0         0.20          4.7 
       486.0         0.23          4.9 
       487.0         0.23          4.7 
       488.0         0.23          4.9 
       489.0         0.23          4.7 
       490.0         0.23          4.8 
       491.0         0.20          4.8 
       492.0         0.23          5.3 
       493.0         0.27          4.7 
       494.0         0.32          4.6 
       495.0         0.27          4.5 
       496.0         0.23          4.5 
       497.0         0.17          4.7 
       498.0         0.23          4.9 
       499.0         0.20          4.7 
       500.0         0.13          4.8 
       501.0         0.17          4.8 
       502.0         0.17          4.8 
       503.0         0.23          5.1 
       504.0         0.30          5.1 
       505.0         0.20          5.0 
       506.0         0.67          5.0 
       507.0         0.27          5.1 
       508.0         0.35          4.8 
       509.0         0.17          5.0 
       510.0         0.13          5.0 
       511.0         0.20          5.0 
       512.0         0.30          5.2 
       513.0         0.30          4.7 
       514.0         0.27          4.9 
       515.0         0.27          4.9 
       516.0         0.27          4.6 
       517.0         0.27          5.1 
       518.0         0.20          5.3 
       519.0         0.13          4.8 
       520.0         0.20          5.4 
       521.0         0.32          5.0 
       522.0         0.27          4.9 
       523.0         0.30          5.3 
       524.0         0.30          5.1 
       525.0         0.27          4.4 
       526.0         0.20          4.4 
       527.0         0.17          4.9 
       528.0         0.17          4.4 
       529.0         0.17          5.0 
       530.0         0.23          5.1 
       531.0         0.17          4.7 
       532.0         0.30          5.1 
       533.0         0.17          4.7 
       534.0         0.20          5.3 
       535.0         0.27          4.9 
       536.0         0.75          5.4 
       537.0         0.33          5.3 
       538.0         0.40          5.1 
       539.0         0.33          5.1 
       540.0         0.30          5.1 
       541.0         0.27          5.0 
       542.0         0.23          5.1 
       543.0         0.27          5.2 
       544.0         0.30          5.1 
       545.0         0.62          4.8 
       546.0         0.30          4.9 
       547.0         0.30          4.8 
       548.0         0.33          4.8 
       549.0         0.33          4.8 
       550.0         0.33          4.7 
       551.0         0.30          4.5 
       552.0         0.38          4.6 
       553.0         0.33          4.2 
       554.0         0.27          4.3 
       555.0         0.30          4.4 
       556.0         0.20          4.3 
       557.0         0.13          4.3 
       558.0         0.07          4.0 
       559.0         0.13          4.0 
       560.0         0.23          4.2 
       561.0         0.30          4.2 
       562.0         1.65          4.2 
       563.0         0.17          3.6 
       564.0         0.47          3.6 
       565.0         0.47          3.6 
       566.0         3.02          3.5 
       567.0         0.10          2.9 
       568.0         0.13          3.1 
       569.0         0.10          2.7 
       570.0         0.13          2.8 
       571.0         0.10          2.7 
       572.0         0.10          3.1 
       573.0         0.07          2.6 
       574.0         0.13          2.9 
       575.0         0.13          3.2 
       576.0         0.13          3.3 
       577.0         0.10          3.0 
       578.0         0.08          2.8 
       579.0         0.03          2.5 
       580.0         0.03          2.8 
       581.0         0.13          2.8 
       582.0         0.13          3.0 
       583.0         0.13          2.8 
       584.0         0.17          2.8 
