~Version Information
VERS.                      2.0: CWLS Log ASCII Standard - VERSION 2.0
WRAP.                       NO: One line per depth step
~Well Information Block
STRT.FT                10.0000: 
STOP.FT              1044.5000: 
STEP.FT                 0.1000: 
NULL.                -999.2500: 
COMP.          Pioneer Natural Resources: COMPANY
WELL.          Stags Leap 13-30: WELL
FLD.           Purgatorie River: FIELD
LOC.           1813' FSL & 117' FWL: LOCATION
PROV.                 Colorado: PROVINCE
CNTY.               Las Animas: COUNTRY
SRVC.                Patterson: SERVICE COMPANY
DATE.          Fri Dec 09 09:46:17 2005: LOG DATE
UWI.                          : UNIQUE WELL ID
~Curve Information Block
DEPT.FT            0 000 00 00: Depth
DCAL.in                       : CDL Caliper
RHOB.g/cc                     : CDL Bulk Density
RHOC.g/cc                     : CDL Density Correction
DPOR.pu                       : CDL Density Porosity
GR.GAPI                       : Gamma Ray
NPOR.pu                       : Neutron Porosity
~Parameter Information Block
~A  Depth       DCAL        RHOB        RHOC        DPOR         GR         NPOR    
# ...
   346.0000      8.1637      2.0136      0.2349     38.5721    138.3647     16.5059
   346.1000      8.1637      2.1514      0.3049     30.2208    136.5266     18.0453
   346.2000      8.1637      2.2779      0.2630     22.5544    136.6227     19.8453
   346.3000      8.1944      2.3815      0.2802     16.2730    139.1229     21.8339
   346.4000      8.1944      2.4537      0.2398     11.8966    140.1594     23.7576
   346.5000      8.2325      2.4975      0.1348      9.2407    138.9431     25.4336
   346.6000      8.2325      2.5240      0.0583      7.6340    137.5921     26.7859
   346.7000      8.2325      2.5423      0.0453      6.5259    135.6277     27.8220
   346.8000      8.1879      2.5551      0.0218      5.7503    135.9389     28.6549
   346.9000      8.1879      2.5618      0.0334      5.3427    142.0880     29.3080
   347.0000      8.1228      2.5652      0.0296      5.1364    150.2840     29.7382
   347.1000      8.1228      2.5702      0.0375      4.8356    155.2722     29.8877
   347.2000      8.1228      2.5801     -0.0057      4.2357    155.5369     29.7690
   347.3000      8.0860      2.5929      0.0378      3.4621    151.6428     29.5962
   347.4000      8.0860      2.5966      0.0557      3.2373    145.7884     29.3644
   347.5000      8.0562      2.5849     -0.0180      3.9469    141.0268     28.9107
   347.6000      8.0562      2.5734      0.0048      4.6422    139.2827     28.5625
   347.7000      8.0562      2.5769      0.0002      4.4310    141.7182     28.4998
   347.8000      8.0088      2.5878      0.0262      3.7705    147.2753     28.2529
   347.9000      8.0088      2.5904      0.0124      3.6110    150.1894     27.7418
   348.0000      8.0176      2.5785     -0.0060      4.3311    147.2501     27.3953
   348.1000      8.0176      2.5567      0.0103      5.6550    143.3359     27.1933
   348.2000      8.0176      2.5333      0.0107      7.0736    143.6942     26.8178
   348.3000      8.0343      2.5170      0.0181      8.0594    149.2692     26.2777
   348.4000      8.0343      2.5178     -0.0124      8.0136    156.2038     25.8863
   348.5000      8.0527      2.5349      0.0642      6.9777    160.5574     25.6595
   348.6000      8.0527      2.5520      0.0871      5.9405    163.0743     25.4592
   348.7000      8.0527      2.5618      0.1178      5.3478    164.6891     25.4280
   348.8000      8.0962      2.5707      0.1037      4.8033    165.5677     25.6411
   348.9000      8.0962      2.5793      0.1179      4.2841    167.0339     25.9070
   349.0000      8.1461      2.5796      0.1384      4.2654    169.9715     26.0084
   349.1000      8.1461      2.5750      0.0488      4.5476    172.9751     25.9666
   349.2000      8.1461      2.5699      0.1058      4.8547    173.7738     26.0953
   349.3000      8.0853      2.5543      0.0610      5.8023    171.6800     26.4563
   349.4000      8.0853      2.5332      0.0146      7.0789    169.3191     26.8523
   349.5000      8.0754      2.5195      0.0905      7.9078    169.1685     27.1324
   349.6000      8.0754      2.5121      0.0247      8.3552    170.5733     27.2305
   349.7000      8.0754      2.5115      0.0353      8.3949    170.6591     27.2095
   349.8000      8.1048      2.5078      0.0795      8.6191    169.0557     26.9333
   349.9000      8.1048      2.4897      0.0747      9.7151    168.8976     26.3430
   350.0000      8.1545      2.4707      0.0727     10.8687    171.1301     25.7739
   350.1000      8.1545      2.4650      0.1268     11.2098    172.4569     25.4419
   350.2000      8.1545      2.4666      0.1512     11.1160    170.2848     25.3018
   350.3000      8.1756      2.4687      0.1561     10.9877    167.6295     25.2545
   350.4000      8.1756      2.4751      0.1691     10.6004    167.9256     25.0982
   350.5000      8.2151      2.4864      0.2093      9.9171    169.8750     24.6035
   350.6000      8.2151      2.5003      0.2203      9.0735    171.7205     23.8882
   350.7000      8.2151      2.5248      0.1856      7.5909    173.1165     23.4463
   350.8000      8.1988      2.5631      0.2120      5.2656    172.2555     23.4840
   350.9000      8.1988      2.5994      0.2223      3.0673    168.5610     23.6811
   351.0000      8.2558      2.6211      0.2219      1.7534    166.0800     23.8186
   351.1000      8.2558      2.6299      0.1992      1.2177    167.3396     24.0507
   351.2000      8.2558      2.6236      0.2326      1.5996    169.4460     24.4044
   351.3000      8.1658      2.6053      0.1327      2.7115    167.9298     24.6231
   351.4000      8.1658      2.5935      0.1812      3.4216    162.2115     24.7964
   351.5000      8.0590      2.5903      0.1344      3.6170    157.0217     25.1906
   351.6000      8.0590      2.5800      0.1238      4.2411    152.3243     25.5407
   351.7000      8.0590      2.5577      0.0168      5.5934    144.2308     25.6118
   351.8000      8.0872      2.5337      0.0407      7.0470    135.1681     25.6162
   351.9000      8.0872      2.5149     -0.0006      8.1889    129.2168     25.6498
   352.0000      8.0913      2.4973      0.0483      9.2535    125.6809     25.5068
   352.1000      8.0913      2.4770     -0.0220     10.4843    121.1468     24.9689
   352.2000      8.0913      2.4609     -0.0052     11.4609    114.5090     24.1268
   352.3000      8.1044      2.4512      0.0111     12.0480    107.5948     23.3158
   352.4000      8.1044      2.4398      0.0252     12.7396    103.0201     22.6909
   352.5000      8.0818      2.4314     -0.0634     13.2504    101.2665     22.1207
   352.6000      8.0818      2.4372      0.0237     12.8974     99.0362     21.5305
   352.7000      8.0818      2.4501      0.0358     12.1142     94.3119     20.7249
   352.8000      8.0898      2.4586      0.0599     11.5975     90.4627     19.7322
   352.9000      8.0898      2.4620      0.0546     11.3952     89.4707     19.1093
   353.0000      8.0857      2.4597      0.0595     11.5339     89.0656     18.9653
   353.1000      8.0857      2.4465      0.0615     12.3352     86.5475     19.0764
   353.2000      8.0857      2.4278      0.0117     13.4651     82.4462     19.5249
   353.3000      8.0614      2.4212      0.0078     13.8638     80.7076     20.1420
   353.4000      8.0614      2.4328      0.0307     13.1663     81.4949     20.5086
   353.5000      8.0473      2.4532      0.0430     11.9256     80.6797     20.6822
   353.6000      8.0473      2.4765      0.0313     10.5127     78.6156     21.0847
   353.7000      8.0473      2.4998      0.0502      9.1012     79.2945     21.7476
   353.8000      8.0362      2.5207      0.0484      7.8363     81.3822     22.2922
   353.9000      8.0362      2.5431      0.0520      6.4810     82.3605     22.5761
   354.0000      7.9808      2.5657      0.1051      5.1103     84.0597     22.7361
   354.1000      7.9808      2.5813      0.1196      4.1655     86.6456     22.8149
   354.2000      7.9808      2.5971      0.0814      3.2047     87.4002     22.7855
   354.3000      7.9524      2.6212      0.1415      1.7465     86.6237     22.6938
   354.4000      7.9524      2.6429      0.1081      0.4291     87.3582     22.5294
   354.5000      7.9651      2.6542      0.1062     -0.2570     89.9663     22.2762
   354.6000      7.9651      2.6570      0.1052     -0.4267     92.0886     22.0376
   354.7000      7.9651      2.6576      0.0970     -0.4610     93.9352     21.8538
   354.8000      7.9462      2.6611      0.1190     -0.6713     97.4169     21.7300
   354.9000      7.9462      2.6602      0.1352     -0.6184    100.8001     21.8664
   355.0000      7.9306      2.6468      0.0961      0.1963    102.0027     22.3694
   355.1000      7.9306      2.6309      0.0538      1.1567    103.0915     22.8155
   355.2000      7.9306      2.6183      0.0914      1.9208    106.9335     22.9669
   355.3000      7.9247      2.5951      0.0674      3.3293    116.0552     23.1516
   355.4000      7.9247      2.5588      0.0315      5.5277    129.2321     23.4059
   355.5000      8.0285      2.5318     -0.0244      7.1645    140.1187     23.5824
