~Version Information
VERS.                      2.0: CWLS Log ASCII Standard - VERSION 2.0
WRAP.                       NO: One line per depth step
~Well Information Block
STRT.FT               245.0000: 
STOP.FT              1102.5000: 
STEP.FT                 0.1000: 
NULL.                -999.2500: 
COMP.          Pioneer Natural Resources: COMPANY
WELL.           Pavilion 44-25: WELL
FLD.           Purgatoire River: FIELD
LOC.           719' FSL & 650' FEL: LOCATION
PROV.                 Colorado: PROVINCE
CNTY.               Las Animas: COUNTRY
SRVC.                Patterson: SERVICE COMPANY
DATE.          Wed Dec 14 09:57:07 2005: LOG DATE
UWI.           05 071 08624 00: UNIQUE WELL ID
~Curve Information Block
DEPT.FT            0 000 00 00: Depth
DCAL.in                       : CDL Caliper
RHOB.g/cc                     : CDL Bulk Density
RHOC.g/cc                     : CDL Density Correction
DPOR.pu                       : CDL Density Porosity
GR.GAPI                       : Gamma Ray
NPOR.pu                       : Neutron Porosity
~Parameter Information Block
~A  Depth       DCAL        RHOB        RHOC        DPOR         GR         NPOR    
# ...
   465.8000      8.0265      2.2269      0.0480     25.6396    123.9579     21.9010
   465.9000      8.0265      2.2088      0.0321     26.7393    123.0283     21.5305
   466.0000      8.0248      2.1464      0.0272     30.5207    124.7316     21.6540
   466.1000      8.0248      2.0522     -0.0570     36.2305    123.8548     22.8830
   466.2000      8.0248      1.9616     -0.0677     41.7185    121.6356     24.7606
   466.3000      8.0246      1.9037     -0.0778     45.2318    124.1230     25.8930
   466.4000      8.0246      1.8840     -0.1271     46.4216    129.2639     25.7903
   466.5000      8.0255      1.8945     -0.1033     45.7896    133.8880     25.5359
   466.6000      8.0255      1.9313     -0.0954     43.5558    138.5730     26.2047
   466.7000      8.0255      2.0048     -0.0315     39.1054    141.3710     27.9117
   466.8000      8.0295      2.1177      0.1341     32.2591    141.4471     29.6747
   466.9000      8.0295      2.2478      0.2798     24.3729    142.2155     30.1630
   467.0000      8.0285      2.3669      0.3143     17.1560    145.0238     29.6470
   467.1000      8.0285      2.4581      0.2925     11.6331    148.8315     29.4463
   467.2000      8.0285      2.5097      0.2527      8.5014    152.6769     29.7034
   467.3000      8.0259      2.5231      0.1153      7.6891    154.6621     29.4769
   467.4000      8.0259      2.5136      0.0755      8.2650    152.4051     28.5567
   467.5000      8.0215      2.4933      0.0394      9.4955    147.9628     27.5985
   467.6000      8.0215      2.4781     -0.0334     10.4178    143.8479     26.7601
   467.7000      8.0215      2.4784      0.0205     10.4003    137.7977     25.8077
   467.8000      8.0211      2.4813      0.0286     10.2248    130.5301     25.1660
   467.9000      8.0211      2.4816      0.0179     10.2042    127.1453     24.8871
   468.0000      8.0224      2.4880      0.0348      9.8184    126.7280     24.1986
   468.1000      8.0224      2.4971      0.0575      9.2662    125.7099     23.2395
   468.2000      8.0224      2.4977      0.0346      9.2320    126.1297     22.6398
   468.3000      8.0220      2.4884      0.0047      9.7937    127.2017     22.3522
   468.4000      8.0220      2.4808     -0.0229     10.2555    124.4531     22.3728
   468.5000      8.0181      2.4844     -0.0089     10.0360    119.2884     22.7183
   468.6000      8.0181      2.4913      0.0183      9.6160    114.0095     23.0075
   468.7000      8.0181      2.4948      0.0106      9.4078    108.5237     23.1290
   468.8000      8.0210      2.4988      0.0250      9.1617    105.4084     23.5931
   468.9000      8.0210      2.4980      0.0591      9.2144    107.4424     24.7751
   469.0000      8.0197      2.4927     -0.0201      9.5330    112.1347     26.0238
   469.1000      8.0197      2.4999     -0.0098      9.0968    115.2266     26.5988
   469.2000      8.0197      2.5189      0.0493      7.9454    116.9761     26.7061
   469.3000      8.0206      2.5332      0.0398      7.0810    120.2566     26.5671
   469.4000      8.0206      2.5386      0.0228      6.7540    124.7843     26.0082
   469.5000      8.0221      2.5401      0.0140      6.6634    126.3041     25.2856
   469.6000      8.0221      2.5409      0.0299      6.6150    124.6604     24.8436
   469.7000      8.0221      2.5420      0.0225      6.5457    125.1335     24.7363
   469.8000      8.0206      2.5447      0.0117      6.3834    127.0879     24.9789
   469.9000      8.0206      2.5457      0.0568      6.3236    129.0737     25.4822
   470.0000      8.0219      2.5373      0.0535      6.8295    133.2721     25.9637
   470.1000      8.0219      2.5247      0.0047      7.5927    138.9218     26.5028
   470.2000      8.0219      2.5164      0.0222      8.0942    145.3099     27.3053
   470.3000      8.0243      2.5164     -0.0194      8.0993    151.8931     27.8736
   470.4000      8.0243      2.5284      0.0407      7.3700    155.4889     27.7790
   470.5000      8.0224      2.5446      0.0298      6.3857    154.7932     27.5132
   470.6000      8.0224      2.5559      0.0697      5.7028    157.0606     27.4343
   470.7000      8.0224      2.5600      0.0677      5.4573    170.0118     27.6563
   470.8000      8.0244      2.5632      0.0468      5.2628    190.4457     28.0262
   470.9000      8.0244      2.5675      0.1020      4.9988    205.2033     28.1169
   471.0000      8.0275      2.5592      0.0856      5.5038    203.2607     27.9170
   471.1000      8.0275      2.5396      0.0504      6.6939    190.9818     27.8365
   471.2000      8.0275      2.5299      0.0572      7.2817    182.2328     27.9647
   471.3000      8.0233      2.5437      0.0368      6.4433    176.0817     27.7810
   471.4000      8.0233      2.5758      0.0906      4.4966    166.2576     27.2379
   471.5000      8.0234      2.6072      0.1049      2.5960    157.7892     27.0646
   471.6000      8.0234      2.6279      0.0917      1.3416    156.9413     27.4156
   471.7000      8.0234      2.6329      0.1233      1.0353    160.3023     27.7422
   471.8000      8.0249      2.6077      0.1094      2.5623    162.0779     27.5661
   471.9000      8.0249      2.5517      0.0488      5.9600    162.8620     26.8601
   472.0000      8.0280      2.4976     -0.0229      9.2380    167.6918     26.1571
   472.1000      8.0280      2.4801     -0.0164     10.2965    178.4230     26.3059
   472.2000      8.0280      2.4931      0.0175      9.5093    186.6722     27.4116
   472.3000      8.0251      2.5078     -0.0022      8.6161    183.2779     28.4617
   472.4000      8.0251      2.5211     -0.0072      7.8122    173.0376     28.8261
   472.5000      8.0249      2.5402      0.0751      6.6576    167.7208     28.6387
   472.6000      8.0249      2.5533      0.1115      5.8619    169.2619     27.9896
   472.7000      8.0249      2.5559      0.0835      5.7028    171.4897     27.1216
   472.8000      8.0263      2.5631      0.1004      5.2669    172.0756     26.5918
   472.9000      8.0263      2.5773      0.1371      4.4036    171.5312     26.6029
   473.0000      8.0349      2.5794      0.1285      4.2808    173.2471     26.7521
   473.1000      8.0349      2.5641      0.0736      5.2081    180.6642     26.7924
   473.2000      8.0349      2.5475      0.0457      6.2146    188.8886     26.9767
   473.3000      8.0248      2.5343      0.0482      7.0146    188.8984     27.2498
   473.4000      8.0248      2.5218      0.0401      7.7725    181.3156     27.3682
   473.5000      8.0252      2.5112      0.0437      8.4119    177.5434     27.5767
   473.6000      8.0252      2.5018      0.0121      8.9800    182.2936     28.0572
   473.7000      8.0252      2.4922      0.0528      9.5631    184.6713     28.4106
   473.8000      8.0264      2.4871      0.0132      9.8756    177.8139     28.4876
   473.9000      8.0264      2.5016      0.0306      8.9929    169.7259     28.4326
   474.0000      8.0304      2.5332      0.0930      7.0814    170.2790     28.2605
   474.1000      8.0304      2.5526      0.0897      5.9002    175.9616     28.0264
   474.2000      8.0304      2.5510      0.0423      6.0019    180.1713     27.9032
   474.3000      8.0251      2.5479      0.0393      6.1870    181.4033     28.1160
   474.4000      8.0251      2.5535      0.0434      5.8489    179.0020     28.2048
   474.5000      8.0219      2.5593      0.0612      5.4991    175.1278     27.6421
   474.6000      8.0219      2.5578      0.0868      5.5891    169.9763     27.2748
   474.7000      8.0219      2.5527      0.0635      5.8952    162.1761     27.4597
   474.8000      8.0181      2.5479      0.0594      6.1880    156.3359     27.2619
   474.9000      8.0181      2.5314      0.0441      7.1859    156.6446     26.6167
   475.0000      8.0170      2.4982     -0.0394      9.2014    160.1823     26.2125
   475.1000      8.0170      2.4688     -0.0551     10.9836    163.0292     26.1554
   475.2000      8.0170      2.4612     -0.0544     11.4430    162.1774     26.4330
   475.3000      8.0168      2.4709     -0.0471     10.8530    155.8105     26.9347
