~Version Information
VERS.                      2.0: CWLS Log ASCII Standard - VERSION 2.0
WRAP.                       NO: One line per depth step
~Well Information Block
STRT.FT               370.0000: 
STOP.FT              1282.5000: 
STEP.FT                 0.1000: 
NULL.                -999.2500: 
COMP.          Pioneer Natural Resources: COMPANY
WELL.          Irish Eyes 33-21: WELL
FLD.           Purgatoire River: FIELD
LOC.           1379' FSL & 2544' FEL: LOCATION
PROV.                 Colorado: PROVINCE
CNTY.               Las Animas: COUNTRY
SRVC.                Patterson: SERVICE COMPANY
DATE.          Mon Jan 16 13:31:01 2006: LOG DATE
UWI.           05 071 08658 00: UNIQUE WELL ID
~Curve Information Block
DEPT.FT            0 000 00 00: Depth
DCAL.in                       : CDL Caliper
RHOB.g/cc                     : CDL Bulk Density
RHOC.g/cc                     : CDL Density Correction
DPOR.pu                       : CDL Density Porosity
GR.GAPI                       : Gamma Ray
NPOR.pu                       : Neutron Porosity
~Parameter Information Block
~A  Depth       DCAL        RHOB        RHOC        DPOR         GR         NPOR    
# ...
   667.6000      8.0525      2.5730      0.0342      4.6677    141.4262     24.8692
   667.7000      8.0525      2.5668      0.0075      5.0419    142.4826     25.0636
   667.8000      8.0431      2.5740     -0.0144      4.6049    144.9523     26.6805
   667.9000      8.0431      2.5749      0.0729      4.5542    147.5162     28.3742
   668.0000      8.0578      2.5537      0.0154      5.8376    147.1028     28.4546
   668.1000      8.0578      2.5319     -0.0120      7.1564    144.9936     26.1845
   668.2000      8.0578      2.5302      0.0032      7.2624    145.3385     22.4226
   668.3000      8.0532      2.5408     -0.0100      6.6161    145.6379     20.6302
   668.4000      8.0532      2.5502     -0.0090      6.0478    142.1617     21.6615
   668.5000      8.0428      2.5477      0.0172      6.1994    137.9801     21.9622
   668.6000      8.0428      2.5293     -0.0061      7.3166    137.7876     22.2013
   668.7000      8.0428      2.5048      0.0013      8.7971    140.7266     24.9774
   668.8000      8.0573      2.4907     -0.0444      9.6542    144.9160     28.2783
   668.9000      8.0573      2.5008     -0.0497      9.0425    146.3643     30.1002
   669.0000      8.0308      2.5320     -0.0019      7.1541    141.0823     29.8950
   669.1000      8.0308      2.5684      0.0302      4.9473    135.3795     29.0464
   669.2000      8.0308      2.6045      0.0528      2.7570    134.8355     28.4232
   669.3000      8.0387      2.6409      0.0226      0.5516    134.6566     27.5265
   669.4000      8.0387      2.6696      0.0179     -1.1869    130.4707     26.3382
   669.5000      8.0342      2.6912      0.0390     -2.4953    126.9610     25.7843
   669.6000      8.0342      2.7209      0.0139     -4.2983    128.1047     26.2276
   669.7000      8.0342      2.7457      0.1113     -5.7987    131.7667     27.2930
   669.8000      8.0314      2.7350      0.0656     -5.1507    138.3332     28.6378
   669.9000      8.0314      2.6960      0.0067     -2.7882    147.9034     29.2681
   670.0000      8.0432      2.6490     -0.0676      0.0614    153.2096     28.4174
   670.1000      8.0432      2.5926     -0.1008      3.4812    146.0708     27.1754
   670.2000      8.0432      2.5310     -0.1763      7.2098    133.5413     26.7563
   670.3000      8.0493      2.4873     -0.1119      9.8606    132.0936     27.2990
   670.4000      8.0493      2.4739     -0.0573     10.6700    142.7168     27.8270
   670.5000      8.0460      2.4886     -0.0810      9.7820    152.9698     26.8379
   670.6000      8.0460      2.5275      0.0025      7.4241    156.5587     24.7844
   670.7000      8.0460      2.5801      0.0595      4.2372    153.7336     24.2586
   670.8000      8.0871      2.6154      0.1599      2.0942    145.0070     25.3225
   670.9000      8.0871      2.6081      0.0619      2.5414    135.8880     25.4086
   671.0000      8.1164      2.5778      0.0495      4.3752    132.4149     24.3807
   671.1000      8.1164      2.5578      0.0472      5.5909    133.4198     24.1279
   671.2000      8.1164      2.5570      0.0069      5.6370    133.0109     25.2715
   671.3000      8.0871      2.5673      0.0211      5.0105    123.1117     26.8401
   671.4000      8.0871      2.5766      0.0432      4.4484    106.0034     27.6441
   671.5000      8.0746      2.5822      0.0213      4.1092     95.0596     26.3172
   671.6000      8.0746      2.5880      0.0758      3.7597     94.8710     21.5477
   671.7000      8.0746      2.5893      0.0680      3.6770     97.9119     13.3043
   671.8000      8.1200      2.5830      0.0344      4.0627     98.4375     12.2393
   671.9000      8.1200      2.5835     -0.0146      4.0324     96.8270     19.6345
   672.0000      8.0375      2.6021      0.0335      2.9011     94.3514     23.9229
   672.1000      8.0375      2.6215      0.0598      1.7246     93.3045     23.4747
   672.2000      8.0375      2.6259      0.0499      1.4627     96.1113     19.5310
   672.3000      8.0401      2.6186      0.0297      1.9050     98.9011     15.1770
   672.4000      8.0401      2.6041      0.0207      2.7823     96.9093     14.6626
   672.5000      8.0298      2.5842      0.0132      3.9859     93.6285     16.7048
   672.6000      8.0298      2.5689     -0.0812      4.9122     93.5468     17.6176
   672.7000      8.0298      2.5680      0.0032      4.9701     95.5508     18.9484
   672.8000      8.0278      2.5672      0.0336      5.0203     97.3959     22.3491
   672.9000      8.0278      2.5534      0.0117      5.8535     99.9116     23.9179
   673.0000      8.0322      2.5364     -0.0213      6.8854    105.1624     21.9725
   673.1000      8.0322      2.5229      0.0307      7.7049    111.7526     19.7163
   673.2000      8.0322      2.5166     -0.0369      8.0871    114.8113     21.8835
   673.3000      8.0358      2.5273      0.0066      7.4347    112.0374     25.0299
   673.4000      8.0358      2.5456      0.0422      6.3294    108.2285     26.3210
   673.5000      8.0305      2.5564      0.0284      5.6722    109.9254     25.6459
   673.6000      8.0305      2.5623      0.0726      5.3137    117.4532     22.9050
   673.7000      8.0305      2.5614      0.1047      5.3685    124.9212     19.5673
   673.8000      8.0347      2.5481      0.0606      6.1768    124.2286     19.6536
   673.9000      8.0347      2.5320      0.0234      7.1489    117.0103     21.9512
   674.0000      8.0307      2.5247      0.0491      7.5959    112.1375     22.4581
   674.1000      8.0307      2.5211      0.0416      7.8139    109.4215     19.8085
   674.2000      8.0307      2.5129      0.0419      8.3088    103.7681     14.3855
   674.3000      8.0330      2.4974      0.0442      9.2471     94.3183      7.8148
   674.4000      8.0330      2.4726      0.0541     10.7514     82.5612      3.7229
   674.5000      8.0483      2.4523     -0.0265     11.9823     72.9415      9.3834
   674.6000      8.0483      2.4611     -0.0355     11.4463     72.4307     19.6034
   674.7000      8.0483      2.4941      0.0450      9.4465     79.1096     24.6191
   674.8000      8.0237      2.5180      0.0442      8.0002     80.6161     25.2187
   674.9000      8.0237      2.5155      0.0704      8.1494     72.3099     24.1610
   675.0000      8.0272      2.4964      0.0646      9.3107     64.4494     23.9642
   675.1000      8.0272      2.4776      0.0285     10.4514     64.0392     24.1325
   675.2000      8.0272      2.4720      0.0154     10.7908     67.2251     22.5395
   675.3000      8.0212      2.4823      0.0232     10.1641     69.7773     19.5999
   675.4000      8.0212      2.4946      0.0924      9.4196     71.0849     19.7412
   675.5000      8.0276      2.4896      0.0651      9.7219     71.2508     22.2765
   675.6000      8.0276      2.4738     -0.0115     10.6806     69.0047     21.8474
   675.7000      8.0276      2.4676      0.0079     11.0551     64.8130     15.1913
   675.8000      8.0342      2.4691      0.0290     10.9662     61.6263      5.3513
   675.9000      8.0342      2.4691      0.0122     10.9654     60.5933      8.5062
   676.0000      8.0361      2.4674      0.0090     11.0652     60.3081     18.8398
   676.1000      8.0361      2.4614      0.0097     11.4324     59.0126     23.2016
   676.2000      8.0361      2.4548      0.0107     11.8273     57.7051     21.9591
   676.3000      8.0484      2.4608     -0.0162     11.4682     58.9178     17.8633
   676.4000      8.0484      2.4722      0.0723     10.7775     60.7824     17.6498
   676.5000      8.0521      2.4712      0.0053     10.8337     61.4918     21.7869
   676.6000      8.0521      2.4662      0.0224     11.1375     64.4777     24.0857
   676.7000      8.0521      2.4678      0.0269     11.0407     71.5129     22.7020
   676.8000      8.0497      2.4682      0.0172     11.0197     78.2701     19.0832
   676.9000      8.0497      2.4640      0.0319     11.2754     77.6194     18.5474
   677.0000      8.0594      2.4629     -0.0001     11.3417     70.3226     20.7995
   677.1000      8.0594      2.4776      0.0135     10.4504     66.1076     21.5884
