~Version Information
VERS.                      2.0: CWLS Log ASCII Standard - VERSION 2.0
WRAP.                       NO: One line per depth step
~Well Information Block
STRT.FT               645.0000: 
STOP.FT              1320.0000: 
STEP.FT                 0.1000: 
NULL.                -999.2500: 
COMP.          Pioneer Natural Resources: COMPANY
WELL.          Rockfish 11-30 Tr: WELL
FLD.           Purgatoire River: FIELD
LOC.           1063' FNL & 1068' FWL: LOCATION
STAT.                 Colorado: State
CNTY.               Las Animas: COUNTY
CTRY. USA : Country
SECT. 30 : Section
TOWN. 32S : Township
RANG. 65W : Range
SRVC.                Patterson: SERVICE COMPANY
DATE.          Wed Nov 16 07:46:07 2005: LOG DATE
API.           05 071 08585 00: UNIQUE WELL ID
~Curve Information Block
DEPT.FT            0 000 00 00: Depth
DCAL.in                       : CDL Caliper
RHOB.g/cc                     : CDL Bulk Density
RHOC.g/cc                     : CDL Density Correction
DPOR.pu                       : CDL Density Porosity
GR.GAPI                       : Gamma Ray
NPOR.pu                       : Neutron Porosity
~Parameter Information Block
~A  Depth       DCAL        RHOB        RHOC        DPOR         GR         NPOR    
# ...
  1259.4000      7.8147      2.5728      0.0786      4.6764    182.7097     25.1741
  1259.5000      7.8317      2.5601      0.0720      5.4506    185.1360     24.9471
  1259.6000      7.8317      2.5732      0.0857      4.6528    178.6556     24.3785
  1259.7000      7.8317      2.5988      0.0510      3.1002    172.8674     23.7180
  1259.8000      7.8578      2.6179      0.0946      1.9476    171.0186     23.1326
  1259.9000      7.8578      2.6146      0.0886      2.1426    171.1721     22.8544
  1260.0000      7.8514      2.5958      0.0760      3.2856    170.9755     23.0779
  1260.1000      7.8514      2.5800      0.0887      4.2444    166.2769     23.3823
  1260.2000      7.8514      2.5777      0.1192      4.3811    161.6665     23.3580
  1260.3000      7.8810      2.5874      0.1309      3.7922    163.0139     23.2389
  1260.4000      7.8810      2.5948      0.1640      3.3433    168.1318     23.0461
  1260.5000      7.8632      2.5871      0.1549      3.8104    171.7731     22.6277
  1260.6000      7.8632      2.5655      0.1368      5.1195    169.2662     22.5211
  1260.7000      7.8632      2.5363      0.0947      6.8932    163.4090     22.8549
  1260.8000      7.8989      2.5072      0.0768      8.6521    159.4871     23.0065
  1260.9000      7.8989      2.4849      0.0657     10.0062    156.4218     22.9676
  1261.0000      7.9402      2.4686      0.0920     10.9957    153.6696     23.2236
  1261.1000      7.9402      2.4607      0.0515     11.4747    153.1640     23.4940
  1261.2000      7.9402      2.4670      0.0732     11.0913    155.7292     23.1309
  1261.3000      7.9127      2.4756      0.1049     10.5710    159.3445     22.3383
  1261.4000      7.9127      2.4731      0.1018     10.7209    161.5748     21.9809
  1261.5000      7.9036      2.4684      0.0926     11.0077    164.6070     22.5033
  1261.6000      7.9036      2.4674      0.1451     11.0653    169.1178     23.4389
  1261.7000      7.9036      2.4651      0.0933     11.2061    169.0022     23.9969
  1261.8000      7.9543      2.4642      0.1385     11.2587    161.6057     24.0091
  1261.9000      7.9543      2.4729      0.1277     10.7363    151.5849     23.8839
  1262.0000      7.9926      2.4977      0.1294      9.2291    144.2149     23.9056
  1262.1000      7.9926      2.5357      0.1406      6.9256    143.6439     24.1663
  1262.2000      7.9926      2.5738      0.1596      4.6198    149.7009     24.3230
  1262.3000      8.0010      2.6002      0.2092      3.0173    154.5510     24.2101
  1262.4000      8.0010      2.6057      0.2115      2.6850    152.7200     24.3766
  1262.5000      7.9888      2.5951      0.1995      3.3252    150.2740     24.9463
  1262.6000      7.9888      2.5955      0.1322      3.3026    150.6572     25.5998
  1262.7000      7.9888      2.6183      0.1838      1.9231    150.2591     26.1941
  1262.8000      7.9608      2.6381      0.1802      0.7214    149.2679     26.4253
  1262.9000      7.9608      2.6373      0.1354      0.7696    149.7406     25.9491
  1263.0000      7.8501      2.6242      0.1228      1.5636    151.6087     25.0298
  1263.1000      7.8501      2.6070      0.1252      2.6063    151.5088     24.5145
  1263.2000      7.8501      2.5879      0.1349      3.7642    144.9473     24.9229
  1263.3000      7.8750      2.5800      0.0243      4.2410    134.4201     25.7040
  1263.4000      7.8750      2.5974      0.1146      3.1892    125.4515     26.2029
  1263.5000      7.8930      2.6193      0.1469      1.8580    120.3236     26.4330
  1263.6000      7.8930      2.6206      0.1139      1.7831    117.9830     26.2965
  1263.7000      7.8930      2.6119      0.1106      2.3081    116.1041     25.8255
  1263.8000      7.8644      2.6121      0.1189      2.2973    116.0071     25.4633
  1263.9000      7.8644      2.6181      0.1541      1.9342    117.7651     25.1947
  1264.0000      7.8383      2.6205      0.0955      1.7859    118.6622     24.7763
  1264.1000      7.8383      2.6258      0.1000      1.4690    117.3661     24.3091
  1264.2000      7.8383      2.6391      0.1061      0.6593    114.4915     23.9912
  1264.3000      7.8226      2.6512      0.1252     -0.0710    110.9616     23.7232
  1264.4000      7.8226      2.6506      0.1065     -0.0393    104.6961     23.3663
  1264.5000      7.8238      2.6348      0.0974      0.9208     97.8150     23.0556
  1264.6000      7.8238      2.6083      0.1076      2.5292     98.0497     22.8143
  1264.7000      7.8238      2.5780      0.1193      4.3636    103.4174     22.8269
  1264.8000      7.8192      2.5608      0.0304      5.4044    105.3372     23.1432
  1264.9000      7.8192      2.5715      0.0869      4.7575    104.1908     23.0697
  1265.0000      7.7984      2.5970      0.1395      3.2106    104.8709     22.2204
  1265.1000      7.7984      2.6175      0.1120      1.9668    108.5092     21.2539
  1265.2000      7.7984      2.6245      0.1324      1.5452    113.5221     20.7207
  1265.3000      7.7986      2.6145      0.1192      2.1523    121.1535     20.5192
  1265.4000      7.7986      2.5975      0.1078      3.1810    134.0219     20.4810
  1265.5000      7.8759      2.5854      0.1596      3.9180    143.6741     20.5453
  1265.6000      7.8759      2.5697      0.1430      4.8689    142.8318     20.5353
  1265.7000      7.8759      2.5368      0.1439      6.8579    139.9380     20.1945
  1265.8000      7.8865      2.4985      0.0609      9.1797    144.6495     19.6781
  1265.9000      7.8865      2.4746      0.1318     10.6332    157.3777     19.2509
  1266.0000      7.8493      2.4639      0.1036     11.2783    171.6024     18.9045
  1266.1000      7.8493      2.4594      0.1541     11.5524    179.0284     18.6264
  1266.2000      7.8493      2.4552      0.1794     11.8042    178.7573     18.3964
  1266.3000      7.8622      2.4477      0.1244     12.2610    176.3727    -93.8766
  1266.4000      7.8622      2.4343      0.1307     13.0725    177.2718   -114.3954
  1266.5000      7.9660      2.4160      0.0912     14.1838    183.3844   -142.9400
  1266.6000      7.9660      2.4077      0.0988     14.6859    191.5462   -160.3007
  1266.7000      7.9660      2.4167      0.1375     14.1420    195.7885   -149.0725
  1266.8000      8.0379      2.4348      0.1382     13.0399    192.8961   -112.0965
  1266.9000      8.0379      2.4611      0.1755     11.4469    187.2847    -69.8943
  1267.0000      8.0301      2.4993      0.1931      9.1322    183.5592    -35.0680
  1267.1000      8.0301      2.5473      0.2659      6.2268    183.0913    -11.6454
  1267.2000      8.0301      2.5926      0.3300      3.4762    185.3996     -0.8711
  1267.3000      8.0144      2.6232      0.3134      1.6233    185.9023      3.8335
  1267.4000      8.0144      2.6359      0.2939      0.8550    181.9162      7.3099
  1267.5000      8.0375      2.6256      0.2472      1.4780    181.8861     10.9230
  1267.6000      8.0375      2.5857      0.2343      3.8941    189.8449     15.1906
  1267.7000      8.0375      2.5322      0.1221      7.1402    194.0841     19.2367
  1267.8000      8.0475      2.4936      0.0827      9.4794    186.7122     22.3408
  1267.9000      8.0475      2.4788      0.0594     10.3776    177.0236     24.6930
  1268.0000      8.0345      2.4851      0.0260      9.9951    174.0032     26.4885
  1268.1000      8.0345      2.5089      0.0944      8.5503    174.6503     27.2039
  1268.2000      8.0345      2.5420      0.0751      6.5457    174.8727     26.7468
  1268.3000      7.9908      2.5806      0.0830      4.2054    176.0804     26.3409
  1268.4000      7.9908      2.6175      0.1471      1.9688    177.5438     26.6113
  1268.5000      7.9257      2.6335      0.1683      1.0007    174.0438     26.6751
  1268.6000      7.9257      2.6246      0.1324      1.5377    165.7996     25.9876
  1268.7000      7.9257      2.6081      0.1314      2.5400    159.2039     25.1255
  1268.8000      7.9067      2.5977      0.1279      3.1703    157.5839     24.6314
  1268.9000      7.9067      2.6006      0.1051      2.9925    160.1548     24.5517
