~Version Information
 VERS.                                  2.0 : CWLS LAS VERSION
 WRAP.                                   NO : WRAPING MODE
 SWARE .                 MController 2.5.0N : SOFTWARE VERSION
~Well Information
 WELL.                       Blue Sky 44-17 : WELL
 COMP.     Pioneer Natural Resource USA Inc : COMPANY
 FLD.                      Purgatoire River : FIELD
 LOC.                 SE/SE SEC17 T33S R66W : LOCATION
 DATE.                             09/07/05 : DATE(S) LOGGED
 SRVC.       Blanco Geological Services LLC : SERVICE COMPANY
 STAT.                             Colorado : STATE
 CNTY.                           Las Animas : COUNTY
 CTRY.                                  USA : COUNTRY
 API.                       05-071-08511-00 : API NUMBER
 STRT.FT                             434.00 : START DEPTH
 STOP.FT                            1625.00 : STOP DEPTH
 STEP.FT                               1.00 : DEPTH INCREMENT
 NULL.                                -9999 : NULL VALUE
~Curve information
 DEPTH.FT                                   :
 ROP.MIN/FT                                 :
 GAS.UNITS                                  :
~ASCII Log data
# ...
      1034.0         0.50         34.8 
      1035.0         0.33         37.9 
      1036.0         0.37         39.3 
      1037.0         0.27         39.3 
      1038.0         0.23         36.3 
      1039.0         0.32         35.0 
      1040.0         0.27         35.4 
      1041.0         0.27         34.1 
      1042.0         0.27         30.7 
      1043.0         0.27         29.9 
      1044.0         0.30         15.9 
      1045.0         0.23         13.5 
      1046.0         3.08        144.6 
      1047.0         1.00         55.0 
      1048.0         0.23         53.2 
      1049.0         0.20         48.6 
      1050.0         0.13         47.1 
      1051.0         0.27         41.8 
      1052.0         0.28         38.3 
      1053.0         0.33         34.3 
      1054.0         0.23         33.4 
      1055.0         0.27         31.2 
      1056.0         0.30         30.3 
      1057.0         0.27         27.1 
      1058.0         0.27         20.8 
      1059.0         0.20         19.4 
      1060.0         0.20         16.9 
      1061.0         0.27         17.9 
      1062.0         1.52         48.7 
      1063.0         0.30         35.1 
      1064.0         0.53         40.9 
      1065.0         0.20         36.0 
      1066.0         0.30         35.7 
      1067.0         0.37         33.7 
      1068.0         0.33         29.6 
      1069.0         0.30         28.8 
      1070.0         0.30         28.8 
      1071.0         0.28         28.9 
      1072.0         0.30         27.8 
      1073.0         0.30         25.7 
      1074.0         0.27         19.9 
      1075.0         0.27         20.7 
      1076.0         4.08        117.7 
      1077.0         0.20         43.0 
      1078.0         0.23         39.7 
      1079.0         0.37         36.0 
      1080.0         0.30         32.6 
      1081.0         0.35         35.1 
      1082.0         0.30         35.7 
      1083.0         0.30         36.0 
      1084.0         0.37         32.6 
      1085.0         0.23         32.5 
      1086.0         0.27         28.2 
      1087.0         0.27         27.3 
      1088.0         0.23         26.9 
      1089.0         0.27         24.9 
      1090.0         0.30         25.3 
      1091.0         0.23         24.5 
      1092.0         0.30         25.4 
      1093.0         0.35         25.0 
      1094.0         0.27         24.3 
      1095.0         0.30         24.7 
      1096.0         0.23         24.4 
      1097.0         0.23         24.6 
      1098.0         0.23         25.3 
      1099.0         0.30         25.9 
      1100.0         0.30         27.4 
      1101.0         0.27         27.7 
      1102.0         0.17         26.1 
      1103.0         0.23         22.9 
      1104.0         0.30         20.6 
      1105.0         0.28          9.8 
      1106.0         4.42         98.1 
      1107.0         0.20         34.3 
      1108.0         0.30         34.5 
      1109.0         0.27         34.6 
      1110.0         0.37         30.7 
      1111.0         0.30         26.6 
      1112.0         0.47         22.9 
      1113.0         0.35         19.3 
      1114.0         0.30         19.3 
      1115.0         0.27         19.5 
      1116.0         0.30         18.6 
      1117.0         0.27         20.3 
      1118.0         0.20         21.4 
      1119.0         0.23         22.5 
      1120.0         0.27         24.3 
      1121.0         0.23         25.7 
      1122.0         0.23         27.3 
      1123.0         0.13         27.3 
      1124.0         0.27         26.8 
      1125.0         0.23         26.5 
      1126.0         0.17         24.2 
      1127.0         0.17         23.7 
      1128.0         0.28         22.7 
      1129.0         0.27         22.5 
      1130.0         0.27         23.0 
      1131.0         0.23         24.6 
      1132.0         0.23         20.2 
      1133.0         0.20         20.1 
      1134.0         0.23          8.8 
      1135.0         0.23          7.8 
      1136.0         5.20        112.5 
      1137.0         0.50         28.3 
      1138.0         0.53         24.0 
      1139.0         0.23         25.4 
      1140.0         0.20         24.3 
      1141.0         0.30         24.1 
      1142.0         0.33         21.0 
      1143.0         0.27         20.8 
      1144.0         0.20         19.9 
      1145.0         0.17         19.3 
      1146.0         0.17         18.5 
      1147.0         0.25         18.3 
      1148.0         0.27         18.0 
      1149.0         0.30         17.7 
      1150.0         0.27         17.5 
      1151.0         0.27         18.4 
      1152.0         0.23         17.8 
      1153.0         0.20         17.8 
      1154.0         0.17         18.7 
      1155.0         0.27         18.6 
      1156.0         0.27         18.3 
      1157.0         0.27         18.0 
      1158.0         0.27         18.0 
      1159.0         0.33         17.6 
      1160.0         0.25         18.0 
      1161.0         0.30         19.0 
      1162.0         0.30         16.1 
      1163.0         0.30         15.5 
      1164.0         0.33          8.9 
      1165.0         0.30          8.9 
      1166.0         6.47        116.6 
      1167.0         0.37         31.4 
      1168.0         0.37         24.9 
      1169.0         0.33         23.3 
      1170.0         0.27         22.2 
      1171.0         0.27         22.1 
      1172.0         0.28         22.7 
      1173.0         0.30         22.8 
      1174.0         0.27         23.1 
      1175.0         0.33         24.9 
      1176.0         0.23         24.3 
      1177.0         0.23         25.8 
      1178.0         0.23         26.5 
      1179.0         0.20         25.5 
      1180.0         0.20         24.0 
      1181.0         0.20         24.0 
      1182.0         0.27         22.1 
      1183.0         0.27         20.7 
      1184.0         0.30         20.7 
      1185.0         0.20         20.5 
      1186.0         0.22         20.2 
      1187.0         0.27         19.1 
      1188.0         0.27         19.8 
      1189.0         0.27         19.3 
      1190.0         0.20         21.8 
      1191.0         0.23         19.2 
      1192.0         0.20         19.2 
      1193.0         0.23         16.5 
      1194.0         0.20         10.0 
      1195.0         0.27         12.4 
      1196.0         4.83         18.9 
      1197.0         5.32        152.9 
      1198.0         0.43         59.4 
      1199.0         0.58         51.5 
      1200.0         0.60         38.9 
      1201.0         0.23         36.0 
      1202.0         0.20         32.5 
      1203.0         0.23         31.1 
      1204.0         0.23         30.5 
      1205.0         0.30         29.9 
      1206.0         0.20         31.9 
      1207.0         0.23         27.9 
      1208.0         0.20         27.9 
      1209.0         0.23         21.9 
      1210.0         0.17         17.6 
      1211.0         0.20         18.9 
      1212.0         0.20         18.9 
      1213.0         3.02         38.6 
      1214.0         0.40         36.8 
      1215.0         0.35         33.0 
      1216.0         0.23         28.8 
      1217.0         0.37         32.1 
      1218.0         0.30         54.9 
      1219.0         0.30         69.2 
      1220.0         0.27         69.8 
      1221.0         0.13         67.9 
      1222.0         0.17         62.3 
      1223.0         0.20         61.3 
      1224.0         0.23         37.1 
      1225.0         0.37         23.3 
      1226.0         4.90        152.4 
      1227.0         0.30         41.3 
      1228.0         0.37         39.2 
      1229.0         0.30         37.5 
      1230.0         0.30         37.2 
      1231.0         0.17         32.4 
      1232.0         0.23         32.4 
      1233.0         0.23         28.6 
