~Version Information
VERS.                      2.0: CWLS Log ASCII Standard - VERSION 2.0
WRAP.                       NO: One line per depth step
~Well Information Block
STRT.FT               350.0000: 
STOP.FT              2808.2500: 
STEP.FT                 0.2500: 
NULL.                -999.2500: 
COMP.          Pioneer Natural Resources: COMPANY
WELL.          Grey Goose 33-30: WELL
FLD.           Purgatoire River: FIELD
LOC.           2136' FSL & 2065' FEL--: LOCATION
STAT.                 Colorado: State
CNTY.               Las Animas: COUNTY
CTRY. USA : Country
SECT. 30 : Section
TOWN. 32S : Township
RANG. 67W : Range
SRVC.                Patterson: SERVICE COMPANY
DATE.          Fri Nov 04 09:00:45 2005: LOG DATE
API.           05 071 08546 00: UNIQUE WELL ID
~Curve Information Block
DEPT.FT            0 000 00 00: Depth
DIR.Ohm-m                     : IEL Induction Resistivity
SN.Ohm-m                      : IEL Short Normal
SP.mV                         : IEL Spontaneous Potential
GR.GAPI                       : Gamma Ray
~Parameter Information Block
~A  Depth       DIR          SN          SP          GR     
# ...
   986.5000     14.3916   2000.0000   2000.0000    103.2718
   986.7500     14.7097   2000.0000   2000.0000    102.9668
   987.0000     14.9369   2000.0000   2000.0000    104.0201
   987.2500     15.0796   2000.0000   2000.0000    105.9044
   987.5000     15.1495   2000.0000   2000.0000    110.5174
   987.7500     15.1592   2000.0000   2000.0000    114.2116
   988.0000     15.1213   2000.0000   2000.0000    118.8587
   988.2500     15.0496   2000.0000   2000.0000    120.4929
   988.5000     14.9608   2000.0000   2000.0000    120.6328
   988.7500     14.8728   2000.0000   2000.0000    119.7790
   989.0000     14.8006   2000.0000   2000.0000    118.3309
   989.2500     14.7534   2000.0000   2000.0000    117.8486
   989.5000     14.7335   2000.0000   2000.0000    118.4621
   989.7500     14.7384   2000.0000   2000.0000    119.7320
   990.0000     14.7626   2000.0000   2000.0000    122.1173
   990.2500     14.7987   2000.0000   2000.0000    123.3446
   990.5000     14.8384   2000.0000   2000.0000    123.7557
   990.7500     14.8754   2000.0000   2000.0000    122.9644
   991.0000     14.9104   2000.0000   2000.0000    120.8017
   991.2500     14.9539   2000.0000   2000.0000    119.3106
   991.5000     15.0236   2000.0000   2000.0000    117.5038
   991.7500     15.1372   2000.0000   2000.0000    116.3018
   992.0000     15.3062   2000.0000   2000.0000    113.7464
   992.2500     15.5340   2000.0000   2000.0000    111.5221
   992.5000     15.8189   2000.0000   2000.0000    108.1566
   992.7500     16.1593   2000.0000   2000.0000    106.3500
   993.0000     16.5571   2000.0000   2000.0000    104.5441
   993.2500     17.0174   2000.0000   2000.0000    103.8748
   993.5000     17.5446   2000.0000   2000.0000    103.6890
   993.7500     18.1368   2000.0000   2000.0000    104.2250
   994.0000     18.7797   2000.0000   2000.0000    105.7373
   994.2500     19.4441   2000.0000   2000.0000    106.5385
   994.5000     20.0904   2000.0000   2000.0000    106.1038
   994.7500     20.6796   2000.0000   2000.0000    104.5408
   995.0000     21.1855   2000.0000   2000.0000    101.2954
   995.2500     21.5988   2000.0000   2000.0000     99.3650
   995.5000     21.9236   2000.0000   2000.0000     97.6082
   995.7500     22.1707   2000.0000   2000.0000     97.2736
   996.0000     22.3539   2000.0000   2000.0000     98.0894
   996.2500     22.4882   2000.0000   2000.0000     99.5074
   996.5000     22.5881   2000.0000   2000.0000    102.4020
   996.7500     22.6652   2000.0000   2000.0000    104.2953
   997.0000     22.7251   2000.0000   2000.0000    106.5348
   997.2500     22.7685   2000.0000   2000.0000    107.6342
   997.5000     22.7940   2000.0000   2000.0000    108.5490
   997.7500     22.7994   2000.0000   2000.0000    108.3089
   998.0000     22.7779   2000.0000   2000.0000    106.3838
   998.2500     22.7139   2000.0000   2000.0000    104.5297
   998.5000     22.5845   2000.0000   2000.0000    102.2969
   998.7500     22.3697   2000.0000   2000.0000    101.6063
   999.0000     22.0644   2000.0000   2000.0000    101.3947
   999.2500     21.6853   2000.0000   2000.0000    101.4296
   999.5000     21.2699   2000.0000   2000.0000    101.7997
   999.7500     20.8669   2000.0000   2000.0000    102.6409
  1000.0000     20.5216   2000.0000   2000.0000    105.2908
  1000.2500     20.2623   2000.0000   2000.0000    107.8595
  1000.5000     20.0933   2000.0000   2000.0000    111.8661
  1000.7500     19.9942   2000.0000   2000.0000    113.7227
  1001.0000     19.9251   2000.0000   2000.0000    113.9834
  1001.2500     19.8348   2000.0000   2000.0000    112.3169
  1001.5000     19.6776   2000.0000   2000.0000    108.0631
  1001.7500     19.4344   2000.0000   2000.0000    105.1344
  1002.0000     19.1265   2000.0000   2000.0000    102.4743
  1002.2500     18.8056   2000.0000   2000.0000    102.5123
  1002.5000     18.5257   2000.0000   2000.0000    105.0397
  1002.7500     18.3195   2000.0000   2000.0000    107.4757
  1003.0000     18.1914   2000.0000   2000.0000    110.4627
  1003.2500     18.1268   2000.0000   2000.0000    111.4017
  1003.5000     18.1069   2000.0000   2000.0000    111.0591
  1003.7500     18.1202   2000.0000   2000.0000    109.8370
  1004.0000     18.1698   2000.0000   2000.0000    107.1575
  1004.2500     18.2754   2000.0000   2000.0000    105.3553
  1004.5000     18.4698   2000.0000   2000.0000    103.2479
  1004.7500     18.7894   2000.0000   2000.0000    102.0302
  1005.0000     19.2620   2000.0000   2000.0000     99.3501
  1005.2500     19.8986   2000.0000   2000.0000     96.4725
  1005.5000     20.6940   2000.0000   2000.0000     90.7212
  1005.7500     21.6350   2000.0000   2000.0000     86.5472
  1006.0000     22.7092   2000.0000   2000.0000     80.7440
  1006.2500     23.9030   2000.0000   2000.0000     77.4590
  1006.5000     25.1932   2000.0000   2000.0000     73.7364
  1006.7500     26.5371   2000.0000   2000.0000     72.2620
  1007.0000     27.8698   2000.0000   2000.0000     71.4712
  1007.2500     29.1144   2000.0000   2000.0000     71.3991
  1007.5000     30.2023   2000.0000   2000.0000     70.8549
  1007.7500     31.0969   2000.0000   2000.0000     69.8186
  1008.0000     31.8040   2000.0000   2000.0000     67.4314
  1008.2500     32.3605   2000.0000   2000.0000     65.7962
  1008.5000     32.8102   2000.0000   2000.0000     64.3824
  1008.7500     33.1855   2000.0000   2000.0000     64.5984
  1009.0000     33.5076   2000.0000   2000.0000     66.8756
  1009.2500     33.7975   2000.0000   2000.0000     69.5446
  1009.5000     34.0784   2000.0000   2000.0000     74.6387
  1009.7500     34.3589   2000.0000   2000.0000     78.1320
  1010.0000     34.6123   2000.0000   2000.0000     82.1648
  1010.2500     34.7791   2000.0000   2000.0000     83.3964
  1010.5000     34.8017   2000.0000   2000.0000     82.6872
  1010.7500     34.6715   2000.0000   2000.0000     80.7802
  1011.0000     34.4449   2000.0000   2000.0000     76.7739
  1011.2500     34.2121   2000.0000   2000.0000     74.0013
  1011.5000     34.0452   2000.0000   2000.0000     70.5063
  1011.7500     33.9654   2000.0000   2000.0000     68.7144
  1012.0000     33.9506   2000.0000   2000.0000     66.3390
  1012.2500     33.9686   2000.0000   2000.0000     64.5577
  1012.5000     34.0032   2000.0000   2000.0000     61.2935
  1012.7500     34.0541   2000.0000   2000.0000     58.8741
  1013.0000     34.1158   2000.0000   2000.0000     55.4411
  1013.2500     34.1632   2000.0000   2000.0000     53.6239
  1013.5000     34.1575   2000.0000   2000.0000     52.0078
  1013.7500     34.0687   2000.0000   2000.0000     51.7095
  1014.0000     33.8954   2000.0000   2000.0000     52.1457
  1014.2500     33.6662   2000.0000   2000.0000     52.7397
  1014.5000     33.4192   2000.0000   2000.0000     53.5825
  1014.7500     33.1777   2000.0000   2000.0000     53.8704
  1015.0000     32.9388   2000.0000   2000.0000     53.6370
  1015.2500     32.6844   2000.0000   2000.0000     52.9894
  1015.5000     32.3990   2000.0000   2000.0000     51.2954
  1015.7500     32.0798   2000.0000   2000.0000     49.7667
  1016.0000     31.7315   2000.0000   2000.0000     47.3392
  1016.2500     31.3539   2000.0000   2000.0000     46.0892
  1016.5000     30.9322   2000.0000   2000.0000     45.4443
  1016.7500     30.4363   2000.0000   2000.0000     45.9412
  1017.0000     29.8262   2000.0000   2000.0000     47.8268
  1017.2500     29.0618   2000.0000   2000.0000     49.6613
  1017.5000     28.1120   2000.0000   2000.0000     53.2303
  1017.7500     26.9679   2000.0000   2000.0000     56.2799
  1018.0000     25.6530   2000.0000   2000.0000     62.0786
  1018.2500     24.2211   2000.0000   2000.0000     66.7786
  1018.5000     22.7418   2000.0000   2000.0000     74.8479
  1018.7500     21.2802   2000.0000   2000.0000     80.6157
  1019.0000     19.8854   2000.0000   2000.0000     89.2295
  1019.2500     18.5896   2000.0000   2000.0000     94.6575
  1019.5000     17.4138   2000.0000   2000.0000    101.9434
  1019.7500     16.3717   2000.0000   2000.0000    105.9436
