~Version Information
VERS.                      2.0: CWLS Log ASCII Standard - VERSION 2.0
WRAP.                       NO: One line per depth step
~Well Information Block
STRT.FT               262.8000: 
STOP.FT              1134.7000: 
STEP.FT                 0.1000: 
NULL.                -999.2500: 
COMP.          Pioneer Natural Resources: COMPANY
WELL.          Black Cat 13-32 Tr: WELL
FLD.           Purgatoire River: FIELD
LOC.           1679' FSL & 1150' FWL--: LOCATION
CNTY.               Las Animas: COUNTY
SRVC.                Patterson: SERVICE COMPANY
DATE.          Tue Mar 07 12:42:54 2006: LOG DATE
UWI.           05 071 08721 00: UNIQUE WELL ID
STAT.                 Colorado: STATE
~Curve Information Block
DEPT.FT            0 000 00 00: Depth
DCAL.in                       : CDL Caliper
RHOB.g/cc                     : CDL Bulk Density
RHOC.g/cc                     : CDL Density Correction
DPOR.pu                       : CDL Density Porosity
GR.GAPI                       : Gamma Ray
~Parameter Information Block
~A  Depth       DCAL        RHOB        RHOC        DPOR         GR     
# ...
  1102.8000      7.8648      2.1306      0.0651     31.4792    111.7737
  1102.9000      7.8648      2.1053      0.0193     33.0144    112.8208
  1103.0000      7.8664      2.0692      0.0218     35.1988    115.3256
  1103.1000      7.8664      2.0187      0.0216     38.2594    116.4061
  1103.2000      7.8664      1.9579     -0.0190     41.9428    113.9124
  1103.3000      7.8723      1.8970     -0.0221     45.6361    112.7412
  1103.4000      7.8723      1.8437     -0.0707     48.8640    113.0424
  1103.5000      7.8807      1.8123     -0.0799     50.7717    110.3024
  1103.6000      7.8807      1.8135     -0.0642     50.6987    104.8659
  1103.7000      7.8807      1.8380     -0.0273     49.2123    100.5252
  1103.8000      7.8870      1.8653      0.0041     47.5598     99.1293
  1103.9000      7.8870      1.8825      0.0485     46.5129    100.3922
  1104.0000      7.8937      1.8903      0.1023     46.0441    103.7159
  1104.1000      7.8937      1.8913      0.1426     45.9847    106.8772
  1104.2000      7.8937      1.8874      0.1000     46.2205    105.3284
  1104.3000      7.8987      1.8819      0.0717     46.5498     98.6875
  1104.4000      7.8987      1.8672      0.0600     47.4440     92.0696
  1104.5000      7.8909      1.8290     -0.0299     49.7567     89.5869
  1104.6000      7.8909      1.7704     -0.0615     53.3095     90.7001
  1104.7000      7.8909      1.7120     -0.1089     56.8506     91.4547
  1104.8000      7.8756      1.6762     -0.0738     59.0179     91.8255
  1104.9000      7.8756      1.6715     -0.0409     59.3044     94.7920
  1105.0000      7.8644      1.6928      0.0280     58.0134     97.7868
  1105.1000      7.8644      1.7298      0.0752     55.7704     96.1237
  1105.2000      7.8644      1.7737      0.1014     53.1066     92.9175
  1105.3000      7.8601      1.8279      0.0808     49.8232     94.7348
  1105.4000      7.8601      1.9039      0.0912     45.2181     99.6250
  1105.5000      7.8538      1.9971      0.1575     39.5726    101.5007
  1105.6000      7.8538      2.0849      0.1859     34.2472    100.1576
  1105.7000      7.8538      2.1522      0.1831     30.1708    101.4764
  1105.8000      7.8285      2.2060      0.1167     26.9073    109.3756
  1105.9000      7.8285      2.2696      0.1362     23.0559    118.6179
  1106.0000      7.7865      2.3479      0.2020     18.3109    125.4724
  1106.1000      7.7865      2.4242      0.2033     13.6860    132.8560
  1106.2000      7.7865      2.4857      0.1860      9.9549    139.4551
  1106.3000      7.7596      2.5248      0.1556      7.5851    141.5658
  1106.4000      7.7596      2.5459      0.0921      6.3089    139.5285
  1106.5000      7.7530      2.5636      0.1264      5.2370    136.4937
  1106.6000      7.7530      2.5792      0.1177      4.2886    134.9692
  1106.7000      7.7530      2.5833      0.1140      4.0448    135.4321
  1106.8000      7.7525      2.5756      0.0771      4.5103    137.5872
  1106.9000      7.7525      2.5686      0.0686      4.9331    137.1998
  1107.0000      7.7485      2.5700      0.0520      4.8473    130.7303
  1107.1000      7.7485      2.5791      0.0481      4.2942    116.4341
  1107.2000      7.7485      2.5918      0.0779      3.5256     87.1972
  1107.3000      7.7427      2.6047      0.0609      2.7471     46.2238
  1107.4000      7.7427      2.6200      0.0465      1.8172     15.1033
  1107.5000      7.7390      2.6335      0.1202      0.9999      2.8131
  1107.6000      7.7390      2.6328      0.0969      1.0447      0.2869
  1107.7000      7.7390      2.6187      0.0741      1.8974      0.0154
  1107.8000      7.7349      2.6046      0.0470      2.7492      0.0000
  1107.9000      7.7349      2.6037      0.0066      2.8033   -999.2500
  1108.0000      7.7313      2.6174      0.0909      1.9785   -999.2500
  1108.1000      7.7313      2.6314      0.0691      1.1252   -999.2500
  1108.2000      7.7313      2.6366      0.0483      0.8118   -999.2500
  1108.3000      7.7318      2.6301      0.0868      1.2076   -999.2500
  1108.4000      7.7318      2.6192      0.0099      1.8682   -999.2500
  1108.5000      7.7366      2.6221      0.0524      1.6928   -999.2500
  1108.6000      7.7366      2.6340      0.0584      0.9680   -999.2500
  1108.7000      7.7366      2.6368      0.0666      0.7993   -999.2500
  1108.8000      7.7406      2.6293      0.0466      1.2523   -999.2500
  1108.9000      7.7406      2.6155      0.0920      2.0921   -999.2500
  1109.0000      7.7406      2.5963      0.0393      3.2563   -999.2500
  1109.1000      7.7406      2.5824      0.0109      4.0964   -999.2500
  1109.2000      7.7406      2.5797      0.0522      4.2596   -999.2500
  1109.3000      7.7385      2.5824      0.0495      4.0987   -999.2500
  1109.4000      7.7385      2.5898      0.0526      3.6499   -999.2500
  1109.5000      7.7394      2.5995      0.0653      3.0590   -999.2500
  1109.6000      7.7394      2.6056      0.0348      2.6905   -999.2500
  1109.7000      7.7394      2.6162      0.0244      2.0489   -999.2500
  1109.8000      7.7423      2.6399      0.0778      0.6149   -999.2500
  1109.9000      7.7423      2.6641      0.0689     -0.8524   -999.2500
  1110.0000      7.7403      2.6696      0.0987     -1.1873   -999.2500
  1110.1000      7.7403      2.6547      0.0433     -0.2846   -999.2500
  1110.2000      7.7403      2.6381      0.0425      0.7200   -999.2500
  1110.3000      7.7317      2.6338      0.0732      0.9830   -999.2500
  1110.4000      7.7317      2.6384      0.0913      0.7001   -999.2500
  1110.5000      7.7236      2.6445      0.0607      0.3351   -999.2500
  1110.6000      7.7236      2.6444      0.0788      0.3422   -999.2500
  1110.7000      7.7236      2.6322      0.0504      1.0773   -999.2500
  1110.8000      7.7246      2.6186      0.0336      1.9031   -999.2500
  1110.9000      7.7246      2.6163      0.0705      2.0398   -999.2500
  1111.0000      7.7288      2.6221      0.0474      1.6914   -999.2500
  1111.1000      7.7288      2.6298      0.0601      1.2272   -999.2500
  1111.2000      7.7288      2.6457      0.0243      0.2594   -999.2500
  1111.3000      7.7307      2.6706      0.0841     -1.2494   -999.2500
  1111.4000      7.7307      2.6766      0.1220     -1.6142   -999.2500
  1111.5000      7.7335      2.6446      0.0663      0.3298   -999.2500
  1111.6000      7.7335      2.5985      0.0276      3.1198   -999.2500
  1111.7000      7.7335      2.5745     -0.0017      4.5781   -999.2500
  1111.8000      7.7363      2.5763      0.0588      4.4695   -999.2500
  1111.9000      7.7363      2.5833      0.0447      4.0434   -999.2500
  1112.0000      7.7335      2.5863      0.0365      3.8615   -999.2500
  1112.1000      7.7335      2.5855      0.0500      3.9108   -999.2500
  1112.2000      7.7335      2.5791      0.0312      4.2963   -999.2500
  1112.3000      7.7228      2.5737      0.0270      4.6219   -999.2500
  1112.4000      7.7228      2.5785      0.0349      4.3312   -999.2500
  1112.5000      7.7096      2.5939      0.0290      3.4022   -999.2500
  1112.6000      7.7096      2.6112      0.0734      2.3531   -999.2500
  1112.7000      7.7096      2.6243      0.0423      1.5585   -999.2500
  1112.8000      7.7020      2.6329      0.0741      1.0373   -999.2500
  1112.9000      7.7020      2.6317      0.0841      1.1109   -999.2500
  1113.0000      7.6950      2.6238      0.0285      1.5850   -999.2500
  1113.1000      7.6950      2.6212      0.0855      1.7479   -999.2500
  1113.2000      7.6950      2.6225      0.0711      1.6662   -999.2500
  1113.3000      7.6856      2.6202      0.1118      1.8038   -999.2500
  1113.4000      7.6856      2.6077      0.0966      2.5644   -999.2500
  1113.5000      7.6799      2.5878      0.0765      3.7710   -999.2500
  1113.6000      7.6799      2.5733      0.0195      4.6506   -999.2500
  1113.7000      7.6799      2.5703      0.0763      4.8308   -999.2500
  1113.8000      7.6778      2.5777      0.0540      4.3820   -999.2500
  1113.9000      7.6778      2.5942      0.0462      3.3835   -999.2500
