~Version Information
VERS.                      2.0: CWLS Log ASCII Standard - VERSION 2.0
WRAP.                       NO: One line per depth step
~Well Information Block
STRT.FT                -2.0000: 
STOP.FT              2017.5000: 
STEP.FT                 0.2500: 
NULL.                -999.2500: 
COMP.          Pioneer Natural Resources: COMPANY
WELL.            Zink 44-10 Tr: WELL
FLD.           Purgatoire River: FIELD
LOC.           486' FSL & 554' FEL--: LOCATION
PROV.                 Colorado: PROVINCE
CNTY.               Las Animas: COUNTRY
SRVC.                Patterson: SERVICE COMPANY
DATE.          Mon Aug 01 14:01:23 2005: LOG DATE
UWI.           05 071 08446 00: UNIQUE WELL ID
~Curve Information Block
DEPT.FT            0 000 00 00: Depth
CCL.                          : Casing Collar Locator
TT3.usec                      : CBL 3' Travel Time
AMP3.mV                       : CBL 3' Amplitude
GR.GAPI                       : Gamma Ray
~Parameter Information Block
~A  Depth       CCL         TT3         AMP3         GR     
# ...
   534.0000      0.0000   1081.0615      9.8003     49.0631
   534.2500      0.0000   1119.7388      9.8667     48.5055
   534.5000      0.0000   1122.3898      9.9528     46.6108
   534.7500      0.0000   1088.0797     10.0302     44.5671
   535.0000      0.0000   1037.7147     10.0598     43.8421
   535.2500      0.0000    994.4109     10.0251     44.9660
   535.5000      0.0000    967.3560      9.9497     47.2143
   535.7500      0.0000    952.8211      9.8772     49.4609
   536.0000      0.0000    944.1866      9.8338     51.2968
   536.2500      0.0000    938.9907      9.8137     53.1562
   536.5000      0.0000    939.5052      9.7941     55.4029
   536.7500      0.0000    949.7415      9.7595     57.6238
   537.0000      0.0000    971.8887      9.7118     58.9579
   537.2500      0.0000   1002.7811      9.6667     58.9131
   537.5000      0.0000   1031.6670      9.6462     57.7865
   537.7500      0.0000   1044.4069      9.6727     56.3491
   538.0000      0.0000   1034.5508      9.7638     55.0588
   538.2500      0.0000   1009.6121      9.9254     53.6556
   538.5000      0.0000    983.8447     10.1418     51.7777
   538.7500      0.0000    966.4310     10.3722     49.8870
   539.0000      0.0000    957.9686     10.5651     49.0913
   539.2500      0.0000    954.9272     10.6846     49.9435
   539.5000      0.0000    954.2042     10.7280     51.8716
   539.7500      0.0000    954.4006     10.7212     53.9865
   540.0000      0.0000    955.2914     10.6986     55.9886
   540.2500      0.0000    957.0870     10.6865     57.9892
   540.5000      0.0000    959.6648     10.6971     59.7480
   540.7500      0.0000    962.0868     10.7319     60.5137
   541.0000      0.0000    962.9520     10.7859     59.7292
   541.2500      0.0000    961.5663     10.8462     57.6651
   541.5000      0.0000    958.5422     10.8898     55.1946
   541.7500      0.0000    954.9838     10.8884     53.1187
   542.0000      0.0000    951.4128     10.8218     51.8986
   542.2500      0.0000    947.8879     10.6914     51.7456
   542.5000      0.0000    944.9045     10.5228     52.5325
   542.7500      0.0000    943.5026     10.3527     53.7751
   543.0000      0.0000    944.2309     10.2131     55.0681
   543.2500      0.0000    946.3973     10.1231     56.4380
   543.5000      0.0000    948.6687     10.0866     57.9354
   543.7500      0.0000    950.1367     10.0934     59.0348
   544.0000      0.0000    950.5854     10.1237     58.9086
   544.2500      0.0000    950.0133     10.1575     57.3661
   544.5000      0.0000    948.3063     10.1829     55.2485
   544.7500      0.0000    945.4651     10.1957     53.8715
   545.0000      0.0000    941.8561     10.1939     54.1521
   545.2500      0.0000    937.7654     10.1747     56.0466
   545.5000      0.0000    932.6275     10.1378     58.5867
   545.7500      0.0000    925.3439     10.0878     60.4447
   546.0000      0.0000    915.8909     10.0299     60.6572
   546.2500      0.0000    906.1580      9.9654     59.0330
   546.5000      0.0000    898.6312      9.8938     56.0506
   546.7500      0.0000    894.4644      9.8201     52.5233
   547.0000      0.0000    893.1762      9.7549     49.4167
   547.2500      0.0000    893.6752      9.7064     47.7220
   547.5000      0.0000    894.8864      9.6745     48.0581
   547.7500      0.0000    895.8955      9.6533     50.3382
   548.0000      0.0000    896.4967      9.6377     54.0620
   548.2500      0.0000    897.4492      9.6301     58.8029
   548.5000      0.0000    899.5052      9.6448     64.1062
   548.7500      0.0000    902.3538      9.7018     69.0284
   549.0000      0.0000    904.9445      9.8094     72.1669
   549.2500      0.0000    906.5683      9.9526     72.4516
   549.5000      0.0000    907.2575     10.1007     70.1416
   549.7500      0.0000    907.4095     10.2276     67.0905
   550.0000      0.0000    907.3784     10.3228     65.7175
   550.2500      0.0000    907.3601     10.3870     67.3309
   550.5000      0.0000    907.4658     10.4239     71.2896
   550.7500      0.0000    907.8334     10.4370     75.6432
   551.0000      0.0000    908.7388     10.4346     78.4096
   551.2500      0.0000    910.5640     10.4312     78.3742
   551.5000      0.0000    913.4904     10.4415     75.3637
   551.7500      0.0000    917.2091     10.4692     70.3819
   552.0000      0.0000    921.2602     10.5027     65.2915
   552.2500      0.0000    925.7619     10.5278     61.7041
   552.5000      0.0000    931.2974     10.5406     59.9682
   552.7500      0.0000    937.8336     10.5479     59.4558
   553.0000      0.0000    944.2969     10.5565     59.6659
   553.2500      0.0000    949.8574     10.5690     60.4720
   553.5000      0.0000    955.6523     10.5896     61.3869
   553.7500      0.0000    965.3489     10.6295     61.4203
   554.0000      0.0000    983.5026     10.7003     60.0893
   554.2500      0.0000   1011.1862     10.7946     58.1720
   554.5000      0.0000   1042.7469     10.8699     57.0576
   554.7500      0.0000   1070.1462     10.8568     57.4106
   555.0000      0.0000   1092.8500     10.6875     58.6039
   555.2500      0.0000   1119.7920     10.3210     59.3270
   555.5000      0.0000   1158.5499      9.7681     58.6391
   555.7500      0.0000   1204.1208      9.1203     56.5774
   556.0000      0.0000   1239.1912      8.5323     53.9588
   556.2500      0.0000   1245.3374      8.1290     51.6797
   556.5000     -2.0000   1217.6436      7.9269     50.2850
   556.7500      2.0000   1170.2195      7.8603     50.0470
   557.0000      2.0000   1125.5220      7.8610     50.9399
   557.2500     -2.0000   1097.7483      7.9049     52.3731
   557.5000      0.0000   1085.6450      8.0127     53.4906
   557.7500      0.0000   1076.7976      8.2289     54.0498
   558.0000      0.0000   1057.0734      8.5840     54.5821
   558.2500      0.0000   1020.5565      9.0628     55.3866
   558.5000      0.0000    973.8257      9.6095     55.9351
   558.7500      0.0000    929.7395     10.1501     55.8156
   559.0000      0.0000    897.3397     10.6067     55.8241
   559.2500      0.0000    877.9746     10.9239     57.3283
   559.5000      0.0000    868.3765     11.1004     60.6032
   559.7500      0.0000    864.6907     11.1825     64.3595
   560.0000      0.0000    864.4462     11.2213     66.8197
   560.2500      0.0000    866.6843     11.2444     66.8320
   560.5000      0.0000    871.1281     11.2597     64.2528
   560.7500      0.0000    876.8993     11.2672     59.8650
   561.0000      0.0000    882.0745     11.2624     54.9856
   561.2500      0.0000    884.6300     11.2413     50.9511
   561.5000      0.0000    883.8936     11.2082     48.8113
   561.7500      0.0000    881.0185     11.1769     49.1160
   562.0000      0.0000    878.2505     11.1617     51.6764
   562.2500      0.0000    877.5682     11.1665     55.6380
   562.5000      0.0000    879.3029     11.1837     59.9157
   562.7500      0.0000    881.9673     11.2020     63.5220
   563.0000      0.0000    884.0261     11.2132     65.6266
   563.2500      0.0000    885.7722     11.2161     65.7276
   563.5000      0.0000    888.7632     11.2139     64.0280
   563.7500      0.0000    893.5635     11.2122     61.5689
   564.0000      0.0000    898.9145     11.2189     59.7886
   564.2500      0.0000    903.1434     11.2427     59.7598
   564.5000      0.0000    905.6556     11.2904     61.6036
   564.7500      0.0000    907.0395     11.3624     64.4345
   565.0000      0.0000    908.4532     11.4520     66.9359
   565.2500      0.0000    911.1746     11.5485     68.2539
   565.5000      0.0000    916.1207     11.6433     68.4191
   565.7500      0.0000    923.0135     11.7348     67.8616
   566.0000      0.0000    930.0195     11.8313     66.7318
   566.2500      0.0000    934.8774     11.9469     64.9898
   566.5000      0.0000    937.1860     12.0931     63.0080
   566.7500      0.0000    939.8588     12.2673     61.6788
   567.0000      0.0000    948.8743     12.4487     61.7245
   567.2500      0.0000    971.2144     12.6104     62.8563
