~Version Information
VERS.                      2.0: CWLS Log ASCII Standard - VERSION 2.0
WRAP.                       NO: One line per depth step
~Well Information Block
STRT.FT                 0.0000: 
STOP.FT              3428.7500: 
STEP.FT                 0.2500: 
NULL.                -999.2500: 
COMP.          Pioneer Natural Resources: COMPANY
WELL.          Cordillera 34-7: WELL
FLD.           Purgatorie River: FIELD
LOC.           598' FSL & 1770' FEL: LOCATION
PROV.                 Colorado: PROVINCE
CNTY.               Las Animas: COUNTRY
SRVC.                Patterson: SERVICE COMPANY
DATE.          Fri Nov 18 07:55:32 2005: LOG DATE
UWI.                          : UNIQUE WELL ID
~Curve Information Block
DEPT.FT            0 000 00 00: Depth
AMP3.mV                       : CBL 3' Amplitude
CCL.                          : Casing Collar Locator
GR.GAPI                       : Gamma Ray
TT3.usec                      : CBL 3' Travel Time
~Parameter Information Block
~A  Depth       AMP3        CCL          GR         TT3     
# ...
  2713.5000      3.8092      0.0000    115.8944    677.2980
  2713.7500      3.8298      0.0000    107.8323    697.3440
  2714.0000      3.8693      0.0000    102.5401    713.5547
  2714.2500      3.9142      0.0000    101.3039    726.2766
  2714.5000      3.9437      0.0000    104.6651    735.4891
  2714.7500      3.9412      0.0000    111.2602    735.2202
  2715.0000      3.9227      0.0000    118.0365    718.6766
  2715.2500      3.9257      0.0000    122.3113    692.1645
  2715.5000      3.9525      0.0000    123.5942    673.3915
  2715.7500      3.9652      0.0000    123.4334    668.5554
  2716.0000      3.9384      0.0000    123.5392    665.5751
  2716.2500      3.8807      0.0000    123.9835    655.3921
  2716.5000      3.8205      0.0000    123.4077    642.5079
  2716.7500      3.7849      0.0000    120.8961    630.4379
  2717.0000      3.7762      0.0000    116.9213    616.4336
  2717.2500      3.7731      0.0000    112.3110    598.6192
  2717.5000      3.7683      0.0000    107.2645    579.5905
  2717.7500      3.7766      0.0000    102.0096    567.3820
  2718.0000      3.7926      0.0000     97.7466    565.0282
  2718.2500      3.7806      0.0000     96.0836    567.4941
  2718.5000      3.7259      0.0000     97.6377    579.6307
  2718.7500      3.6593      0.0000    101.7015    607.1062
  2719.0000      3.6164      0.0000    107.2722    636.2128
  2719.2500      3.6094      0.0000    113.8977    654.1056
  2719.5000      3.6402      0.0000    121.2653    663.0411
  2719.7500      3.6916      0.0000    128.3946    665.5325
  2720.0000      3.7218      0.0000    133.8416    662.1695
  2720.2500      3.7156      0.0000    136.6834    658.5095
  2720.5000      3.7122      0.0000    137.0565    660.1308
  2720.7500      3.7478      0.0000    135.8815    665.0316
  2721.0000      3.7999      0.0000    134.3617    666.6589
  2721.2500      3.8119      0.0000    133.6373    663.1302
  2721.5000      3.7642      0.0000    134.3583    657.8406
  2721.7500      3.6985      0.0000    136.1649    655.3581
  2722.0000      3.6678      0.0000    137.8571    660.0904
  2722.2500      3.6773      0.0000    138.6943    671.1916
  2722.5000      3.6843      0.0000    139.3522    681.1586
  2722.7500      3.6507      0.0000    140.9582    683.7655
  2723.0000      3.5882      0.0000    143.4213    678.7672
  2723.2500      3.5419      0.0000    145.5248    670.1386
  2723.5000      3.5326      0.0000    146.4600    662.8375
  2723.7500      3.5380      0.0000    146.4935    659.8393
  2724.0000      3.5321      0.0000    146.3094    661.7216
  2724.2500      3.5186      0.0000    146.2988    666.9156
  2724.5000      3.5198      0.0000    146.3219    670.3767
  2724.7500      3.5427      0.0000    145.7075    667.0111
  2725.0000      3.5698      0.0000    143.6301    659.2814
  2725.2500      3.5884      0.0000    139.8683    654.1791
  2725.5000      3.6015      0.0000    135.1769    652.8721
  2725.7500      3.6075      0.0000    130.6621    653.5489
  2726.0000      3.5953      0.0000    126.8184    659.1790
  2726.2500      3.5611      0.0000    123.3106    672.0355
  2726.5000      3.5232      0.0000    119.5261    686.3194
  2726.7500      3.5202      0.0000    115.1000    691.2404
  2727.0000      3.5919      0.0000    109.9349    682.8961
  2727.2500      3.7387      0.0000    104.0549    671.7132
  2727.5000      3.8975      0.0000     97.8370    671.8796
  2727.7500      4.0008      0.0000     92.5055    687.0176
  2728.0000      4.0577      0.0000     89.8782    707.3130
  2728.2500      4.1148      0.0000     91.0885    717.2927
  2728.5000      4.1479      0.0000     95.7281    707.2293
  2728.7500      4.0946      0.0000    102.5463    673.9004
  2729.0000      3.9771      0.0000    110.6064    616.5562
  2729.2500      3.8790      0.0000    119.2710    547.2886
  2729.5000      3.8303      0.0000    127.4322    493.5432
  2729.7500      3.7912      0.0000    133.4598    474.4311
  2730.0000      3.7320      0.0000    135.8974    490.2915
  2730.2500      3.6796      0.0000    134.0952    532.7081
  2730.5000      3.6806      0.0000    128.8900    584.8868
  2730.7500      3.7469      0.0000    123.1204    624.8511
  2731.0000      3.8417      0.0000    120.6505    642.7604
  2731.2500      3.8845      0.0000    123.9142    647.3812
  2731.5000      3.7807      0.0000    132.0895    655.2556
  2731.7500      3.5187      0.0000    141.5621    676.4712
  2732.0000      3.2402      0.0000    148.0936    707.8691
  2732.2500      3.0995      0.0000    149.0607    737.8037
  2732.5000      3.0882      0.0000    144.6237    756.6797
  2732.7500      3.1129      0.0000    137.4528    764.6030
  2733.0000      3.1421     -2.0000    131.0181    766.6545
  2733.2500      3.1860      0.0000    127.2687    764.1799
  2733.5000      3.2224      0.0000    125.4685    757.5176
  2733.7500      3.2483      0.0000    123.3017    749.9154
  2734.0000      3.3555      0.0000    119.1466    742.6426
  2734.2500      3.5868      0.0000    113.2719    732.2880
  2734.5000      3.7929      0.0000    107.1126    715.8784
  2734.7500      3.8376      0.0000    101.9438    694.4407
  2735.0000      3.7779      0.0000     98.3712    670.5318
  2735.2500      3.7064      0.0000     96.5903    647.6271
  2735.5000      3.6318      0.0000     96.6456    632.3607
  2735.7500      3.5455      0.0000     98.3573    626.4458
  2736.0000      3.4564      0.0000    101.0904    616.2383
  2736.2500      3.3810      0.0000    103.8878    586.4020
  2736.5000      3.3613      0.0000    106.0777    542.9161
  2736.7500      3.4407      0.0000    107.5945    508.1648
  2737.0000      3.5869      0.0000    108.5655    494.7096
  2737.2500      3.6953      0.0000    108.9059    497.4673
  2737.5000      3.6972      0.0000    108.4727    509.8676
  2737.7500      3.6391      0.0000    107.4111    533.6018
  2738.0000      3.6351      0.0000    106.3359    570.3614
  2738.2500      3.7286      0.0000    106.3413    613.4578
  2738.5000      3.8394      0.0000    108.7039    654.9531
  2738.7500      3.8783      0.0000    114.2610    693.8359
  2739.0000      3.8336      0.0000    122.8837    728.0863
  2739.2500      3.7246      0.0000    133.3188    751.0240
  2739.5000      3.5573      0.0000    143.4203    762.5048
  2739.7500      3.3515      0.0000    150.9036    769.1228
  2740.0000      3.1593      0.0000    154.4789    773.0947
  2740.2500      3.0187      0.0000    154.5139    771.5959
  2740.5000      2.9073      0.0000    152.5177    763.6927
  2740.7500      2.7859      0.0000    149.9012    753.5215
  2741.0000      2.6745      0.0000    147.2661    746.7762
  2741.2500      2.6429      0.0000    144.7891    743.4020
  2741.5000      2.7283      0.0000    142.9420    737.0818
  2741.7500      2.8881      0.0000    142.5833    724.7512
  2742.0000      3.0595      0.0000    144.1943    711.3607
  2742.2500      3.2525      0.0000    146.8492    702.6711
  2742.5000      3.5206      0.0000    148.0666    700.2432
  2742.7500      3.8394      0.0000    145.2325    703.3844
  2743.0000      4.1000      0.0000    137.4890    709.2260
  2743.2500      4.2301      0.0000    126.1064    712.5615
  2743.5000      4.2728      0.0000    113.2214    709.8430
  2743.7500      4.3495      0.0000    100.6326    702.7120
  2744.0000      4.5495      0.0000     89.5793    696.5071
  2744.2500      4.8445      0.0000     80.8446    694.1831
  2744.5000      5.1200      0.0000     74.5971    694.0975
  2744.7500      5.2731      0.0000     70.3077    695.4526
  2745.0000      5.2728      0.0000     67.2242    699.2676
  2745.2500      5.1602      0.0000     65.0250    703.8322
  2745.5000      5.0089      0.0000     63.8419    705.0180
  2745.7500      4.8489      0.0000     63.7341    698.8479
  2746.0000      4.6416      0.0000     64.4645    684.2883
  2746.2500      4.3591      0.0000     65.7213    667.9495
  2746.5000      4.0399      0.0000     67.1324    660.2284
  2746.7500      3.7456      0.0000     68.0429    662.9442
