~Version Information
VERS.                      2.0: CWLS Log ASCII Standard - VERSION 2.0
WRAP.                       NO: One line per depth step
~Well Information Block
STRT.FT               245.0000: 
STOP.FT              1208.2000: 
STEP.FT                 0.1000: 
NULL.                -999.2500: 
COMP.          Pioneer Natural Resources: COMPANY
WELL.              Davida 34-8: WELL
FLD.           Purgatoire River: FIELD
LOC.           418' FSL & 1923' FEL--: LOCATION
CNTY.               Las Animas: COUNTY
SRVC.                Patterson: SERVICE COMPANY
DATE.          Mon Mar 20 08:22:01 2006: LOG DATE
UWI.           05 071 08722 00: UNIQUE WELL ID
STAT.                 Colorado: STATE
~Curve Information Block
DEPT.FT            0 000 00 00: Depth
DCAL.in                       : CDL Caliper
RHOB.g/cc                     : CDL Bulk Density
RHOC.g/cc                     : CDL Density Correction
DPOR.pu                       : CDL Density Porosity
NPOR.pu                       : Neutron Porosity
GR.GAPI                       : Gamma Ray
~Parameter Information Block
~A  Depth       DCAL        RHOB        RHOC        DPOR        NPOR         GR     
# ...
   427.4000      8.1022      2.4365     -0.0158     12.9406     14.7120     79.5248
   427.5000      8.1129      2.4529      0.0457     11.9470     14.8122     77.2801
   427.6000      8.1129      2.4748      0.0621     10.6177     15.2591     73.6387
   427.7000      8.1129      2.4845      0.0397     10.0300     15.4958     74.6833
   427.8000      8.1200      2.4866      0.0407      9.9037     15.2379     81.0785
   427.9000      8.1200      2.4936      0.0712      9.4782     14.8707     87.8290
   428.0000      8.1245      2.5040      0.0949      8.8489     14.6455     89.6097
   428.1000      8.1245      2.5051      0.0987      8.7831     14.5082     87.2016
   428.2000      8.1245      2.4908      0.0546      9.6465     14.5882     84.9761
   428.3000      8.1286      2.4630      0.0502     11.3325     15.0366     84.0132
   428.4000      8.1286      2.4235      0.0357     13.7244     15.4988     84.9370
   428.5000      8.1299      2.3907     -0.0531     15.7163     15.6462     88.7319
   428.6000      8.1299      2.3851      0.0101     16.0527     15.8156     90.9701
   428.7000      8.1299      2.3999      0.0082     15.1575     16.2733     88.7351
   428.8000      8.1304      2.4143      0.0703     14.2835     16.8813     86.9478
   428.9000      8.1304      2.4138      0.0659     14.3175     17.2566     89.5044
   429.0000      8.1356      2.4085      0.0051     14.6389     17.0531     93.3230
   429.1000      8.1356      2.4252      0.0125     13.6271     16.5076     94.5172
   429.2000      8.1356      2.4568      0.0858     11.7074     16.3123     96.5127
   429.3000      8.1407      2.4707      0.0321     10.8641     16.7272    105.0048
   429.4000      8.1407      2.4620      0.0485     11.3918     17.3422    116.4066
   429.5000      8.1366      2.4430      0.0691     12.5476     17.7913    124.0062
   429.6000      8.1366      2.4208      0.0319     13.8928     18.1273    126.9708
   429.7000      8.1366      2.4063      0.0349     14.7727     18.5474    127.9686
   429.8000      8.1252      2.4049      0.0192     14.8535     19.1598    129.5830
   429.9000      8.1252      2.4101      0.0144     14.5391     20.0940    133.9846
   430.0000      8.1180      2.4143      0.0179     14.2820     21.1804    141.8881
   430.1000      8.1180      2.4104     -0.0055     14.5220     21.8614    152.4868
   430.2000      8.1180      2.3865      0.0157     15.9679     21.9877    163.4301
   430.3000      8.1168      2.3350      0.0206     19.0896     21.7861    170.0907
   430.4000      8.1168      2.2602     -0.0034     23.6253     21.3058    170.9601
   430.5000      8.1183      2.1652     -0.0172     29.3793     20.4477    171.0116
   430.6000      8.1183      2.0467     -0.0499     36.5619     19.1173    171.5321
   430.7000      8.1183      1.9118     -0.1196     44.7393     17.2557    169.7162
   430.8000      8.1295      1.7800     -0.1288     52.7287     14.9551    163.9304
   430.9000      8.1295      1.6716     -0.1641     59.2999     12.5555    153.0158
   431.0000      8.1670      1.6066     -0.1594     63.2341     10.5109    139.4366
   431.1000      8.1670      1.6041     -0.1360     63.3851      9.0839    125.2614
   431.2000      8.1670      1.6754     -0.0203     59.0682      7.9689    108.8349
   431.3000      8.2371      1.8114      0.1051     50.8232      6.7647     94.1374
   431.4000      8.2371      1.9758      0.3285     40.8590      5.8927     88.0038
   431.5000      8.2860      2.1258      0.3901     31.7707      6.0120     88.4039
   431.6000      8.2860      2.2474      0.3895     24.4014      7.0332     88.9401
   431.7000      8.2860      2.3519      0.3613     18.0651      8.4415     89.6430
   431.8000      8.2274      2.4464      0.3443     12.3369      9.8990     93.3506
   431.9000      8.2274      2.5199      0.3066      7.8865     11.2179     99.8958
   432.0000      8.0905      2.5572      0.2205      5.6270     12.4409    104.4023
   432.1000      8.0905      2.5611      0.1275      5.3866     13.6426    101.3426
   432.2000      8.0905      2.5523      0.0797      5.9194     14.6825     94.6556
   432.3000      8.0053      2.5472      0.0627      6.2282     15.4909     94.8421
   432.4000      8.0053      2.5395      0.0696      6.6986     16.1990    102.7755
   432.5000      7.9864      2.5204      0.0243      7.8551     16.9607    110.9769
   432.6000      7.9864      2.5078      0.0084      8.6159     17.8559    114.0553
   432.7000      7.9864      2.5221     -0.0077      7.7512     18.7244    108.4242
   432.8000      7.9843      2.5485      0.0906      6.1520     19.1974     98.0902
   432.9000      7.9843      2.5538      0.0684      5.8275     19.2820     94.9328
   433.0000      7.9806      2.5409      0.0149      6.6135     19.4816     98.3381
   433.1000      7.9806      2.5344      0.0496      7.0088     19.8854     96.0623
   433.2000      7.9806      2.5339      0.0329      7.0343     20.0534     88.4943
   433.3000      7.9751      2.5262      0.0311      7.5031     20.0756     84.2257
   433.4000      7.9751      2.5181     -0.0299      7.9962     20.2793     85.8494
   433.5000      7.9747      2.5283     -0.0015      7.3730     20.7550     91.6825
   433.6000      7.9747      2.5488      0.0642      6.1314     21.5196     98.2839
   433.7000      7.9747      2.5534      0.0294      5.8541     22.3946    100.4884
   433.8000      7.9817      2.5464     -0.0237      6.2771     23.0335     96.4764
   433.9000      7.9817      2.5527      0.0145      5.8947     22.9792     91.8841
   434.0000      7.9887      2.5720      0.0367      4.7248     22.2049     92.6905
   434.1000      7.9887      2.5805      0.0962      4.2139     21.3747     98.4236
   434.2000      7.9887      2.5670      0.0486      5.0288     21.0687    104.7758
   434.3000      7.9847      2.5484      0.0808      6.1571     21.1903    110.3031
   434.4000      7.9847      2.5421      0.0734      6.5394     21.2407    113.5941
   434.5000      7.9686      2.5519      0.0744      5.9462     21.0023    112.1288
   434.6000      7.9686      2.5674      0.0962      5.0082     20.7307    108.0244
   434.7000      7.9686      2.5685      0.1082      4.9393     20.6289    105.4171
   434.8000      7.9513      2.5481      0.0876      6.1742     20.5371    104.9824
   434.9000      7.9513      2.5227      0.0199      7.7133     20.4180    105.5779
   435.0000      7.9428      2.5119      0.0193      8.3725     20.5981    108.3909
   435.1000      7.9428      2.5147      0.0679      8.1998     21.2145    110.8762
   435.2000      7.9428      2.5217      0.0553      7.7729     21.7674    108.2139
   435.3000      7.9447      2.5290      0.0896      7.3334     21.8160    104.6294
   435.4000      7.9447      2.5341      0.0756      7.0234     21.6616    105.4600
   435.5000      7.9618      2.5383      0.0784      6.7675     21.8068    106.5357
   435.6000      7.9618      2.5401      0.0582      6.6583     22.3501    105.5100
   435.7000      7.9618      2.5295      0.0281      7.3008     22.9498    107.2787
   435.8000      7.9917      2.5042      0.0433      8.8337     23.3311    112.7533
   435.9000      7.9917      2.4819     -0.0224     10.1876     23.4061    117.0868
   436.0000      8.0155      2.4755      0.0349     10.5784     23.1593    120.5824
   436.1000      8.0155      2.4744      0.0544     10.6453     22.8156    128.1559
   436.2000      8.0155      2.4695      0.0684     10.9376     22.5096    135.8433
   436.3000      8.0233      2.4668      0.0190     11.1038     22.0458    135.1665
   436.4000      8.0233      2.4709      0.0550     10.8547     21.3570    130.2203
   436.5000      8.0229      2.4765      0.0732     10.5151     20.7744    131.2415
   436.6000      8.0229      2.4890      0.0184      9.7581     20.5518    135.1759
   436.7000      8.0229      2.5224      0.1001      7.7347     20.6447    133.2000
   436.8000      8.0200      2.5672      0.1405      5.0186     20.9313    125.4703
   436.9000      8.0200      2.6020      0.1768      2.9116     21.4237    117.5399
