~Version Information
VERS.                      2.0: CWLS Log ASCII Standard - VERSION 2.0
WRAP.                       NO: One line per depth step
~Well Information Block
STRT.FT               520.0000: 
STOP.FT              1373.0000: 
STEP.FT                 0.1000: 
NULL.                -999.2500: 
COMP.          Pioneer Natural Resources: COMPANY
WELL.            Gamma 13-3 Tr: WELL
FLD.           Purgatoire River: FIELD
LOC.           2127' FSL & 738' FWL: LOCATION
STAT.                 Colorado: State
CNTY.               Las Animas: COUNTY
CTRY.                      USA: Country
SECT.                        3: Section
TOWN.                       33S: Township
RANG.                       67W: Range
SRVC.                Patterson: SERVICE COMPANY
DATE.          Mon Sep 19 09:58:04 2005: LOG DATE
API.           05 071 08524 00: API
~Curve Information Block
DEPT.FT            0 000 00 00: Depth
DPOR.pu                       : CDL Density Porosity
GR.GAPI                       : Gamma Ray
NPOR.pu                       : Neutron Porosity
RHOB.g/cc                     : CDL Bulk Density
RHOC.g/cc                     : CDL Density Correction
DCAL.in                       : CDL Caliper
~Parameter Information Block
~A  Depth       DPOR         GR         NPOR        RHOB        RHOC        DCAL    
# ...
   577.6000      1.8852    114.7577     24.9549      2.6189      0.0709      8.0828
   577.7000      1.0670    111.9172     24.7668      2.6324      0.1125      8.0828
   577.8000      1.0600    109.6926     25.1607      2.6325      0.0826      8.0900
   577.9000      1.2710    107.7542     25.7175      2.6290      0.0262      8.0900
   578.0000      0.7108    106.5907     25.7918      2.6383      0.0268      8.0755
   578.1000     -0.3766    105.0157     25.1884      2.6562      0.1261      8.0755
   578.2000     -0.7787    102.7740     24.3400      2.6628      0.0795      8.0755
   578.3000      0.0212    101.8758     23.7013      2.6496      0.0684      8.0385
   578.4000      1.3395    102.6723     23.2696      2.6279      0.0974      8.0385
   578.5000      1.5768    104.6049     23.0052      2.6240      0.0217      8.0034
   578.6000     -0.2491    107.2237     22.9938      2.6541      0.0953      8.0034
   578.7000     -2.8595    108.1260     23.2118      2.6972      0.1547      8.0034
   578.8000     -4.4403    106.9868     23.3963      2.7233      0.1739      7.9710
   578.9000     -4.5298    102.6798     23.1917      2.7247      0.1952      7.9710
   579.0000     -3.5885     95.9271     22.8018      2.7092      0.1736      7.9548
   579.1000     -2.6113     92.9054     22.7643      2.6931      0.1168      7.9548
   579.2000     -2.5041     95.5111     23.0770      2.6913      0.1309      7.9548
   579.3000     -3.2835     97.7225     23.4203      2.7042      0.0890      7.9690
   579.4000     -3.9772     94.7243     23.6042      2.7156      0.1056      7.9690
   579.5000     -3.4160     88.4477     23.3942      2.7064      0.0437      8.0004
   579.6000     -1.9799     85.2609     22.9755      2.6827      0.0243      8.0004
   579.7000     -0.9643     88.9323     22.9945      2.6659      0.0162      8.0004
   579.8000     -0.3429     95.9041     23.4844      2.6557      0.0295      8.0340
   579.9000      1.0577    103.5285     23.7446      2.6325      0.0726      8.0340
   580.0000      3.5155    111.7663     23.5972      2.5920      0.0291      8.0624
   580.1000      5.9222    117.4898     23.5792      2.5523     -0.0416      8.0624
   580.2000      7.4726    119.9697     23.6567      2.5267     -0.0157      8.0624
   580.3000      8.1454    119.9128     23.3603      2.5156     -0.0188      8.0755
   580.4000      7.6511    114.9615     22.8435      2.5238      0.0349      8.0755
   580.5000      6.1675    108.4567     22.4566      2.5482      0.0546      8.0746
   580.6000      5.3807    105.6884     22.2751      2.5612      0.1158      8.0746
   580.7000      6.5305    106.0241     22.3733      2.5422      0.0818      8.0746
   580.8000      8.0224    107.0643     22.7724      2.5176      0.0283      8.0630
   580.9000      8.0272    106.6230     23.3174      2.5176      0.0698      8.0630
   581.0000      7.4973    104.8408     23.7173      2.5263      0.0998      8.0324
   581.1000      7.5598    106.1525     23.7240      2.5253      0.0492      8.0324
   581.2000      7.6792    112.1508     23.3513      2.5233      0.0929      8.0324
   581.3000      7.5402    116.7990     22.7815      2.5256      0.0653      8.0025
   581.4000      7.2053    113.3700     22.2444      2.5311      0.0266      8.0025
   581.5000      6.3578    104.3864     22.0689      2.5451      0.0143      8.0034
   581.6000      4.8970     98.6396     22.4303      2.5692      0.0480      8.0034
   581.7000      3.2375     98.2416     23.1042      2.5966      0.0837      8.0034
   581.8000      1.6981    100.9828     23.6387      2.6220      0.0583      8.0214
   581.9000      0.2369    108.3567     23.9714      2.6461      0.0795      8.0214
   582.0000     -0.9530    118.3859     24.3460      2.6657      0.1308      8.0233
   582.1000     -1.3317    125.7616     24.7426      2.6720      0.1088      8.0233
   582.2000     -0.3856    130.0513     24.9886      2.6564      0.0858      8.0233
   582.3000      1.9770    132.6581     25.0864      2.6174      0.0376      8.0145
   582.4000      4.8223    133.1332     25.1778      2.5704      0.0584      8.0145
   582.5000      6.7156    130.7194     25.3269      2.5392      0.0252      8.0214
   582.6000      6.8452    124.0270     25.4103      2.5371      0.0306      8.0214
   582.7000      6.1109    117.6424     25.2533      2.5492      0.0703      8.0214
   582.8000      6.1348    119.6744     24.8283      2.5488      0.0491      8.0478
   582.9000      7.1830    124.6714     24.4217      2.5315      0.0491      8.0478
   583.0000      8.5509    124.3146     24.2160      2.5089     -0.0076      8.0700
   583.1000      9.1718    122.6241     23.9992      2.4987     -0.0444      8.0700
   583.2000      8.5125    121.4370     23.7325      2.5095      0.0252      8.0700
   583.3000      7.4751    116.2876     23.6703      2.5267      0.0260      8.0706
   583.4000      7.0708    108.2770     23.5784      2.5333      0.0600      8.0706
   583.5000      7.2278    103.6586     23.2645      2.5307      0.0569      8.0440
   583.6000      7.5833    107.4965     23.0201      2.5249      0.1241      8.0440
   583.7000      8.1659    114.5317     22.9451      2.5153      0.0619      8.0440
   583.8000      9.0661    117.3825     23.0274      2.5004      0.0707      8.0098
   583.9000     10.3743    119.9766     23.3110      2.4788      0.0411      8.0098
   584.0000     11.4730    124.8470     23.5574      2.4607     -0.0014      8.0056
   584.1000     11.4054    125.8205     23.3324      2.4618      0.0202      8.0056
   584.2000     10.2637    119.9601     22.7942      2.4806      0.0048      8.0056
   584.3000      8.8812    112.5321     22.5318      2.5035      0.0053      8.0220
   584.4000      7.3917    110.4887     22.6522      2.5280     -0.0004      8.0220
   584.5000      5.5988    115.5086     22.7783      2.5576      0.1115      8.0296
   584.6000      3.8318    122.6250     22.6364      2.5868      0.0819      8.0296
   584.7000      2.0151    126.5348     22.2693      2.6168      0.0801      8.0296
   584.8000      0.3224    126.5385     22.0664      2.6447      0.1441      8.0136
   584.9000     -0.3157    125.1290     22.4966      2.6552      0.2063      8.0136
   585.0000      0.4643    123.1293     23.3141      2.6423      0.1341      7.9809
   585.1000      1.8506    119.7438     23.8803      2.6195      0.0933      7.9809
   585.2000      3.0203    115.4136     23.9891      2.6002      0.0922      7.9809
   585.3000      3.8865    111.0816     23.5951      2.5859      0.0473      7.9776
   585.4000      4.5781    108.5836     22.9967      2.5745      0.0338      7.9776
   585.5000      5.2357    107.5859     22.8139      2.5636      0.0009      8.0256
   585.6000      5.8547    106.2951     23.0018      2.5534     -0.0205      8.0256
   585.7000      6.3842    105.6735     22.8294      2.5447     -0.0001      8.0256
   585.8000      6.7449    107.0242     22.1313      2.5387      0.0246      8.0715
   585.9000      6.7914    108.1722     21.3956      2.5379      0.0272      8.0715
   586.0000      6.5825    105.9838     20.9996      2.5414      0.0366      8.0889
   586.1000      6.5805    100.0979     21.0719      2.5414      0.0228      8.0889
   586.2000      7.5104     94.7332     21.3341      2.5261      0.0623      8.0889
   586.3000      9.3749     93.9096     21.3495      2.4953     -0.0222      8.0944
   586.4000     10.8948     93.4508     21.0917      2.4702     -0.0537      8.0944
   586.5000     11.2652     88.4527     20.6959      2.4641     -0.0072      8.0949
   586.6000     11.4225     84.1543     20.2728      2.4615      0.0126      8.0949
   586.7000     12.3113     83.7835     19.9221      2.4469      0.0107      8.0949
   586.8000     13.2524     82.2626     19.6678      2.4313     -0.0398      8.0924
   586.9000     13.1630     77.1906     19.2919      2.4328     -0.0309      8.0924
   587.0000     12.0148     71.0162     18.6624      2.4518     -0.0193      8.0831
   587.1000     10.3879     65.5788     18.2159      2.4786      0.0272      8.0831
