~Version Information
VERS.                      2.0: CWLS Log ASCII Standard - VERSION 2.0
WRAP.                       NO: One line per depth step
~Well Information Block
STRT.FT                -2.7500: 
STOP.FT               973.2500: 
STEP.FT                 0.2500: 
NULL.                -999.2500: 
COMP.          Pioneer Natural Resources: COMPANY
WELL.          Red Raider 22-15: WELL
FLD.           Purgatoire River: FIELD
LOC.           1809' FNL & 2107' FWL: LOCATION
CNTY.               Las Animas: COUNTY
SRVC.                Patterson: SERVICE COMPANY
DATE.          Mon Apr 17 16:50:50 2006: LOG DATE
UWI.           05 071 08718 00: UNIQUE WELL ID
STAT.                 Colorado: STATE
~Curve Information Block
DEPT.FT            0 000 00 00: Depth
GR.GAPI                       : Gamma Ray
CCL.                          : Casing Collar Locator
TT3.usec                      : CBL 3' Travel Time
AMP3.mV                       : CBL 3' Amplitude
~Parameter Information Block
~A  Depth        GR         CCL         TT3         AMP3    
# ...
   700.7500     81.0027      0.0000    691.5485     10.7671
   701.0000     87.0015      0.0000    692.9633     10.8115
   701.2500     93.8106      0.0000    696.4745     10.8372
   701.5000    100.0746      0.0000    703.1009     10.8471
   701.7500    105.3669      0.0000    710.5565     10.8522
   702.0000    109.9139      0.0000    715.9174     10.8587
   702.2500    113.4012      0.0000    718.5447     10.8571
   702.5000    114.7286      0.0000    720.2871     10.8299
   702.7500    113.4307      0.0000    723.3789     10.7739
   703.0000    110.8641      0.0000    728.5576     10.7118
   703.2500    109.2374      0.0000    735.0421     10.6763
   703.5000    109.4133      0.0000    741.9265     10.6810
   703.7500    110.0006      0.0000    748.9998     10.7111
   704.0000    108.6611      0.0000    755.7890     10.7410
   704.2500    104.2713      0.0000    760.1994     10.7562
   704.5000     98.0322      0.0000    758.9211     10.7549
   704.7500     92.6362      0.0000    749.6563     10.7341
   705.0000     90.1448      0.0000    733.2855     10.6828
   705.2500     90.3783      0.0000    714.0367     10.5952
   705.5000     91.3884      0.0000    697.1075     10.4852
   705.7500     91.6267      0.0000    685.6158     10.3804
   706.0000     91.4520      0.0000    679.6396     10.2989
   706.2500     92.3792      0.0000    677.7354     10.2366
   706.5000     95.2026      0.0000    678.9533     10.1747
   706.7500     99.1297      0.0000    683.5858     10.0965
   707.0000    102.5270      0.0000    692.2819     10.0000
   707.2500    104.3569      0.0000    704.2654      9.9025
   707.5000    105.0038      0.0000    716.3828      9.8323
   707.7500    105.6154      0.0000    724.5530      9.8139
   708.0000    106.6064      0.0000    726.7542      9.8529
   708.2500    107.1327      0.0000    724.6292      9.9336
   708.5000    106.1310      0.0000    722.1304     10.0295
   708.7500    103.4454      0.0000    722.6456     10.1170
   709.0000     99.7686      0.0000    727.0349     10.1821
   709.2500     95.9526      0.0000    733.6764     10.2161
   709.5000     92.7130      0.0000    739.9861     10.2141
   709.7500     90.7005      0.0000    743.9847     10.1810
   710.0000     90.4236      0.0000    744.7115     10.1346
   710.2500     92.0058      0.0000    741.6859     10.0967
   710.5000     94.9988      0.0000    734.8850     10.0789
   710.7500     98.3524      0.0000    725.7148     10.0750
   711.0000    100.6764      0.0000    717.3975     10.0697
   711.2500    100.8633      0.0000    713.3713     10.0534
   711.5000     98.6895      0.0000    715.0700     10.0307
   711.7500     95.0432      0.0000    721.4430     10.0138
   712.0000     91.6884      0.0000    730.1771     10.0101
   712.2500     90.3881      0.0000    739.1137     10.0162
   712.5000     91.6486      0.0000    747.1057     10.0214
   712.7500     94.3422      0.0000    753.9722     10.0143
   713.0000     96.9599      0.0000    759.4273      9.9866
   713.2500     99.1019      0.0000    761.9797      9.9359
   713.5000    101.3262      0.0000    759.1465      9.8682
   713.7500    103.8054      0.0000    749.0955      9.7981
   714.0000    105.8330      0.0000    732.5164      9.7439
   714.2500    106.7445      0.0000    712.9086      9.7174
   714.5000    106.8745      0.0000    694.5910      9.7137
   714.7500    107.3945      0.0000    680.2590      9.7110
   715.0000    109.3477      0.0000    670.6379      9.6841
   715.2500    112.7898      0.0000    665.8868      9.6226
   715.5000    116.5181      0.0000    666.2490      9.5340
   715.7500    118.6097      0.0000    671.1926      9.4326
   716.0000    117.7364      0.0000    678.8361      9.3283
   716.2500    114.2738      0.0000    687.1014      9.2270
   716.5000    109.8974      0.0000    695.2048      9.1335
   716.7500    105.9717      0.0000    703.2399      9.0521
   717.0000    102.5960      0.0000    710.4876      8.9859
   717.2500     99.2978      0.0000    715.2662      8.9359
   717.5000     96.3216      0.0000    716.7913      8.8996
   717.7500     94.7194      0.0000    716.5197      8.8712
   718.0000     94.9868      0.0000    717.2944      8.8460
   718.2500     96.0382      0.0000    721.3093      8.8226
   718.5000     96.1184      0.0000    728.6458      8.8022
   718.7500     94.6977      0.0000    737.3351      8.7864
   719.0000     93.1356      0.0000    744.9964      8.7754
   719.2500     93.5213      0.0000    750.5811      8.7678
   719.5000     97.0228      0.0000    754.1540      8.7564
   719.7500    103.0781      0.0000    755.0083      8.7233
   720.0000    109.6695      0.0000    750.9670      8.6397
   720.2500    114.3008      0.0000    740.4560      8.4722
   720.5000    115.1665      0.0000    725.6274      8.1953
   720.7500    111.8943      0.0000    713.3290      7.8170
   721.0000    105.4755      0.0000    711.7186      7.4126
   721.2500     97.5681      0.0000    724.0900      7.1168
   721.5000     89.7337      0.0000    745.5954      7.0406
   721.7500     83.0802      0.0000    766.8680      7.1771
   722.0000     78.4446      0.0000    781.1136      7.4062
   722.2500     76.7107     -3.0000    787.6570      7.5893
   722.5000     78.6532     -3.0000    789.5969      7.6554
   722.7500     84.2303      0.0000    789.2645      7.6247
   723.0000     92.0094      0.0000    786.1403      7.5774
   723.2500     99.4540      0.0000    778.5724      7.5848
   723.5000    104.1320      0.0000    766.6499      7.6526
   723.7500    105.1835      0.0000    752.5997      7.7494
   724.0000    103.8726      0.0000    738.5605      7.8854
   724.2500    102.3784      0.0000    725.4061      8.1165
   724.5000    101.7526      0.0000    714.3885      8.4571
   724.7500    101.2295      0.0000    708.2825      8.8287
   725.0000     99.4676      0.0000    709.0662      9.1192
   725.2500     96.0913      0.0000    714.5483      9.2749
   725.5000     92.0146      0.0000    718.2061      9.3212
   725.7500     88.5270      0.0000    713.0387      9.3162
   726.0000     86.1552      0.0000    696.6044      9.3032
   726.2500     84.4311      0.0000    673.6218      9.3009
   726.5000     82.6010      0.0000    653.7568      9.3123
   726.7500     80.2756      0.0000    645.1773      9.3312
   727.0000     77.5619      0.0000    648.8447      9.3443
   727.2500     75.0281      0.0000    658.9794      9.3360
   727.5000     73.5291      0.0000    668.7305      9.2978
   727.7500     73.6883      0.0000    674.6547      9.2350
   728.0000     75.3939      0.0000    676.4969      9.1623
   728.2500     77.8235      0.0000    674.5715      9.0948
   728.5000     79.8442      0.0000    668.3369      9.0414
   728.7500     80.3662      0.0000    657.5649      9.0063
   729.0000     78.7497      0.0000    644.8077      8.9901
   729.2500     75.3043      0.0000    635.8199      8.9879
   729.5000     71.2455      0.0000    635.8122      8.9905
   729.7500     67.9248      0.0000    644.7999      8.9904
   730.0000     66.0751      0.0000    657.6492      8.9862
   730.2500     65.6411      0.0000    668.7942      8.9797
   730.5000     66.0576      0.0000    676.0944      8.9686
   730.7500     66.6205      0.0000    680.6305      8.9470
   731.0000     66.7729      0.0000    684.3735      8.9152
   731.2500     66.3453      0.0000    688.5268      8.8863
   731.5000     65.7016      0.0000    693.2622      8.8792
   731.7500     65.4528      0.0000    698.1672      8.9015
   732.0000     65.7790      0.0000    702.6546      8.9419
   732.2500     66.1341      0.0000    706.1599      8.9822
   732.5000     65.8330      0.0000    708.3658      9.0139
   732.7500     64.8484      0.0000    709.3954      9.0423
   733.0000     63.7912      0.0000    709.6842      9.0751
   733.2500     63.0913      0.0000    709.6564      9.1116
   733.5000     62.4096      0.0000    709.5430      9.1459
   733.7500     61.0252      0.0000    709.4244      9.1746
   734.0000     58.7642      0.0000    709.3467      9.2001
