~Version Information
VERS.                      2.0: CWLS Log ASCII Standard - VERSION 2.0
WRAP.                       NO: One line per depth step
~Well Information Block
STRT.FT               795.0000: 
STOP.FT              2276.0000: 
STEP.FT                 0.1000: 
NULL.                -999.2500: 
COMP.          Pioneer Natural Resources: COMPANY
WELL.            Wildcard 31-5: WELL
FLD.           Purgatoire River: FIELD
LOC.           624' FNL & 1852' FEL--: LOCATION
CNTY.               Las Animas: COUNTY
SRVC.                Patterson: SERVICE COMPANY
DATE.          Tue Mar 07 07:04:10 2006: LOG DATE
UWI.           05 071 08707 00: UNIQUE WELL ID
STAT.                 Colorado: STATE
~Curve Information Block
DEPT.FT            0 000 00 00: Depth
DCAL.in                       : CDL Caliper
DPOR.pu                       : CDL Density Porosity
NPOR.pu                       : Neutron Porosity
RHOB.g/cc                     : CDL Bulk Density
RHOC.g/cc                     : CDL Density Correction
GR.GAPI                       : Gamma Ray
~Parameter Information Block
~A  Depth       DCAL        DPOR        NPOR        RHOB        RHOC         GR     
# ...
  1092.6000      8.0543      9.7512     19.2134      2.4891      0.0757     59.7389
  1092.7000      8.0543      8.9669     19.1115      2.5020      0.0399     65.2896
  1092.8000      8.0512      8.1187     19.2052      2.5160      0.0684     65.7654
  1092.9000      8.0512      7.4918     19.2409      2.5264      0.0811     60.5237
  1093.0000      8.0512      8.0601     19.0327      2.5170      0.0832     52.5705
  1093.1000      8.0512      9.7068     18.8133      2.4898      0.0188     47.2084
  1093.2000      8.0512     11.0679     18.9936      2.4674      0.0228     47.2707
  1093.3000      8.0501     11.1577     19.4561      2.4659      0.0081     51.4284
  1093.4000      8.0501     10.1353     19.6688      2.4828      0.0403     55.5305
  1093.5000      8.0476      8.7104     19.5193      2.5063      0.0737     56.4182
  1093.6000      8.0476      7.3420     19.3780      2.5289      0.0756     55.1288
  1093.7000      8.0476      6.2794     19.4964      2.5464      0.0830     53.5027
  1093.8000      8.0452      5.8328     19.6822      2.5538      0.0775     50.1452
  1093.9000      8.0452      6.0096     19.6280      2.5508      0.0609     47.1100
  1094.0000      8.0446      6.7331     19.4715      2.5389      0.0918     49.3277
  1094.1000      8.0446      8.0700     19.5390      2.5168      0.0627     54.2952
  1094.2000      8.0446      9.5741     19.7129      2.4920      0.0122     56.3409
  1094.3000      8.0461     10.8277     19.8450      2.4713      0.0432     55.7081
  1094.4000      8.0461     11.7174     20.1755      2.4567      0.0101     57.0295
  1094.5000      8.0472     11.7106     20.6802      2.4568     -0.0081     61.5863
  1094.6000      8.0472     10.5032     21.1219      2.4767      0.0155     65.1209
  1094.7000      8.0472      8.9972     21.3612      2.5015      0.0553     64.2419
  1094.8000      8.0488      7.8643     21.1859      2.5202      0.0218     60.4143
  1094.9000      8.0488      6.5616     20.7909      2.5417      0.0407     56.9788
  1095.0000      8.0515      5.1457     20.7650      2.5651      0.0680     55.9873
  1095.1000      8.0515      4.1413     21.2356      2.5817      0.0515     56.3616
  1095.2000      8.0515      3.4169     21.7158      2.5936      0.1019     55.5405
  1095.3000      8.0580      2.8892     21.7605      2.6023      0.0887     51.0051
  1095.4000      8.0580      2.5358     21.5219      2.6082      0.0857     43.7648
  1095.5000      8.0662      2.6283     21.1448      2.6066      0.0814     39.9895
  1095.6000      8.0662      3.9663     20.7503      2.5846      0.1082     42.4853
  1095.7000      8.0662      6.2416     20.8837      2.5470      0.0144     47.7020
  1095.8000      8.0717      7.6224     21.5141      2.5242      0.0080     51.9863
  1095.9000      8.0717      7.1011     21.9001      2.5328     -0.0017     54.9158
  1096.0000      8.0733      5.2322     21.9324      2.5637      0.0534     56.6376
  1096.1000      8.0733      3.2626     22.0019      2.5962      0.0648     56.7088
  1096.2000      8.0733      2.4285     22.1884      2.6099      0.0909     55.5441
  1096.3000      8.0728      3.2608     22.4241      2.5962      0.0751     53.3737
  1096.4000      8.0728      5.0313     22.6220      2.5670      0.0615     50.1140
  1096.5000      8.0725      6.5770     22.8239      2.5415      0.0565     47.0150
  1096.6000      8.0725      7.3644     23.3871      2.5285      0.0224     47.1659
  1096.7000      8.0725      7.1415     24.3291      2.5322      0.0077     51.4702
  1096.8000      8.0723      5.8982     24.9761      2.5527      0.0175     55.3522
  1096.9000      8.0723      4.8281     25.0640      2.5703      0.0662     54.5964
  1097.0000      8.0707      5.2666     24.9685      2.5631      0.0866     50.3800
  1097.1000      8.0707      6.5417     24.8894      2.5421      0.0222     46.1029
  1097.2000      8.0707      7.2681     24.8608      2.5301      0.0508     45.5427
  1097.3000      8.0647      7.7644     25.0574      2.5219      0.0425     51.1516
  1097.4000      8.0647      8.1075     25.3707      2.5162     -0.0000     58.7209
  1097.5000      8.0553      6.9758     25.3726      2.5349      0.0230     63.2368
  1097.6000      8.0553      4.8372     25.1793      2.5702      0.1054     65.5976
  1097.7000      8.0553      3.6105     25.2611      2.5904      0.0804     67.2930
  1097.8000      8.0489      2.9262     25.5887      2.6017      0.0741     68.1943
  1097.9000      8.0489      1.5013     25.8292      2.6252      0.0893     68.3314
  1098.0000      8.0478      0.0378     26.0828      2.6494      0.1803     67.9083
  1098.1000      8.0478     -0.4220     26.5154      2.6570      0.1108     67.3300
  1098.2000      8.0478     -0.5486     26.9100      2.6591      0.0895     64.3482
  1098.3000      8.0476     -1.2110     27.1684      2.6700      0.0831     58.5131
  1098.4000      8.0476     -1.9671     27.3934      2.6825      0.0980     54.7921
  1098.5000      8.0456     -2.2244     27.4545      2.6867      0.0404     55.8559
  1098.6000      8.0456     -2.6348     27.2034      2.6935      0.0592     58.5916
  1098.7000      8.0456     -3.7551     26.8231      2.7120      0.0591     59.8324
  1098.8000      8.0436     -4.4397     26.6061      2.7233      0.1171     59.6303
  1098.9000      8.0436     -3.2032     26.4657      2.7029      0.0636     58.8877
  1099.0000      8.0454     -0.6481     26.1883      2.6607     -0.0160     57.9104
  1099.1000      8.0454      1.2672     26.0882      2.6291     -0.0229     56.3322
  1099.2000      8.0454      1.7204     26.4920      2.6216      0.0051     53.6590
  1099.3000      8.0497      0.6265     27.0866      2.6397     -0.0297     50.6626
  1099.4000      8.0497     -1.6449     27.4253      2.6771      0.0248     47.9508
  1099.5000      8.0540     -3.3215     27.4801      2.7048      0.0548     47.3945
  1099.6000      8.0540     -3.4720     27.4966      2.7073      0.0347     49.9425
  1099.7000      8.0540     -3.0871     27.6223      2.7009      0.0251     50.7440
  1099.8000      8.0539     -3.0923     27.7050      2.7010      0.0133     47.6893
  1099.9000      8.0539     -3.3364     27.5278      2.7051      0.0258     44.9985
  1100.0000      8.0496     -2.9365     27.2505      2.6985      0.0342     45.0509
  1100.1000      8.0496     -1.8707     27.2947      2.6809      0.0042     46.6462
  1100.2000      8.0496     -1.6422     27.6268      2.6771      0.0086     47.9292
  1100.3000      8.0461     -3.2735     27.7901      2.7040     -0.0227     49.0022
  1100.4000      8.0461     -5.9063     27.6792      2.7475      0.0580     50.6923
  1100.5000      8.0434     -7.5249     27.4738      2.7742      0.0494     51.8666
  1100.6000      8.0434     -6.8234     27.3724      2.7626      0.0761     51.5476
  1100.7000      8.0434     -4.4942     27.4508      2.7242      0.0476     51.4405
  1100.8000      8.0397     -2.7923     27.6173      2.6961     -0.0220     52.9135
  1100.9000      8.0397     -2.6234     27.8339      2.6933     -0.0093     53.6866
  1101.0000      8.0395     -2.4170     28.0156      2.6899      0.0463     51.8517
  1101.1000      8.0395     -1.0693     28.0604      2.6676     -0.0323     48.2542
  1101.2000      8.0395      0.6323     27.9839      2.6396      0.0323     44.6018
  1101.3000      8.0446      1.4164     27.6366      2.6266     -0.0271     43.1238
  1101.4000      8.0446      1.0120     27.0687      2.6333      0.0026     44.1147
  1101.5000      8.0466      0.7748     26.7510      2.6372      0.0032     45.8404
  1101.6000      8.0466      1.6542     26.6267      2.6227      0.0137     47.5214
  1101.7000      8.0466      2.9670     26.2285      2.6010     -0.0251     48.2265
  1101.8000      8.0397      3.7769     25.6779      2.5877     -0.0352     47.7030
  1101.9000      8.0397      4.2511     25.4426      2.5799      0.0109     46.5859
  1102.0000      8.0293      5.5403     25.5008      2.5586      0.0221     44.3233
  1102.1000      8.0293      7.4229     25.5066      2.5275     -0.0628     42.1716
