~Version Information
VERS.                      2.0: CWLS Log ASCII Standard - VERSION 2.0
WRAP.                       NO: One line per depth step
~Well Information Block
STRT.FT               875.0000: 
STOP.FT              2054.5000: 
STEP.FT                 0.2500: 
NULL.                -999.2500: 
COMP.          Pioneer Natural Resources: COMPANY
WELL.          Woodstock 43-19: WELL
FLD.           Purgatoire River: FIELD
LOC.           2195' FSL & 250' FEL: LOCATION
CNTY.               Las Animas: COUNTY
SRVC.                Patterson: SERVICE COMPANY
DATE.          Thu Feb 02 03:08:19 2006: LOG DATE
UWI.           05 071 08677 00: UNIQUE WELL ID
STAT.                 Colorado: STATE
~Curve Information Block
DEPT.FT            0 000 00 00: Depth
SN.Ohm-m                      : IEL Short Normal
SP.mV                         : IEL Spontaneous Potential
DIR.Ohm-m                     : IEL Induction Resistivity
GR.GAPI                       : Gamma Ray
~Parameter Information Block
~A  Depth        SN          SP         DIR          GR     
# ...
  1846.5000     15.5074     74.6250     13.7332     79.0011
  1846.7500     15.7311     74.6002     13.6962     80.7950
  1847.0000     15.9002     74.5124     13.6018     82.0420
  1847.2500     15.9432     74.3604     13.4372     82.0877
  1847.5000     15.8515     74.1340     13.2091     81.7914
  1847.7500     15.6555     73.8233     12.9357     81.6171
  1848.0000     15.3868     73.4286     12.6334     81.3345
  1848.2500     15.0588     72.9607     12.3127     81.2818
  1848.5000     14.6634     72.4363     11.9803     82.4113
  1848.7500     14.2098     71.8749     11.6433     84.4920
  1849.0000     13.7571     71.3000     11.3085     89.2063
  1849.2500     13.3710     70.7360     10.9813     92.5023
  1849.5000     13.0742     70.1997     10.6648     96.3679
  1849.7500     12.8613     69.6955     10.3619     98.1941
  1850.0000     12.7227     69.2190     10.0766    100.6455
  1850.2500     12.6429     68.7665      9.8137    102.4245
  1850.5000     12.6092     68.3443      9.5774    104.8448
  1850.7500     12.6097     67.9705      9.3695    105.6327
  1851.0000     12.6037     67.6681      9.1902    105.0295
  1851.2500     12.5462     67.4527      9.0407    103.9092
  1851.5000     12.4446     67.3199      8.9257    102.5810
  1851.7500     12.3428     67.2438      8.8540    102.3004
  1852.0000     12.2760     67.1894      8.8345    102.2355
  1852.2500     12.2456     67.1321      8.8714    101.9980
  1852.5000     12.2383     67.0696      8.9619    101.2017
  1852.7500     12.2479     67.0191      9.0971    100.4089
  1853.0000     12.2146     67.0081      9.2639     98.4836
  1853.2500     12.0537     67.0653      9.4476     96.3761
  1853.5000     11.7943     67.2146      9.6336     91.7748
  1853.7500     11.5477     67.4708      9.8108     88.0094
  1854.0000     11.3887     67.8360      9.9735     82.2848
  1854.2500     11.3722     68.2989     10.1221     79.0782
  1854.5000     11.5595     68.8396     10.2626     76.1395
  1854.7500     11.9924     69.4324     10.4046     75.8576
  1855.0000     12.6503     70.0477     10.5576     78.3908
  1855.2500     13.4037     70.6536     10.7257     81.8422
  1855.5000     14.0821     71.2226     10.9026     88.0552
  1855.7500     14.6031     71.7371     11.0705     91.5360
  1856.0000     14.9807     72.1882     11.2053     94.1563
  1856.2500     15.2715     72.5715     11.2846     94.1021
  1856.5000     15.5127     72.8850     11.2949     92.2925
  1856.7500     15.6926     73.1297     11.2347     90.5979
  1857.0000     15.7950     73.3103     11.1142     87.9764
  1857.2500     15.8063     73.4349     10.9523     86.2338
  1857.5000     15.6981     73.5136     10.7722     83.4987
  1857.7500     15.4713     73.5575     10.5956     81.6515
  1858.0000     15.1905     73.5785     10.4372     79.3871
  1858.2500     14.9122     73.5905     10.3032     78.5938
  1858.5000     14.6355     73.6091     10.1942     78.6540
  1858.7500     14.3877     73.6480     10.1108     79.3593
  1859.0000     14.2637     73.7148     10.0590     81.3430
  1859.2500     14.3037     73.8096     10.0523     83.4934
  1859.5000     14.4136     73.9264     10.1084     87.8154
  1859.7500     14.4936     74.0553     10.2422     90.5547
  1860.0000     14.5874     74.1857     10.4602     92.3093
  1860.2500     14.8151     74.3094     10.7592     91.2591
  1860.5000     15.2380     74.4228     11.1298     87.1526
  1860.7500     15.8440     74.5293     11.5617     83.8527
  1861.0000     16.5549     74.6381     12.0474     79.3042
  1861.2500     17.2732     74.7607     12.5822     76.2026
  1861.5000     18.0510     74.9046     13.1626     69.6553
  1861.7500     19.1522     75.0715     13.7870     63.3694
  1862.0000     20.9195     75.2563     14.4602     51.9194
  1862.2500     23.6349     75.4467     15.1994     44.3069
  1862.5000     27.3105     75.6259     16.0390     35.3610
  1862.7500     31.4274     75.7800     17.0273     32.0278
  1863.0000     35.0741     75.9064     18.2111     31.4627
  1863.2500     37.6272     76.0127     19.6070     33.5063
  1863.5000     39.2591     76.1088     21.1668     38.0083
  1863.7500     40.5704     76.1986     22.7536     40.3677
  1864.0000     41.8628     76.2786     24.1570     40.9418
  1864.2500     43.0487     76.3441     25.1615     39.2006
  1864.5000     44.1160     76.3944     25.6284     34.8672
  1864.7500     45.3286     76.4329     25.5289     32.0468
  1865.0000     46.9363     76.4673     24.9188     29.4210
  1865.2500     48.8365     76.5114     23.9052     29.0724
  1865.5000     50.5494     76.5804     22.6273     30.4767
  1865.7500     51.4231     76.6782     21.2360     32.3645
  1866.0000     50.8169     76.7908     19.8604     36.3323
  1866.2500     48.2312     76.8960     18.5816     40.0693
  1866.5000     43.5157     76.9815     17.4314     48.4214
  1866.7500     37.1988     77.0537     16.4101     56.0428
  1867.0000     30.5477     77.1305     15.5041     69.1178
  1867.2500     24.9677     77.2261     14.6943     77.3297
  1867.5000     21.2044     77.3397     13.9568     86.7615
  1867.7500     19.0922     77.4561     13.2659     91.0129
  1868.0000     17.9637     77.5555     12.6037     95.4403
  1868.2500     17.2394     77.6220     11.9682     97.4755
  1868.5000     16.6690     77.6480     11.3731     98.5409
  1868.7500     16.2209     77.6361     10.8382     97.4919
  1869.0000     15.8895     77.5993     10.3793     94.1206
  1869.2500     15.5966     77.5583     10.0033     92.1120
  1869.5000     15.2929     77.5337      9.7090     91.7834
  1869.7500     15.0333     77.5360      9.4907     93.7571
  1870.0000     14.8678     77.5597      9.3421     99.0949
  1870.2500     14.8055     77.5857      9.2594    103.3279
  1870.5000     14.8640     77.5922      9.2435    109.2097
  1870.7500     15.0314     77.5676      9.3005    112.1082
  1871.0000     15.2393     77.5186      9.4393    114.1649
  1871.2500     15.4024     77.4639      9.6656    113.8938
  1871.5000     15.5007     77.4162      9.9767    111.0291
  1871.7500     15.5969     77.3679     10.3592    107.3931
  1872.0000     15.7349     77.2962     10.7948     99.3457
  1872.2500     15.9310     77.1783     11.2710     92.6243
  1872.5000     16.2411     77.0028     11.7877     81.4997
  1872.7500     16.7898     76.7740     12.3573     73.7414
  1873.0000     17.8564     76.5122     13.0004     61.8164
  1873.2500     19.9129     76.2469     13.7438     54.0776
  1873.5000     23.4783     76.0052     14.6235     44.3729
  1873.7500     28.8589     75.7974     15.6889     40.1772
  1874.0000     35.8319     75.6101     17.0016     37.8847
  1874.2500     43.4383     75.4160     18.6241     38.4536
  1874.5000     50.3111     75.1949     20.5921     40.6274
  1874.7500     55.4828     74.9508     22.8667     42.0546
  1875.0000     58.7991     74.7123     25.2745     43.5676
  1875.2500     60.6141     74.5160     27.4791     44.2913
  1875.5000     61.3482     74.3858     29.0558     45.5696
  1875.7500     61.1795     74.3232     29.6886     47.0245
  1876.0000     59.9179     74.3107     29.3529     51.3715
  1876.2500     57.2391     74.3247     28.2968     56.8833
  1876.5000     53.0536     74.3479     26.8512     71.1270
  1876.7500     47.6917     74.3740     25.2650     84.7221
  1877.0000     41.8701     74.4037     23.6710    107.9790
  1877.2500     36.3703     74.4361     22.1363    121.9391
  1877.5000     31.6372     74.4646     20.7109    135.1624
  1877.7500     27.7857     74.4785     19.4382    137.6049
  1878.0000     24.8371     74.4683     18.3427    133.6756
  1878.2500     22.7180     74.4294     17.4226    128.6178
  1878.5000     21.2155     74.3623     16.6577    121.6320
  1878.7500     20.1190     74.2688     16.0225    118.6215
  1879.0000     19.3279     74.1452     15.4973    116.4780
  1879.2500     18.7884     73.9776     15.0714    115.9951
  1879.5000     18.4188     73.7442     14.7404    115.9156
  1879.7500     18.1389     73.4282     14.5028    116.2285
