~Version Information
VERS.                      2.0: CWLS Log ASCII Standard - VERSION 2.0
WRAP.                       NO: One line per depth step
~Well Information Block
STRT.FT                10.0000: 
STOP.FT               743.5000: 
STEP.FT                 0.1000: 
NULL.                -999.2500: 
COMP.          Pioneer Natural Resources: COMPANY
WELL.                Mia 21-18: WELL
FLD.           Purgatorie River: FIELD
LOC.           1067' FNL & 1824' FWL: LOCATION
PROV.                 Colorado: PROVINCE
CNTY.               Las Animas: COUNTRY
SRVC.                Patterson: SERVICE COMPANY
DATE.          Tue Nov 22 15:40:03 2005: LOG DATE
UWI.           05-071-08559               : UNIQUE WELL ID
~Curve Information Block
DEPT.FT            0 000 00 00: Depth
DCAL.in                       : CDL Caliper
RHOB.g/cc                     : CDL Bulk Density
RHOC.g/cc                     : CDL Density Correction
DPOR.pu                       : CDL Density Porosity
GR.GAPI                       : Gamma Ray
NPOR.pu                       : Neutron Porosity
~Parameter Information Block
~A  Depth       DCAL        RHOB        RHOC        DPOR         GR         NPOR    
# ...
   106.0000     -3.1029      1.9371      2.5653     -0.0143    137.2069     22.3554
   106.1000     -3.1029      1.9319      2.5679     -0.0144    133.3951     22.4993
   106.2000     -3.1029      1.9292      2.5734     -0.0144    132.4041     22.5301
   106.3000     -3.1029      1.9266      2.6019     -0.0145    133.4641     22.5422
   106.4000     -3.1029      1.9199      2.5975     -0.0146    133.8308     22.8589
   106.5000     -3.1029      1.9143      2.5649     -0.0147    132.0277     23.4410
   106.6000     -3.1029      1.9225      2.5709     -0.0146    130.5033     23.8815
   106.7000     -3.1029      1.9458      2.6012     -0.0141    131.6151     23.8831
   106.8000     -3.1029      1.9727      2.5937     -0.0136    133.8852     23.6412
   106.9000     -3.1029      1.9945      2.6138     -0.0131    135.3369     23.6151
   107.0000     -3.1029      2.0111      2.5861     -0.0128    136.6593     23.5793
   107.1000     -3.1029      2.0271      2.6011     -0.0125    137.8829     23.3243
   107.2000     -3.1029      2.0442      2.6068     -0.0121    135.1260     23.0104
   107.3000     -3.1029      2.0645      2.5910     -0.0117    128.5126     22.4474
   107.4000     -3.1029      2.0926      2.6128     -0.0112    123.6360     21.7943
   107.5000     -3.1029      2.1190      2.6393     -0.0106    123.4599     21.5424
   107.6000     -3.1029      2.1253      2.6288     -0.0105    126.7351     21.9747
   107.7000     -3.1029      2.1143      2.5883     -0.0107    130.2191     22.7061
   107.8000     -3.1029      2.1060      2.6059     -0.0109    131.3194     22.9302
   107.9000     -3.1029      2.1038      2.6189     -0.0109    131.4780     22.5078
   108.0000     -3.1029      2.0953      2.6179     -0.0111    133.2648     21.8253
   108.1000     -3.1029      2.0758      2.5915     -0.0115    136.1074     21.3635
   108.2000     -3.1029      2.0549      2.5644     -0.0119    137.3986     21.5824
   108.3000     -3.1029      2.0392      2.5742     -0.0122    137.9837     22.3522
   108.4000     -3.1029      2.0292      2.5568     -0.0124    141.2142     23.0866
   108.5000     -3.1029      2.0269      2.5818     -0.0125    144.3044     23.6227
   108.6000     -3.1029      2.0275      2.5866     -0.0125    143.2265     23.9109
   108.7000     -3.1029      2.0209      2.5859     -0.0126    140.8461     24.0011
   108.8000     -3.1029      2.0057      2.5652     -0.0129    140.7387     24.3371
   108.9000     -3.1029      1.9853      2.5710     -0.0133    143.4993     24.7549
   109.0000     -3.1029      1.9626      2.5615     -0.0138    146.6488     24.7693
   109.1000     -3.1029      1.9476      2.5257     -0.0141    146.5587     24.6370
   109.2000     -3.1029      1.9490      2.5765     -0.0140    145.9544     24.7644
   109.3000     -3.1029      1.9601      2.5713     -0.0138    147.2007     24.9250
   109.4000     -3.1029      1.9705      2.5894     -0.0136    146.4089     24.8739
   109.5000     -3.1029      1.9747      2.6052     -0.0135    141.5408     24.8038
   109.6000     -3.1029      1.9723      2.5939     -0.0136    134.7443     24.6983
   109.7000     -3.1029      1.9720      2.5542     -0.0136    128.8436     24.2813
   109.8000     -3.1029      1.9784      2.5995     -0.0134    125.9889     23.7895
   109.9000     -3.1029      1.9831      2.5964     -0.0133    125.9770     23.6275
   110.0000     -3.1029      1.9852      2.5614     -0.0133    128.2198     23.5223
   110.1000     -3.1029      1.9901      2.5865     -0.0132    132.3613     23.3473
   110.2000     -3.1029      1.9954      2.5902     -0.0131    134.8156     23.4101
   110.3000     -3.1029      1.9973      2.5910     -0.0131    133.0179     23.4770
   110.4000     -3.1029      1.9969      2.6036     -0.0131    130.5880     23.3008
   110.5000     -3.1029      2.0012      2.5598     -0.0130    129.6815     23.2003
   110.6000     -3.1029      2.0152      2.5965     -0.0127    129.4587     23.3788
   110.7000     -3.1029      2.0361      2.6075     -0.0123    129.5191     23.6916
   110.8000     -3.1029      2.0619      2.6048     -0.0118    128.2834     23.6995
   110.9000     -3.1029      2.0904      2.6219     -0.0112    124.7270     22.9896
   111.0000     -3.1029      2.1105      2.6621     -0.0108    120.9475     21.9291
   111.1000     -3.1029      2.1157      2.6230     -0.0107    119.3098     21.2394
   111.2000     -3.1029      2.1139      2.6216     -0.0107    120.5210     21.0040
   111.3000     -3.1029      2.1139      2.6146     -0.0107    123.2688     20.9930
   111.4000     -3.1029      2.1190      2.5992     -0.0106    124.7387     21.1080
   111.5000     -3.1029      2.1283      2.6223     -0.0104    126.0632     21.2081
   111.6000     -3.1029      2.1343      2.6198     -0.0103    130.1209     21.2868
   111.7000     -3.1029      2.1312      2.6197     -0.0104    134.6840     21.4171
   111.8000     -3.1029      2.1296      2.5443     -0.0104    135.1781     21.7273
   111.9000     -3.1029      2.1465      2.5829     -0.0101    130.7328     22.2674
   112.0000     -3.1029      2.1735      2.6240     -0.0095    124.8747     22.9133
   112.1000     -3.1029      2.1874      2.6173     -0.0093    122.0962     23.3506
   112.2000     -3.1029      2.1843      2.5850     -0.0093    123.4878     23.4880
   112.3000     -3.1029      2.1756      2.6109     -0.0095    127.2402     23.5316
   112.4000     -3.1029      2.1713      2.5617     -0.0096    130.1176     23.2793
   112.5000     -3.1029      2.1743      2.6082     -0.0095    129.2603     22.8327
   112.6000     -3.1029      2.1730      2.6129     -0.0095    125.5217     22.6341
   112.7000     -3.1029      2.1604      2.5458     -0.0098    120.4510     22.5114
   112.8000     -3.1029      2.1447      2.5547     -0.0101    115.0580     22.3402
   112.9000     -3.1029      2.1286      2.5535     -0.0104    111.8179     22.4115
   113.0000     -3.1029      2.1115      2.5063     -0.0108    112.6729     22.7427
   113.1000     -3.1029      2.0997      2.5170     -0.0110    115.7303     23.1026
   113.2000     -3.1029      2.1055      2.4609     -0.0109    116.2488     23.2273
   113.3000     -3.1029      2.1357      2.5139     -0.0103    112.9413     22.9373
   113.4000     -3.1029      2.1690      2.6053     -0.0096    110.1041     22.4244
   113.5000     -3.1029      2.1794      2.5750     -0.0094    110.0050     21.9487
   113.6000     -3.1029      2.1748      2.5450     -0.0095    109.9220     21.6602
   113.7000     -3.1029      2.1744      2.5564     -0.0095    110.3952     21.5891
   113.8000     -3.1029      2.1801      2.5549     -0.0094    114.0698     21.5741
   113.9000     -3.1029      2.1794      2.5687     -0.0094    118.3308     21.3845
   114.0000     -3.1029      2.1672      2.5322     -0.0097    119.5739     21.3495
   114.1000     -3.1029      2.1550      2.5140     -0.0099    119.3339     22.0000
   114.2000     -3.1029      2.1514      2.5422     -0.0100    119.1821     22.7262
   114.3000     -3.1029      2.1503      2.5602     -0.0100    118.9377     22.7661
   114.4000     -3.1029      2.1458      2.5495     -0.0101    121.3267     22.6141
   114.5000     -3.1029      2.1420      2.5075     -0.0102    124.7030     22.8538
   114.6000     -3.1029      2.1426      2.5584     -0.0102    123.8454     23.4090
   114.7000     -3.1029      2.1422      2.5378     -0.0102    120.7324     23.9141
   114.8000     -3.1029      2.1384      2.5351     -0.0102    120.0368     24.0191
   114.9000     -3.1029      2.1323      2.5482     -0.0104    122.6230     23.6933
   115.0000     -3.1029      2.1261      2.5283     -0.0105    126.9345     23.2027
   115.1000     -3.1029      2.1244      2.5199     -0.0105    131.4809     22.7893
   115.2000     -3.1029      2.1260      2.5440     -0.0105    133.6704     22.5043
   115.3000     -3.1029      2.1239      2.5386     -0.0105    131.1342     22.6230
   115.4000     -3.1029      2.1180      2.5426     -0.0106    127.7213     23.3407
   115.5000     -3.1029      2.1151      2.4986     -0.0107    126.3513     24.1026
