~Version Information
VERS.                      2.0: CWLS Log ASCII Standard - VERSION 2.0
WRAP.                       NO: One line per depth step
~Well Information Block
STRT.FT               694.2000: 
STOP.FT              1498.5000: 
STEP.FT                 0.1000: 
NULL.                -999.2500: 
COMP.          Pioneer Natural Resources: COMPANY
WELL.          Pallet Ranch 34-25 Tr: WELL
FLD.           Purgatoire River: FIELD
LOC.           465' FSL & 2138' FEL: LOCATION
PROV.                 Colorado: PROVINCE
CNTY.               Las Animas: COUNTRY
SRVC.                Patterson: SERVICE COMPANY
DATE.          Thu Jan 19 06:39:54 2006: LOG DATE
UWI.           05 071 08657 00: UNIQUE WELL ID
~Curve Information Block
DEPT.FT            0 000 00 00: Depth
DCAL.in                       : CDL Caliper
RHOB.g/cc                     : CDL Bulk Density
RHOC.g/cc                     : CDL Density Correction
DPOR.pu                       : CDL Density Porosity
GR.GAPI                       : Gamma Ray
~Parameter Information Block
~A  Depth       DCAL        RHOB        RHOC        DPOR         GR     
# ...
  1332.6000      8.0196      2.6116      0.1424      2.3282    162.8529
  1332.7000      8.0196      2.6141      0.1025      2.1771    166.5364
  1332.8000      7.9574      2.6187      0.1169      1.8994    168.5055
  1332.9000      7.9574      2.6138      0.1517      2.1934    172.1138
  1333.0000      7.8543      2.5932      0.0898      3.4445    173.1884
  1333.1000      7.8543      2.5770      0.0010      4.4230    166.9283
  1333.2000      7.8543      2.5705      0.0898      4.8167    159.6800
  1333.3000      7.8924      2.5524      0.0436      5.9131    158.3080
  1333.4000      7.8924      2.5315      0.0439      7.1832    159.5603
  1333.5000      7.8799      2.5316      0.0547      7.1754    159.3764
  1333.6000      7.8799      2.5537      0.0535      5.8380    160.0999
  1333.7000      7.8799      2.5885      0.0909      3.7272    163.4832
  1333.8000      7.8672      2.6227      0.1407      1.6554    167.2295
  1333.9000      7.8672      2.6356      0.1685      0.8738    170.4648
  1334.0000      7.8812      2.6223      0.1007      1.6782    175.6085
  1334.1000      7.8812      2.6017      0.1144      2.9282    180.3620
  1334.2000      7.8812      2.5881      0.0930      3.7506    182.5663
  1334.3000      7.8844      2.5830      0.0659      4.0624    186.9703
  1334.4000      7.8844      2.5835      0.0580      4.0298    192.6815
  1334.5000      7.9022      2.5864      0.0592      3.8532    193.0316
  1334.6000      7.9022      2.5813      0.0963      4.1630    187.9016
  1334.7000      7.9022      2.5640      0.0648      5.2121    179.2274
  1334.8000      7.8878      2.5536      0.0474      5.8441    169.5877
  1334.9000      7.8878      2.5680      0.0242      4.9714    162.6496
  1335.0000      7.8835      2.6046     -0.0137      2.7505    160.2788
  1335.1000      7.8835      2.6378      0.1057      0.7377    161.2979
  1335.2000      7.8835      2.6409      0.0978      0.5541    164.5118
  1335.3000      7.8879      2.6173      0.0722      1.9807    170.5000
  1335.4000      7.8879      2.5874      0.0718      3.7909    179.1447
  1335.5000      7.8901      2.5696      0.0506      4.8742    184.0340
  1335.6000      7.8901      2.5689      0.0589      4.9171    177.2899
  1335.7000      7.8901      2.5778      0.0746      4.3742    161.8540
  1335.8000      7.9062      2.5994      0.0254      3.0687    149.1717
  1335.9000      7.9062      2.6387      0.0898      0.6861    142.2220
  1336.0000      7.8958      2.6822      0.0818     -1.9521    136.7102
  1336.1000      7.8958      2.7262      0.0593     -4.6156    130.9821
  1336.2000      7.8958      2.7848      0.0961     -8.1689    121.0343
  1336.3000      7.8820      2.8578      0.1186    -12.5918    104.7377
  1336.4000      7.8820      2.9311      0.1137    -17.0362     88.2737
  1336.5000      7.8808      2.9882      0.0949    -20.4981     75.6799
  1336.6000      7.8808      3.0100      0.1185    -21.8174     67.6150
  1336.7000      7.8808      3.0060      0.0132    -21.5746     65.7147
  1336.8000      7.8802      3.0042      0.0639    -21.4666     69.7438
  1336.9000      7.8802      2.9859      0.0226    -20.3596     76.2911
  1337.0000      7.8741      2.9216     -0.0110    -16.4622     81.5895
  1337.1000      7.8741      2.8296     -0.0316    -10.8859     84.6500
  1337.2000      7.8741      2.7417     -0.1083     -5.5563     88.1229
  1337.3000      7.8627      2.6744     -0.1301     -1.4789     93.3465
  1337.4000      7.8627      2.6353     -0.1038      0.8932     98.7924
  1337.5000      7.8442      2.6184     -0.0567      1.9169    105.5884
  1337.6000      7.8442      2.6070     -0.0146      2.6040    113.8204
  1337.7000      7.8442      2.5956      0.0433      3.2952    118.5967
  1337.8000      7.8437      2.5892      0.1423      3.6847    115.5620
  1337.9000      7.8437      2.5909      0.0979      3.5823    107.5018
  1338.0000      7.8402      2.6150      0.0256      2.1217    103.5805
  1338.1000      7.8402      2.6715      0.0567     -1.3007    105.4760
  1338.2000      7.8402      2.7358      0.1089     -5.2026    104.8681
  1338.3000      7.8572      2.7826      0.0700     -8.0344     97.9519
  1338.4000      7.8572      2.8157      0.1358    -10.0445     89.3755
  1338.5000      7.8871      2.8438      0.1402    -11.7475     81.9241
  1338.6000      7.8871      2.8722      0.1009    -13.4658     77.8179
  1338.7000      7.8871      2.8938      0.1514    -14.7734     83.0334
  1338.8000      7.8935      2.8791      0.1128    -13.8841     94.2568
  1338.9000      7.8935      2.8166      0.1053    -10.0942     98.7388
  1339.0000      7.8358      2.7376      0.0343     -5.3113     94.8285
  1339.1000      7.8358      2.6821      0.0005     -1.9467     93.4636
  1339.2000      7.8358      2.6509      0.0692     -0.0532     98.0712
  1339.3000      7.8188      2.6219      0.0155      1.7017    104.6900
  1339.4000      7.8188      2.5938      0.0478      3.4038    113.1764
  1339.5000      7.8407      2.5762      0.0459      4.4756    121.7944
  1339.6000      7.8407      2.5754      0.0371      4.5241    125.7933
  1339.7000      7.8407      2.5874      0.0495      3.7965    122.0694
  1339.8000      7.8670      2.5975      0.0282      3.1847    112.8682
  1339.9000      7.8670      2.6062      0.0262      2.6518    105.0642
  1340.0000      7.8726      2.6221      0.1032      1.6904    102.1644
  1340.1000      7.8726      2.6351      0.0786      0.9051    102.6308
  1340.2000      7.8726      2.6334      0.0475      1.0054    106.4497
  1340.3000      7.8609      2.6183      0.0737      1.9240    114.2729
  1340.4000      7.8609      2.5998      0.0279      3.0445    121.8769
  1340.5000      7.8487      2.5959      0.0128      3.2785    124.3792
  1340.6000      7.8487      2.6189     -0.0032      1.8858    123.5190
  1340.7000      7.8487      2.6581      0.0633     -0.4887    123.9094
  1340.8000      7.8622      2.6903      0.0951     -2.4445    124.8092
  1340.9000      7.8622      2.7117      0.0919     -3.7423    124.7180
  1341.0000      7.8832      2.7352      0.0625     -5.1654    125.2409
  1341.1000      7.8832      2.7570      0.1552     -6.4835    124.2317
  1341.2000      7.8832      2.7556      0.1533     -6.3970    120.2853
  1341.3000      7.8804      2.7325      0.0324     -5.0007    118.3810
  1341.4000      7.8804      2.7075      0.0383     -3.4841    121.8809
  1341.5000      7.8906      2.6867     -0.0009     -2.2235    129.3940
  1341.6000      7.8906      2.6668     -0.0231     -1.0184    138.3007
  1341.7000      7.8906      2.6413      0.0359      0.5268    142.0666
  1341.8000      7.8679      2.6078      0.0276      2.5590    136.1003
  1341.9000      7.8679      2.5795      0.0467      4.2709    128.6168
  1342.0000      7.8731      2.5662      0.0286      5.0818    129.4597
  1342.1000      7.8731      2.5632      0.0279      5.2589    139.5835
  1342.2000      7.8731      2.5706      0.0010      4.8143    154.9549
  1342.3000      7.8794      2.5887      0.0581      3.7153    166.2552
  1342.4000      7.8794      2.6054      0.0527      2.7001    165.7244
  1342.5000      7.8844      2.6130      0.0650      2.2400    155.1951
  1342.6000      7.8844      2.6112      0.1054      2.3511    143.7898
  1342.7000      7.8844      2.5962      0.0568      3.2595    142.5061
  1342.8000      7.8947      2.5740      0.0130      4.6062    155.2029
  1342.9000      7.8947      2.5603     -0.0050      5.4393    169.2522
  1343.0000      7.8781      2.5572      0.0409      5.6251    170.4859
  1343.1000      7.8781      2.5578      0.0491      5.5874    166.2184
  1343.2000      7.8781      2.5718      0.0276      4.7371    166.3529
  1343.3000      7.8994      2.6030      0.0434      2.8482    164.6241
  1343.4000      7.8994      2.6236      0.1203      1.5980    157.1492
  1343.5000      7.8771      2.6148      0.0632      2.1336    151.0206
  1343.6000      7.8771      2.5946      0.0257      3.3572    146.4379
  1343.7000      7.8771      2.5848      0.0869      3.9540    142.1729
