~Version Information
VERS.                      2.0: CWLS Log ASCII Standard - VERSION 2.0
WRAP.                       NO: One line per depth step
~Well Information Block
STRT.FT                -6.7500: 
STOP.FT              2027.0000: 
STEP.FT                 0.2500: 
NULL.                -999.2500: 
COMP.          Pioneer Natural Resources: COMPANY
WELL.             Fleming 11-2: WELL
FLD.           Purgatorie River: FIELD
LOC.           534' FNL & 160' FWL--: LOCATION
CNTY.               Las Animas: COUNTY
SRVC.          Patterson Wireline: SERVICE COMPANY
DATE.          Thu Jul 13 10:28:00 2006: LOG DATE
UWI.           05 071 08491 00: UNIQUE WELL ID
STAT.                       CO: STATE
~Curve Information Block
DEPT.FT            0 000 00 00: Depth
CCL.                          : Casing Collar Locator
TT3.usec                      : CBL 3' Travel Time
AMP3.mV                       : CBL 3' Amplitude
GR.GAPI                       : Gamma Ray
~Parameter Information Block
~A  Depth       CCL         TT3         AMP3         GR     
# ...
  1467.2500      0.0000    492.7624      3.5832    164.0728
  1467.5000      0.0000    484.6469      3.6405    159.2269
  1467.7500      0.0000    479.0606      3.6790    154.3292
  1468.0000      0.0000    483.8620      3.7050    150.0040
  1468.2500      0.0000    503.7891      3.7260    146.3712
  1468.5000      0.0000    537.1854      3.7467    143.1207
  1468.7500      0.0000    576.1672      3.7735    139.7762
  1469.0000      0.0000    611.4901      3.8168    136.5816
  1469.2500      0.0000    638.7349      3.8855    134.8963
  1469.5000      0.0000    659.0345      3.9777    136.0534
  1469.7500      0.0000    673.0699      4.0783    140.0111
  1470.0000      0.0000    676.0988      4.1678    145.3763
  1470.2500      0.0000    660.9114      4.2378    150.4094
  1470.5000      0.0000    626.1588      4.2981    154.0725
  1470.7500      0.0000    581.1107      4.3656    156.6566
  1471.0000      0.0000    540.9041      4.4473    159.0559
  1471.2500      0.0000    516.3457      4.5340    160.8515
  1471.5000      0.0000    508.1675      4.6080    160.0214
  1471.7500      0.0000    509.6630      4.6542    155.5472
  1472.0000      0.0000    512.6597      4.6667    149.4981
  1472.2500      0.0000    511.2298      4.6500    145.3502
  1472.5000      0.0000    502.6441      4.6131    144.6910
  1472.7500      0.0000    487.5344      4.5591    146.5040
  1473.0000      0.0000    469.6547      4.4850    149.2524
  1473.2500      0.0000    454.2380      4.3909    152.4607
  1473.5000      0.0000    445.7087      4.2880    156.0803
  1473.7500      0.0000    446.8998      4.1997    159.1343
  1474.0000      0.0000    459.7190      4.1553    159.5853
  1474.2500      0.0000    484.6445      4.1802    155.6029
  1474.5000      0.0000    518.3602      4.2814    146.9505
  1474.7500      0.0000    552.8004      4.4375    135.2269
  1475.0000      0.0000    579.0991      4.6075    122.9255
  1475.2500      0.0000    594.5747      4.7510    112.4849
  1475.5000      0.0000    605.3239      4.8402    106.0720
  1475.7500      0.0000    619.3582      4.8569    105.2878
  1476.0000      0.0000    636.6429      4.7939    110.1435
  1476.2500      0.0000    647.7849      4.6676    118.4429
  1476.5000      0.0000    642.4330      4.5193    127.0575
  1476.7500      0.0000    617.2913      4.3922    134.1775
  1477.0000      0.0000    577.5721      4.3068    139.9275
  1477.2500      0.0000    533.9287      4.2594    144.8773
  1477.5000      0.0000    497.4424      4.2382    148.8633
  1477.7500      0.0000    474.6254      4.2357    151.5193
  1478.0000      0.0000    465.9909      4.2507    152.9761
  1478.2500      0.0000    468.8032      4.2877    153.3973
  1478.5000      0.0000    480.1310      4.3564    152.2897
  1478.7500      0.0000    497.4088      4.4659    148.7324
  1479.0000      0.0000    517.3547      4.6139    142.2640
  1479.2500      0.0000    535.5137      4.7816    133.6751
  1479.5000      0.0000    548.3799      4.9403    125.0994
  1479.7500      0.0000    556.8302      5.0637    119.0283
  1480.0000      0.0000    565.9799      5.1392    116.7535
  1480.2500      0.0000    579.5710      5.1736    117.5400
  1480.5000      0.0000    594.7290      5.1855    119.2487
  1480.7500      0.0000    603.2685      5.1890    119.9391
  1481.0000      0.0000    598.0510      5.1824    119.2263
  1481.2500      0.0000    578.2935      5.1549    118.1330
  1481.5000      0.0000    549.9342      5.1021    117.5848
  1481.7500      0.0000    521.3627      5.0347    117.3465
  1482.0000      0.0000    498.0042      4.9732    116.5274
  1482.2500      0.0000    479.7961      4.9350    114.6306
  1482.5000      0.0000    462.9496      4.9234    111.8378
  1482.7500      0.0000    443.9671      4.9264    108.6424
  1483.0000      0.0000    422.6136      4.9287    105.6011
  1483.2500      0.0000    401.7511      4.9241    103.3898
  1483.5000      0.0000    385.1956      4.9170    102.7352
  1483.7500      0.0000    376.3744      4.9143    104.1100
  1484.0000      0.0000    378.0991      4.9196    107.5948
  1484.2500      0.0000    391.5571      4.9343    112.9349
  1484.5000      0.0000    414.4770      4.9617    119.2803
  1484.7500      0.0000    441.1091      5.0056    124.9332
  1485.0000      0.0000    465.3359      5.0623    127.9245
  1485.2500      0.0000    484.3127      5.1175    127.1644
  1485.5000      0.0000    499.0938      5.1540    123.1505
  1485.7500      0.0000    512.3465      5.1640    117.8374
  1486.0000      0.0000    526.3193      5.1496    113.7830
  1486.2500      0.0000    542.4597      5.1159    112.7209
  1486.5000      0.0000    560.6309      5.0652    114.5339
  1486.7500      0.0000    576.8984      4.9987    117.8931
  1487.0000      0.0000    583.5305      4.9198    122.0376
  1487.2500      0.0000    575.0480      4.8352    127.6082
  1487.5000      0.0000    556.1725      4.7523    135.4868
  1487.7500      0.0000    541.1390      4.6737    145.1496
  1488.0000      0.0000    541.1153      4.5969    154.6614
  1488.2500      0.0000    552.3307      4.5202    162.2937
  1488.5000      0.0000    559.9990      4.4476    167.6532
  1488.7500      0.0000    554.1766      4.3879    171.1169
  1489.0000      0.0000    538.2940      4.3504    172.6948
  1489.2500      0.0000    521.9326      4.3412    172.0625
  1489.5000      0.0000    510.3173      4.3600    169.6885
  1489.7500      0.0000    503.9000      4.3998    167.1277
  1490.0000      0.0000    504.2948      4.4493    165.6550
  1490.2500      0.0000    515.2637      4.4953    165.0519
  1490.5000      0.0000    537.6877      4.5252    164.2181
  1490.7500      0.0000    566.4807      4.5314    162.5815
  1491.0000      0.0000    593.6490      4.5153    160.5437
  1491.2500      0.0000    613.7045      4.4861    158.9941
  1491.5000      0.0000    625.7133      4.4529    158.6327
  1491.7500      0.0000    631.3687      4.4199    159.3702
  1492.0000      0.0000    632.8220      4.3873    160.1341
  1492.2500      0.0000    632.3010      4.3562    159.4549
  1492.5000      0.0000    631.9697      4.3302    156.3734
  1492.7500      0.0000    632.7599      4.3100    151.1557
  1493.0000      0.0000    633.6249      4.2862    145.7450
  1493.2500      0.0000    632.7408      4.2444    143.2287
  1493.5000      0.0000    629.6052      4.1852    145.7208
  1493.7500      0.0000    625.7954      4.1366    152.2417
  1494.0000      0.0000    623.6030      4.1360    159.1727
  1494.2500      0.0000    624.0068      4.1963    163.2488
  1494.5000      0.0000    626.2897      4.2941    164.0623
  1494.7500      0.0000    629.5613      4.3905    163.8708
  1495.0000      2.0000    633.7639      4.4586    165.5336
  1495.2500      2.0000    638.4996      4.4960    170.3662
  1495.5000      0.0000    641.7707      4.5207    177.0624
  1495.7500      0.0000    641.1749      4.5621    182.4209
  1496.0000      0.0000    636.2857      4.6466    183.5698
  1496.2500      0.0000    629.3972      4.7734    179.8500
  1496.5000      0.0000    624.0074      4.8930    172.8502
  1496.7500      0.0000    622.4285      4.9300    165.2446
  1497.0000      0.0000    624.4219      4.8530    159.8637
  1497.2500      0.0000    627.9070      4.7107    158.9673
  1497.5000      0.0000    630.8760      4.5834    163.0781
  1497.7500      0.0000    632.6163      4.5136    170.0631
  1498.0000      0.0000    633.4605      4.4956    176.1360
  1498.2500      0.0000    634.0543      4.5077    178.8317
  1498.5000      0.0000    634.9980      4.5332    178.8717
  1498.7500      0.0000    636.5942      4.5623    178.5056
  1499.0000      0.0000    638.6155      4.5904    178.5856
  1499.2500      0.0000    640.4924      4.6180    178.1749
  1499.5000      0.0000    641.8098      4.6469    176.4350
  1499.7500      0.0000    642.5249      4.6752    173.6383
  1500.0000      0.0000    642.8107      4.6975    170.5634
  1500.2500      0.0000    642.8505      4.7084    168.0974
  1500.5000      0.0000    642.7852      4.7055    167.5921
