~Version Information
VERS.                      2.0: CWLS Log ASCII Standard - VERSION 2.0
WRAP.                       NO: One line per depth step
~Well Information Block
STRT.FT               245.0000: 
STOP.FT              1208.2500: 
STEP.FT                 0.2500: 
NULL.                -999.2500: 
COMP.          Pioneer Natural Resources: COMPANY
WELL.              Davida 34-8: WELL
FLD.           Purgatoire River: FIELD
LOC.           418' FSL & 1923' FEL--: LOCATION
CNTY.               Las Animas: COUNTY
SRVC.                Patterson: SERVICE COMPANY
DATE.          Sat Mar 18 07:00:13 2006: LOG DATE
UWI.           05 071 08722 00: UNIQUE WELL ID
STAT.                 Colorado: STATE
~Curve Information Block
DEPT.FT            0 000 00 00: Depth
GR.GAPI                       : Gamma Ray
DIR.Ohm-m                     : IEL Induction Resistivity
~Parameter Information Block
~A  Depth        GR         DIR     
# ...
   969.7500    126.6131      9.5254
   970.0000    125.7079      9.4755
   970.2500    123.3271      9.3792
   970.5000    118.4456      9.2209
   970.7500    115.6641      9.0103
   971.0000    114.0431      8.7792
   971.2500    114.9059      8.5663
   971.5000    118.1676      8.4018
   971.7500    120.8105      8.2984
   972.0000    124.5384      8.2510
   972.2500    126.8051      8.2430
   972.5000    130.1928      8.2558
   972.7500    132.5106      8.2780
   973.0000    135.6770      8.3114
   973.2500    137.1481      8.3706
   973.5000    137.7859      8.4782
   973.7500    137.2046      8.6582
   974.0000    135.7824      8.9288
   974.2500    135.2251      9.2968
   974.5000    135.7936      9.7521
   974.7500    137.2175     10.2642
   975.0000    140.7322     10.7843
   975.2500    143.5186     11.2542
   975.5000    146.6097     11.6237
   975.7500    146.8169     11.8694
   976.0000    143.6784     12.0043
   976.2500    139.8718     12.0712
   976.5000    133.4465     12.1226
   976.7500    129.7303     12.1998
   977.0000    126.1370     12.3196
   977.2500    125.2153     12.4730
   977.5000    125.6487     12.6341
   977.7500    126.7992     12.7748
   978.0000    129.2217     12.8768
   978.2500    130.8668     12.9360
   978.5000    132.5564     12.9581
   978.7500    132.9427     12.9516
   979.0000    132.8748     12.9242
   979.2500    132.8898     12.8847
   979.5000    133.2639     12.8455
   979.7500    133.4859     12.8211
   980.0000    133.5872     12.8232
   980.2500    133.8876     12.8569
   980.5000    135.4321     12.9179
   980.7500    137.1149     12.9944
   981.0000    139.7605     13.0690
   981.2500    141.1169     13.1238
   981.5000    141.9789     13.1465
   981.7500    141.4887     13.1349
   982.0000    138.7596     13.0967
   982.2500    135.5890     13.0444
   982.5000    129.5153     12.9884
   982.7500    125.4560     12.9331
   983.0000    120.9116     12.8761
   983.2500    119.3414     12.8096
   983.5000    118.8574     12.7240
   983.7500    119.3054     12.6131
   984.0000    120.4275     12.4783
   984.2500    121.2104     12.3290
   984.5000    122.1455     12.1780
   984.7500    122.5552     12.0359
   985.0000    123.0327     11.9090
   985.2500    123.4212     11.8001
   985.5000    124.1354     11.7109
   985.7500    124.5778     11.6421
   986.0000    124.9958     11.5918
   986.2500    125.0335     11.5550
   986.5000    124.6235     11.5238
   986.7500    124.0984     11.4905
   987.0000    123.3321     11.4495
   987.2500    123.1124     11.3995
   987.5000    123.5013     11.3450
   987.7500    124.2409     11.2988
   988.0000    125.7221     11.2821
   988.2500    126.5598     11.3202
   988.5000    126.9003     11.4361
   988.7500    126.2834     11.6450
   989.0000    123.9420     11.9495
   989.2500    121.3560     12.3366
   989.5000    115.8295     12.7765
   989.7500    111.2143     13.2263
   990.0000    103.9038     13.6399
   990.2500     99.6786     13.9794
   990.5000     95.7889     14.2225
   990.7500     95.2683     14.3622
   991.0000     97.2864     14.4006
   991.2500     99.8868     14.3453
   991.5000    104.7854     14.2083
   991.7500    108.5911     14.0061
   992.0000    115.1846     13.7586
   992.2500    119.8995     13.4865
   992.5000    126.1000     13.2080
   992.7500    128.7305     12.9390
   993.0000    129.7731     12.6937
   993.2500    128.9765     12.4863
   993.5000    127.2279     12.3281
   993.7500    126.6481     12.2239
   994.0000    127.2444     12.1687
   994.2500    128.1995     12.1505
   994.5000    129.1463     12.1551
   994.7500    128.8930     12.1721
   995.0000    127.0635     12.1966
   995.2500    125.2109     12.2288
   995.5000    122.2668     12.2738
   995.7500    120.3863     12.3416
   996.0000    117.0586     12.4439
   996.2500    113.8563     12.5903
   996.5000    107.2882     12.7839
   996.7500    102.3389     13.0202
   997.0000     95.4656     13.2877
   997.2500     91.7247     13.5667
   997.5000     87.8121     13.8276
   997.7500     86.6854     14.0307
   998.0000     87.4877     14.1330
   998.2500     89.1585     14.1033
   998.5000     91.7725     13.9366
   998.7500     93.2127     13.6574
   999.0000     96.0156     13.3107
   999.2500     99.1926     12.9454
   999.5000    106.0300     12.6017
   999.7500    111.1803     12.3053
  1000.0000    118.2459     12.0676
  1000.2500    122.0132     11.8902
  1000.5000    126.1826     11.7709
  1000.7500    128.2140     11.7096
  1001.0000    130.5180     11.7096
  1001.2500    131.5808     11.7785
  1001.5000    132.2451     11.9268
  1001.7500    132.0082     12.1671
  1002.0000    130.8709     12.5120
  1002.2500    129.9425     12.9702
  1002.5000    129.3006     13.5410
  1002.7500    130.0864     14.2095
  1003.0000    133.5450     14.9414
  1003.2500    136.5574     15.6772
  1003.5000    139.0802     16.3329
  1003.7500    137.6827     16.8101
  1004.0000    130.0500     17.0190
  1004.2500    122.3960     16.9093
  1004.5000    110.9755     16.4944
  1004.7500    105.5999     15.8512
  1005.0000    102.4254     15.0925
  1005.2500    103.0658     14.3261
  1005.5000    106.4263     13.6272
  1005.7500    109.3952     13.0318
  1006.0000    113.7175     12.5458
  1006.2500    115.7640     12.1593
  1006.5000    116.3814     11.8594
  1006.7500    114.8065     11.6382
  1007.0000    109.9065     11.4943
  1007.2500    105.7786     11.4303
  1007.5000    100.1494     11.4475
  1007.7500     97.7337     11.5413
  1008.0000     97.0124     11.6973
  1008.2500     98.4784     11.8903
  1008.5000    103.0742     12.0855
  1008.7500    107.2427     12.2438
  1009.0000    113.8748     12.3307
  1009.2500    117.6343     12.3285
  1009.5000    121.2017     12.2437
  1009.7500    122.2101     12.1050
  1010.0000    122.4989     11.9510
  1010.2500    122.3312     11.8151
  1010.5000    121.6738     11.7174
  1010.7500    120.7772     11.6644
  1011.0000    118.6378     11.6539
  1011.2500    116.9651     11.6787
  1011.5000    114.9772     11.7278
  1011.7500    114.4160     11.7859
  1012.0000    114.7426     11.8367
  1012.2500    115.4237     11.8694
  1012.5000    116.6825     11.8844
  1012.7500    117.6070     11.8932
  1013.0000    118.8234     11.9111
  1013.2500    119.0855     11.9503
  1013.5000    118.2217     12.0160
  1013.7500    117.1888     12.1056
  1014.0000    116.0667     12.2108
  1014.2500    115.7139     12.3190
  1014.5000    114.8191     12.4159
  1014.7500    113.5488     12.4894
  1015.0000    111.3226     12.5334
  1015.2500    110.5952     12.5496
  1015.5000    111.7886     12.5449
  1015.7500    114.0374     12.5245
  1016.0000    118.5070     12.4871
  1016.2500    121.3830     12.4262
  1016.5000    124.2756     12.3390
  1016.7500    124.9552     12.2346
  1017.0000    124.9657     12.1354
  1017.2500    125.4042     12.0714
  1017.5000    127.9305     12.0699
  1017.7500    130.2957     12.1489
  1018.0000    132.0558     12.3160
  1018.2500    130.4998     12.5714
  1018.5000    123.3686     12.9107
  1018.7500    116.0880     13.3264
  1019.0000    103.3027     13.8071
  1019.2500     94.7356     14.3387
  1019.5000     83.8911     14.9087
  1019.7500     79.0377     15.5091
  1020.0000     75.9455     16.1351
  1020.2500     76.0107     16.7765
  1020.5000     77.0128     17.4094
  1020.7500     77.1394     17.9961
  1021.0000     75.7868     18.4950
  1021.2500     73.9971     18.8755
  1021.5000     70.7800     19.1279
  1021.7500     69.0403     19.2635
  1022.0000     68.3242     19.3036
  1022.2500     69.3070     19.2650
  1022.5000     72.0188     19.1500
  1022.7500     73.8423     18.9464
  1023.0000     75.9522     18.6384
  1023.2500     77.1343     18.2224
  1023.5000     79.2444     17.7186
  1023.7500     81.1804     17.1704
  1024.0000     85.1799     16.6288
  1024.2500     88.5630     16.1341
  1024.5000     94.0536     15.7063
  1024.7500     97.2280     15.3480
  1025.0000     99.7617     15.0558
  1025.2500     99.3057     14.8280
