~Version Information
VERS.                      2.0: CWLS Log ASCII Standard - VERSION 2.0
WRAP.                       NO: One line per depth step
~Well Information Block
STRT.FT               555.0000: 
STOP.FT              1159.0000: 
STEP.FT                 0.2500: 
NULL.                -999.2500: 
COMP.          Pioneer Natural Resources: COMPANY
WELL.              Draco 31-21: WELL
FLD.           Purgatoire River: FIELD
LOC.           491' FNL & 2446' FEL: LOCATION
CNTY.               Las Animas: COUNTY
SRVC.                Patterson: SERVICE COMPANY
DATE.          Tue Jan 31 17:48:38 2006: LOG DATE
UWI.           05 071 08672 00: UNIQUE WELL ID
STAT.                 Colorado: STATE
~Curve Information Block
DEPT.FT            0 000 00 00: Depth
SN.Ohm-m                      : IEL Short Normal
SP.mV                         : IEL Spontaneous Potential
DIR.Ohm-m                     : IEL Induction Resistivity
GR.GAPI                       : Gamma Ray
~Parameter Information Block
~A  Depth        SN          SP         DIR          GR     
# ...
   890.0000     16.1881     12.3133     13.7154     76.7914
   890.2500     16.8141     11.9889     14.1611     74.2041
   890.5000     17.4677     11.6951     14.6405     68.9029
   890.7500     18.1591     11.4342     15.1562     65.0979
   891.0000     18.9521     11.1997     15.7139     60.2402
   891.2500     19.9264     10.9836     16.3227     58.1659
   891.5000     21.1033     10.7821     16.9933     57.2731
   891.7500     22.4310     10.5964     17.7330     57.9855
   892.0000     23.8056     10.4282     18.5362     59.9717
   892.2500     25.1149     10.2747     19.3759     61.1202
   892.5000     26.2683     10.1279     20.2023     61.7450
   892.7500     27.1626      9.9831     20.9516     61.5691
   893.0000     27.7310      9.8483     21.5602     61.6609
   893.2500     28.0430      9.7483     21.9764     62.9479
   893.5000     28.1745      9.7194     22.1651     68.1408
   893.7500     28.0444      9.7961     22.1105     74.0836
   894.0000     27.6190      9.9994     21.8243     85.7484
   894.2500     27.0946     10.3341     21.3542     93.8719
   894.5000     26.6106     10.7928     20.7780    103.2950
   894.7500     26.0260     11.3606     20.1780    106.2361
   895.0000     25.1682     12.0154     19.6138    105.0966
   895.2500     24.1024     12.7308     19.1125    101.6472
   895.5000     23.0197     13.4860     18.6780     95.5374
   895.7500     21.9913     14.2717     18.3077     92.5852
   896.0000     21.0178     15.0815     18.0013     91.3176
   896.2500     20.2100     15.8940     17.7581     92.2958
   896.5000     19.6681     16.6663     17.5695     94.7049
   896.7500     19.2837     17.3474     17.4131     95.8293
   897.0000     18.8418     17.8985     17.2560     95.8204
   897.2500     18.2626     18.3046     17.0674     94.7959
   897.5000     17.7008     18.5722     16.8334     92.6764
   897.7500     17.3819     18.7205     16.5663     91.4532
   898.0000     17.3566     18.7741     16.2999     90.3461
   898.2500     17.4851     18.7566     16.0734     90.0235
   898.5000     17.5822     18.6843     15.9138     89.9104
   898.7500     17.5466     18.5655     15.8248     90.0248
   899.0000     17.4339     18.4054     15.7855     90.3451
   899.2500     17.3563     18.2144     15.7582     90.4160
   899.5000     17.3074     18.0124     15.7023     89.8949
   899.7500     17.2215     17.8231     15.5880     89.2802
   900.0000     17.1237     17.6616     15.4002     88.9065
   900.2500     17.0739     17.5265     15.1345     89.4435
   900.5000     17.0603     17.4038     14.7908     91.1151
   900.7500     17.0228     17.2767     14.3731     92.1872
   901.0000     16.9147     17.1340     13.8950     92.6692
   901.2500     16.7508     16.9743     13.3836     91.8294
   901.5000     16.5674     16.8065     12.8751     88.6307
   901.7500     16.3388     16.6502     12.4060     85.5218
   902.0000     16.0324     16.5310     12.0052     80.8063
   902.2500     15.6667     16.4737     11.6908     78.7510
   902.5000     15.2721     16.4916     11.4716     78.7448
   902.7500     14.8830     16.5822     11.3508     80.8119
   903.0000     14.5578     16.7299     11.3290     85.6896
   903.2500     14.3357     16.9122     11.4053     89.1555
   903.5000     14.1895     17.1030     11.5752     93.6050
   903.7500     14.1345     17.2784     11.8269     95.6606
   904.0000     14.2884     17.4270     12.1399     96.2604
   904.2500     14.6628     17.5594     12.4896     94.1292
   904.5000     15.1243     17.7020     12.8583     86.4029
   904.7500     15.6541     17.8809     13.2437     78.7954
   905.0000     16.3675     18.1054     13.6602     65.9983
   905.2500     17.2962     18.3608     14.1311     57.9916
   905.5000     18.4023     18.6177     14.6815     48.5817
   905.7500     19.7202     18.8504     15.3326     44.5873
   906.0000     21.2541     19.0492     16.0996     42.0275
   906.2500     22.7989     19.2114     16.9916     42.1900
   906.5000     24.0675     19.3272     18.0115     44.3427
   906.7500     24.9455     19.3769     19.1524     46.6497
   907.0000     25.5254     19.3395     20.3843     50.8901
   907.2500     25.9578     19.2024     21.6409     53.9015
   907.5000     26.3075     18.9622     22.8204     58.0084
   907.7500     26.5734     18.6209     23.8117     60.0357
   908.0000     26.7654     18.1865     24.5318     61.4354
   908.2500     26.8785     17.6786     24.9523     61.1981
   908.5000     26.8796     17.1276     25.0976     59.5148
   908.7500     26.7854     16.5625     25.0236     58.0345
   909.0000     26.6881     15.9949     24.7911     56.2870
   909.2500     26.6887     15.4129     24.4558     55.7701
   909.5000     26.8207     14.7878     24.0759     55.8172
   909.7500     26.9876     14.0886     23.7181     56.1022
   910.0000     27.0121     13.3026     23.4421     56.8248
   910.2500     26.8091     12.4514     23.2702     57.9579
   910.5000     26.4818     11.5948     23.1641     61.7560
   910.7500     26.2135     10.8201     23.0296     65.7218
   911.0000     26.0225     10.2256     22.7538     71.8116
   911.2500     25.6825      9.9034     22.2596     74.1909
   911.5000     25.0270      9.9249     21.5417     73.6734
   911.7500     24.1830     10.3251     20.6578     71.3138
   912.0000     23.3386     11.0882     19.6870     67.7817
   912.2500     22.5264     12.1433     18.6984     67.0997
   912.5000     21.7505     13.3780     17.7450     69.7820
   912.7500     21.0796     14.6648     16.8716     73.7433
   913.0000     20.5421     15.8917     16.1156     81.6246
   913.2500     20.0972     16.9831     15.4973     87.3486
   913.5000     19.7244     17.9067     15.0105     95.4090
   913.7500     19.4297     18.6649     14.6220     99.9290
   914.0000     19.2186     19.2812     14.2848    105.1263
   914.2500     19.0757     19.7878     13.9633    107.5280
   914.5000     18.8841     20.2182     13.6529    109.2002
   914.7500     18.4942     20.6048     13.3782    108.6309
   915.0000     17.9209     20.9754     13.1707    104.8807
   915.2500     17.3297     21.3475     13.0456    100.7032
   915.5000     16.8605     21.7238     12.9972     92.9780
   915.7500     16.5906     22.0943     13.0106     87.5513
   916.0000     16.5398     22.4440     13.0764     80.1773
   916.2500     16.5944     22.7610     13.1973     76.5222
   916.5000     16.6561     23.0399     13.3827     73.8991
   916.7500     16.8636     23.2843     13.6384     73.9129
   917.0000     17.4218     23.5081     13.9601     74.9435
   917.2500     18.3232     23.7328     14.3341     75.1960
   917.5000     19.3485     23.9799     14.7415     74.0542
   917.7500     20.2271     24.2623     15.1633     72.4528
   918.0000     20.8089     24.5821     15.5827     69.7231
   918.2500     21.1604     24.9339     15.9855     68.4581
   918.5000     21.4641     25.3092     16.3576     68.8976
   918.7500     21.7758     25.7018     16.6787     71.3019
   919.0000     21.9490     26.1144     16.9140     77.6392
   919.2500     21.8360     26.5617     17.0159     82.6162
   919.5000     21.4529     27.0671     16.9468     88.8021
   919.7500     20.9059     27.6552     16.7070     90.9285
   920.0000     20.2542     28.3455     16.3439     90.6151
   920.2500     19.4868     29.1465     15.9315     88.8169
   920.5000     18.5952     30.0495     15.5387     85.9492
   920.7500     17.6526     31.0252     15.2118     84.9155
   921.0000     16.8574     32.0246     14.9711     84.8132
   921.2500     16.4827     32.9883     14.8146     85.0490
   921.5000     16.6529     33.8635     14.7237     84.8672
   921.7500     17.1953     34.6234     14.6720     84.4510
   922.0000     17.8177     35.2726     14.6364     84.1134
   922.2500     18.3253     35.8342     14.6022     84.2567
   922.5000     18.6584     36.3301     14.5599     84.7122
   922.7500     18.8360     36.7723     14.4982     85.0297
   923.0000     18.8600     37.1666     14.4057     85.6893
   923.2500     18.7180     37.5176     14.2818     86.4018
