~Version Information
VERS.                      2.0: CWLS Log ASCII Standard - VERSION 2.0
WRAP.                       NO: One line per depth step
~Well Information Block
STRT.FT                10.0000: 
STOP.FT               715.0000: 
STEP.FT                 0.1000: 
NULL.                -999.2500: 
COMP.          Pioneer Natural Resources: COMPANY
WELL.           Belvedere 14-7: WELL
FLD.           Purgatorie River: FIELD
LOC.           786' FSL & 1283' FWL: LOCATION
PROV.                 Colorado: PROVINCE
CNTY.               Las Animas: COUNTRY
SRVC.                Patterson: SERVICE COMPANY
DATE.          Mon Nov 28 07:30:54 2005: LOG DATE
UWI.           05-071-08557               : UNIQUE WELL ID
~Curve Information Block
DEPT.FT            0 000 00 00: Depth
DCAL.in                       : CDL Caliper
RHOB.g/cc                     : CDL Bulk Density
RHOC.g/cc                     : CDL Density Correction
DPOR.pu                       : CDL Density Porosity
GR.GAPI                       : Gamma Ray
NPOR.pu                       : Neutron Porosity
~Parameter Information Block
~A  Depth       DCAL        RHOB        RHOC        DPOR         GR         NPOR    
# ...
   653.2000      7.9367      2.4367     -0.0161     12.9256     89.1071     25.1186
   653.3000      7.9521      2.4443      0.0075     12.4664     89.0806     24.9324
   653.4000      7.9521      2.4533     -0.0200     11.9212     86.9878     24.8082
   653.5000      7.9569      2.4604     -0.0069     11.4904     83.3171     24.6610
   653.6000      7.9569      2.4606      0.0350     11.4763     79.7858     24.5034
   653.7000      7.9569      2.4507      0.0034     12.0762     76.4841     24.2497
   653.8000      7.9549      2.4366     -0.0118     12.9338     74.8083     23.8305
   653.9000      7.9549      2.4234      0.0133     13.7335     76.0728     23.5308
   654.0000      7.9517      2.4175     -0.0099     14.0911     78.0673     23.5062
   654.1000      7.9517      2.4280      0.0055     13.4530     78.3602     23.5225
   654.2000      7.9517      2.4502      0.0109     12.1098     78.2032     23.6158
   654.3000      7.9445      2.4655      0.0480     11.1811     79.7751     23.9376
   654.4000      7.9445      2.4591      0.0159     11.5722     81.7608     24.2561
   654.5000      7.9376      2.4405     -0.0367     12.6990     83.0378     24.2069
   654.6000      7.9376      2.4375     -0.0114     12.8770     83.8159     23.9250
   654.7000      7.9376      2.4606      0.0142     11.4759     83.0144     23.8121
   654.8000      7.9302      2.4917      0.0450      9.5966     80.2256     23.9238
   654.9000      7.9302      2.5043      0.0656      8.8289     77.8982     24.2173
   655.0000      7.9333      2.4977      0.0383      9.2317     78.6985     24.5160
   655.1000      7.9333      2.4956      0.0047      9.3571     81.6346     24.3443
   655.2000      7.9333      2.5052      0.0338      8.7751     83.6241     23.6561
   655.3000      7.9336      2.5203     -0.0032      7.8580     83.9927     23.0234
   655.4000      7.9336      2.5431      0.0237      6.4759     83.2389     22.8667
   655.5000      7.9313      2.5687      0.0442      4.9275     80.5593     22.9628
   655.6000      7.9313      2.5868      0.0425      3.8285     76.2758     22.7272
   655.7000      7.9313      2.5987      0.0170      3.1063     73.4574     21.9641
   655.8000      7.9283      2.6101      0.0239      2.4186     73.4802     21.0605
   655.9000      7.9283      2.6226     -0.0040      1.6597     71.8335     20.3674
   656.0000      7.9239      2.6368      0.0196      0.7979     64.6729     20.0520
   656.1000      7.9239      2.6513      0.0242     -0.0804     56.5574     20.2035
   656.2000      7.9239      2.6656      0.0069     -0.9442     53.5160     20.5540
   656.3000      7.9229      2.6775      0.0155     -1.6697     54.0089     20.6371
   656.4000      7.9229      2.6837      0.0430     -2.0417     52.8998     20.2337
   656.5000      7.9177      2.6848      0.0059     -2.1108     50.1635     19.5462
   656.6000      7.9177      2.6795      0.0238     -1.7873     49.0897     19.0135
   656.7000      7.9177      2.6647     -0.0288     -0.8880     49.7611     19.0182
   656.8000      7.9012      2.6509     -0.0043     -0.0534     49.0787     19.6143
   656.9000      7.9012      2.6475     -0.0010      0.1489     47.0368     20.1441
   657.0000      7.8963      2.6443      0.0389      0.3445     48.4798     19.9609
   657.1000      7.8963      2.6306      0.0106      1.1757     54.2374     19.4479
   657.2000      7.8963      2.6195     -0.0178      1.8468     58.5748     19.2838
   657.3000      7.9053      2.6225      0.0067      1.6679     59.0829     19.4703
   657.4000      7.9053      2.6250      0.0038      1.5148     60.6350     19.5800
   657.5000      7.9083      2.6148     -0.0031      2.1326     66.8534     19.4960
   657.6000      7.9083      2.5990     -0.0134      3.0916     75.1310     19.5497
   657.7000      7.9083      2.5887      0.0275      3.7128     81.3206     19.9234
   657.8000      7.9073      2.5849      0.0109      3.9468     84.8914     20.2892
   657.9000      7.9073      2.5799      0.0731      4.2502     87.3162     20.2694
   658.0000      7.9134      2.5657      0.0431      5.1075     90.8304     20.0660
   658.1000      7.9134      2.5426      0.0193      6.5117     96.4381     20.0425
   658.2000      7.9134      2.5192     -0.0212      7.9255    101.8924     20.1898
   658.3000      7.9237      2.5091      0.0011      8.5397    104.4258     20.4097
   658.4000      7.9237      2.5103      0.0103      8.4689    103.9514     20.8651
   658.5000      7.9269      2.5095      0.0006      8.5172    105.7827     21.6575
   658.6000      7.9269      2.5046      0.0454      8.8119    110.8055     22.4170
   658.7000      7.9269      2.4983      0.0354      9.1911    112.1968     22.9706
   658.8000      7.9264      2.4946      0.0154      9.4191    109.2101     23.5192
   658.9000      7.9264      2.4971      0.0242      9.2689    107.1229     24.1064
   659.0000      7.9286      2.5071      0.0088      8.6596    106.9977     24.7096
   659.1000      7.9286      2.5234      0.0290      7.6724    106.6253     25.3305
   659.2000      7.9286      2.5324      0.0602      7.1279    105.9526     25.6632
   659.3000      7.9317      2.5271     -0.0173      7.4460    106.9590     25.3587
   659.4000      7.9317      2.5275     -0.0221      7.4246    110.3482     24.7818
   659.5000      7.9357      2.5418      0.0560      6.5590    114.9218     24.5695
   659.6000      7.9357      2.5509      0.0574      6.0065    119.1574     24.8849
   659.7000      7.9357      2.5439      0.0513      6.4297    121.7052     25.5457
   659.8000      7.9265      2.5284     -0.0058      7.3692    121.4936     26.2964
   659.9000      7.9265      2.5167     -0.0140      8.0759    120.5776     26.7602
   660.0000      7.9281      2.5153     -0.0155      8.1655    120.8796     26.7775
   660.1000      7.9281      2.5198      0.0387      7.8919    118.9884     26.7126
   660.2000      7.9281      2.5264      0.0159      7.4908    113.2689     26.7937
   660.3000      7.9258      2.5383      0.0321      6.7706    106.9876     26.7273
   660.4000      7.9258      2.5500      0.0354      6.0631    101.7304     26.4109
   660.5000      7.9138      2.5541      0.0126      5.8113     97.7039     26.1428
   660.6000      7.9138      2.5571      0.0543      5.6317     94.0127     26.0345
   660.7000      7.9138      2.5591      0.0653      5.5104     87.7918     25.9395
   660.8000      7.9161      2.5536      0.0476      5.8448     79.9408     25.7691
   660.9000      7.9161      2.5428      0.0175      6.4940     74.8370     25.2582
   661.0000      7.9138      2.5318      0.0311      7.1666     73.4405     24.3880
   661.1000      7.9138      2.5244      0.0495      7.6135     73.1046     23.6802
   661.2000      7.9138      2.5223      0.0650      7.7385     71.4941     23.4276
   661.3000      7.9002      2.5174      0.0315      8.0342     68.1111     23.5025
   661.4000      7.9002      2.5005      0.0395      9.0587     64.5566     23.6083
   661.5000      7.9015      2.4733      0.0002     10.7104     62.8655     23.5391
   661.6000      7.9015      2.4446     -0.0089     12.4472     62.1253     23.4546
   661.7000      7.9015      2.4231     -0.0025     13.7497     59.9344     23.6216
   661.8000      7.9252      2.4173     -0.0252     14.1034     57.2175     23.9333
   661.9000      7.9252      2.4263      0.0339     13.5551     56.1579     24.0304
   662.0000      7.9355      2.4374      0.0268     12.8835     57.8418     23.8367
   662.1000      7.9355      2.4411      0.0446     12.6624     61.5325     23.7557
   662.2000      7.9355      2.4359      0.0122     12.9760     63.5528     24.1324
   662.3000      7.9375      2.4280      0.0073     13.4536     62.0189     24.7793
   662.4000      7.9375      2.4252      0.0100     13.6261     60.9503     25.3606
   662.5000      7.9439      2.4278      0.0220     13.4644     63.5901     25.8344
   662.6000      7.9439      2.4329      0.0290     13.1601     66.5662     26.1766
   662.7000      7.9439      2.4371      0.0461     12.9057     66.0629     26.1849
