~Version Information
VERS.                      2.0: CWLS Log ASCII Standard - VERSION 2.0
WRAP.                       NO: One line per depth step
~Well Information Block
STRT.FT                 7.7500: 
STOP.FT              2101.0000: 
STEP.FT                 0.2500: 
NULL.                -999.2500: 
COMP.          Pioneer Natural Resources: COMPANY
WELL.          Gunslinger 13-24: WELL
FLD.           Purgatoire River: FIELD
LOC.           1968' FSL & 633' FWL: LOCATION
PROV.                 Colorado: PROVINCE
CNTY.               Las Animas: COUNTRY
SRVC.                Patterson: SERVICE COMPANY
DATE.          Mon Aug 15 11:00:02 2005: LOG DATE
UWI.           05 071 08442 00: UNIQUE WELL ID
~Curve Information Block
DEPT.FT            0 000 00 00: Depth
GR.GAPI                       : Gamma Ray
CCL.                          : Casing Collar Locator
TT3.usec                      : CBL 3' Travel Time
AMP3.mV                       : CBL 3' Amplitude
~Parameter Information Block
~A  Depth        GR         CCL         TT3         AMP3    
# ...
  1783.2500     59.5346      0.0000    567.8783      5.7231
  1783.5000     58.2173      0.0000    529.7372      5.9992
  1783.7500     57.3305      0.0000    491.9663      6.2212
  1784.0000     57.4983      0.0000    457.1306      6.3616
  1784.2500     58.4703      0.0000    428.3615      6.4018
  1784.5000     59.5481      0.0000    409.2350      6.3448
  1784.7500     60.2090      0.0000    401.8342      6.2105
  1785.0000     60.4664      0.0000    405.9672      6.0210
  1785.2500     60.9508      0.0000    419.3093      5.7934
  1785.5000     62.5751      0.0000    437.7115      5.5431
  1785.7500     65.7621      0.0000    457.8419      5.2894
  1786.0000     69.9899      0.0000    480.8962      5.0575
  1786.2500     74.4568      0.0000    510.8772      4.8708
  1786.5000     79.2710      0.0000    547.3839      4.7421
  1786.7500     85.6003      0.0000    583.0741      4.6713
  1787.0000     94.3954      0.0000    609.9517      4.6499
  1787.2500    105.1442      0.0000    625.8482      4.6661
  1787.5000    116.0947      0.0000    633.8141      4.7052
  1787.7500    125.6222      0.0000    637.6869      4.7501
  1788.0000    133.2517      0.0000    639.6558      4.7852
  1788.2500    139.3238      0.0000    640.5932      4.8020
  1788.5000    143.8431      0.0000    640.9161      4.8019
  1788.7500    146.0023      0.0000    640.9292      4.7947
  1789.0000    144.9473      0.0000    640.8178      4.7937
  1789.2500    140.7986      0.0000    640.6504      4.8094
  1789.5000    134.8966      0.0000    640.4440      4.8435
  1789.7500    129.0571      0.0000    640.2197      4.8900
  1790.0000    124.3573      0.0000    640.0261      4.9402
  1790.2500    120.6124      0.0000    639.9216      4.9858
  1790.5000    117.2332      0.0000    639.9446      5.0207
  1790.7500    114.3978      0.0000    640.0935      5.0398
  1791.0000    112.9474      0.0000    640.3393      5.0391
  1791.2500    113.2634      0.0000    640.6585      5.0146
  1791.5000    114.8685      0.0000    641.0564      4.9627
  1791.7500    117.1487      0.0000    641.5596      4.8823
  1792.0000    119.8290      0.0000    642.1822      4.7767
  1792.2500    122.6064      0.0000    642.8863      4.6556
  1792.5000    125.0048      0.0000    643.5721      4.5341
  1792.7500    126.9111      0.0000    644.1290      4.4279
  1793.0000    128.8600      0.0000    644.5189      4.3467
  1793.2500    131.3731      0.0000    644.8684      4.2928
  1793.5000    133.9702      0.0000    645.6093      4.2643
  1793.7500    134.9745      0.0000    647.6989      4.2588
  1794.0000    132.6541      0.0000    652.5782      4.2746
  1794.2500    126.7566      0.0000    661.2122      4.3087
  1794.5000    118.8590      0.0000    672.3252      4.3549
  1794.7500    111.3351      0.0000    681.7236      4.4046
  1795.0000    106.1407      0.0000    684.6067      4.4535
  1795.2500    104.0496      0.0000    679.4128      4.5063
  1795.5000    104.3003      0.0000    669.1892      4.5717
  1795.7500    104.9511      0.0000    659.0687      4.6493
  1796.0000    104.1591      0.0000    652.6993      4.7240
  1796.2500    101.4804      0.0000    650.6331      4.7767
  1796.5000     97.9632      0.0000    650.4059      4.7981
  1796.7500     94.9802      0.0000    647.7040      4.7907
  1797.0000     93.1513      0.0000    639.6598      4.7608
  1797.2500     92.4096      0.0000    628.8598      4.7110
  1797.5000     92.6185      0.0000    622.3288      4.6379
  1797.7500     93.5815      0.0000    624.4446      4.5386
  1798.0000     94.7037      0.0000    632.4145      4.4222
  1798.2500     95.2958      0.0000    640.1353      4.3125
  1798.5000     95.4001      0.0000    644.2878      4.2366
  1798.7500     95.9017      0.0000    645.3911      4.2081
  1799.0000     97.5516      0.0000    645.1941      4.2231
  1799.2500    100.0764      0.0000    644.8299      4.2696
  1799.5000    102.4233      0.0000    644.6862      4.3351
  1799.7500    103.6984      0.0000    644.7751      4.4073
  1800.0000    103.7797      0.0000    644.9565      4.4746
  1800.2500    103.2635      0.0000    645.0861      4.5310
  1800.5000    102.9928      0.0000    645.0839      4.5785
  1800.7500    103.4380      0.0000    644.9828      4.6230
  1801.0000    104.3201      0.0000    644.8823      4.6686
  1801.2500    104.8124      0.0000    644.8859      4.7170
  1801.5000    104.0901      0.0000    645.0870      4.7707
  1801.7500    101.8168      0.0000    645.6147      4.8334
  1802.0000     98.4196      0.0000    646.6107      4.9035
  1802.2500     94.9733      0.0000    648.0119      4.9678
  1802.5000     92.6130      0.0000    649.3137      5.0036
  1802.7500     91.8421      0.0000    649.7556      4.9932
  1803.0000     92.3348      0.0000    648.9404      4.9432
  1803.2500     93.4405      0.0000    647.1732      4.8893
  1803.5000     94.8241      0.0000    645.0415      4.8777
  1803.7500     96.5186      0.0000    642.8436      4.9334
  1804.0000     98.5123      0.0000    640.6737      5.0442
  1804.2500    100.5031      0.0000    638.9292      5.1736
  1804.5000    101.9311      0.0000    638.3132      5.2896
  1804.7500    102.1995      0.0000    639.1376      5.3806
  1805.0000    101.2278      0.0000    640.8630      5.4502
  1805.2500     99.9356      0.0000    642.5604      5.5046
  1805.5000     99.8098      0.0000    643.6746      5.5461
  1805.7500    101.7595      0.0000    644.2213      5.5726
  1806.0000    105.4893      0.0000    644.4560      5.5807
  1806.2500    109.8411      0.0000    644.5710      5.5718
  1806.5000    113.4572      0.0000    644.6406      5.5553
  1806.7500    115.4117      0.0000    644.6894      5.5429
  1807.0000    115.7319      0.0000    644.7446      5.5389
  1807.2500    115.2727      0.0000    644.8370      5.5386
  1807.5000    114.9232      0.0000    644.9692      5.5343
  1807.7500    115.1824      0.0000    645.1052      5.5239
  1808.0000    116.4933      0.0000    645.1907      5.5132
  1808.2500    119.3419      0.0000    645.1870      5.5105
  1808.5000    123.5786      0.0000    645.0841      5.5200
  1808.7500    127.9274      0.0000    644.8970      5.5429
  1809.0000    130.6171      0.0000    644.6622      5.5816
  1809.2500    130.6627      0.0000    644.4238      5.6393
  1809.5000    128.6333      0.0000    644.2047      5.7179
  1809.7500    126.1635      0.0000    643.9909      5.8191
  1810.0000    124.4647      0.0000    643.7546      5.9464
  1810.2500    123.0974      0.0000    643.4914      6.1017
  1810.5000    120.3826      0.0000    643.2366      6.2828
  1810.7500    115.1520      0.0000    643.0599      6.4842
  1811.0000    107.9041      0.0000    643.0439      6.6985
  1811.2500    100.3297      0.0000    643.2217      6.9125
  1811.5000     94.1469      0.0000    643.5037      7.1032
  1811.7500     90.3408      0.0000    643.6994      7.2417
  1812.0000     88.8804      0.0000    643.6582      7.3085
  1812.2500     88.8374      0.0000    643.3905      7.3055
  1812.5000     89.0295      0.0000    643.0140      7.2522
  1812.7500     88.7319      0.0000    642.5731      7.1716
  1813.0000     87.7209      0.0000    641.8871      7.0759
  1813.2500     85.8798      0.0000    640.5788      6.9653
  1813.5000     83.2081      0.0000    638.3359      6.8373
  1813.7500     80.1514      0.0000    635.2563      6.6968
  1814.0000     77.4214      0.0000    631.9890      6.5551
  1814.2500     75.3404      0.0000    629.5486      6.4220
  1814.5000     73.7080      0.0000    628.9128      6.3049
  1814.7500     72.4079      0.0000    630.4764      6.2135
  1815.0000     71.8521      0.0000    633.6345      6.1570
  1815.2500     72.7425      0.0000    637.0706      6.1323
  1815.5000     75.5341      0.0000    639.6793      6.1193
  1815.7500     80.0890      0.0000    641.1663      6.0935
  1816.0000     85.7097      0.0000    641.8239      6.0449
  1816.2500     91.4854      0.0000    642.0160      5.9852
  1816.5000     96.5698      0.0000    641.9602      5.9376
