~Version Information
VERS.                      2.0: CWLS Log ASCII Standard - VERSION 2.0
WRAP.                       NO: One line per depth step
~Well Information Block
STRT.FT                 0.0000: 
STOP.FT              1201.0000: 
STEP.FT                 0.2500: 
NULL.                -999.2500: 
COMP.          Pioneer Natural Resources: COMPANY
WELL.             Margaux 11-1: WELL
FLD.           Purgatoire River: FIELD
LOC.           1154' FNL & 472' FWL --------: LOCATION
PROV.                 Colorado: PROVINCE
CNTY.               Las Animas: COUNTRY
SRVC.                         : SERVICE COMPANY
DATE.          Thu Jan 05 11:16:55 2006: LOG DATE
UWI.                          : UNIQUE WELL ID
~Curve Information Block
DEPT.FT            0 000 00 00: Depth
CCL.                          : Casing Collar Locator
TT3.usec                      : CBL 3' Travel Time
AMP3.mV                       : CBL 3' Amplitude
AMP5.mV                       : CBL 5' Amplitude
GR.GAPI                       : Gamma Ray
~Parameter Information Block
~A  Depth       CCL         TT3         AMP3        AMP5         GR     
# ...
   700.0000      0.0000    875.1225      5.6901      1.0210     50.5119
   700.2500      0.0000    877.0671      5.8766      1.0630     51.2199
   700.5000      0.0000    876.1727      6.2237      1.1421     51.7762
   700.7500      0.0000    868.7910      6.6831      1.2236     52.5444
   701.0000      0.0000    851.3578      7.0795      1.2970     54.1704
   701.2500      0.0000    825.2691      7.2526      1.3806     56.7844
   701.5000      0.0000    797.5215      7.2015      1.4905     59.4326
   701.7500      0.0000    775.7202      7.0544      1.6107     60.7041
   702.0000      0.0000    763.2184      6.9276      1.7037     60.0803
   702.2500      0.0000    758.5093      6.8484      1.7517     58.5051
   702.5000      0.0000    757.5385      6.7844      1.7724     57.6052
   702.7500      0.0000    756.2565      6.7029      1.7832     58.4994
   703.0000      0.0000    752.2260      6.6001      1.7661     61.3089
   703.2500      0.0000    745.1921      6.4909      1.6908     65.3560
   703.5000      0.0000    736.7711      6.3856      1.5674     69.4158
   703.7500      0.0000    729.2476      6.2817      1.4580     71.9299
   704.0000      0.0000    724.1401      6.1761      1.4263     71.5079
   704.2500      0.0000    721.5590      6.0738      1.4736     67.6556
   704.5000      0.0000    720.6628      5.9852      1.5359     61.2350
   704.7500      0.0000    720.4725      5.9157      1.5448     54.2358
   705.0000      0.0000    720.3887      5.8606      1.4827     48.8326
   705.2500      0.0000    720.3798      5.8087      1.3788     46.3156
   705.5000      0.0000    721.0108      5.7516      1.2747     46.6599
   705.7500      0.0000    723.2987      5.6920      1.2103     48.8755
   706.0000      0.0000    728.1617      5.6409      1.2200     51.7214
   706.2500      0.0000    735.4943      5.6068      1.3093     54.5785
   706.5000      0.0000    743.6151      5.5911      1.4332     58.2129
   706.7500      0.0000    750.0085      5.5929      1.5221     64.5793
   707.0000      0.0000    753.0154      5.6145      1.5452     75.1776
   707.2500      0.0000    752.8406      5.6582      1.5418     89.1099
   707.5000      0.0000    750.8596      5.7191      1.5721    103.0316
   707.7500      0.0000    748.2667      5.7850      1.6417    113.4671
   708.0000      0.0000    745.8209      5.8450      1.6933    119.0864
   708.2500      0.0000    744.5015      5.8933      1.6820    120.5635
   708.5000      0.0000    745.2085      5.9253      1.6368    118.9276
   708.7500      0.0000    747.5379      5.9327      1.6270    114.9503
   709.0000      0.0000    749.8857      5.9107      1.6788    109.8220
   709.2500      0.0000    751.2608      5.8710      1.7398    105.2708
   709.5000      0.0000    752.2753      5.8417      1.7297    102.3604
   709.7500      0.0000    753.9734      5.8460      1.6169    100.4880
   710.0000      0.0000    756.3804      5.8830      1.4441     98.1045
   710.2500      0.0000    758.6684      5.9339      1.2888     94.4054
   710.5000      0.0000    760.2223      5.9875      1.2098     90.0224
   710.7500      0.0000    761.0676      6.0560      1.2221     86.1963
   711.0000      0.0000    761.4761      6.1622      1.2963     83.6883
   711.2500      0.0000    761.4781      6.3184      1.3752     82.5697
   711.5000      0.0000    760.6707      6.5131      1.4150     82.7152
   711.7500      0.0000    758.3694      6.7107      1.4235     84.1403
   712.0000      0.0000    754.2425      6.8594      1.4451     86.8767
   712.2500      0.0000    749.2510      6.9070      1.5094     90.7131
   712.5000      0.0000    745.8826      6.8272      1.5997     95.1924
   712.7500      0.0000    746.9299      6.6431      1.6715     99.8018
   713.0000      0.0000    754.0398      6.4288      1.7040    104.1471
   713.2500      0.0000    767.7852      6.2685      1.7286    108.1795
   713.5000      0.0000    788.3240      6.2031      1.7917    112.4067
   713.7500      0.0000    814.2626      6.2134      1.8883    117.6325
   714.0000      0.0000    840.8070      6.2554      1.9560    124.1445
   714.2500      0.0000    861.2006      6.2980      1.9463    131.2060
   714.5000      0.0000    871.5208      6.3276      1.8838    137.5735
   714.7500      0.0000    873.0406      6.3411      1.8339    142.3183
   715.0000      0.0000    868.6539      6.3584      1.8210    144.8695
   715.2500      0.0000    858.3420      6.4303      1.8049    144.8527
   715.5000      0.0000    840.3719      6.6063      1.7422    142.6953
   715.7500      0.0000    816.3688      6.8791      1.6504    140.0385
   716.0000      0.0000    792.7438      7.1699      1.5918    138.7596
   716.2500      0.0000    776.4816      7.3741      1.5970    139.8270
   716.5000      0.0000    770.3149      7.4280      1.6227    143.3755
   716.7500      0.0000    771.5143      7.3385      1.5974    149.0826
   717.0000      0.0000    774.5064      7.1600      1.4965    155.9268
   717.2500      0.0000    775.0635      6.9472      1.3665    162.1263
   717.5000      0.0000    772.6570      6.7287      1.2863    165.8947
   717.7500      0.0000    769.2292      6.5133      1.3073    166.4607
   718.0000      0.0000    766.5270      6.3080      1.4130    164.4767
   718.2500      0.0000    764.8994      6.1238      1.5265    161.4701
   718.5000      0.0000    763.7258      5.9688      1.5668    159.0144
   718.7500      0.0000    762.0302      5.8430      1.5091    158.4506
   719.0000      0.0000    758.7688      5.7426      1.3959    160.7278
   719.2500      0.0000    753.2900      5.6651      1.2985    165.4880
   719.5000      0.0000    746.2014      5.6093      1.2704    170.2263
   719.7500      0.0000    739.8081      5.5713      1.3189    171.2623
   720.0000      0.0000    736.9884      5.5449      1.4070    166.1444
   720.2500      0.0000    738.9012      5.5214      1.4866    155.3379
   720.5000      0.0000    743.6673      5.4905      1.5352    141.8581
   720.7500      0.0000    747.4882      5.4460      1.5620    129.2415
   721.0000      0.0000    747.2400      5.3931      1.5789    119.4370
   721.2500      0.0000    742.3801      5.3486      1.5814    112.3352
   721.5000      0.0000    734.9592      5.3287      1.5645    107.1870
   721.7500      0.0000    728.0878      5.3379      1.5392    104.1590
   722.0000      0.0000    724.2204      5.3688      1.5219    104.0647
   722.2500      0.0000    724.4628      5.4113      1.5139    106.5201
   722.5000      0.0000    728.7991      5.4608      1.5077    108.9839
   722.7500      0.0000    736.2664      5.5154      1.5087    108.3589
   723.0000      0.0000    744.9665      5.5691      1.5348    103.6678
   723.2500      0.0000    752.6591      5.6111      1.5891     96.8476
   723.5000      0.0000    757.8566      5.6359      1.6435     90.9154
   723.7500      0.0000    760.2944      5.6491      1.6576     87.6152
   724.0000      0.0000    760.2888      5.6599      1.6149     86.6937
   724.2500      0.0000    757.8547      5.6664      1.5378     86.8421
   724.5000      0.0000    752.6617      5.6542      1.4702     86.8282
   724.7500      0.0000    744.8992      5.6156      1.4405     85.7748
   725.0000      0.0000    735.9709      5.5666      1.4339     82.9585
   725.2500      0.0000    727.9711      5.5396      1.4036     78.0322
   725.5000      0.0000    722.3545      5.5551      1.3149     71.6274
   725.7500      0.0000    719.2290      5.6045      1.1842     65.3847
   726.0000      0.0000    717.8683      5.6611      1.0769     60.9762
   726.2500      0.0000    717.6557      5.7043      1.0639     58.8764
   726.5000      0.0000    718.6140      5.7333      1.1694     58.1780
   726.7500      0.0000    721.3522      5.7612      1.3442     57.8134
   727.0000      0.0000    726.4843      5.7977      1.4937     57.8023
   727.2500      0.0000    733.6891      5.8367      1.5453     58.9759
   727.5000      0.0000    741.1199      5.8632      1.4991     61.4935
   727.7500      0.0000    746.0491      5.8684      1.4144     64.0452
