~Version Information
VERS.                      2.0: CWLS Log ASCII Standard - VERSION 2.0
WRAP.                       NO: One line per depth step
~Well Information Block
STRT.FT                 0.0000: 
STOP.FT              1426.7500: 
STEP.FT                 0.2500: 
NULL.                -999.2500: 
COMP.          Pioneer Natural Resources: COMPANY
WELL.            Bordeaux 42-2: WELL
FLD.           Purgatorie River: FIELD
LOC.           1963' FNL & 1148' FEL: LOCATION
PROV.                 Colorado: PROVINCE
CNTY.               Las Animas: COUNTRY
SRVC.                Patterson: SERVICE COMPANY
DATE.          Fri Dec 02 09:28:20 2005: LOG DATE
UWI.                          : UNIQUE WELL ID
~Curve Information Block
DEPT.FT            0 000 00 00: Depth
CCL.                          : Casing Collar Locator
TT3.usec                      : CBL 3' Travel Time
AMP3.mV                       : CBL 3' Amplitude
GR.GAPI                       : Gamma Ray
~Parameter Information Block
~A  Depth       CCL         TT3         AMP3         GR     
# ...
  1038.5000      0.0000    703.8359     12.1582     48.1200
  1038.7500      0.0000    715.7878     12.0532     47.0349
  1039.0000      0.0000    717.4003     11.9821     47.6810
  1039.2500      0.0000    715.1329     11.9035     48.4911
  1039.5000      0.0000    711.3348     11.8142     48.6174
  1039.7500      0.0000    709.1911     11.7239     48.1918
  1040.0000      0.0000    710.7885     11.6195     47.6869
  1040.2500      0.0000    714.1627     11.4903     47.0665
  1040.5000      0.0000    716.3575     11.3321     45.6290
  1040.7500      0.0000    716.8048     11.1349     42.7895
  1041.0000      0.0000    716.3186     10.9089     39.0080
  1041.2500      0.0000    715.5012     10.6834     35.7068
  1041.5000      0.0000    714.6720     10.4728     34.1065
  1041.7500      0.0000    714.0740     10.2870     34.2242
  1042.0000      0.0000    713.5388     10.1574     35.1278
  1042.2500      0.0000    711.8050     10.1124     36.0644
  1042.5000      0.0000    706.7532     10.1407     37.0245
  1042.7500      0.0000    698.1636     10.2192     38.2158
  1043.0000      0.0000    689.8998     10.3492     39.5593
  1043.2500      0.0000    686.6105     10.5330     41.0165
  1043.5000      0.0000    689.9612     10.7517     42.9224
  1043.7500      0.0000    697.9461     10.9942     45.4517
  1044.0000      0.0000    703.4644     11.2763     47.8353
  1044.2500      0.0000    694.2336     11.6002     48.5495
  1044.5000      0.0000    655.6484     11.9256     46.5069
  1044.7500      0.0000    582.6733     12.2129     42.0622
  1045.0000      0.0000    495.5987     12.4648     36.8648
  1045.2500      0.0000    427.8606     12.7008     32.7968
  1045.5000      0.0000    393.5299     12.9195     30.9413
  1045.7500      0.0000    384.1292     13.1225     31.2115
  1046.0000      0.0000    393.0594     13.3434     32.6495
  1046.2500      0.0000    427.4641     13.5857     34.2720
  1046.5000      0.0000    490.4091     13.7818     35.9840
  1046.7500      0.0000    556.4359     13.8795     38.7490
  1047.0000      0.0000    594.1833     13.9145     43.7750
  1047.2500      0.0000    613.4963     13.9602     51.4997
  1047.5000      0.0000    643.0411     14.0578     61.1602
  1047.7500      0.0000    677.8304     14.2041     71.1049
  1048.0000      0.0000    692.2150     14.3841     79.5470
  1048.2500      0.0000    674.7036     14.5990     85.2986
  1048.5000      0.0000    638.7597     14.8626     88.1749
  1048.7500      0.0000    619.4559     15.1767     89.0838
  1049.0000      0.0000    636.9341     15.4775     89.8398
  1049.2500      0.0000    663.7849     15.6156     92.5310
  1049.5000      0.0000    656.7554     15.4955     98.4072
  1049.7500      0.0000    608.0234     15.2285    106.9345
  1050.0000      0.0000    560.2892     14.8768    115.7369
  1050.2500      0.0000    568.6403     14.0787    121.5685
  1050.5000      0.0000    636.9462     12.4950    122.0784
  1050.7500      0.0000    717.4080     10.6160    117.5824
  1051.0000      0.0000    770.9055      9.3728    111.2116
  1051.2500      0.0000    793.4004      9.0167    106.6953
  1051.5000     -2.0000    796.0040      9.0662    105.7713
  1051.7500      0.0000    784.4320      9.0870    107.8823
  1052.0000      0.0000    755.5795      8.9670    111.7596
  1052.2500      0.0000    713.9778      8.7940    116.4008
  1052.5000      0.0000    678.6166      8.9503    120.7304
  1052.7500      0.0000    651.6224      9.9849    123.4105
  1053.0000      0.0000    612.8006     11.7800    123.6577
  1053.2500      0.0000    561.0246     13.3330    122.0584
  1053.5000      0.0000    510.4650     14.0713    120.0488
  1053.7500      0.0000    464.8822     14.4625    118.5191
  1054.0000      0.0000    430.9608     14.9740    117.3879
  1054.2500      0.0000    415.7751     15.5395    116.6769
  1054.5000      0.0000    415.5172     15.9446    117.2400
  1054.7500      0.0000    426.5625     16.1063    119.7674
  1055.0000      0.0000    442.8803     16.1076    123.4583
  1055.2500      0.0000    449.3439     16.0973    126.4024
  1055.5000      0.0000    438.5806     16.1329    127.2757
  1055.7500      0.0000    425.7207     16.1286    126.3478
  1056.0000      0.0000    433.8622     15.9874    125.0285
  1056.2500      0.0000    469.5520     15.7621    124.5240
  1056.5000      0.0000    521.1239     15.5963    124.5498
  1056.7500      0.0000    571.6610     15.5418    123.4385
  1057.0000      0.0000    608.8436     15.5398    119.9664
  1057.2500      0.0000    631.3563     15.5322    114.9857
  1057.5000      0.0000    642.2968     15.5126    110.9313
  1057.7500      0.0000    637.9136     15.4931    109.8302
  1058.0000      0.0000    618.7628     15.4713    111.8344
  1058.2500      0.0000    604.4860     15.4427    115.3479
  1058.5000      0.0000    615.0690     15.3959    118.3116
  1058.7500      0.0000    647.0189     15.2907    119.5951
  1059.0000      0.0000    681.7924     15.1153    119.6384
  1059.2500      0.0000    703.8892     14.9404    119.8024
  1059.5000      0.0000    703.7924     14.8469    120.7820
  1059.7500      0.0000    672.0960     14.8468    121.6652
  1060.0000      0.0000    607.2328     14.9116    120.9155
  1060.2500      0.0000    534.6506     15.0312    118.3413
  1060.5000      0.0000    489.5229     15.2085    115.8605
  1060.7500      0.0000    475.6892     15.4249    116.1112
  1061.0000      0.0000    478.6060     15.6324    120.0356
  1061.2500      0.0000    493.5010     15.7647    125.6627
  1061.5000      0.0000    504.8707     15.7735    129.4514
  1061.7500      0.0000    492.4461     15.6765    129.1199
  1062.0000      0.0000    469.7025     15.5379    125.1962
  1062.2500      0.0000    462.9516     15.3889    119.9604
  1062.5000      0.0000    472.3344     15.2247    115.3355
  1062.7500      0.0000    486.2325     15.0644    111.9935
  1063.0000      0.0000    503.1464     14.9392    109.9839
  1063.2500      0.0000    519.8905     14.8426    109.4313
  1063.5000      0.0000    523.9543     14.7438    110.2539
  1063.7500      0.0000    522.6256     14.6168    111.5241
  1064.0000      0.0000    549.5246     14.4339    111.7630
  1064.2500      0.0000    611.6780     14.1816    110.1486
  1064.5000      0.0000    673.6318     13.8831    107.4079
  1064.7500      0.0000    708.2019     13.5816    105.4124
  1065.0000      0.0000    719.6364     13.3114    105.5820
  1065.2500      0.0000    721.6985     13.0832    107.4844
  1065.5000      0.0000    721.8364     12.8922    109.3290
  1065.7500      0.0000    721.9666     12.7377    110.0192
  1066.0000      0.0000    722.0926     12.6134    110.3228
  1066.2500      0.0000    722.0697     12.5025    111.9184
  1066.5000      0.0000    722.0601     12.4100    115.6327
  1066.7500      0.0000    722.2014     12.3660    120.6445
  1067.0000      0.0000    722.3223     12.3817    125.0416
  1067.2500      0.0000    722.1895     12.4401    127.0155
  1067.5000      0.0000    721.7021     12.5179    125.7136
  1067.7500      0.0000    720.5146     12.5781    121.3656
  1068.0000      0.0000    717.8709     12.5801    115.0608
  1068.2500      0.0000    714.0728     12.5347    108.4260
  1068.5000      0.0000    711.7621     12.4925    102.9576
  1068.7500      0.0000    713.0211     12.4668     99.2045
  1069.0000      0.0000    716.3246     12.4379     96.7260
  1069.2500      0.0000    719.1267     12.4134     95.0184
  1069.5000      0.0000    720.7147     12.4239     94.1700
  1069.7500      0.0000    721.4517     12.4811     94.2677
  1070.0000      0.0000    721.8966     12.5656     94.4345
  1070.2500      0.0000    722.5898     12.6539     93.0302
  1070.5000      0.0000    723.5109     12.7486     88.9897
  1070.7500      0.0000    724.0717     12.8638     82.8483
  1071.0000      0.0000    723.8495     13.0045     76.4045
  1071.2500      0.0000    722.9897     13.1733     71.5952
  1071.5000      0.0000    721.9473     13.3688     69.6825
  1071.7500      0.0000    721.0682     13.5798     71.0123
