~Version Information
VERS.                      2.0: CWLS Log ASCII Standard - VERSION 2.0
WRAP.                       NO: One line per depth step
~Well Information Block
STRT.FT                -9.5000: 
STOP.FT              1304.7500: 
STEP.FT                 0.2500: 
NULL.                -999.2500: 
COMP.          Pioneer Natural Resources: COMPANY
WELL.            Hamburg 43-35: WELL
FLD.           Purgatorie River: FIELD
LOC.           2444' FSL & 950' FEL--: LOCATION
PROV.                       CO: PROVINCE
CNTY.               Las Animas: COUNTRY
SRVC.          Patterson Wireline: SERVICE COMPANY
DATE.          Thu Dec 08 14:29:45 2005: LOG DATE
UWI.           08 071 08607 00: UNIQUE WELL ID
~Curve Information Block
DEPT.FT            0 000 00 00: Depth
CCL.                          : Casing Collar Locator
TT3.usec                      : CBL 3' Travel Time
AMP3.mV                       : CBL 3' Amplitude
GR.GAPI                       : Gamma Ray
~Parameter Information Block
~A  Depth       CCL         TT3         AMP3         GR     
# ...
   493.0000      0.0000    747.1075     11.3652    129.2268
   493.2500      0.0000    746.0075     11.3373    122.5998
   493.5000      0.0000    744.1112     11.2210    117.3261
   493.7500      0.0000    741.5012     11.0545    115.6032
   494.0000      0.0000    739.0020     10.9141    118.2489
   494.2500      0.0000    737.8619     10.8671    123.4402
   494.5000      0.0000    738.6853     10.9265    127.4074
   494.7500      0.0000    740.8055     11.0526    127.2499
   495.0000      0.0000    742.9434     11.2011    123.2008
   495.2500      0.0000    744.3037     11.3614    117.9008
   495.5000      0.0000    744.8937     11.5469    113.6752
   495.7500      0.0000    745.0999     11.7541    110.8836
   496.0000      0.0000    745.2646     11.9413    108.5332
   496.2500      0.0000    745.5563     12.0501    105.5930
   496.5000      0.0000    745.9776     12.0512    101.5870
   496.7500      0.0000    746.4009     11.9770     96.7360
   497.0000      0.0000    746.6643     11.9075     92.2097
   497.2500      0.0000    746.6870     11.9157     90.0091
   497.5000      0.0000    746.5193     12.0193     91.9042
   497.7500      0.0000    746.2902     12.1795     98.0410
   498.0000      0.0000    746.1187     12.3361    106.3826
   498.2500      0.0000    746.0638     12.4389    113.7443
   498.5000      0.0000    746.1241     12.4598    117.9670
   498.7500      0.0000    746.2592     12.3977    119.2350
   499.0000      0.0000    746.4125     12.2802    119.1736
   499.2500      0.0000    746.5299     12.1507    119.3132
   499.5000      0.0000    746.5784     12.0404    121.0049
   499.7500      0.0000    746.5609     11.9473    125.7138
   500.0000      0.0000    746.5145     11.8477    133.6680
   500.2500      0.0000    746.4931     11.7285    142.3906
   500.5000      0.0000    746.5446     11.6076    148.1021
   500.7500      0.0000    746.6879     11.5163    149.0534
   501.0000      0.0000    746.8879     11.4650    146.7529
   501.2500      0.0000    747.0587     11.4310    143.8272
   501.5000      0.0000    747.1213     11.3855    141.5329
   501.7500      0.0000    747.0722     11.3237    139.8094
   502.0000      0.0000    746.9833     11.2662    138.8708
   502.2500      0.0000    746.9355     11.2354    139.4450
   502.5000      0.0000    746.9630     11.2376    141.3905
   502.7500      0.0000    747.0569     11.2683    143.2396
   503.0000      0.0000    747.1934     11.3251    143.6418
   503.2500      0.0000    747.3376     11.4061    142.5900
   503.5000      0.0000    747.4355     11.4999    140.9144
   503.7500      0.0000    747.4337     11.5941    139.3701
   504.0000      0.0000    747.3235     11.6910    138.6568
   504.2500      0.0000    747.1534     11.7957    139.5775
   504.5000      0.0000    746.9916     11.8915    142.4653
   504.7500      0.0000    746.8846     11.9458    146.8507
   505.0000      0.0000    746.8466     11.9421    151.8999
   505.2500      0.0000    746.8652     11.8928    156.3952
   505.5000      0.0000    746.9089     11.8242    158.3296
   505.7500      0.0000    746.9410     11.7572    156.1347
   506.0000      0.0000    746.9355     11.7000    150.7395
   506.2500      0.0000    746.8782     11.6537    145.1240
   506.5000      0.0000    746.7605     11.6258    141.4702
   506.7500      0.0000    746.5830     11.6379    139.6466
   507.0000      0.0000    746.3401     11.7116    138.3420
   507.2500      0.0000    745.9495     11.8426    136.5593
   507.5000      0.0000    745.1534     11.9954    133.9078
   507.7500      0.0000    743.6058     12.1249    130.3111
   508.0000      0.0000    741.3132     12.2021    126.0309
   508.2500      0.0000    739.0738     12.2217    122.0844
   508.5000      0.0000    738.1511     12.1925    120.1346
   508.7500      0.0000    739.1819     12.1205    121.2263
   509.0000      0.0000    741.5613     11.9952    124.4456
   509.2500      0.0000    744.1768     11.7916    127.1229
   509.5000      0.0000    746.6619     11.4978    126.5853
   509.7500      0.0000    749.9847     11.1400    121.9849
   510.0000      0.0000    756.1011     10.7700    114.6952
   510.2500      0.0000    766.7533     10.4251    106.9282
   510.5000      0.0000    781.6904     10.1136     99.8205
   510.7500      0.0000    797.8444      9.8411     92.8356
   511.0000      0.0000    811.1031      9.6387     84.9758
   511.2500      0.0000    819.4485      9.5613     76.3401
   511.5000      0.0000    823.9625      9.6546     68.3738
   511.7500      0.0000    826.7394      9.9122     62.7995
   512.0000      0.0000    828.5659     10.2605     60.6316
   512.2500      0.0000    828.8840     10.5937     62.0542
   512.5000      0.0000    827.2273     10.8359     66.7541
   512.7500      0.0000    823.9645     10.9765     74.1121
   513.0000      0.0000    819.5938     11.0633     82.9823
   513.2500      0.0000    813.8298     11.1770     91.3396
   513.5000      0.0000    806.1727     11.4093     96.7969
   513.7500      0.0000    797.5656     11.8433     98.2076
   514.0000      0.0000    790.5502     12.5255     96.4922
   514.2500      0.0000    787.0904     13.4293     93.3671
   514.5000      0.0000    786.6949     14.4366     89.9245
   514.7500      0.0000    786.9765     15.3682     87.2363
   515.0000      0.0000    785.5173     16.0663     87.4193
   515.2500      0.0000    781.2126     16.4718     92.6353
   515.5000      0.0000    774.9146     16.6336    102.9821
   515.7500      0.0000    769.4584     16.6551    116.0419
   516.0000      0.0000    768.4439     16.6267    128.4387
   516.2500      0.0000    774.0369     16.5909    137.4852
   516.5000      0.0000    785.5160     16.5498    141.7883
   516.7500      0.0000    799.7935     16.4887    141.2636
   517.0000      0.0000    813.2162     16.3808    136.9828
   517.2500      0.0000    823.1772     16.1868    130.7283
   517.5000      0.0000    828.7172     15.8841    124.5523
   517.7500      0.0000    830.2471     15.5006    120.5523
   518.0000      0.0000    829.0547     15.1040    120.3855
   518.2500      0.0000    826.9720     14.7555    124.3771
   518.5000      0.0000    825.8354     14.4824    131.0327
   518.7500      0.0000    826.5275     14.2779    137.7741
   519.0000      0.0000    828.4573     14.1026    142.5327
   519.2500      0.0000    830.1546     13.8957    144.8047
   519.5000      0.0000    830.3307     13.6122    145.3648
   519.7500      0.0000    828.4473     13.2595    145.3261
   520.0000      0.0000    824.5677     12.8920    145.3711
   520.2500      0.0000    818.7303     12.5674    145.3876
   520.5000      0.0000    810.6684     12.3065    144.8823
   520.7500      0.0000    800.8107     12.1010    144.0662
   521.0000      0.0000    791.4941     11.9527    144.1810
   521.2500      0.0000    785.9490     11.8864    146.3026
   521.5000      0.0000    785.5273     11.9135    150.0595
   521.7500      0.0000    788.7205     11.9996    153.8025
   522.0000      0.0000    793.2103     12.0803    156.0463
   522.2500      0.0000    798.0591     12.1067    156.7189
   522.5000      0.0000    803.7370     12.0801    156.9721
   522.7500      0.0000    810.9376     12.0446    157.8319
   523.0000      0.0000    820.7582     12.0226    159.3214
   523.2500      0.0000    836.3887     11.9387    160.8372
   523.5000      0.0000    862.2764     11.6446    161.6707
   523.7500      0.0000    897.8657     11.0706    160.7184
   524.0000      0.0000    933.0870     10.3490    156.3992
   524.2500      0.0000    955.4625      9.7444    147.7148
   524.5000      0.0000    962.8147      9.4478    135.4167
   524.7500      0.0000    964.2866      9.4576    121.7966
   525.0000     -2.0000    968.8483      9.6408    109.3878
   525.2500      2.0000    977.5730      9.8667    100.0349
   525.5000      0.0000    986.1940     10.0759     94.9002
   525.7500      0.0000    989.2429     10.2765     94.6343
   526.0000      0.0000    980.9474     10.5279     99.1545
   526.2500      0.0000    957.4461     10.9125    107.4600
