~Version Information
 VERS.                                  2.0 : CWLS LAS VERSION
 WRAP.                                   NO : WRAPING MODE
 SWARE .                 MController 2.5.0J : SOFTWARE VERSION
~Well Information
 WELL.                     Razor Clam 23-27 : WELL
 COMP.  Pioneer Natural Resources USA, Inc. : COMPANY
 FLD.                      Purgatoire River : FIELD
 LOC.               NE/SW Sec 27 T33S  R65W : LOCATION
 DATE.                              2/12/06 : DATE(S) LOGGED
 SRVC.       BLANCO Geological Services LLC : SERVICE COMPANY
 STAT.                                   CO : STATE
 CNTY.                           Las Animas : COUNTY
 CTRY.                                  USA : COUNTRY
 API.                       05-071-08667-00 : API NUMBER
 STRT.FT                             260.00 : START DEPTH
 STOP.FT                             700.00 : STOP DEPTH
 STEP.FT                               1.00 : DEPTH INCREMENT
 NULL.                                -9999 : NULL VALUE
~Curve information
 DEPTH.FT                                   :
 ROP.MIN/FT                                 :
 GAS.UNITS                                  :
~ASCII Log data
       260.0         0.47         14.2 
       261.0         0.63         13.7 
       262.0         1.13          9.5 
       263.0         0.25          5.9 
       264.0         0.23          8.2 
       265.0         0.23          3.4 
       266.0         0.20          9.0 
       267.0         0.23          3.8 
       268.0         0.23          5.6 
       269.0         0.20          2.3 
       270.0         0.20          4.8 
       271.0         0.23          1.6 
       272.0         0.23          2.4 
       273.0         0.23          3.3 
       274.0         0.23          7.3 
       275.0         0.23          0.2 
       276.0         0.23          1.8 
       277.0         0.23          1.6 
       278.0         0.25          3.6 
       279.0         0.27          3.4 
       280.0         0.27          1.8 
       281.0         0.23          2.9 
       282.0         0.27          2.2 
       283.0         0.27          0.7 
       284.0         0.27          0.2 
       285.0         0.23          3.5 
       286.0         0.23          1.6 
       287.0         0.20          3.6 
       288.0         0.20          3.0 
       289.0         0.23          5.5 
       290.0         0.23          3.5 
       291.0         0.25          2.1 
       292.0         2.63          8.1 
       293.0         0.33          2.4 
       294.0         0.23          1.7 
       295.0         0.22          0.2 
       296.0         0.20          0.1 
       297.0         0.20         12.4 
       298.0         0.23          9.8 
       299.0         0.23         11.0 
       300.0         0.23          9.2 
       301.0         0.23          5.9 
       302.0         0.27          9.9 
       303.0         0.23          7.1 
       304.0         0.23          6.9 
       305.0         0.23          6.8 
       306.0         0.27          9.7 
       307.0         0.23          6.4 
       308.0         0.27          9.4 
       309.0         0.25          6.0 
       310.0         0.27          7.6 
       311.0         0.27          6.5 
       312.0         0.23          8.2 
       313.0         0.27          5.9 
       314.0         0.27          6.3 
       315.0         0.27          6.8 
       316.0         0.27         10.5 
       317.0         0.27          7.3 
       318.0         0.27          8.3 
       319.0         0.23          4.6 
       320.0         0.20          5.9 
       321.0         0.20          5.7 
       322.0         5.53         15.2 
       323.0         0.20         12.5 
       324.0         0.23         13.4 
       325.0         0.27          4.8 
       326.0         0.17          7.6 
       327.0         0.20          4.0 
       328.0         0.17          6.4 
       329.0         0.17          0.7 
       330.0         0.22          3.8 
       331.0         0.17          0.7 
       332.0         0.17          1.1 
       333.0         0.17          3.8 
       334.0         0.20          0.5 
       335.0         0.20          5.1 
       336.0         0.20          5.7 
       337.0         0.17          4.9 
       338.0         0.23          3.5 
       339.0         0.20          7.0 
       340.0         0.17          1.4 
       341.0         0.17          0.2 
       342.0         0.23          0.5 
       343.0         0.20          2.8 
       344.0         0.13          4.2 
       345.0         0.17          1.0 
       346.0         0.17          3.0 
       347.0         0.20          2.4 
       348.0         0.22          5.7 
       349.0         0.17          3.9 
       350.0         0.13          4.1 
       351.0         0.17          5.6 
       352.0         5.38         83.1 
       353.0         0.27         40.1 
       354.0         0.23         26.2 
       355.0         0.18         23.4 
       356.0         0.27         20.2 
       357.0         0.27         19.6 
       358.0         0.23         17.2 
       359.0         0.27         14.8 
       360.0         0.23         12.8 
       361.0         0.23         12.4 
       362.0         0.30         11.9 
       363.0         0.30         10.6 
       364.0         0.30         11.8 
       365.0         0.30         10.4 
       366.0         0.30         13.6 
       367.0         0.27         11.7 
       368.0         0.28         13.7 
       369.0         0.27         11.0 
       370.0         0.33          8.7 
       371.0         0.30         10.7 
       372.0         0.33          8.3 
       373.0         0.33          6.0 
       374.0         0.30         13.3 
       375.0         0.33         12.3 
       376.0         0.30          6.9 
       377.0         0.30         10.0 
       378.0         0.30         10.2 
       379.0         0.35          5.8 
       380.0         0.30          5.7 
       381.0         0.23          5.6 
       382.0         4.85        380.1 
       383.0         0.33        303.3 
       384.0         0.27        168.6 
       385.0         0.27        114.1 
       386.0         0.32         86.5 
       387.0         0.37         70.5 
       388.0         0.37         61.4 
       389.0         0.37         54.9 
       390.0         0.37         52.5 
       391.0         0.33         50.2 
       392.0         0.30         50.6 
       393.0         0.37         51.5 
       394.0         0.33         47.3 
       395.0         0.38         50.9 
       396.0         0.33         47.2 
       397.0         0.37         48.1 
       398.0         0.33         50.2 
       399.0         0.37         45.5 
       400.0         0.37         51.2 
       401.0         0.37         47.1 
       402.0         0.37         47.3 
       403.0         0.37         47.6 
       404.0         0.37         47.4 
       405.0         0.38         50.6 
       406.0         0.37         45.9 
       407.0         0.37         50.1 
       408.0         0.30         47.8 
       409.0         0.33         44.9 
       410.0         0.33         46.9 
       411.0         0.63         49.2 
       412.0         5.23        374.7 
       413.0         0.33         88.8 
       414.0         0.23         67.8 
       415.0         0.17         61.5 
       416.0         0.23         67.3 
       417.0         0.20         62.9 
       418.0         0.20         60.0 
       419.0         0.20         52.3 
       420.0         0.20         49.5 
       421.0         0.17         51.8 
       422.0         0.17         48.7 
       423.0         0.15         41.6 
       424.0         0.17         40.7 
       425.0         0.20         37.6 
       426.0         0.27         42.7 
       427.0         0.33         46.9 
       428.0         0.23         51.3 
       429.0         0.30         49.6 
       430.0         0.20         42.2 
       431.0         0.27         41.4 
       432.0         0.27         40.4 
       433.0         0.27         45.5 
       434.0         0.27         44.8 
       435.0         0.27         43.0 
       436.0         0.28         43.0 
       437.0         0.27         41.3 
       438.0         0.23         44.0 
       439.0         0.20         42.0 
       440.0         0.17         40.7 
       441.0         0.20         41.3 
       442.0         4.05         72.3 
       443.0         0.57        411.1 
       444.0         0.30        473.1 
       445.0         0.30        361.3 
       446.0         0.27        213.0 
       447.0         0.22        132.7 
       448.0         0.20         94.4 
       449.0         0.20         78.9 
       450.0         0.17         75.3 
       451.0         0.13         74.5 
       452.0         0.13         76.4 
       453.0         0.17         73.1 
       454.0         0.13         58.7 
       455.0         0.20         62.1 
       456.0         0.17         65.0 
       457.0         0.17         65.0 
       458.0         0.17         66.6 
       459.0         0.13         62.3 
