~Version Information
VERS.                      2.0: CWLS Log ASCII Standard - VERSION 2.0
WRAP.                       NO: One line per depth step
~Well Information Block
STRT.FT                -2.7500: 
STOP.FT               973.2500: 
STEP.FT                 0.2500: 
NULL.                -999.2500: 
COMP.          Pioneer Natural Resources: COMPANY
WELL.          Red Raider 22-15: WELL
FLD.           Purgatoire River: FIELD
LOC.           1809' FNL & 2107' FWL: LOCATION
CNTY.               Las Animas: COUNTY
SRVC.                Patterson: SERVICE COMPANY
DATE.          Mon Apr 17 16:50:50 2006: LOG DATE
UWI.           05 071 08718 00: UNIQUE WELL ID
STAT.                 Colorado: STATE
~Curve Information Block
DEPT.FT            0 000 00 00: Depth
GR.GAPI                       : Gamma Ray
CCL.                          : Casing Collar Locator
TT3.usec                      : CBL 3' Travel Time
AMP3.mV                       : CBL 3' Amplitude
~Parameter Information Block
~A  Depth        GR         CCL         TT3         AMP3    
# ...
   499.7500     82.2838      0.0000    714.6469     11.7418
   500.0000     89.3722      0.0000    704.0671     11.8552
   500.2500     95.4402      0.0000    686.9182     11.9674
   500.5000     98.3394      0.0000    670.0893     12.0614
   500.7500     97.1546      0.0000    658.0858     12.1275
   501.0000     92.4023      0.0000    651.7714     12.1658
   501.2500     85.2636      0.0000    649.0968     12.1865
   501.5000     76.8798      0.0000    646.5017     12.2044
   501.7500     68.4675      0.0000    641.1794     12.2271
   502.0000     61.5604      0.0000    633.2111     12.2420
   502.2500     57.4347      0.0000    624.7090     12.2133
   502.5000     56.1964      0.0000    616.3689     12.0926
   502.7500     56.6830      0.0000    607.0302     11.8481
   503.0000     57.3309      0.0000    597.9837     11.5037
   503.2500     57.1617      0.0000    595.4114     11.1425
   503.5000     56.2391      0.0000    606.3227     10.8385
   503.7500     55.5203      0.0000    631.7102     10.5938
   504.0000     56.1605      0.0000    663.3849     10.3800
   504.2500     58.6594      0.0000    687.7305     10.2193
   504.5000     62.6525      0.0000    693.9494     10.1671
   504.7500     67.5374      0.0000    680.2871     10.2315
   505.0000     72.9286      0.0000    654.6873     10.3625
   505.2500     78.2700      3.0000    631.0730     10.5143
   505.5000     82.5174      0.0000    622.6463     10.7069
   505.7500     84.8911      0.0000    633.8412     11.0267
   506.0000     85.8654      0.0000    656.3609     11.5334
   506.2500     86.7689      0.0000    674.5164     12.1294
   506.5000     88.3348      0.0000    676.2801     12.5691
   506.7500     90.1916      0.0000    660.1324     12.6712
   507.0000     91.9570      0.0000    633.4852     12.4847
   507.2500     94.3400      0.0000    606.6613     12.1959
   507.5000     98.8019      0.0000    587.4233     11.9311
   507.7500    106.1738      0.0000    578.1525     11.7017
   508.0000    115.8066      0.0000    576.3606     11.4788
   508.2500    126.1791      0.0000    577.8289     11.2552
   508.5000    136.0727      0.0000    579.9122     11.0461
   508.7500    144.8851      0.0000    582.6692     10.8688
   509.0000    152.0506      0.0000    588.2659     10.7312
   509.2500    156.7262      0.0000    600.0524     10.6306
   509.5000    158.3127      0.0000    621.0320     10.5569
   509.7500    157.1689      0.0000    651.2714     10.4951
   510.0000    154.5468      0.0000    686.4395     10.4311
   510.2500    151.6354      0.0000    719.9819     10.3589
   510.5000    148.7725      0.0000    747.0563     10.2825
   510.7500    145.8232      0.0000    766.1058     10.2105
   511.0000    143.1277      0.0000    777.6247     10.1469
   511.2500    141.4801      0.0000    782.7903     10.0868
   511.5000    141.2125      0.0000    783.1688     10.0236
   511.7500    141.9031      0.0000    780.6048      9.9561
   512.0000    143.0868      0.0000    776.8549      9.8888
   512.2500    144.6038      0.0000    773.1530      9.8244
   512.5000    146.0442      0.0000    769.9163      9.7624
   512.7500    146.6195      0.0000    766.9866      9.7041
   513.0000    146.1009      0.0000    764.5223      9.6566
   513.2500    145.3072      0.0000    763.2821      9.6303
   513.5000    145.0107      0.0000    763.5790      9.6314
   513.7500    144.7153      0.0000    764.4315      9.6567
   514.0000    143.1182      0.0000    764.5038      9.6968
   514.2500    139.5871      0.0000    763.6062      9.7468
   514.5000    134.7377      0.0000    762.7236      9.8140
   514.7500    129.8338      0.0000    762.4816      9.9106
   515.0000    126.1325      0.0000    761.9242     10.0341
   515.2500    124.5242      0.0000    759.5755     10.1575
   515.5000    125.1046      0.0000    755.7740     10.2430
   515.7500    127.0218      0.0000    752.7397     10.2703
   516.0000    129.2094      0.0000    751.7681     10.2499
   516.2500    131.4150      0.0000    751.7885     10.2098
   516.5000    134.2584      0.0000    751.4440     10.1745
   516.7500    138.1510      0.0000    750.9104     10.1546
   517.0000    142.4102      0.0000    750.6202     10.1524
   517.2500    145.7184      0.0000    749.5233     10.1741
   517.5000    147.3805      0.0000    746.0165     10.2382
   517.7500    147.8274      0.0000    740.3296     10.3659
   518.0000    147.8483      0.0000    734.9597     10.5563
   518.2500    147.5858      0.0000    732.4456     10.7711
   518.5000    146.4584      0.0000    733.1572     10.9530
   518.7500    144.0954      0.0000    735.2297     11.0640
   519.0000    141.2630      0.0000    736.2852     11.1057
   519.2500    139.5922      0.0000    735.2672     11.1035
   519.5000    140.1159      0.0000    733.2288     11.0803
   519.7500    142.2623      0.0000    732.6624     11.0469
   520.0000    144.5232      0.0000    735.4882     11.0075
   520.2500    145.7425      0.0000    741.1356     10.9669
   520.5000    145.5097      0.0000    746.7264     10.9313
   520.7500    143.9802      0.0000    749.5300     10.9009
   521.0000    141.8828      0.0000    749.1174     10.8643
   521.2500    140.2263      0.0000    747.0337     10.8034
   521.5000    139.5365      0.0000    744.9554     10.7086
   521.7500    139.6773      0.0000    743.6036     10.5854
   522.0000    140.4769      0.0000    742.9261     10.4444
   522.2500    141.9589      0.0000    742.6452     10.2904
   522.5000    143.9506      0.0000    742.5230     10.1233
   522.7500    146.0258      0.0000    742.4501      9.9443
   523.0000    147.8152      0.0000    742.5862      9.7576
   523.2500    149.0221      0.0000    743.5585      9.5676
   523.5000    149.3898      0.0000    746.4415      9.3764
   523.7500    149.0430      0.0000    752.1423      9.1805
   524.0000    148.5954      0.0000    760.4401      8.9762
   524.2500    148.5051      0.0000    769.7469      8.7774
   524.5000    148.3094      0.0000    778.1252      8.6226
   524.7500    146.7368      0.0000    784.4960      8.5505
   525.0000    142.7906      0.0000    788.8328      8.5604
   525.2500    136.7796      0.0000    791.6915      8.6057
   525.5000    130.2373      0.0000    793.8239      8.6304
   525.7500    124.8834      0.0000    795.7756      8.6070
   526.0000    121.7461      0.0000    797.4921      8.5432
   526.2500    121.2015      0.0000    798.3906      8.4667
   526.5000    123.5806      0.0000    797.8528      8.4090
   526.7500    129.3460      0.0000    795.6601      8.3939
   527.0000    138.5205      0.0000    792.1376      8.4298
   527.2500    150.1385      0.0000    788.0145      8.5080
   527.5000    162.2693      0.0000    784.1114      8.6106
   527.7500    172.2322      0.0000    781.1784      8.7191
   528.0000    176.9400      0.0000    779.8622      8.8195
   528.2500    174.0323      0.0000    780.4595      8.9072
   528.5000    163.6161      0.0000    782.5790      8.9921
   528.7500    149.0031      0.0000    785.1567      9.0921
   529.0000    135.3171      0.0000    786.7836      9.2147
   529.2500    126.9191      0.0000    786.0859      9.3466
   529.5000    125.5113      0.0000    782.3228      9.4670
   529.7500    129.9539      0.0000    776.2053      9.5628
   530.0000    137.5729      0.0000    769.9322      9.6279
   530.2500    145.7255      0.0000    765.6973      9.6574
   530.5000    152.3759      0.0000    763.9826      9.6504
   530.7500    155.8729      0.0000    763.7386      9.6119
   531.0000    155.1273      0.0000    764.1025      9.5450
   531.2500    150.2119      0.0000    765.1607      9.4465
   531.5000    142.3061      0.0000    767.1075      9.3175
   531.7500    133.0958      0.0000    769.6445      9.1740
   532.0000    124.4948      0.0000    772.3668      9.0432
   532.2500    118.3384      0.0000    775.0291      8.9498
   532.5000    115.4994      0.0000    777.2266      8.9028
   532.7500    115.4281      0.0000    778.3445      8.8920
   533.0000    116.9791      0.0000    778.1868      8.8929
