~Version Information
VERS.                      2.0: CWLS Log ASCII Standard - VERSION 2.0
WRAP.                       NO: One line per depth step
~Well Information Block
STRT.FT               -10.0000: 
STOP.FT              1935.0000: 
STEP.FT                 0.2500: 
NULL.                -999.2500: 
COMP.          Pioneer Natural Resources: COMPANY
WELL.           Willys 32-8 Tr: WELL
FLD.           Purgatorie River: FIELD
LOC.           1843' FNL & 2355' FEL--: LOCATION
CNTY.               Las Animas: COUNTY
SRVC.          Patterson Wireline: SERVICE COMPANY
DATE.          Wed Feb 15 13:29:41 2006: LOG DATE
UWI.           05 071 08688 00: UNIQUE WELL ID
STAT.                       CO: STATE
~Curve Information Block
DEPT.FT            0 000 00 00: Depth
CCL.                          : Casing Collar Locator
TT3.usec                      : CBL 3' Travel Time
AMP3.mV                       : CBL 3' Amplitude
GR.GAPI                       : Gamma Ray
~Parameter Information Block
~A  Depth       CCL         TT3         AMP3         GR     
# ...
  1129.0000      0.0000    757.9703     15.4653    117.8812
  1129.2500      0.0000    762.7768     15.1649    129.5710
  1129.5000      0.0000    763.7001     14.9024    134.8668
  1129.7500      0.0000    762.6141     14.6819    133.7046
  1130.0000      0.0000    759.8167     14.4867    129.0446
  1130.2500      0.0000    754.8539     14.2859    124.7779
  1130.5000      0.0000    747.7485     14.0590    122.9172
  1130.7500      0.0000    739.7490     13.8094    122.8247
  1131.0000      0.0000    732.8831     13.5579    123.0015
  1131.2500      0.0000    728.8833     13.3291    122.8407
  1131.5000      0.0000    728.5421     13.1445    122.4363
  1131.7500      0.0000    731.5890     13.0190    121.6760
  1132.0000      0.0000    736.3516     12.9591    120.2664
  1132.2500      0.0000    739.5928     12.9610    118.2694
  1132.5000      0.0000    737.8887     13.0097    116.0782
  1132.7500      0.0000    730.3044     13.0740    113.9081
  1133.0000      0.0000    719.6979     13.1101    111.6128
  1133.2500      0.0000    710.6608     13.0820    109.2740
  1133.5000      0.0000    705.8618     12.9826    107.9178
  1133.7500      0.0000    704.6286     12.8329    109.0885
  1134.0000      0.0000    704.9904     12.6663    113.3566
  1134.2500      0.0000    706.3434     12.5179    119.6248
  1134.5000      0.0000    709.6476     12.4178    126.1673
  1134.7500      0.0000    715.5587     12.3801    131.8333
  1135.0000      0.0000    723.0663     12.3963    135.9536
  1135.2500      0.0000    729.8085     12.4450    137.8234
  1135.5000      0.0000    733.4969     12.5110    137.0325
  1135.7500      0.0000    733.5651     12.5946    133.9538
  1136.0000      0.0000    731.7817     12.7056    129.1930
  1136.2500      0.0000    730.9076     12.8462    122.8569
  1136.5000      0.0000    732.6151     12.9966    114.9699
  1136.7500      0.0000    736.5878     13.1175    106.2886
  1137.0000      0.0000    740.8499     13.1782     98.0610
  1137.2500      0.0000    742.7823     13.1877     91.0960
  1137.5000      0.0000    740.8299     13.1911     85.4385
  1137.7500      0.0000    735.8229     13.2325     80.9267
  1138.0000      0.0000    730.3256     13.3319     77.8067
  1138.2500      0.0000    726.6694     13.4966     76.7219
  1138.5000      0.0000    725.7337     13.7364     78.1333
  1138.7500      0.0000    727.0253     14.0501     81.7213
  1139.0000      0.0000    729.1839     14.4023     86.4234
  1139.2500      0.0000    730.5289     14.7268     91.2514
  1139.5000      0.0000    729.4651     14.9620     95.9488
  1139.7500      0.0000    723.9460     15.0891    100.5759
  1140.0000      0.0000    710.7161     15.1396    104.8767
  1140.2500      0.0000    687.4229     15.1613    108.7078
  1140.5000      0.0000    657.4859     15.1781    112.7720
  1140.7500      0.0000    630.6022     15.1832    117.9848
  1141.0000      0.0000    614.5051     15.1633    123.9184
  1141.2500      0.0000    607.5261     15.1115    128.3742
  1141.5000      0.0000    603.7191     15.0162    128.8046
  1141.7500      0.0000    603.6533     14.8518    124.3338
  1142.0000      0.0000    613.9589     14.5926    116.7039
  1142.2500      0.0000    636.3170     14.2422    109.2990
  1142.5000      0.0000    662.5432     13.8461    104.8842
  1142.7500      0.0000    681.5151     13.4722    103.9506
  1143.0000      0.0000    686.5337     13.1755    105.1090
  1143.2500      0.0000    675.0361     12.9749    106.9006
  1143.5000      0.0000    646.2567     12.8598    108.9562
  1143.7500      0.0000    603.5229     12.8113    111.4426
  1144.0000      0.0000    556.9401     12.8178    114.0279
  1144.2500      0.0000    519.0132     12.8709    116.0266
  1144.5000      0.0000    496.3202     12.9528    117.5046
  1144.7500      0.0000    487.0645     13.0384    119.7196
  1145.0000      0.0000    486.2354     13.1183    124.1671
  1145.2500      0.0000    491.4313     13.2102    131.0600
  1145.5000      0.0000    504.1382     13.3382    138.7067
  1145.7500      0.0000    526.7473     13.5064    144.4673
  1146.0000      0.0000    558.1989     13.7008    146.5459
  1146.2500      0.0000    592.1445     13.9097    145.2322
  1146.5000      0.0000    619.4489     14.1277    142.6721
  1146.7500      0.0000    632.2242     14.3465    141.2469
  1147.0000      0.0000    626.1084     14.5510    141.9391
  1147.2500      0.0000    602.0515     14.7265    144.1697
  1147.5000      0.0000    567.9297     14.8686    146.8960
  1147.7500      0.0000    536.0829     14.9873    149.4816
  1148.0000      0.0000    515.6764     15.1057    151.7234
  1148.2500      0.0000    505.9113     15.2524    153.5280
  1148.5000      0.0000    496.5924     15.4501    154.7629
  1148.7500      0.0000    476.9779     15.7054    155.4607
  1149.0000      0.0000    446.4465     15.9985    156.0042
  1149.2500      0.0000    416.9844     16.2771    156.6712
  1149.5000      0.0000    404.4375     16.4691    156.9297
  1149.7500      0.0000    417.0405     16.5148    155.6772
  1150.0000      0.0000    451.0051     16.4020    152.3969
  1150.2500      0.0000    495.1610     16.1769    147.6176
  1150.5000      0.0000    538.9410     15.9231    142.2218
  1150.7500      0.0000    575.6847     15.7239    137.0483
  1151.0000      0.0000    600.7064     15.6307    133.2863
  1151.2500      0.0000    611.9113     15.6486    132.2640
  1151.5000      0.0000    612.9846     15.7398    134.2628
  1151.7500      0.0000    609.5136     15.8456    137.8610
  1152.0000      0.0000    600.3638     15.9156    140.7720
  1152.2500      0.0000    579.6512     15.9255    141.3439
  1152.5000      0.0000    549.5903     15.8684    139.4008
  1152.7500      0.0000    524.9073     15.7372    136.0400
  1153.0000      0.0000    520.8712     15.5227    132.7637
  1153.2500      0.0000    540.5510     15.2304    130.6236
  1153.5000      0.0000    575.4055     14.8915    129.8414
  1153.7500      0.0000    613.9476     14.5541    130.1733
  1154.0000      0.0000    647.0486     14.2657    131.7114
  1154.2500      0.0000    668.2136     14.0578    134.9598
  1154.5000      0.0000    673.8775     13.9370    139.7126
  1154.7500      0.0000    665.7823     13.8863    144.3333
  1155.0000      0.0000    652.6992     13.8747    146.8732
  1155.2500      0.0000    646.9905     13.8678    146.6606
  1155.5000      0.0000    655.7387     13.8349    144.3903
  1155.7500      0.0000    674.8716     13.7616    141.2051
  1156.0000      0.0000    693.3650     13.6570    138.1570
  1156.2500      0.0000    702.5526     13.5422    135.8788
  1156.5000      0.0000    701.6694     13.4302    134.0358
  1156.7500      0.0000    697.3320     13.3223    131.4714
  1157.0000      0.0000    698.3963     13.2285    127.5237
  1157.2500      0.0000    708.3406     13.1823    123.1217
  1157.5000      0.0000    721.4191     13.2258    120.1607
  1157.7500      0.0000    726.9828     13.3720    119.7871
  1158.0000      0.0000    716.9163     13.5763    121.4012
  1158.2500      0.0000    688.7202     13.7517    123.2794
  1158.5000      0.0000    644.6955     13.8235    124.0069
  1158.7500      0.0000    591.2490     13.7787    123.2516
  1159.0000      0.0000    538.0262     13.6607    121.4635
  1159.2500      0.0000    494.3996     13.5213    119.3413
  1159.5000      0.0000    464.9367     13.3872    117.5445
  1159.7500      0.0000    448.0875     13.2641    116.3792
  1160.0000      0.0000    438.8438     13.1526    115.5899
  1160.2500      0.0000    432.4168     13.0541    114.8431
  1160.5000      0.0000    426.1490     12.9713    114.6120
  1160.7500      0.0000    419.3816     12.9094    116.0456
  1161.0000      0.0000    412.5367     12.8720    119.4179
  1161.2500      0.0000    406.5586     12.8509    123.1180
  1161.5000      0.0000    402.6097     12.8257    124.9632
  1161.7500      0.0000    401.2627     12.7792    124.4933
  1162.0000      0.0000    401.6858     12.7119    123.2873
  1162.2500      0.0000    402.2043     12.6403    123.0337
