~Version Information
VERS.                      2.0: CWLS Log ASCII Standard - VERSION 2.0
WRAP.                       NO: One line per depth step
~Well Information Block
STRT.FT               420.0000: 
STOP.FT              2888.7000: 
STEP.FT                 0.1000: 
NULL.                -999.2500: 
COMP.          Pioneer Natural Resources: COMPANY
WELL.          Touchstone 11-32: WELL
FLD.           Purgatoire River: FIELD
LOC.           853' FNL & 407' FWL--: LOCATION
CNTY.               Las Animas: COUNTY
SRVC.                Patterson: SERVICE COMPANY
DATE.          Fri Feb 24 11:16:52 2006: LOG DATE
UWI.           05 071 08564 00: UNIQUE WELL ID
STAT.                 Colorado: STATE
~Curve Information Block
DEPT.FT            0 000 00 00: Depth
DCAL.in                       : CDL Caliper
RHOB.g/cc                     : CDL Bulk Density
RHOC.g/cc                     : CDL Density Correction
DPOR.pu                       : CDL Density Porosity
NPOR.pu                       : Neutron Porosity
GR.GAPI                       : Gamma Ray
~Parameter Information Block
~A  Depth       DCAL        RHOB        RHOC        DPOR        NPOR         GR     
   420.0000      8.1303      2.3049     -0.2119     20.9127     43.6956     77.4576
   420.1000      8.1303      2.3229     -0.1568     19.8217     43.4596     79.3975
   420.2000      8.1303      2.3336     -0.1536     19.1761     43.2910     80.3704
   420.3000      8.1306      2.3368     -0.1967     18.9789     43.1048     79.1038
   420.4000      8.1306      2.3474     -0.1644     18.3370     42.8678     74.7295
   420.5000      8.1324      2.3535     -0.1135     17.9717     42.8461     69.5803
   420.6000      8.1324      2.3377     -0.1988     18.9289     43.1414     67.0076
   420.7000      8.1324      2.3262     -0.2639     19.6257     43.4424     67.8744
   420.8000      8.1372      2.3438     -0.1761     18.5553     43.2295     69.4965
   420.9000      8.1372      2.3692     -0.1939     17.0156     42.4330     69.0140
   421.0000      8.1400      2.3746     -0.1637     16.6930     41.4958     66.8299
   421.1000      8.1400      2.3670     -0.1938     17.1511     40.8427     66.0094
   421.2000      8.1400      2.3770     -0.2201     16.5431     40.6555     68.4663
   421.3000      8.1389      2.4056     -0.1402     14.8105     40.7453     71.5870
   421.4000      8.1389      2.4204     -0.1565     13.9180     40.9223     71.4296
   421.5000      8.1377      2.4085     -0.1963     14.6360     41.1093     69.2969
   421.6000      8.1377      2.3830     -0.1617     16.1804     41.1885     70.4730
   421.7000      8.1377      2.3594     -0.2261     17.6119     41.3497     74.7505
   421.8000      8.1384      2.3494     -0.2413     18.2181     41.6740     76.6839
   421.9000      8.1384      2.3544     -0.2037     17.9145     41.7172     76.2406
   422.0000      8.1400      2.3659     -0.1994     17.2183     41.5904     77.0187
   422.1000      8.1400      2.3742     -0.2169     16.7141     41.7138     78.4899
   422.2000      8.1400      2.3725     -0.1856     16.8176     41.6333     76.6263
   422.3000      8.1408      2.3679     -0.2700     17.0948     41.0162     71.3023
   422.4000      8.1408      2.3786     -0.1888     16.4466     40.3627     67.9381
   422.5000      8.1398      2.3999     -0.1685     15.1587     40.0214     67.7128
   422.6000      8.1398      2.4147     -0.1638     14.2587     39.9518     67.3966
   422.7000      8.1398      2.4267     -0.1645     13.5342     40.2919     67.1079
   422.8000      8.1398      2.4432     -0.1283     12.5307     41.0664     67.5913
   422.9000      8.1398      2.4553     -0.1255     11.7975     41.8025     67.1023
   423.0000      8.1401      2.4531     -0.1296     11.9341     41.8353     65.1123
   423.1000      8.1401      2.4356     -0.1465     12.9949     41.3358     62.8154
   423.2000      8.1401      2.4101     -0.1823     14.5394     40.8335     61.5019
   423.3000      8.1400      2.4002     -0.2568     15.1386     40.3889     60.4990
   423.4000      8.1400      2.4195     -0.1714     13.9715     40.3078     58.8882
   423.5000      8.1420      2.4491     -0.1496     12.1770     40.8693     58.5683
   423.6000      8.1420      2.4746     -0.1623     10.6310     41.4869     60.5807
   423.7000      8.1420      2.4930     -0.1251      9.5161     41.5751     63.9231
   423.8000      8.1431      2.4954     -0.1376      9.3685     41.1595     67.7752
   423.9000      8.1431      2.4847     -0.1638     10.0160     40.5054     70.1517
   424.0000      8.1403      2.4781     -0.1541     10.4186     40.2169     69.7239
   424.1000      8.1403      2.4866     -0.1432      9.9010     40.7205     68.0946
   424.2000      8.1403      2.5026     -0.1438      8.9314     41.3319     66.6880
   424.3000      8.1392      2.5024     -0.0794      8.9473     41.2975     64.8468
   424.4000      8.1392      2.4782     -0.1735     10.4128     40.9784     61.3505
   424.5000      8.1413      2.4589     -0.1962     11.5807     40.6743     58.0826
   424.6000      8.1413      2.4627     -0.1980     11.3521     40.2436     58.1882
   424.7000      8.1413      2.4706     -0.1634     10.8749     39.8685     61.5045
   424.8000      8.1429      2.4643     -0.2080     11.2531     39.6818     64.7562
   424.9000      8.1429      2.4436     -0.1881     12.5064     39.5380     64.6167
   425.0000      8.1435      2.4199     -0.2341     13.9483     39.4944     63.4418
   425.1000      8.1435      2.4164     -0.2345     14.1596     39.7476     63.2892
   425.2000      8.1435      2.4418     -0.2267     12.6165     40.1696     62.4550
   425.3000      8.1434      2.4738     -0.1522     10.6811     40.6425     62.6594
   425.4000      8.1434      2.4829     -0.1732     10.1253     41.0243     65.7557
   425.5000      8.1419      2.4610     -0.1910     11.4538     40.9809     69.1128
   425.6000      8.1419      2.4327     -0.3057     13.1707     40.7008     70.3883
   425.7000      8.1419      2.4289     -0.2138     13.3978     40.5342     71.3742
   425.8000      8.1390      2.4438     -0.1713     12.4952     40.4460     72.2238
   425.9000      8.1390      2.4581     -0.1755     11.6290     40.3613     71.8971
   426.0000      8.1365      2.4621     -0.1711     11.3880     40.3365     72.5757
   426.1000      8.1365      2.4547     -0.2463     11.8393     40.4760     74.8232
   426.2000      8.1365      2.4541     -0.2339     11.8724     40.8044     76.6024
   426.3000      8.1365      2.4737     -0.1606     10.6852     41.1687     77.5959
   426.4000      8.1365      2.5131     -0.1640      8.2976     41.3281     78.2223
   426.5000      8.1387      2.5904     -0.1889      3.6150     41.3349     79.2822
   426.6000      8.1387      2.7033     -0.0969     -3.2315     41.5776     80.4078
   426.7000      8.1387      2.7927     -0.0147     -8.6459     42.1856     78.9630
   426.8000      8.1387      2.8155     -0.0733    -10.0281     42.7174     75.2597
   426.9000      8.1387      2.7807     -0.0396     -7.9217     43.0021     71.6812
   427.0000      8.1385      2.6964     -0.1575     -2.8131     43.2900     68.5242
   427.1000      8.1385      2.5565     -0.2439      5.6641     43.6074     66.1430
   427.2000      8.1385      2.3605     -0.3058     17.5476     43.8961     65.5341
   427.3000      8.1393      2.1615     -0.5056     29.6075     44.1227     66.8190
   427.4000      8.1393      2.0474     -0.5126     36.5206     44.0411     68.2760
   427.5000      8.1410      2.0290     -0.5319     37.6361     42.9775     68.9040
   427.6000      8.1410      2.0396     -0.6246     36.9916     40.5086     69.2923
   427.7000      8.1410      2.0347     -0.7042     37.2890     36.9142     70.4825
   427.8000      8.1438      2.0170     -0.7671     38.3614     32.5452     75.0591
   427.9000      8.1438      1.9668     -0.4031     41.4039     27.7053     81.3275
   428.0000      8.1591      1.8683     -0.4802     47.3728     22.9448     84.2956
   428.1000      8.1591      1.8232     -0.5231     50.1089     18.8972     84.8948
   428.2000      8.1591      1.9450     -0.1767     42.7270     15.9715     86.8416
   428.3000      8.2480      2.1796      0.2005     28.5076     14.0757     89.5810
   428.4000      8.2480      2.3789      0.4110     16.4303     12.8121     93.1261
   428.5000      8.4459      2.4760      0.3570     10.5427     11.9013     97.3101
   428.6000      8.4459      2.5144      0.3666      8.2194     11.2504     99.2326
   428.7000      8.4459      2.5511      0.3354      5.9928     10.7259    100.0312
   428.8000      8.5977      2.5970      0.3404      3.2150     10.2276    102.6242
   428.9000      8.5977      2.6299      0.3179      1.2164      9.7067    103.6265
   429.0000      8.5820      2.6400      0.2485      0.6044      9.2515    101.6176
   429.1000      8.5820      2.6451      0.1859      0.2954      9.0516    101.8656
   429.2000      8.5820      2.6521      0.2213     -0.1256      9.0688    106.4796
   429.3000      8.5580      2.6428      0.2209      0.4356      9.2006    113.4421
   429.4000      8.5580      2.6121      0.1632      2.2979      9.4184    120.4923
   429.5000      8.6047      2.5711      0.1517      4.7824      9.6159    123.7810
