~Version Information
VERS.                      2.0: CWLS Log ASCII Standard - VERSION 2.0
WRAP.                       NO: One line per depth step
~Well Information Block
STRT.FT               245.0000: 
STOP.FT              1273.7000: 
STEP.FT                 0.1000: 
NULL.                -999.2500: 
COMP.          Pioneer Natural Resources: COMPANY
WELL.                 Ray 34-6: WELL
FLD.           Purgatoire River: FIELD
LOC.           684' FSL & 2254' FEL--: LOCATION
CNTY.               Las Animas: COUNTY
SRVC.                Patterson: SERVICE COMPANY
DATE.          Fri May 26 09:17:30 2006: LOG DATE
UWI.           05 071 08695 00: UNIQUE WELL ID
STAT.                 Colorado: STATE
~Curve Information Block
DEPT.FT            0 000 00 00: Depth
DCAL.in                       : CDL Caliper
RHOB.g/cc                     : CDL Bulk Density
RHOC.g/cc                     : CDL Density Correction
DPOR.pu                       : CDL Density Porosity
NPOR.pu                       : Neutron Porosity
GR.GAPI                       : Gamma Ray
~Parameter Information Block
~A  Depth       DCAL        RHOB        RHOC        DPOR        NPOR         GR     
   245.0000      1.5791      1.9159      0.3035     44.4904     44.0707     75.0950
   245.1000      1.5791      1.9221      0.3141     44.1148     44.1458     74.0928
   245.2000      1.5791      1.9289      0.3038     43.7043     44.1704     76.0212
   245.3000      1.5813      1.9327      0.3108     43.4748     44.2243     80.3475
   245.4000      1.5813      1.9313      0.3042     43.5554     44.2318     83.9724
   245.5000      1.5812      1.9271      0.2888     43.8119     44.1888     86.2703
   245.6000      1.5812      1.9210      0.3141     44.1799     44.1390     87.3763
   245.7000      1.5812      1.9099      0.3120     44.8574     43.7734     86.8084
   245.8000      1.5817      1.8973      0.2852     45.6167     43.1125     88.3318
   245.9000      1.5817      1.8948      0.2708     45.7707     42.9372     94.9559
   246.0000      1.5840      1.9039      0.2951     45.2187     43.6505    102.8730
   246.1000      1.5840      1.9111      0.3224     44.7802     44.4771    107.1533
   246.2000      1.5840      1.9068      0.2944     45.0406     44.7430    105.6814
   246.3000      1.5855      1.8958      0.2954     45.7118     44.6270    100.8510
   246.4000      1.5855      1.8845      0.2774     46.3916     44.3425     95.7067
   246.5000      1.5845      1.8750      0.2647     46.9672     44.1397     91.2853
   246.6000      1.5845      1.8691      0.2644     47.3280     44.2608     91.8117
   246.7000      1.5845      1.8679      0.2696     47.3998     44.4589     96.5848
   246.8000      1.5830      1.8697      0.2726     47.2906     44.3854     98.4929
   246.9000      1.5830      1.8743      0.2655     47.0139     44.1369     98.4132
   247.0000      1.5819      1.8859      0.2647     46.3086     43.8943    101.4621
   247.1000      1.5819      1.9060      0.2972     45.0927     43.6549    105.0330
   247.2000      1.5819      1.9276      0.2901     43.7799     43.5877    104.9696
   247.3000      1.5821      1.9431      0.3144     42.8445     43.9331    103.7831
   247.4000      1.5821      1.9483      0.3112     42.5284     44.4138    101.8531
   247.5000      1.5829      1.9490      0.2921     42.4847     44.3860     95.8807
   247.6000      1.5829      1.9567      0.2927     42.0197     43.9223     88.4738
   247.7000      1.5829      1.9724      0.3132     41.0688     43.5982     87.0968
   247.8000      1.5847      1.9887      0.3135     40.0773     43.5581     92.1864
   247.9000      1.5847      1.9983      0.3299     39.4997     43.7508     95.0145
   248.0000      1.5875      1.9951      0.2993     39.6931     44.1148     93.3200
   248.1000      1.5875      1.9807      0.2922     40.5660     44.3787     92.5758
   248.2000      1.5875      1.9597      0.2858     41.8388     44.3333     95.2066
   248.3000      1.5916      1.9355      0.2473     43.3059     44.1714     97.1377
   248.4000      1.5916      1.9128      0.2421     44.6779     44.0361     92.4295
   248.5000      1.5943      1.8925      0.2512     45.9116     43.7040     83.1251
   248.6000      1.5943      1.8724      0.2286     47.1245     43.1714     79.4396
   248.7000      1.5943      1.8579      0.2260     48.0087     42.7570     83.8905
   248.8000      1.5933      1.8548      0.2162     48.1923     42.5898     88.5046
   248.9000      1.5933      1.8590      0.2308     47.9411     42.5521     87.9174
   249.0000      1.5909      1.8604      0.2319     47.8520     42.5004     82.9974
   249.1000      1.5909      1.8575      0.2407     48.0308     42.4490     76.1113
   249.2000      1.5909      1.8544      0.2526     48.2161     42.6658     71.6589
   249.3000      1.5871      1.8543      0.2424     48.2221     43.0694     73.0768
   249.4000      1.5871      1.8560      0.2708     48.1205     43.1399     77.3087
   249.5000      1.5832      1.8572      0.2359     48.0503     42.7751     79.7454
   249.6000      1.5832      1.8605      0.2523     47.8477     42.3697     80.2262
   249.7000      1.5832      1.8655      0.2721     47.5444     42.2736     78.9734
   249.8000      1.5829      1.8685      0.2552     47.3630     42.4942     74.7529
   249.9000      1.5829      1.8697      0.2554     47.2903     42.6788     68.3772
   250.0000      1.5837      1.8698      0.2652     47.2876     42.5759     63.0152
   250.1000      1.5837      1.8676      0.2800     47.4166     42.4044     62.7582
   250.2000      1.5837      1.8628      0.2651     47.7110     42.4929     67.2002
   250.3000      1.5839      1.8556      0.2762     48.1439     42.7342     72.8132
   250.4000      1.5839      1.8478      0.2765     48.6210     42.8327     78.4972
   250.5000      1.5822      1.8421      0.2704     48.9652     42.6761     83.5216
   250.6000      1.5822      1.8415      0.2699     48.9999     42.4559     85.5817
   250.7000      1.5822      1.8467      0.2937     48.6870     42.4286     84.4116
   250.8000      1.5807      1.8555      0.2916     48.1512     42.5001     82.0045
   250.9000      1.5807      1.8662      0.3019     47.5017     42.3961     80.1937
   251.0000      1.5800      1.8745      0.3243     47.0002     42.0097     79.4556
   251.1000      1.5800      1.8727      0.3277     47.1081     41.7382     79.3982
   251.2000      1.5800      1.8640      0.2854     47.6356     42.0372     82.0072
   251.3000      1.5797      1.8619      0.2977     47.7620     42.7495     87.6236
   251.4000      1.5797      1.8669      0.3190     47.4590     43.3831     91.0877
   251.5000      1.5775      1.8689      0.3093     47.3420     43.5438     90.7200
   251.6000      1.5775      1.8659      0.3018     47.5235     43.1229     92.3461
   251.7000      1.5775      1.8637      0.2914     47.6542     42.4595     96.6756
   251.8000      1.5664      1.8655      0.3048     47.5445     42.0069     97.7175
   251.9000      1.5664      1.8669      0.3191     47.4611     41.9253     94.4040
   252.0000      1.8154      1.8654      0.2997     47.5518     42.0486     88.5190
   252.1000      1.8154      1.8638      0.3090     47.6507     42.1936     83.2515
   252.2000      1.8154      1.8616      0.3025     47.7805     42.3466     82.6722
   252.3000      3.5799      1.8602      0.2865     47.8652     42.4492     85.8881
   252.4000      3.5799      1.8662      0.2947     47.5009     42.3808     87.2788
   252.5000      6.8706      1.8808      0.3070     46.6201     42.3213     84.1090
   252.6000      6.8706      1.8963      0.3188     45.6778     42.4327     81.5634
   252.7000      6.8706      1.9021      0.3280     45.3257     42.3472     83.7425
   252.8000      8.9267      1.8883      0.3186     46.1625     41.7751     88.9761
   252.9000      8.9267      1.8520      0.2978     48.3655     40.8134     96.3699
   253.0000      9.3536      1.7985      0.2818     51.6046     39.5598    103.9318
   253.1000      9.3536      1.7357      0.2589     55.4092     37.9297    107.8929
   253.2000      9.3536      1.6680      0.2333     59.5172     35.9058    108.6952
   253.3000      9.2942      1.5972      0.2079     63.8057     33.6052    107.8175
   253.4000      9.2942      1.5445      0.1890     66.9994     31.0901    105.9213
   253.5000      9.0675      1.5849      0.1623     64.5529     28.5813    107.2703
   253.6000      9.0675      1.7936      0.2879     51.9051     26.3596    113.6940
   253.7000      9.0675      2.1105      0.5795     32.6950     24.5694    119.2318
   253.8000      8.8988      2.3838      0.7113     16.1325     23.2411    121.1638
   253.9000      8.8988      2.5574      0.7374      5.6141     22.2363    121.8120
   254.0000      8.9761      2.6684      0.7787     -1.1172     21.4794    121.4369
   254.1000      8.9761      2.7060      1.0018     -3.3925     21.0965    118.5844
   254.2000      8.9761      2.6173      0.8646      1.9830     21.1190    112.1809
   254.3000      9.0333      2.4416      0.3964     12.6283     21.2329    107.7767
   254.4000      9.0333      2.2949      0.2821     21.5202     21.0256    110.9776
   254.5000      9.1000      2.2246      0.3164     25.7846     20.6578    114.8024
