~Version Information
VERS.                      2.0: CWLS Log ASCII Standard - VERSION 2.0
WRAP.                       NO: One line per depth step
~Well Information Block
STRT.FT               -12.0000: 
STOP.FT              1728.0000: 
STEP.FT                 0.2500: 
NULL.                -999.2500: 
COMP.          XTO Energy Inc.: COMPANY
WELL.          Apache Canyon 35-06: WELL
FLD.              Vermejo Coal: FIELD
LOC.           2422' FNL & 1889' FWL--: LOCATION
STAT.                       CO: State
CNTY.               Las Animas: COUNTY
CTRY. USA : Country
SECT.  : Section
TOWN.  : Township
RANG.  : Range
SRVC.          Patterson Wireline: SERVICE COMPANY
DATE.          Fri Jan 06 08:11:44 2006: LOG DATE
API.              05 071 08540: UNIQUE WELL ID
~Curve Information Block
DEPT.FT            0 000 00 00: Depth
CCL.                          : Casing Collar Locator
TT3.usec                      : CBL 3' Travel Time
AMP3.mV                       : CBL 3' Amplitude
GR.GAPI                       : Gamma Ray
~Parameter Information Block
~A  Depth       CCL         TT3         AMP3         GR     
# ...
  1361.5000      0.0000    657.6437      4.2797     60.7497
  1361.7500      0.0000    628.3881      4.3317     56.2271
  1362.0000      0.0000    617.0890      4.3871     52.7538
  1362.2500      0.0000    627.6357      4.4499     51.8179
  1362.5000      0.0000    651.8340      4.5236     53.5113
  1362.7500      0.0000    677.1646      4.6057     56.4271
  1363.0000      0.0000    695.9563      4.6875     58.8471
  1363.2500      0.0000    708.1706      4.7591     59.9638
  1363.5000      0.0000    718.2676      4.8138     60.0015
  1363.7500      0.0000    730.6771      4.8490     59.4318
  1364.0000      0.0000    746.5366      4.8660     58.4448
  1364.2500      0.0000    762.6417      4.8700     57.2960
  1364.5000      0.0000    773.4020      4.8699     56.6263
  1364.7500      0.0000    774.9550      4.8764     56.7850
  1365.0000      0.0000    768.2855      4.8993     57.0947
  1365.2500      0.0000    758.3563      4.9426     56.4855
  1365.5000      0.0000    749.2693      5.0019     54.7444
  1365.7500      0.0000    739.9143      5.0690     52.6715
  1366.0000      0.0000    725.5400      5.1371     51.2278
  1366.2500      0.0000    704.6279      5.2040     50.9563
  1366.5000      0.0000    683.1573      5.2688     51.9183
  1366.7500      0.0000    670.8369      5.3262     53.7316
  1367.0000      0.0000    673.1411      5.3621     55.7542
  1367.2500      0.0000    686.8510      5.3627     57.3770
  1367.5000      0.0000    702.5482      5.3323     58.1239
  1367.7500      0.0000    711.8584      5.2921     57.7920
  1368.0000      0.0000    713.2858      5.2551     56.7758
  1368.2500      0.0000    711.3484      5.2110     55.9107
  1368.5000      0.0000    710.9539      5.1433     55.5600
  1368.7500      0.0000    713.5141      5.0555     55.0803
  1369.0000      0.0000    717.5703      4.9786     53.6176
  1369.2500      0.0000    721.8364      4.9534     51.2798
  1369.5000      0.0000    727.2816      4.9928     49.1834
  1369.7500      0.0000    736.0217      5.0503     48.3928
  1370.0000      0.0000    747.8768      5.0403     48.9386
  1370.2500      0.0000    758.7581      4.9110     49.9162
  1370.5000      0.0000    763.2618      4.6892     50.4879
  1370.7500      0.0000    758.9280      4.4461     50.6507
  1371.0000      0.0000    747.5447      4.2296     51.0289
  1371.2500      0.0000    732.9823      4.0429     52.2297
  1371.5000      0.0000    719.0702      3.8691     54.5521
  1371.7500      0.0000    709.1725      3.6997     58.1105
  1372.0000      0.0000    705.5140      3.5394     62.9097
  1372.2500      0.0000    707.9177      3.3949     68.6397
  1372.5000      0.0000    714.2039      3.2662     74.4122
  1372.7500      0.0000    721.7102      3.1492     78.9916
  1373.0000      0.0000    727.4916      3.0439     81.6138
  1373.2500      0.0000    728.5898      2.9586     82.5876
  1373.5000      0.0000    724.3852      2.9047     82.9324
  1373.7500      0.0000    717.9247      2.8844     83.4124
  1374.0000      0.0000    713.1746      2.8831     83.9262
  1374.2500      0.0000    711.2543      2.8745     83.8470
  1374.5000      0.0000    710.0845      2.8382     82.8518
  1374.7500      0.0000    707.3232      2.7736     81.0800
  1375.0000      0.0000    703.0822      2.6977     78.4637
  1375.2500      0.0000    699.9706      2.6336     74.5900
  1375.5000      0.0000    700.5649      2.6031     69.5409
  1375.7500      0.0000    704.6771      2.6203     64.2553
  1376.0000      0.0000    709.1887      2.6813     59.8188
  1376.2500      0.0000    710.6772      2.7596     57.0927
  1376.5000      0.0000    708.0949      2.8188     57.0867
  1376.7500      0.0000    702.9354      2.8354     60.6299
  1377.0000      0.0000    697.2204      2.8131     67.1329
  1377.2500      0.0000    691.6913      2.7756     74.3667
  1377.5000      0.0000    685.8073      2.7472     80.1085
  1377.7500      0.0000    679.0754      2.7400     83.6921
  1378.0000      0.0000    672.1039      2.7545     85.6337
  1378.2500      0.0000    666.3060      2.7872     86.2910
  1378.5000      0.0000    662.7390      2.8365     85.5564
  1378.7500      0.0000    661.4506      2.9026     83.6468
  1379.0000      0.0000    661.8719      2.9838     81.3706
  1379.2500      0.0000    663.5991      3.0737     79.3328
  1379.5000      0.0000    666.7573      3.1636     77.4263
  1379.7500      0.0000    671.7752      3.2493     75.4446
  1380.0000      0.0000    678.9037      3.3355     73.8226
  1380.2500      0.0000    688.1285      3.4348     73.3071
  1380.5000      0.0000    699.6624      3.5614     73.9096
  1380.7500      0.0000    713.9920      3.7250     74.5840
  1381.0000      0.0000    730.6362      3.9257     74.1784
  1381.2500      0.0000    747.1761      4.1546     72.4691
  1381.5000      0.0000    760.5945      4.3962     70.0853
  1381.7500      0.0000    769.3328      4.6326     67.7234
  1382.0000      0.0000    772.8939      4.8493     65.7467
  1382.2500      0.0000    770.1923      5.0373     64.4037
  1382.5000      0.0000    760.4579      5.1904     64.0591
  1382.7500      0.0000    745.8166      5.3000     65.0029
  1383.0000      0.0000    731.0367      5.3577     67.0328
  1383.2500      0.0000    720.1328      5.3633     69.3291
  1383.5000      0.0000    714.0160      5.3293     70.8585
  1383.7500      0.0000    711.2541      5.2738     71.0238
  1384.0000      0.0000    710.0161      5.2120     70.0432
  1384.2500      0.0000    709.1494      5.1519     68.7545
  1384.5000      0.0000    708.2373      5.0956     68.0929
  1384.7500      0.0000    707.2914      5.0397     68.6585
  1385.0000      0.0000    706.4393      4.9716     70.4304
  1385.2500      0.0000    705.7433      4.8720     72.6209
  1385.5000      0.0000    705.1892      4.7260     73.9928
  1385.7500      0.0000    704.8008      4.5397     73.8049
  1386.0000      0.0000    704.7550      4.3502     72.6307
  1386.2500      0.0000    705.4034      4.2157     71.9846
  1386.5000      0.0000    707.0905      4.1810     72.9261
  1386.7500      0.0000    709.7689      4.2430     75.1924
  1387.0000      0.0000    712.7607      4.3481     77.7248
  1387.2500      0.0000    715.2618      4.4292     79.5932
  1387.5000      0.0000    717.1183      4.4466     80.2258
  1387.7500      0.0000    718.2870      4.3987     79.3270
  1388.0000      0.0000    716.8547      4.3087     77.0597
  1388.2500      0.0000    708.4966      4.2089     73.9892
  1388.5000      0.0000    689.6774      4.1334     70.4911
  1388.7500      0.0000    662.2758      4.1112     66.4972
  1389.0000      0.0000    634.9020      4.1554     62.1311
  1389.2500      0.0000    619.2399      4.2550     58.2966
  1389.5000      0.0000    624.0752      4.3786     56.2947
  1389.7500      0.0000    650.7446      4.4908     56.9417
  1390.0000      0.0000    692.3012      4.5687     60.0802
  1390.2500      0.0000    737.0428      4.6047     64.5593
  1390.5000      0.0000    774.4618      4.6006     68.5564
  1390.7500      0.0000    799.4788      4.5599     70.5485
  1391.0000      0.0000    812.5251      4.4876     70.4719
  1391.2500      0.0000    816.9180      4.3920     69.7474
  1391.5000      0.0000    816.0370      4.2872     69.9482
  1391.7500      0.0000    811.7432      4.1892     71.5212
  1392.0000      0.0000    804.5767      4.1077     73.7877
  1392.2500      0.0000    795.0256      4.0406     75.8703
  1392.5000      0.0000    784.0671      3.9772     77.4034
  1392.7500      0.0000    772.5666      3.9068     78.5211
  1393.0000      0.0000    761.0759      3.8242     79.5369
  1393.2500      0.0000    750.5939      3.7303     80.8222
  1393.5000      0.0000    742.8186      3.6307     82.8350
  1393.7500      0.0000    738.9650      3.5329     85.9261
  1394.0000      0.0000    738.3777      3.4422     90.0455
  1394.2500      0.0000    738.7236      3.3580     94.6289
  1394.5000      0.0000    737.8715      3.2726     98.7083
  1394.7500      0.0000    735.5450      3.1759    101.2585
