~Version Information
VERS.                      2.0: CWLS Log ASCII Standard - VERSION 2.0
WRAP.                       NO: One line per depth step
~Well Information Block
STRT.FT               555.0000: 
STOP.FT              1159.0000: 
STEP.FT                 0.2500: 
NULL.                -999.2500: 
COMP.          Pioneer Natural Resources: COMPANY
WELL.              Draco 31-21: WELL
FLD.           Purgatoire River: FIELD
LOC.           491' FNL & 2446' FEL: LOCATION
CNTY.               Las Animas: COUNTY
SRVC.                Patterson: SERVICE COMPANY
DATE.          Tue Jan 31 17:48:38 2006: LOG DATE
UWI.           05 071 08672 00: UNIQUE WELL ID
STAT.                 Colorado: STATE
~Curve Information Block
DEPT.FT            0 000 00 00: Depth
SN.Ohm-m                      : IEL Short Normal
SP.mV                         : IEL Spontaneous Potential
DIR.Ohm-m                     : IEL Induction Resistivity
GR.GAPI                       : Gamma Ray
~Parameter Information Block
~A  Depth        SN          SP         DIR          GR     
# ...
   722.5000     10.8100    -49.3504      7.6962    138.2769
   722.7500     10.7967    -49.1661      7.7896    140.7560
   723.0000     10.8549    -48.9458      7.9467    143.6769
   723.2500     10.9328    -48.7177      8.1737    144.7663
   723.5000     11.0205    -48.5067      8.4623    144.4628
   723.7500     11.2082    -48.3210      8.7876    142.7144
   724.0000     11.5464    -48.1479      9.1163    138.3440
   724.2500     11.8822    -47.9601      9.4231    135.0014
   724.5000     12.0429    -47.7272      9.7016    129.9308
   724.7500     12.1152    -47.4289      9.9620    126.3054
   725.0000     12.3226    -47.0656     10.2206    120.5059
   725.2500     12.8357    -46.6604     10.4908    117.0206
   725.5000     13.7909    -46.2497     10.7803    113.4251
   725.7500     15.1582    -45.8684     11.0924    112.0543
   726.0000     16.5940    -45.5358     11.4281    110.5651
   726.2500     17.6845    -45.2506     11.7835    109.5855
   726.5000     18.2702    -44.9937     12.1462    108.6037
   726.7500     18.4338    -44.7378     12.4925    108.8967
   727.0000     18.3169    -44.4630     12.7913    111.0174
   727.2500     18.0675    -44.1644     13.0116    112.6939
   727.5000     17.8201    -43.8482     13.1297    113.0620
   727.7500     17.5838    -43.5157     13.1341    110.8637
   728.0000     17.2398    -43.1510     13.0292    104.4511
   728.2500     16.6850    -42.7224     12.8334     99.6002
   728.5000     15.9409    -42.1989     12.5750     94.6729
   728.7500     15.1667    -41.5688     12.2840     94.6049
   729.0000     14.6296    -40.8462     11.9875    100.9557
   729.2500     14.6123    -40.0657     11.7076    109.1543
   729.5000     15.1622    -39.2696     11.4615    124.2166
   729.7500     15.9650    -38.4955     11.2598    133.5150
   730.0000     16.5854    -37.7664     11.1057    143.0131
   730.2500     16.8096    -37.0875     10.9955    145.6886
   730.5000     16.7430    -36.4506     10.9227    144.9005
   730.7500     16.5990    -35.8420     10.8838    142.2809
   731.0000     16.4791    -35.2460     10.8827    137.6111
   731.2500     16.4170    -34.6456     10.9298    135.2132
   731.5000     16.4687    -34.0240     11.0369    133.7008
   731.7500     16.6188    -33.3675     11.2110    133.9016
   732.0000     16.7635    -32.6664     11.4518    134.4363
   732.2500     16.9092    -31.9163     11.7563    133.5270
   732.5000     17.2254    -31.1195     12.1264    128.0628
   732.7500     17.8166    -30.2864     12.5726    121.2324
   733.0000     18.5774    -29.4292     13.1120    107.3203
   733.2500     19.3882    -28.5519     13.7597     96.9375
   733.5000     20.4200    -27.6473     14.5225     81.8964
   733.7500     22.0640    -26.7050     15.3971     73.1636
   734.0000     24.4767    -25.7231     16.3735     63.4060
   734.2500     27.2427    -24.7115     17.4351     59.8875
   734.5000     29.5178    -23.6864     18.5529     59.5965
   734.7500     30.6518    -22.6648     19.6733     62.2672
   735.0000     30.6725    -21.6673     20.7153     68.8907
   735.2500     30.0722    -20.7226     21.5886     74.0128
   735.5000     29.2802    -19.8661     22.2229     81.4011
   735.7500     28.4680    -19.1288     22.5821     85.6584
   736.0000     27.7118    -18.5272     22.6519     90.7566
   736.2500     27.0776    -18.0602     22.4270     93.4176
   736.5000     26.5261    -17.7131     21.9207     96.8573
   736.7500     25.9626    -17.4630     21.1848     99.1717
   737.0000     25.3867    -17.2839     20.3067    103.1915
   737.2500     24.8359    -17.1498     19.3832    106.3762
   737.5000     24.2818    -17.0367     18.4941    111.8158
   737.7500     23.6511    -16.9244     17.6930    115.5773
   738.0000     22.9046    -16.7975     17.0096    120.3329
   738.2500     22.1195    -16.6465     16.4555    122.0397
   738.5000     21.4322    -16.4697     16.0305    121.2848
   738.7500     20.8553    -16.2763     15.7264    118.6777
   739.0000     20.2913    -16.0884     15.5312    113.4402
   739.2500     19.7630    -15.9313     15.4316    110.6990
   739.5000     19.4374    -15.8171     15.4153    109.7626
   739.7500     19.3953    -15.7342     15.4702    111.1049
   740.0000     19.5871    -15.6542     15.5823    113.7011
   740.2500     19.9865    -15.5489     15.7352    114.4798
   740.5000     20.5690    -15.4030     15.9179    113.9379
   740.7500     21.1747    -15.2156     16.1373    113.1263
   741.0000     21.5761    -14.9988     16.4231    112.0941
   741.2500     21.7994    -14.7761     16.8177    111.6130
   741.5000     22.2109    -14.5787     17.3557    111.3512
   741.7500     23.0648    -14.4343     18.0480    111.5627
   742.0000     24.1780    -14.3538     18.8796    111.7343
   742.2500     25.2337    -14.3258     19.8193    110.8406
   742.5000     26.2078    -14.3263     20.8329    106.9321
   742.7500     27.3255    -14.3358     21.8927    102.9153
   743.0000     28.7072    -14.3526     22.9830     96.5052
   743.2500     30.2672    -14.3906     24.1036     92.8812
   743.5000     31.9026    -14.4674     25.2710     88.7502
   743.7500     33.5687    -14.5937     26.5131     86.5164
   744.0000     35.1659    -14.7687     27.8517     83.5515
   744.2500     36.5070    -14.9801     29.2795     82.0514
   744.5000     37.4874    -15.2046     30.7445     81.1890
   744.7500     38.1719    -15.4189     32.1555     81.6634
   745.0000     38.6647    -15.6178     33.4125     83.4624
   745.2500     39.0154    -15.8230     34.4482     84.8508
   745.5000     39.2483    -16.0712     35.2499     86.1354
   745.7500     39.4423    -16.3918     35.8469     85.8817
   746.0000     39.7383    -16.7909     36.2831     83.4803
   746.2500     40.1471    -17.2494     36.6027     80.9285
   746.5000     40.4732    -17.7327     36.8512     77.0000
   746.7500     40.6024    -18.2047     37.0758     74.9429
   747.0000     40.6465    -18.6422     37.3117     73.0282
   747.2500     40.7073    -19.0425     37.5690     72.4214
   747.5000     40.7947    -19.4231     37.8392     72.0668
   747.7500     40.9745    -19.8157     38.1174     71.7937
   748.0000     41.2852    -20.2557     38.4163     70.6801
   748.2500     41.5862    -20.7728     38.7563     69.4920
   748.5000     41.6851    -21.3824     39.1448     67.9767
   748.7500     41.5013    -22.0807     39.5642     67.7794
   749.0000     41.0956    -22.8434     39.9828     68.9453
   749.2500     40.6554    -23.6330     40.3793     70.2303
   749.5000     40.3830    -24.4102     40.7531     71.6149
   749.7500     40.3464    -25.1432     41.0956     71.5260
   750.0000     40.4488    -25.8137     41.3395     69.5615
   750.2500     40.5633    -26.4190     41.3457     67.4205
   750.5000     40.6370    -26.9687     40.9710     64.1020
   750.7500     40.5906    -27.4774     40.1645     62.3184
   751.0000     40.2588    -27.9550     38.9875     60.5500
   751.2500     39.5486    -28.3991     37.5433     60.0450
   751.5000     38.5369    -28.7963     35.9101     60.9601
   751.7500     37.3706    -29.1293     34.1454     63.3498
   752.0000     36.1840    -29.3864     32.3236     70.0883
   752.2500     35.0447    -29.5660     30.5401     76.0699
   752.5000     33.8910    -29.6759     28.8744     85.3435
   752.7500     32.6049    -29.7306     27.3562     90.9978
   753.0000     31.1372    -29.7477     25.9725     98.6966
   753.2500     29.5346    -29.7444     24.7033    103.5437
   753.5000     27.9275    -29.7339     23.5481    110.4027
   753.7500     26.4641    -29.7227     22.5250    114.5310
   754.0000     25.2239    -29.7090     21.6504    119.5894
   754.2500     24.2299    -29.6852     20.9251    121.7837
   754.5000     23.4814    -29.6421     20.3366    122.6367
   754.7500     22.9385    -29.5702     19.8735    121.4878
   755.0000     22.5801    -29.4565     19.5400    117.6176
   755.2500     22.3895    -29.2836     19.3550    114.1182
   755.5000     22.2313    -29.0350     19.3332    108.6911
   755.7500     21.9945    -28.7010     19.4590    105.6530
