~Version Information
VERS.                      2.0: CWLS Log ASCII Standard - VERSION 2.0
WRAP.                       NO: One line per depth step
~Well Information Block
STRT.FT                -8.5000: 
STOP.FT              2591.0000: 
STEP.FT                 0.2500: 
NULL.                -999.2500: 
COMP.          Pioneer Natural Resources: COMPANY
WELL.             Aviator 12-4: WELL
FLD.           Purgatorie River: FIELD
LOC.           1969' FNL & 732' FWL--: LOCATION
CNTY.               Las Animas: COUNTY
SRVC.          Patterson Wireline: SERVICE COMPANY
DATE.          Wed Apr 19 09:09:26 2006: LOG DATE
UWI.           05 071 08714 00: UNIQUE WELL ID
STAT.                       CO: STATE
~Curve Information Block
DEPT.FT            0 000 00 00: Depth
CCL.                          : Casing Collar Locator
TT3.usec                      : CBL 3' Travel Time
AMP3.mV                       : CBL 3' Amplitude
GR.GAPI                       : Gamma Ray
~Parameter Information Block
~A  Depth       CCL         TT3         AMP3         GR     
# ...
  1365.0000      0.0000    708.3445      6.4083    131.4404
  1365.2500      0.0000    707.0790      6.4470    130.8245
  1365.5000      0.0000    703.2032      6.4590    130.4738
  1365.7500      0.0000    699.4032      6.4335    131.9626
  1366.0000      0.0000    696.5914      6.3732    135.1922
  1366.2500      0.0000    694.5468      6.2902    137.9547
  1366.5000      0.0000    693.3611      6.2024    137.4683
  1366.7500      0.0000    693.4622      6.1287    132.3675
  1367.0000      0.0000    694.7466      6.0829    123.5423
  1367.2500      0.0000    696.6576      6.0652    113.6480
  1367.5000      0.0000    699.1761      6.0574    105.8325
  1367.7500      0.0000    702.9993      6.0304    102.0492
  1368.0000      0.0000    708.3850      5.9629    102.0153
  1368.2500      0.0000    714.3730      5.8533    104.1151
  1368.5000      0.0000    719.5712      5.7129    107.3109
  1368.7500      0.0000    723.3141      5.5515    111.6031
  1369.0000      0.0000    725.8256      5.3738    116.7874
  1369.2500      0.0000    727.6046      5.1844    121.5867
  1369.5000      0.0000    728.7845      4.9917    124.2749
  1369.7500      0.0000    729.0892      4.8119    123.9294
  1370.0000      0.0000    728.7571      4.6680    121.2021
  1370.2500      0.0000    729.5347      4.5811    118.2780
  1370.5000      0.0000    734.0253      4.5573    117.7717
  1370.7500      0.0000    743.3394      4.5858    120.6104
  1371.0000      0.0000    755.1641      4.6510    124.6622
  1371.2500      0.0000    764.6535      4.7435    126.2186
  1371.5000      0.0000    767.8979      4.8574    123.3207
  1371.7500      0.0000    764.6219      4.9844    117.4529
  1372.0000      0.0000    757.3444      5.1178    112.2672
  1372.2500      0.0000    748.7354      5.2634    111.2180
  1372.5000      0.0000    740.7948      5.4384    115.9253
  1372.7500      0.0000    735.8082      5.6539    125.3870
  1373.0000      0.0000    736.2804      5.8961    136.3174
  1373.2500      0.0000    743.3832      6.1253    145.0619
  1373.5000      0.0000    755.8982      6.2944    149.8149
  1373.7500      0.0000    770.6537      6.3733    150.9158
  1374.0000      0.0000    783.7589      6.3601    149.2401
  1374.2500      0.0000    791.8774      6.2755    145.1800
  1374.5000      0.0000    793.2943      6.1499    139.3731
  1374.7500      0.0000    788.5286      6.0127    133.5673
  1375.0000      0.0000    780.0056      5.8854    130.0847
  1375.2500      0.0000    770.8430      5.7793    130.3746
  1375.5000      0.0000    763.6985      5.6981    133.8627
  1375.7500      0.0000    760.4359      5.6422    137.8697
  1376.0000      0.0000    761.7486      5.6128    139.1261
  1376.2500      0.0000    766.0547      5.6132    136.2748
  1376.5000      0.0000    769.4874      5.6476    130.8624
  1376.7500      0.0000    768.5115      5.7171    125.4846
  1377.0000      0.0000    762.7544      5.8144    121.5045
  1377.2500      0.0000    754.7261      5.9194    118.8075
  1377.5000      0.0000    747.2104      6.0065    116.9129
  1377.7500      0.0000    741.2657      6.0596    115.6723
  1378.0000      0.0000    736.0817      6.0787    115.3582
  1378.2500      0.0000    730.4074      6.0725    116.6273
  1378.5000      0.0000    724.3714      6.0500    120.0885
  1378.7500      0.0000    719.7214      6.0187    125.6419
  1379.0000      0.0000    718.2260      5.9851    132.5535
  1379.2500      0.0000    720.1130      5.9556    139.9946
  1379.5000      0.0000    723.6134      5.9319    146.7296
  1379.7500      0.0000    725.6429      5.9093    150.5770
  1380.0000      0.0000    723.5814      5.8807    149.4550
  1380.2500      0.0000    717.0569      5.8460    143.4002
  1380.5000      0.0000    708.0797      5.8153    135.0972
  1380.7500      0.0000    699.3828      5.8000    128.2505
  1381.0000      0.0000    692.7257      5.8008    125.2704
  1381.2500      0.0000    688.6603      5.8063    125.9117
  1381.5000      0.0000    687.2452      5.8003    127.9412
  1381.7500      0.0000    688.1340      5.7683    129.2763
  1382.0000      0.0000    690.1160      5.6958    129.4789
  1382.2500      0.0000    691.6585      5.5687    129.2954
  1382.5000      0.0000    692.4381      5.3855    129.3505
  1382.7500      0.0000    694.0386      5.1785    129.5650
  1383.0000      0.0000    699.0611      5.0092    129.3892
  1383.2500      0.0000    709.4361      4.9248    128.0296
  1383.5000      0.0000    724.7555      4.9205    124.4456
  1383.7500      0.0000    741.5065      4.9622    117.7838
  1384.0000      0.0000    754.2790      5.0297    108.5370
  1384.2500      0.0000    758.9249      5.1173     99.2311
  1384.5000      0.0000    755.9492      5.2067     93.2389
  1384.7500     -2.0000    750.6369      5.2687     92.3375
  1385.0000      2.0000    747.8748      5.2965     95.3974
  1385.2500      0.0000    746.0098      5.3351     99.6903
  1385.5000      0.0000    737.9094      5.4696    103.5449
  1385.7500      0.0000    719.7047      5.7488    107.4913
  1386.0000      0.0000    697.5454      6.0996    112.6334
  1386.2500      0.0000    684.2261      6.3628    118.3002
  1386.5000      0.0000    688.4087      6.4503    122.0528
  1386.7500      0.0000    706.2522      6.4259    122.1040
  1387.0000      0.0000    722.7863      6.4068    119.1757
  1387.2500      0.0000    722.2164      6.4379    115.8330
  1387.5000      0.0000    699.3687      6.4886    114.3094
  1387.7500      0.0000    663.4261      6.5182    115.1208
  1388.0000      0.0000    631.4109      6.5138    117.7572
  1388.2500      0.0000    617.4398      6.4877    122.2365
  1388.5000      0.0000    625.7438      6.4643    129.0667
  1388.7500      0.0000    649.9011      6.4652    137.4434
  1389.0000      0.0000    676.9174      6.5002    144.3617
  1389.2500      0.0000    694.6588      6.5648    146.3738
  1389.5000      0.0000    698.9900      6.6424    142.2112
  1389.7500      0.0000    695.1060      6.7107    133.6361
  1390.0000      0.0000    691.8939      6.7496    124.1625
  1390.2500      0.0000    694.5234      6.7500    116.9362
  1390.5000      0.0000    701.7744      6.7172    113.0572
  1390.7500      0.0000    709.3425      6.6676    111.6119
  1391.0000      0.0000    714.3658      6.6203    111.5019
  1391.2500      0.0000    716.6505      6.5873    113.0725
  1391.5000      0.0000    717.1268      6.5699    117.5711
  1391.7500      0.0000    716.4483      6.5608    125.1798
  1392.0000      0.0000    715.0197      6.5510    134.0122
  1392.2500      0.0000    713.5724      6.5349    141.1074
  1392.5000      0.0000    713.0966      6.5125    144.3331
  1392.7500      0.0000    714.0384      6.4848    143.4791
  1393.0000      0.0000    715.8215      6.4517    139.8813
  1393.2500      0.0000    717.4392      6.4130    135.3745
  1393.5000      0.0000    718.3480      6.3711    131.6141
  1393.7500      0.0000    718.6765      6.3297    129.8732
  1394.0000      0.0000    718.8988      6.2931    130.7201
  1394.2500      0.0000    719.6863      6.2700    133.5838
  1394.5000      0.0000    722.1409      6.2792    137.0230
  1394.7500      0.0000    727.8959      6.3489    139.7715
  1395.0000      0.0000    738.2543      6.5013    141.3492
  1395.2500      0.0000    752.4159      6.7313    141.6123
  1395.5000      0.0000    766.5705      6.9984    140.0825
  1395.7500      0.0000    775.6646      7.2424    136.0726
  1396.0000      0.0000    776.8864      7.4125    129.5575
  1396.2500      0.0000    771.8948      7.4924    121.9346
  1396.5000      0.0000    766.0056      7.5055    115.6658
  1396.7500      0.0000    764.6346      7.4983    112.7794
  1397.0000      0.0000    769.2936      7.5030    113.4866
  1397.2500      0.0000    776.8304      7.5098    116.1883
  1397.5000      0.0000    782.8073      7.4770    118.8255
  1397.7500      0.0000    785.0164      7.3740    120.2704
  1398.0000      0.0000    783.6655      7.2086    120.4314
  1398.2500      0.0000    779.7425      7.0103    119.3471
