~Version Information
 VERS.                                  2.0 : CWLS LAS VERSION
 WRAP.                                   NO : WRAPING MODE
 SWARE .                 MController 2.5.0N : SOFTWARE VERSION
~Well Information
 WELL.                     CORTINA 23-25 TR : WELL
 COMP.    PIONEER NATURAL RESOURCES USA INC : COMPANY
 FLD.                      PURGATOIRE RIVER : FIELD
 LOC.                NE/SW SEC 25 T32S R67W : LOCATION
 DATE.                             09/24/05 : DATE(S) LOGGED
 SRVC.       BLANCO GEOLOGICAL SERVICES LLC : SERVICE COMPANY
 STAT.                             COLORADO : STATE
 CNTY.                           LAS ANIMAS : COUNTY
 CTRY.                                  USA : COUNTRY
 API.                       05-071-08534-00 : API NUMBER
 STRT.FT                             388.00 : START DEPTH
 STOP.FT                            1890.00 : STOP DEPTH
 STEP.FT                               1.00 : DEPTH INCREMENT
 NULL.                                -9999 : NULL VALUE
~Curve information
 DEPTH.FT                                   :
 ROP.MIN/FT                                 :
 GAS.UNITS                                  :
~ASCII Log data
# ...
      1588.0         0.35        176.0 
      1589.0         0.33        178.4 
      1590.0         0.27        177.9 
      1591.0         0.23        176.8 
      1592.0         0.20        174.7 
      1593.0         0.23        174.2 
      1594.0         0.27        168.4 
      1595.0         0.23        163.4 
      1596.0         0.23        159.3 
      1597.0         0.23        156.5 
      1598.0         0.27        154.4 
      1599.0         0.20        153.1 
      1600.0         0.20        153.2 
      1601.0         0.22        151.1 
      1602.0         0.27        149.2 
      1603.0         0.23        147.2 
      1604.0         0.17        142.6 
      1605.0         0.17        131.8 
      1606.0         0.17        131.8 
      1607.0         1.63        124.1 
      1608.0         1.78        149.6 
      1609.0         0.47        177.7 
      1610.0         0.17        177.7 
      1611.0         0.20        196.4 
      1612.0         0.20        196.4 
      1613.0         0.20        206.6 
      1614.0         0.20        206.6 
      1615.0         0.23        205.2 
      1616.0         0.33        202.5 
      1617.0         0.35        194.4 
      1618.0         0.33        190.9 
      1619.0         0.37        183.1 
      1620.0         0.33        176.5 
      1621.0         0.27        172.2 
      1622.0         0.20        171.4 
      1623.0         0.27        162.7 
      1624.0         0.43        161.7 
      1625.0         0.37         95.1 
      1626.0         0.37        132.7 
      1627.0         0.35        140.6 
      1628.0         0.23        144.6 
      1629.0         0.23        142.0 
      1630.0         0.27        131.2 
      1631.0         0.27        126.8 
      1632.0         0.30        121.2 
      1633.0         0.17        116.9 
      1634.0         0.27        115.2 
      1635.0         0.40        114.7 
      1636.0         0.53        108.4 
      1637.0         1.52        126.0 
      1638.0         2.32        180.6 
      1639.0         0.43        170.6 
      1640.0         0.13        161.9 
      1641.0         0.17        161.4 
      1642.0         0.17        158.4 
      1643.0         0.30        158.1 
      1644.0         0.20        153.2 
      1645.0         0.33        141.9 
      1646.0         0.33        141.4 
      1647.0         0.27        137.2 
      1648.0         0.30        132.4 
      1649.0         0.32        129.5 
      1650.0         0.30        127.6 
      1651.0         0.30        125.3 
      1652.0         0.30        133.8 
      1653.0         0.33        126.3 
      1654.0         0.37        122.1 
      1655.0         0.30        110.4 
      1656.0         0.23        109.8 
      1657.0         0.37        103.2 
      1658.0         0.27        100.6 
      1659.0         0.28         98.5 
      1660.0         0.43         92.3 
      1661.0         0.13         85.0 
      1662.0         0.20         82.9 
      1663.0         0.10         82.9 
      1664.0         0.27         84.9 
      1665.0         0.27         93.4 
      1666.0         0.27         97.7 
      1667.0         1.48        151.4 
      1668.0         3.22        161.0 
      1669.0         0.33        120.9 
      1670.0         0.37        118.5 
      1671.0         0.30        115.9 
      1672.0         0.30        115.7 
      1673.0         0.20        117.2 
      1674.0         0.23        117.0 
      1675.0         0.27        110.2 
      1676.0         0.23        110.3 
      1677.0         0.23        116.1 
      1678.0         0.20        116.1 
      1679.0         0.18        116.7 
      1680.0         0.13        116.7 
      1681.0         0.27        113.8 
      1682.0         0.30        106.3 
      1683.0         0.27         96.3 
      1684.0         0.53         95.5 
      1685.0         0.27         86.1 
      1686.0         0.27         85.5 
      1687.0         0.27         80.0 
      1688.0         0.23         76.7 
      1689.0         0.27         74.7 
      1690.0         0.28         75.8 
      1691.0         0.27         81.5 
      1692.0         0.27         85.2 
      1693.0         0.30         93.8 
      1694.0         0.33        110.0 
      1695.0         0.23        113.9 
      1696.0         0.37        125.6 
      1697.0         1.48        148.9 
      1698.0         2.07        152.7 
      1699.0         0.37        136.0 
      1700.0         0.27        132.0 
      1701.0         0.38        127.1 
      1702.0         0.33        118.3 
      1703.0         0.40        114.3 
      1704.0         0.27        111.3 
      1705.0         0.30        109.4 
      1706.0         0.30        107.4 
      1707.0         0.30        103.0 
      1708.0         0.37        102.8 
      1709.0         0.30        100.7 
      1710.0         0.30        100.4 
      1711.0         0.28        108.4 
      1712.0         0.30        109.1 
      1713.0         0.27        103.1 
      1714.0         0.30        102.1 
      1715.0         0.30         94.0 
      1716.0         0.20         91.6 
      1717.0         0.43         89.4 
      1718.0         0.27         84.8 
      1719.0         0.27         80.2 
      1720.0         0.30         77.3 
      1721.0         0.13         74.2 
      1722.0         0.27         72.1 
      1723.0         0.23         73.1 
      1724.0         0.38         78.4 
      1725.0         0.30         86.3 
      1726.0         0.27         94.0 
      1727.0         1.43        111.9 
      1728.0         2.42        108.1 
      1729.0         0.27        106.1 
      1730.0         0.33        105.7 
      1731.0         0.27        105.2 
      1732.0         0.23        105.1 
      1733.0         0.20        109.2 
      1734.0         0.37        113.6 
      1735.0         0.35        113.3 
      1736.0         0.33        101.5 
      1737.0         0.27         96.6 
      1738.0         0.17         92.7 
      1739.0         0.10         89.6 
      1740.0         0.27         88.9 
      1741.0         0.27         82.0 
      1742.0         0.40         78.0 
      1743.0         0.17         71.2 
      1744.0         0.47         70.0 
      1745.0         0.07         64.2 
      1746.0         0.10         63.6 
      1747.0         0.33         64.3 
      1748.0         0.48         69.8 
      1749.0         0.27         74.3 
      1750.0         0.27         80.3 
      1751.0         0.23         85.8 
      1752.0         0.27         92.7 
      1753.0         0.13         94.6 
      1754.0         0.47        100.5 
      1755.0         0.27        102.6 
      1756.0         0.10        102.9 
      1757.0         1.88        102.6 
      1758.0         2.00        102.8 
      1759.0         0.30        100.1 
      1760.0         0.27         99.4 
      1761.0         0.25         99.3 
      1762.0         0.23         98.6 
      1763.0         0.27         98.6 
      1764.0         0.27        102.3 
      1765.0         0.30        111.7 
      1766.0         0.30        111.0 
      1767.0         0.20        109.1 
      1768.0         0.30        100.8 
      1769.0         0.30         98.8 
      1770.0         0.27         89.7 
      1771.0         0.27         80.3 
      1772.0         0.20         80.3 
      1773.0         0.28         79.7 
      1774.0         0.27         68.3 
      1775.0         0.10         67.7 
      1776.0         0.33         67.0 
      1777.0         0.13         60.1 
      1778.0         0.27         62.9 
      1779.0         0.27         65.9 
      1780.0         0.30         67.1 
      1781.0         0.30         73.5 
      1782.0         0.30         78.4 
      1783.0         0.23         85.8 
      1784.0         0.17         85.8 
      1785.0         0.30         93.1 
      1786.0         0.27        103.4 
      1787.0         1.65        110.6 
