~Version Information
VERS.                      2.0: CWLS Log ASCII Standard - VERSION 2.0
WRAP.                       NO: One line per depth step
~Well Information Block
STRT.FT               -10.2500: 
STOP.FT              2437.2500: 
STEP.FT                 0.2500: 
NULL.                -999.2500: 
COMP.          Pioneer Natural Resources: COMPANY
WELL.          Hellzonfire 32-31: WELL
FLD.           Purgatorie River: FIELD
LOC.           1993' FNL & 2265' FEL------: LOCATION
STAT.                       CO: State
CNTY.               Las Animas: COUNTY
CTRY. USA : Country
SECT. 31 : Section
TOWN. 32S : Township
RANG. 66W : Range
SRVC.          Patterson Wireline: SERVICE COMPANY
DATE.          Thu Sep 08 11:10:17 2005: LOG DATE
API.           05 071 08483 00: UNIQUE WELL ID
~Curve Information Block
DEPT.FT            0 000 00 00: Depth
CCL.                          : Casing Collar Locator
TT3.usec                      : CBL 3' Travel Time
AMP3.mV                       : CBL 3' Amplitude
GR.GAPI                       : Gamma Ray
~Parameter Information Block
~A  Depth       CCL         TT3         AMP3         GR     
   -10.2500   -999.2500   -999.2500   -999.2500     56.1291
   -10.0000   -999.2500   -999.2500   -999.2500     53.4242
    -9.7500   -999.2500   -999.2500   -999.2500     50.9064
    -9.5000   -999.2500   -999.2500   -999.2500     49.1368
    -9.2500   -999.2500   -999.2500   -999.2500     48.0296
    -9.0000   -999.2500   -999.2500   -999.2500     47.0624
    -8.7500   -999.2500   -999.2500   -999.2500     45.8276
    -8.5000   -999.2500   -999.2500   -999.2500     44.2534
    -8.2500   -999.2500   -999.2500   -999.2500     42.4998
    -8.0000   -999.2500   -999.2500   -999.2500     40.9385
    -7.7500   -999.2500   -999.2500   -999.2500     40.0791
    -7.5000   -999.2500   -999.2500   -999.2500     40.1636
    -7.2500   -999.2500   -999.2500   -999.2500     40.8071
    -7.0000   -999.2500   -999.2500   -999.2500     41.2492
    -6.7500   -999.2500   -999.2500   -999.2500     40.9865
    -6.5000   -999.2500   -999.2500   -999.2500     40.0519
    -6.2500   -999.2500   -999.2500   -999.2500     38.8016
    -6.0000   -999.2500   -999.2500   -999.2500     37.7078
    -5.7500   -999.2500   1149.0000      0.5722     37.4059
    -5.5000   -999.2500   1149.0000      0.5768     38.6294
    -5.2500   -999.2500   1149.0000      0.5764     41.7042
    -5.0000   -999.2500   1149.0000      0.5731     46.1121
    -4.7500   -999.2500   1149.0000      0.5700     50.7877
    -4.5000   -999.2500   1149.0000      0.5685     54.8331
    -4.2500   -999.2500   1149.0000      0.5674     57.8222
    -4.0000   -999.2500   1149.0000      0.5658     59.5953
    -3.7500   -999.2500   1149.0000      0.5651     60.0196
    -3.5000   -999.2500   1149.0000      0.5684     59.0579
    -3.2500   -999.2500   1149.0000      0.5762     57.0822
    -3.0000   -999.2500   1149.0000      0.5862     54.9837
    -2.7500   -999.2500   1149.0000      0.5949     53.6864
    -2.5000   -999.2500   1149.0000      0.5985     53.4935
    -2.2500   -999.2500   1149.0000      0.5932     53.9881
    -2.0000   -999.2500   1149.0000      0.5777     54.4115
    -1.7500   -999.2500   1149.0000      0.5563     54.1046
    -1.5000   -999.2500   1149.0000      0.5377     52.9229
    -1.2500   -999.2500   1149.0000      0.5282     51.2596
    -1.0000   -999.2500   1149.0000      0.5281     49.3742
    -0.7500   -999.2500   1149.0000      0.5342     46.8422
    -0.5000   -999.2500   1149.0000      0.5435     43.1033
    -0.2500      0.0000   1149.0000      0.5541     38.4135
     0.0000     -2.0000   1149.0000      0.5635     33.7744
     0.2500      0.0000   1149.0000      0.5657     26.9312
     0.5000      0.0000   1149.0000      0.5546     24.4090
     0.7500      0.0000   1149.0000      0.5380     22.3799
     1.0000      0.0000   1149.0000      0.5230     21.2568
     1.2500      0.0000   1149.0000      0.5168     21.5085
     1.5000      0.0000   1149.0000      0.5224     23.2749
     1.7500      0.0000   1149.0000      0.5363     26.3573
     2.0000      0.0000   1149.0000      0.5507     30.4421
     2.2500      0.0000   1149.0000      0.5594     35.1080
     2.5000      0.0000   1149.0000      0.5608     39.6097
     2.7500      0.0000   1149.0000      0.5576     42.9428
     3.0000      0.0000   1149.0000      0.5531     44.3621
     3.2500      0.0000   1149.0000      0.5482     43.9250
     3.5000      0.0000   1149.0000      0.5415     42.5620
     3.7500      0.0000   1149.0000      0.5329     41.6129
     4.0000      0.0000   1149.0000      0.5255     42.0516
     4.2500      0.0000   1149.0000      0.5224     43.9386
     4.5000      0.0000   1149.0000      0.5235     46.6777
     4.7500      0.0000   1149.0000      0.5259     49.8511
     5.0000      0.0000   1149.0000      0.5275     53.6266
     5.2500      0.0000   1149.0000      0.5289     58.2149
     5.5000      2.0000   1149.0000      0.5328     63.1196
     5.7500      0.0000   1149.0000      0.5406     67.1964
     6.0000      0.0000   1149.0000      0.5495     69.4812
     6.2500      0.0000   1149.0000      0.5545     69.9378
     6.5000      0.0000   1149.0000      0.5531     69.3517
     6.7500      0.0000   1149.0000      0.5483     68.4758
     7.0000      2.0000   1149.0000      0.5452     67.3661
     7.2500      0.0000   1149.0000      0.5463     65.6758
     7.5000      0.0000   1149.0000      0.5507     63.4302
     7.7500      0.0000   1149.0000      0.5556     61.2256
     8.0000      0.0000   1149.0000      0.5589     59.5678
     8.2500     -2.0000   1149.0000      0.5609     58.1992
     8.5000      0.0000   1148.9431      0.5644     56.2474
     8.7500      2.0000   1148.5718      0.5792     53.1342
     9.0000     -2.0000   1146.6869      0.6487     49.4769
     9.2500      0.0000   1139.2891      0.9260     47.0593
     9.5000      0.0000   1116.7013      1.7960     47.5130
     9.7500      0.0000   1063.5206      3.9068     50.7955
    10.0000      0.0000    968.1237      7.8467     55.2563
    10.2500      0.0000    841.4229     13.4781     59.3054
    10.5000      0.0000    726.6564     19.5741     62.5624
    10.7500      0.0000    678.1354     24.4413     65.2513
    11.0000      0.0000    717.5952     27.1336     67.1809
    11.2500      0.0000    809.1985     28.0289     67.9731
    11.5000      0.0000    880.8601     28.2693     67.9377
    11.7500      0.0000    873.5206     28.8113     67.8529
    12.0000      0.0000    777.2796     30.0133     67.6536
    12.2500      0.0000    630.5376     31.8609     66.0626
    12.5000      0.0000    488.3787     34.2748     62.1412
    12.7500      0.0000    387.3560     37.0510     56.8469
    13.0000      0.0000    332.8675     39.6381     52.3249
    13.2500      0.0000    311.7654     41.2388     49.7401
    13.5000      0.0000    311.0346     41.2662     48.4372
    13.7500      0.0000    326.9904     39.6774     47.2175
    14.0000      0.0000    362.0052     36.9435     45.7872
    14.2500      0.0000    412.9179     33.8479     44.8364
    14.5000      0.0000    461.4296     31.2303     45.2001
    14.7500      0.0000    481.0883     29.6502     47.0984
    15.0000      0.0000    459.6345     29.1633     49.7317
    15.2500      0.0000    411.2087     29.4357     51.3978
    15.5000      2.0000    362.2816     30.0597     50.5319
    15.7500     -2.0000    329.4104     30.7586     47.1876
    16.0000      0.0000    312.9808     31.4364     43.3303
    16.2500      0.0000    305.7361     32.1946     41.2927
    16.5000      0.0000    301.4176     33.3001     41.9120
    16.7500      0.0000    297.2289     35.0144     44.2327
    17.0000      0.0000    292.5692     37.4369     46.8330
    17.2500      0.0000    287.3438     40.5366     49.1585
    17.5000      0.0000    281.3536     44.1793     51.4773
    17.7500      0.0000    274.9131     47.9849     53.8807
    18.0000      0.0000    269.0765     51.3456     55.8122
    18.2500      0.0000    264.8726     53.7931     56.5530
    18.5000      0.0000    262.5078     55.2863     55.7525
    18.7500      0.0000    261.4645     56.0844     53.5450
    19.0000      0.0000    261.0990     56.4599     50.6253
    19.2500      0.0000    261.0004     56.5861     48.2501
    19.5000      0.0000    260.9872     56.5882     47.7487
    19.7500      0.0000    260.9955     56.5784     49.8133
    20.0000      0.0000    261.0038     56.6293     54.2301
    20.2500      0.0000    261.0066     56.7441     60.0391
    20.5000      0.0000    261.0068     56.8747     65.7663
    20.7500      0.0000    261.0083     56.9763     69.8987
    21.0000      0.0000    261.0107     57.0549     71.6911
    21.2500      0.0000    261.0074     57.1696     71.5507
    21.5000      0.0000    260.9900     57.3766     70.4764
    21.7500      0.0000    260.9573     57.6630     69.2781
    22.0000      0.0000    260.9182     57.9451     68.4200
    22.2500      0.0000    260.8865     58.1384     68.1498
    22.5000      0.0000    260.8714     58.2175     68.2899
    22.7500      0.0000    260.8740     58.2062     68.0709
    23.0000      0.0000    260.8891     58.1354     66.6160
