~Version Information
VERS.                      2.0: CWLS Log ASCII Standard - VERSION 2.0
WRAP.                       NO: One line per depth step
~Well Information Block
STRT.FT               800.0000: 
STOP.FT              3500.0000: 
STEP.FT                 0.2500: 
NULL.                -999.2500: 
COMP.          Pioneer Natural Resources: COMPANY
WELL.          Cordillera 34-7: WELL
FLD.           Purgatoire River: FIELD
LOC.           598' FSL & 1770' FEL--: LOCATION
PROV.                 Colorado: PROVINCE
CNTY.               Las Animas: COUNTRY
SRVC.                Patterson: SERVICE COMPANY
DATE.          Thu Oct 27 20:08:30 2005: LOG DATE
UWI.           05 071 08552 00: UNIQUE WELL ID
~Curve Information Block
DEPT.FT            0 000 00 00: Depth
SN.Ohm-m                      : IEL Short Normal
SP.mV                         : IEL Spontaneous Potential
DIR.Ohm-m                     : IEL Induction Resistivity
GR.GAPI                       : Gamma Ray
~Parameter Information Block
~A  Depth        SN          SP         DIR          GR     
# ...
  3480.0000     13.6891    139.5327     12.0375   -999.2500
  3480.2500     13.4086    139.4491     12.0615   -999.2500
  3480.5000     13.0958    139.4117     12.0756   -999.2500
  3480.7500     12.8382    139.4512     12.0602   -999.2500
  3481.0000     12.6882    139.5862     12.0083   -999.2500
  3481.2500     12.6303    139.8057     11.9273   -999.2500
  3481.5000     12.6319    140.0645     11.8358   -999.2500
  3481.7500     12.7024    140.3039     11.7562   -999.2500
  3482.0000     12.8979    140.4838     11.7091   -999.2500
  3482.2500     13.2520    140.5944     11.7095   -999.2500
  3482.5000     13.6858    140.6425     11.7675   -999.2500
  3482.7500     14.0358    140.6355     11.8870   -999.2500
  3483.0000     14.2021    140.5773     12.0651   -999.2500
  3483.2500     14.2255    140.4689     12.2874   -999.2500
  3483.5000     14.2132    140.3096     12.5270   -999.2500
  3483.7500     14.2400    140.0968     12.7478   -999.2500
  3484.0000     14.3142    139.8274     12.9160   -999.2500
  3484.2500     14.3984    139.4982     13.0151   -999.2500
  3484.5000     14.4524    139.1110     13.0521   -999.2500
  3484.7500     14.4838    138.6781     13.0508   -999.2500
  3485.0000     14.5674    138.2218     13.0386   -999.2500
  3485.2500     14.8083    137.7705     13.0366   -999.2500
  3485.5000     15.2765    137.3571     13.0584   -999.2500
  3485.7500     15.9266    137.0145     13.1122   -999.2500
  3486.0000     16.5680    136.7628     13.2016   -999.2500
  3486.2500     16.9813    136.6003     13.3236   -999.2500
  3486.5000     17.0732    136.5155     13.4680   -999.2500
  3486.7500     16.9006    136.5085     13.6223   -999.2500
  3487.0000     16.5994    136.6009     13.8549   -999.2500
  3487.2500     16.3075    136.8210     14.0119   -999.2500
  3487.5000     16.0939    137.1787     14.1684   -999.2500
  3487.7500     15.9358    137.6497     14.3150   -999.2500
  3488.0000     15.7842    138.1828     14.4288   -999.2500
  3488.2500     15.6357    138.7245     14.4809   -999.2500
  3488.5000     15.5273    139.2387     14.4526   -999.2500
  3488.7500     15.4784    139.7064     14.3473   -999.2500
  3489.0000     15.4595    140.1162     14.1930   -999.2500
  3489.2500     15.4275    140.4601     14.0412   -999.2500
  3489.5000     15.3611    140.7326     13.9740   -999.2500
  3489.7500     15.2501    140.9279     14.1261   -999.2500
  3490.0000     15.0853    141.0377     14.7187   -999.2500
  3490.2500     14.8637    141.0570     16.1204   -999.2500
  3490.5000     14.6001    140.9931     18.8270   -999.2500
  3490.7500     14.3272    140.8681     24.4515   -999.2500
  3491.0000     14.0694    140.7044     36.1915   -999.2500
  3491.2500     13.8354    140.5074     64.5602   -999.2500
  3491.5000     13.6446    140.2609    164.5282   -999.2500
  3491.7500     13.5216    139.9363 100000.0000   -999.2500
  3492.0000     13.4683    139.5073 100000.0000   -999.2500
  3492.2500     13.4672    138.9664 100000.0000   -999.2500
  3492.5000     13.5117    138.3360 100000.0000   -999.2500
  3492.7500     13.6300    137.6636 100000.0000   -999.2500
  3493.0000     13.8664    137.0017 100000.0000   -999.2500
  3493.2500     14.2201    136.3916 100000.0000   -999.2500
  3493.5000     14.6199    135.8614 100000.0000   -999.2500
  3493.7500     14.9859    135.4281 100000.0000   -999.2500
  3494.0000     15.2965    135.0960 100000.0000   -999.2500
  3494.2500     15.5752    134.8542 100000.0000   -999.2500
  3494.5000     15.8458    134.6815 100000.0000   -999.2500
  3494.7500     16.1120    134.5499 100000.0000   -999.2500
  3495.0000     16.3427    134.4165 100000.0000   -999.2500
  3495.2500     16.4749    134.1092 100000.0000   -999.2500
  3495.5000     16.4583    133.0054 100000.0000   -999.2500
  3495.7500     16.2903    129.5238 100000.0000   -999.2500
  3496.0000     16.0024    120.9817 100000.0000   -999.2500
  3496.2500     15.5718    104.8162 100000.0000   -999.2500
  3496.5000     14.7216     81.1344 100000.0000   -999.2500
  3496.7500     12.8238     54.2010 100000.0000   -999.2500
  3497.0000      9.4754     30.3844 100000.0000   -999.2500
  3497.2500      5.4462     13.9965 100000.0000   -999.2500
  3497.5000      2.2730      5.2186 100000.0000   -999.2500
  3497.7500      0.6573      1.5578 100000.0000   -999.2500
  3498.0000      0.1278      0.3689 100000.0000   -999.2500
  3498.2500      0.0164      0.0683  27830.0566   -999.2500
  3498.5000      0.0013      0.0091   4617.5049   -999.2500
  3498.7500   -999.2500   -999.2500   3280.8982   -999.2500
  3499.0000   -999.2500   -999.2500   2928.5125   -999.2500
  3499.2500   -999.2500   -999.2500   2821.2524   -999.2500
  3499.5000   -999.2500   -999.2500   2790.4326   -999.2500
  3499.7500   -999.2500   -999.2500   2782.6194   -999.2500
  3500.0000   -999.2500   -999.2500 100000.0000   -999.2500
