~Version Information
VERS.                      2.0: CWLS Log ASCII Standard - VERSION 2.0
WRAP.                       NO: One line per depth step
~Well Information Block
STRT.FT               880.0000: 
STOP.FT              1995.0000: 
STEP.FT                 0.2500: 
NULL.                -999.2500: 
COMP.          Petrogulf Corporation: COMPANY
WELL.          Collister 17-31R: WELL
FLD.           Purgatorie River: FIELD
LOC.           962' FNL & 1520' FEL: LOCATION
PROV.                 Colorado: PROVINCE
CNTY.               Las Animas: COUNTRY
SRVC.                Patterson: SERVICE COMPANY
DATE.          Mon Sep 26 09:32:26 2005: LOG DATE
UWI.                          : UNIQUE WELL ID
~Curve Information Block
DEPT.FT            0 000 00 00: Depth
SP.mV                         : DIL Spontaneous Potential
RILD.Ohm-m                    : DIL Deep Resistivity
RILM.Ohm-m                    : DIL Medium Resistivity
RLL3.Ohm-m                    : DIL Shallow Resistivity
GR.GAPI                       : Gamma Ray
~Parameter Information Block
~A  Depth        SP         RILD        RILM        RLL3         GR     
# ...
  1524.0000    288.3172     15.9238     18.7488     18.7471     96.0406
  1524.2500    288.6889     15.7069     19.2418     24.8792    107.9424
  1524.5000    289.4001     15.5834     18.5625     32.3830    122.9634
  1524.7500    290.2276     15.0822     17.9556     30.5276    107.0591
  1525.0000    291.0381     15.0207     17.2518     21.6850     89.9999
  1525.2500    291.8363     14.9508     16.2329     17.8277     88.6996
  1525.5000    292.5104     15.0654     15.3081     16.5221    124.4505
  1525.7500    293.0598     15.4924     14.9084     14.2093    128.4324
  1526.0000    293.2769     15.9648     14.7774     13.3652    114.7683
  1526.2500    293.0980     16.2194     14.9506     13.3752    117.3714
  1526.5000    292.8932     16.5424     15.4671     15.2930    122.5460
  1526.7500    292.8415     16.8103     16.4350     19.4491    117.0902
  1527.0000    293.1063     17.1910     17.4431     23.7670    106.5492
  1527.2500    293.6002     17.5980     18.3303     27.3687    110.4501
  1527.5000    294.0874     17.3349     19.2910     27.2739    100.0384
  1527.7500    294.8302     17.6957     20.1172     24.6594     85.5549
  1528.0000    295.5017     18.0475     21.3612     31.9395     82.2647
  1528.2500    296.2263     18.4984     22.6305     53.7768     93.0210
  1528.5000    297.1635     18.6489     24.0015     67.3943     98.9745
  1528.7500    298.2922     18.7823     26.1341     48.6846    112.3449
  1529.0000    299.5046     18.4119     27.3454     34.1305     83.9689
  1529.2500    299.9497     17.7631     27.4113     38.0806     86.0795
  1529.5000    299.9910     17.0575     27.5733     54.6810    105.7318
  1529.7500    299.9911     16.4160     25.7959     74.2227    111.2830
  1530.0000    299.9911     15.9019     22.8886     84.4776    119.6466
  1530.2500    299.9911     15.3618     19.3170     59.6886    103.5221
  1530.5000    299.9911     14.7312     16.7060     24.6135     74.8038
  1530.7500    299.9911     14.0721     14.8148     12.8059     84.8312
  1531.0000    299.9911     13.6318     13.6202     11.3399    104.0564
  1531.2500    299.9911     13.3659     12.9078     11.7564    118.4208
  1531.5000    299.9911     13.1198     12.4788     11.8963    147.2721
  1531.7500    299.9911     12.8348     12.1695     11.0829    139.6918
  1532.0000    299.9911     12.2123     11.9585     11.0958    145.8909
  1532.2500    299.9911     11.7933     11.7729     11.9305    140.8292
  1532.5000    299.9911     11.2170     11.6862     13.3562    164.0656
  1532.7500    299.9911     10.7508     11.7274     13.8886    166.0192
  1533.0000    299.9911     10.5790     11.6826     14.9513    134.7744
  1533.2500    299.9911     10.4176     11.4311     15.9449    142.6704
  1533.5000    299.9911     10.2907     11.1432     16.4838    111.4535
  1533.7500    299.9911     10.4402     10.8833     16.2063    111.6654
  1534.0000    299.9911     10.5277     10.5765     15.1605    124.3025
  1534.2500    299.9911     10.7565     10.3191     13.3638    120.0729
  1534.5000    299.9911     11.2525     10.1441     11.8754    127.1332
  1534.7500    299.9911     11.7088     10.2174     10.4328    141.3935
  1535.0000    299.9911     12.1451     10.5896      9.8577    162.8841
  1535.2500    299.9911     12.7678     11.2888     10.3464    164.4387
  1535.5000    299.9911     13.1717     12.2864     12.0714    159.2617
  1535.7500    299.9911     13.3404     13.8891     16.4735    178.5513
  1536.0000    299.9911     13.5023     15.4968     25.7943    164.7469
  1536.2500    299.9911     13.6271     17.3081     41.1794    130.9163
  1536.5000    299.9911     13.6876     18.7551     55.2525    129.1256
  1536.7500    299.9911     13.9218     19.6212     57.7407    107.8014
  1537.0000    299.9911     14.1197     20.0026     46.3151     90.3786
  1537.2500    299.9911     14.0529     20.6007     41.2302    113.0473
  1537.5000    299.9911     14.1214     20.4273     41.4785    108.5402
  1537.7500    299.9911     14.3298     20.1205     40.6696    127.4074
  1538.0000    299.9911     14.3230     19.0335     41.8316    116.0980
  1538.2500    299.9911     14.1052     17.3669     31.9452    102.6161
  1538.5000    299.9911     13.6684     15.7902     18.1190     96.7896
  1538.7500    299.9911     13.2248     14.6072     13.2606     95.0388
  1539.0000    299.9911     12.8472     13.3387     11.8722    113.5951
  1539.2500    299.9911     12.3129     12.4493     11.3956    105.7552
  1539.5000    299.9911     11.7053     11.7788     11.3360    131.9828
  1539.7500    299.9911     11.1074     11.2421     11.5070    128.3115
  1540.0000    299.9911     10.6419     10.7758     11.3502    157.7665
  1540.2500    299.9911     10.1251     10.2812     10.8458    148.5702
  1540.5000    299.9911      9.6972      9.8900     10.8446    114.3046
  1540.7500    299.9911      9.5024      9.6016     10.7936    110.8411
  1541.0000    299.9911      9.3216      9.3138     10.8932    125.5675
  1541.2500    299.9911      9.2312      9.1238     10.8496    139.8002
  1541.5000    299.9911      9.1405      9.0279     10.7064    133.3549
  1541.7500    299.9911      9.0936      8.9691     10.7955    134.3932
  1542.0000    299.9911      9.0763      8.9266     10.7208    154.3421
  1542.2500    299.9911      9.0552      8.9863     10.3784    172.2500
  1542.5000    299.9911      9.1163      9.1433     10.7245    159.6343
  1542.7500    299.9911      9.1280      9.2915     11.3321    151.0499
  1543.0000    299.9911      9.0363      9.5798     12.7524    161.2770
  1543.2500    299.9911      9.0648      9.7174     13.3954    166.4905
  1543.5000    299.9911      8.9105      9.7590     13.4913    155.5980
  1543.7500    299.9911      8.9069      9.6345     13.4060    143.3226
  1544.0000    299.9911      8.8162      9.4763     12.9126    131.9788
  1544.2500    299.9911      8.7854      9.2435     12.0144    133.4644
  1544.5000    299.9911      8.6333      9.1072     11.3082    111.8628
  1544.7500    299.9911      8.6563      8.9011     11.0276    100.6083
  1545.0000    299.9909      8.6487      8.7042     10.9505    139.5636
  1545.2500    299.9458      8.6532      8.4888     11.0746    142.9083
  1545.5000    299.4954      8.7107      8.2683     10.5689    152.6449
  1545.7500    298.4792      8.7877      8.0775      9.7053    153.2324
  1546.0000    297.5725      8.9582      8.0393      9.6064    123.6908
  1546.2500    296.6158      9.1183      8.0377      9.6935    137.8833
  1546.5000    295.7031      9.3501      8.1733      9.8378    140.7369
  1546.7500    295.0510      9.6162      8.4582     10.2501    136.8105
  1547.0000    294.5646      9.8866      8.9412     10.2324    157.5195
  1547.2500    294.4095     10.1631      9.5290     11.0759    179.7943
  1547.5000    294.5663     10.4129     10.3790     14.1328    159.0913
  1547.7500    295.1725     10.7054     11.4056     22.3274    158.1425
  1548.0000    296.2384     11.0137     12.4501     34.3905    124.3253
  1548.2500    297.5580     11.4701     13.3930     34.7588    120.8918
  1548.5000    298.8067     12.0515     14.3430     33.4552    101.9880
  1548.7500    299.6319     12.8498     14.8887     35.9736     99.9311
  1549.0000    299.9526     13.5398     15.2609     36.3447     83.2636
  1549.2500    299.8968     14.4057     15.8823     31.5363     74.9239
  1549.5000    299.5050     15.6905     16.4400     25.0479    100.3020
  1549.7500    298.9592     16.5275     16.9296     20.5951    104.4331
  1550.0000    298.0925     17.9207     17.7716     18.5123    111.8687
  1550.2500    297.2066     18.7505     19.0843     18.3165    108.5105
  1550.5000    296.1804     18.8327     20.2486     18.5412    129.4829
  1550.7500    295.1078     18.9487     21.8111     22.0408    115.1179
  1551.0000    293.9855     19.4178     23.4663     30.9664    102.7204
  1551.2500    293.2083     19.6334     24.6294     38.3674    112.0295
  1551.5000    292.6084     19.1502     24.9403     43.0114    129.5032
  1551.7500    291.9619     19.0813     25.2131     46.2562    129.9445
