~Version Information
VERS.                      2.0: CWLS Log ASCII Standard - VERSION 2.0
WRAP.                       NO: One line per depth step
~Well Information Block
STRT.FT               230.2000: 
STOP.FT              1518.7000: 
STEP.FT                 0.1000: 
NULL.                -999.2500: 
COMP.          Pioneer Natural Resources: COMPANY
WELL.          Mow 8-14-33-67 Tr: WELL
FLD.           Purgatoire River: FIELD
LOC.           2258' FNL & 929' FEL: LOCATION
PROV.                 Colorado: PROVINCE
CNTY.               Las Animas: COUNTRY
SRVC.                Patterson: SERVICE COMPANY
DATE.          Mon Jan 30 11:22:55 2006: LOG DATE
UWI.           05 071 08684 00: UNIQUE WELL ID
~Curve Information Block
DEPT.FT            0 000 00 00: Depth
DCAL.in                       : CDL Caliper
DPOR.pu                       : CDL Density Porosity
RHOB.g/cc                     : CDL Bulk Density
RHOC.g/cc                     : CDL Density Correction
GR.GAPI                       : Gamma Ray
~Parameter Information Block
~A  Depth       DCAL        DPOR        RHOB        RHOC         GR     
# ...
   510.2000      0.1835     70.1287      1.4929      0.1747     99.5168
   510.3000      0.1277     64.7349      1.5819      0.4256    108.5731
   510.4000      0.1277     57.5021      1.7012      0.5385    111.9589
   510.5000      0.0488     51.9063      1.7935      0.5803    107.2841
   510.6000      0.0488     47.6283      1.8641      0.5226    101.3181
   510.7000      0.0488     43.1362      1.9383      0.6032    107.0070
   510.8000      0.0145     38.2368      2.0191      0.6299    122.9666
   510.9000      0.0145     33.1864      2.1024      0.6495    132.4458
   511.0000      0.0142     27.6726      2.1934      0.6691    126.0592
   511.1000      0.0142     21.9695      2.2875      0.6916    111.3459
   511.2000      0.0142     17.8144      2.3561      0.6998    100.8254
   511.3000      0.0117     16.8258      2.3724      0.6660     95.0692
   511.4000      0.0117     18.5265      2.3443      0.5997     89.2168
   511.5000      0.0124     21.4684      2.2958      0.5389     84.4157
   511.6000      0.0124     24.9276      2.2387      0.4951     81.8353
   511.7000      0.0124     27.8922      2.1898      0.3629     80.9855
   511.8000      0.0250     28.7678      2.1753      0.3375     85.5428
   511.9000      0.0250     27.2953      2.1996      0.3408     96.5961
   512.0000      0.0315     24.7634      2.2414      0.3960    105.5677
   512.1000      0.0315     22.3298      2.2816      0.3947    108.5354
   512.2000      0.0315     20.3573      2.3141      0.4054    108.6943
   512.3000      0.0302     19.1596      2.3339      0.3625    108.0130
   512.4000      0.0302     18.9469      2.3374      0.3350    109.8511
   512.5000      0.0296     19.8145      2.3231      0.3399    113.4396
   512.6000      0.0296     21.8386      2.2897      0.2490    114.7590
   512.7000      0.0296     24.8741      2.2396      0.2426    112.2138
   512.8000      0.0314     28.6419      2.1774      0.1523    107.0429
   512.9000      0.0314     32.1313      2.1198      0.1183    107.1056
   513.0000      0.0342     34.0341      2.0884      0.0664    112.4539
   513.1000      0.0342     34.1306      2.0868      0.0924    114.5092
   513.2000      0.0342     33.3675      2.0994      0.1013    114.9616
   513.3000      0.0335     32.3702      2.1159      0.1218    114.6444
   513.4000      0.0335     31.0027      2.1385      0.1550    109.1106
   513.5000      0.0278     29.5413      2.1626      0.1855    102.8186
   513.6000      0.0278     28.8371      2.1742      0.2045     96.1239
   513.7000      0.0278     29.4365      2.1643      0.1900     90.3061
   513.8000      0.0249     31.0775      2.1372      0.1569     92.2410
   513.9000      0.0249     32.9414      2.1065      0.1094     96.1834
   514.0000      0.0307     34.2646      2.0846      0.0973     96.6478
   514.1000      0.0307     34.6454      2.0784      0.0998     97.8146
   514.2000      0.0307     34.4084      2.0823      0.1642    101.5559
   514.3000      0.0463     33.9456      2.0899      0.1023    108.0270
   514.4000      0.0463     32.9891      2.1057      0.1424    118.6456
   514.5000      0.0626     31.4296      2.1314      0.1717    126.3800
   514.6000      0.0626     29.3687      2.1654      0.1648    121.3998
   514.7000      0.0626     27.4271      2.1975      0.2799    110.5427
   514.8000      0.0702     26.1535      2.2185      0.2272    104.9300
   514.9000      0.0702     24.5253      2.2453      0.2645    100.3073
   515.0000      0.0756     21.3951      2.2970      0.2587     89.3627
   515.1000      0.0756     16.4160      2.3791      0.2719     76.9553
   515.2000      0.0756      9.8310      2.4878      0.3458     70.4174
   515.3000      0.0813      2.8250      2.6034      0.4111     70.5968
   515.4000      0.0813     -2.7787      2.6958      0.4634     73.0184
   515.5000      0.0897     -5.9893      2.7488      0.4586     72.6971
   515.6000      0.0897     -7.8444      2.7794      0.4134     70.3228
   515.7000      0.0897     -9.6936      2.8099      0.4185     70.9302
   515.8000      0.1084    -11.1461      2.8339      0.3181     75.6689
   515.9000      0.1084    -10.9156      2.8301      0.2788     77.7222
   516.0000      0.1345     -7.7102      2.7772      0.2299     72.4179
   516.1000      0.1345     -1.7080      2.6782      0.1347     61.9746
   516.2000      0.1345      4.1408      2.5817      0.0190     48.7705
   516.3000      0.1510      6.8972      2.5362      0.0292     36.7430
   516.4000      0.1510      7.3363      2.5290      0.1051     31.7494
   516.5000      0.1448      8.6196      2.5078      0.1477     37.3549
   516.6000      0.1448     12.1969      2.4488      0.1405     52.7760
   516.7000      0.1448     16.8493      2.3720      0.1355     69.3210
   516.8000      0.1250     20.8176      2.3065      0.1237     76.7962
   516.9000      0.1250     23.1935      2.2673      0.1000     76.7564
   517.0000      0.1053     23.5037      2.2622      0.0441     77.2242
   517.1000      0.1053     21.1202      2.3015      0.0897     82.4516
   517.2000      0.1053     16.3098      2.3809      0.1670     90.1806
   517.3000      0.0918     11.1115      2.4667      0.2700     91.5755
   517.4000      0.0918      8.1624      2.5153      0.3126     82.7407
   517.5000      0.0845      8.2715      2.5135      0.2543     74.6732
   517.6000      0.0845      9.9933      2.4851      0.2419     77.8994
   517.7000      0.0845     12.4232      2.4450      0.1845     88.4063
   517.8000      0.0792     15.5299      2.3938      0.1823     97.8132
   517.9000      0.0792     17.8318      2.3558      0.1034    101.9565
   518.0000      0.0728     18.0350      2.3524      0.1662    101.8222
   518.1000      0.0728     17.2297      2.3657      0.1794     96.7623
   518.2000      0.0728     16.7750      2.3732      0.1698     83.6435
   518.3000      0.0667     17.0363      2.3689      0.1835     71.3783
   518.4000      0.0667     18.4530      2.3455      0.1532     74.2204
   518.5000      0.0693     21.0795      2.3022      0.1204     87.9578
   518.6000      0.0693     23.3550      2.2646      0.0950     98.9986
   518.7000      0.0693     24.1529      2.2515      0.1257    104.0091
   518.8000      0.0769     24.1700      2.2512      0.1287    104.0052
   518.9000      0.0769     23.8732      2.2561      0.1487    100.3499
   519.0000      0.0786     22.9678      2.2710      0.1888     97.7178
   519.1000      0.0786     21.6574      2.2927      0.1695     96.6767
   519.2000      0.0786     20.9325      2.3046      0.1886     96.5926
   519.3000      0.0760     22.1773      2.2841      0.2058    101.4669
   519.4000      0.0760     25.2838      2.2328      0.1123    110.1876
   519.5000      0.0719     28.4328      2.1809      0.1330    115.2640
   519.6000      0.0719     30.6158      2.1448      0.1281    115.1368
   519.7000      0.0719     32.0488      2.1212      0.1418    110.8856
   519.8000      0.0666     32.2466      2.1179      0.0653    103.5948
   519.9000      0.0666     29.6873      2.1602      0.0806     95.4711
   520.0000      0.0620     24.3940      2.2475      0.2106     90.1934
   520.1000      0.0620     18.4657      2.3453      0.2984     91.1661
   520.2000      0.0620     13.9886      2.4192      0.4124     94.6309
   520.3000      0.0648     12.0295      2.4515      0.3563     97.3682
   520.4000      0.0648     12.4059      2.4453      0.2823    102.7380
   520.5000      0.1150     15.0690      2.4014      0.2961    109.1544
   520.6000      0.1150     18.7645      2.3404      0.2389    109.9836
   520.7000      0.1150     18.1188      2.3510      0.1186    105.8065
   520.8000      0.5702     10.7348      2.4729      0.3181    101.5584
   520.9000      0.5702      2.2017      2.6137      0.2352     96.5927
   521.0000      2.4480     -3.4224      2.7065      0.2827     92.2826
   521.1000      2.4480     -6.0861      2.7504      0.3378     93.5845
   521.2000      2.4480     -4.8008      2.7292      0.4320    102.1664
   521.3000      5.4658      0.0561      2.6491      0.1150    116.5779
