~Version Information
VERS.                      2.0: CWLS Log ASCII Standard - VERSION 2.0
WRAP.                       NO: One line per depth step
~Well Information Block
STRT.FT                -7.2500: 
STOP.FT              1334.7500: 
STEP.FT                 0.2500: 
NULL.                -999.2500: 
COMP.          Pioneer Natural Resources: COMPANY
WELL.          Buffet 41-36 Tr: WELL
FLD.           Purgatorie River: FIELD
LOC.           119' FNL & 271' FEL--: LOCATION
PROV.                       CO: PROVINCE
CNTY.               Las Animas: COUNTRY
SRVC.          Patterson Wireline: SERVICE COMPANY
DATE.          Tue Jan 03 09:43:31 2006: LOG DATE
UWI.           05 071 08627 00: UNIQUE WELL ID
~Curve Information Block
DEPT.FT            0 000 00 00: Depth
CCL.                          : Casing Collar Locator
TT3.usec                      : CBL 3' Travel Time
AMP3.mV                       : CBL 3' Amplitude
GR.GAPI                       : Gamma Ray
~Parameter Information Block
~A  Depth       CCL         TT3         AMP3         GR     
# ...
  1299.2500      0.0000    709.6853      5.1323    121.0982
  1299.5000      0.0000    702.1432      5.1170    117.1746
  1299.7500      0.0000    696.4062      5.0628    120.1563
  1300.0000      0.0000    696.8770      4.9718    127.9778
  1300.2500      0.0000    703.4355      4.8464    135.7567
  1300.5000      0.0000    711.0547      4.6912    139.4121
  1300.7500      0.0000    715.5302      4.5113    138.4718
  1301.0000      0.0000    719.3687      4.3131    135.8800
  1301.2500      0.0000    730.5724      4.1109    134.8065
  1301.5000      0.0000    754.8201      3.9402    135.2845
  1301.7500      0.0000    788.5150      3.8560    134.2193
  1302.0000      0.0000    819.2028      3.8994    128.9754
  1302.2500      0.0000    833.3937      4.0587    120.5715
  1302.5000      0.0000    825.1852      4.2701    112.9256
  1302.7500     -2.0000    798.4366      4.4634    109.3485
  1303.0000      2.0000    762.5067      4.6087    110.2832
  1303.2500      0.0000    728.0806      4.7293    114.1939
  1303.5000      0.0000    705.0269      4.8773    119.7367
  1303.7500      0.0000    698.9001      5.0790    126.4617
  1304.0000      0.0000    707.5284      5.2854    133.7887
  1304.2500      0.0000    722.2833      5.3940    140.2636
  1304.5000      0.0000    732.9274      5.3534    144.1665
  1304.7500      0.0000    731.8072      5.2332    144.4973
  1305.0000      0.0000    716.5659      5.1627    141.3688
  1305.2500      0.0000    691.6779      5.2095    135.7994
  1305.5000      0.0000    666.9880      5.3392    129.1882
  1305.7500      0.0000    652.1920      5.4732    122.9368
  1306.0000      0.0000    650.6101      5.5565    118.6404
  1306.2500      0.0000    657.8824      5.5769    118.0521
  1306.5000      0.0000    666.6858      5.5456    121.8681
  1306.7500      0.0000    672.2546      5.4785    128.5055
  1307.0000      0.0000    673.9338      5.3901    134.9467
  1307.2500      0.0000    673.7393      5.2920    139.3173
  1307.5000      0.0000    674.3101      5.1918    142.2847
  1307.7500      0.0000    676.7989      5.1020    145.6101
  1308.0000      0.0000    679.8118      5.0494    149.7811
  1308.2500      0.0000    681.2223      5.0656    153.5402
  1308.5000      0.0000    680.8950      5.1617    155.3943
  1308.7500      0.0000    680.2753      5.3120    154.7903
  1309.0000      0.0000    679.9598      5.4638    151.6937
  1309.2500      0.0000    678.8891      5.5650    145.6260
  1309.5000      0.0000    674.8209      5.5885    135.6743
  1309.7500      0.0000    664.3459      5.5372    121.7298
  1310.0000      0.0000    643.8219      5.4324    105.9744
  1310.2500      0.0000    612.9274      5.3003     92.8367
  1310.5000      0.0000    578.4709      5.1706     86.6781
  1310.7500      0.0000    552.4069      5.0809     88.8748
  1311.0000      0.0000    541.8084      5.0689     96.9407
  1311.2500      0.0000    540.5820      5.1478    106.3600
  1311.5000      0.0000    534.9763      5.2877    113.4043
  1311.7500      0.0000    517.2952      5.4293    116.8218
  1312.0000      0.0000    490.4518      5.5264    117.5560
  1312.2500      0.0000    461.0736      5.5755    117.0638
  1312.5000      0.0000    434.3195      5.6029    115.8804
  1312.7500      0.0000    415.1660      5.6266    113.6726
  1313.0000      0.0000    409.1523      5.6384    110.3439
  1313.2500      0.0000    418.8914      5.6217    106.6229
  1313.5000      0.0000    439.8368      5.5772    103.5519
  1313.7500      0.0000    459.9262      5.5280    101.8001
  1314.0000      0.0000    465.9684      5.5012    101.5854
  1314.2500      0.0000    453.6850      5.5071    102.7134
  1314.5000      0.0000    431.5410      5.5344    104.4197
  1314.7500      0.0000    413.6207      5.5652    105.6563
  1315.0000      0.0000    409.8737      5.5952    105.8265
  1315.2500      0.0000    423.2849      5.6384    104.8863
  1315.5000      0.0000    452.6392      5.7134    102.7992
  1315.7500      0.0000    494.2137      5.8233     99.4567
  1316.0000      0.0000    540.6666      5.9473     95.2404
  1316.2500      0.0000    580.3227      6.0511     91.1453
  1316.5000      0.0000    599.9727      6.1102     88.0713
  1316.7500      0.0000    591.6370      6.1274     86.1269
  1317.0000      0.0000    560.3165      6.1261     84.6729
  1317.2500      0.0000    525.4480      6.1290     82.9161
  1317.5000      0.0000    510.6051      6.1409     80.5409
  1317.7500      0.0000    527.1918      6.1523     78.0643
  1318.0000      0.0000    566.6953      6.1540     76.7767
  1318.2500      0.0000    608.6106      6.1441     78.1908
  1318.5000      0.0000    634.5455      6.1205     83.0244
  1318.7500      0.0000    635.1320      6.0769     90.2539
  1319.0000      0.0000    608.8742      6.0114     97.4274
  1319.2500      0.0000    560.9621      5.9314    102.6297
  1319.5000      0.0000    503.8199      5.8466    106.1038
  1319.7500      0.0000    453.7390      5.7590    109.1919
  1320.0000      0.0000    422.6705      5.6641    111.3815
  1320.2500      0.0000    411.8888      5.5612    108.9640
  1320.5000      0.0000    412.8879      5.4617     97.5645
  1320.7500      0.0000    414.3741      5.3858     76.6185
  1321.0000      0.0000    410.4504      5.3491     51.1122
  1321.2500      0.0000    404.1332      5.3495     28.3204
  1321.5000      0.0000    403.9950      5.3665     12.8287
  1321.7500      0.0000    417.6320      5.3728      4.6968
  1322.0000      0.0000    446.0967      5.3475      1.3777
  1322.2500      0.0000    481.0533      5.2850      0.3212
  1322.5000      0.0000    507.8303      5.1947      0.0585
  1322.7500      0.0000    516.6094      5.0941      0.0074
  1323.0000      0.0000    513.2442      5.0008      0.0000
  1323.2500      0.0000    515.9375      4.9270   -999.2500
  1323.5000      0.0000    538.5628      4.8771   -999.2500
  1323.7500      0.0000    578.3251      4.8494   -999.2500
  1324.0000      0.0000    619.6381      4.8379   -999.2500
  1324.2500      0.0000    646.9675      4.8343   -999.2500
  1324.5000      0.0000    653.2446      4.8278   -999.2500
  1324.7500      0.0000    640.3936      4.8068   -999.2500
  1325.0000      0.0000    615.6483      4.7600   -999.2500
  1325.2500      0.0000    585.8919      4.6712   -999.2500
  1325.5000      0.0000    551.5131      4.5006   -999.2500
  1325.7500      0.0000    504.1030      4.1716   -999.2500
  1326.0000      0.0000    432.2699      3.6016   -999.2500
  1326.2500      0.0000    333.8120      2.7879   -999.2500
  1326.5000      0.0000    223.4802      1.8664   -999.2500
  1326.7500      0.0000    125.8094      1.0494   -999.2500
  1327.0000      0.0000     58.2319      0.4849   -999.2500
  1327.2500      0.0000     21.8120      0.1813   -999.2500
  1327.5000      0.0000      6.5374      0.0542   -999.2500
  1327.7500      0.0000      1.5536      0.0129   -999.2500
  1328.0000      0.0000      0.2887      0.0024   -999.2500
  1328.2500      0.0000      0.0388      0.0003   -999.2500
  1328.5000      0.0000   -999.2500   -999.2500   -999.2500
  1328.7500      0.0000   -999.2500   -999.2500   -999.2500
  1329.0000      0.0000   -999.2500   -999.2500   -999.2500
  1329.2500      0.0000   -999.2500   -999.2500   -999.2500
  1329.5000      0.0000   -999.2500   -999.2500   -999.2500
  1329.7500      0.0000   -999.2500   -999.2500   -999.2500
  1330.0000      0.0000   -999.2500   -999.2500   -999.2500
  1330.2500      0.0000   -999.2500   -999.2500   -999.2500
  1330.5000      0.0000   -999.2500   -999.2500   -999.2500
  1330.7500      0.0000   -999.2500   -999.2500   -999.2500
  1331.0000      0.0000   -999.2500   -999.2500   -999.2500
  1331.2500      0.0000   -999.2500   -999.2500   -999.2500
  1331.5000      0.0000   -999.2500   -999.2500   -999.2500
  1331.7500      0.0000   -999.2500   -999.2500   -999.2500
  1332.0000      0.0000   -999.2500   -999.2500   -999.2500
  1332.2500      0.0000   -999.2500   -999.2500   -999.2500
  1332.5000      0.0000   -999.2500   -999.2500   -999.2500
