~Version Information
VERS.                      2.0: CWLS Log ASCII Standard - VERSION 2.0
WRAP.                       NO: One line per depth step
~Well Information Block
STRT.FT                10.0000: 
STOP.FT              1380.7500: 
STEP.FT                 0.2500: 
NULL.                -999.2500: 
COMP.          Pioneer Natural Resources: COMPANY
WELL.          Baa Baa 34-1 Tr: WELL
FLD.           Purgatoire River: FIELD
LOC.           785' FSL & 2304' FEL: LOCATION
CNTY.               Las Animas: COUNTY
SRVC.                Patterson: SERVICE COMPANY
DATE.          Tue Mar 07 13:08:19 2006: LOG DATE
UWI.           05 071 08710 00: UNIQUE WELL ID
STAT.                 Colorado: STATE
~Curve Information Block
DEPT.FT            0 000 00 00: Depth
GR.GAPI                       : Gamma Ray
CCL.                          : Casing Collar Locator
TT3.usec                      : CBL 3' Travel Time
AMP3.mV                       : CBL 3' Amplitude
~Parameter Information Block
~A  Depth        GR         CCL         TT3         AMP3    
# ...
   814.0000    129.6246      0.0000    796.3732     11.7435
   814.2500    130.5444      0.0000    789.3987     11.2778
   814.5000    129.6721      0.0000    782.2457     10.9099
   814.7500    128.3076      0.0000    778.1735     10.6337
   815.0000    127.3470      0.0000    779.0509     10.4521
   815.2500    126.3723      0.0000    785.0405     10.3572
   815.5000    124.2835      0.0000    794.7838     10.3257
   815.7500    120.3582      0.0000    805.7643     10.3309
   816.0000    114.4874      0.0000    815.2360     10.3591
   816.2500    107.1761      0.0000    821.5030     10.4130
   816.5000     99.9532      0.0000    825.0720     10.4995
   816.7500     94.9767      0.0000    828.7242     10.6110
   817.0000     93.2802      0.0000    835.2692     10.7193
   817.2500     93.9957      0.0000    844.2953     10.7922
   817.5000     95.9545      0.0000    851.6257     10.8210
   817.7500     99.2212      0.0000    852.6099     10.8274
   818.0000    104.3715      0.0000    846.0047     10.8418
   818.2500    111.0429      0.0000    834.6905     10.8773
   818.5000    117.9254      0.0000    822.8289     10.9240
   818.7500    123.7989      0.0000    812.5980     10.9613
   819.0000    128.1107      0.0000    803.5808     10.9682
   819.2500    130.8653      0.0000    794.6885     10.9263
   819.5000    132.4549      0.0000    785.9862     10.8248
   819.7500    133.4742      0.0000    778.6134     10.6720
   820.0000    134.1398      0.0000    773.4967     10.4980
   820.2500    133.8692      0.0000    770.5921     10.3376
   820.5000    131.9951      0.0000    769.2160     10.2094
   820.7500    129.0584      0.0000    768.6949     10.1083
   821.0000    126.8809      0.0000    768.6186     10.0155
   821.2500    126.9678      0.0000    768.7563      9.9138
   821.5000    129.0178      0.0000    768.9587      9.8004
   821.7500    131.2900      0.0000    769.1380      9.6897
   822.0000    132.3318      0.0000    769.2644      9.6010
   822.2500    132.1511      0.0000    769.3946      9.5435
   822.5000    131.8774      0.0000    769.7617      9.5109
   822.7500    132.5629      0.0000    770.9091      9.4874
   823.0000    134.2302      0.0000    773.7341      9.4558
   823.2500    135.7089      0.0000    779.2096      9.4095
   823.5000    135.2733      0.0000    787.7681      9.3614
   823.7500    131.8898      0.0000    798.8207      9.3424
   824.0000    126.3524      0.0000    810.8416      9.3901
   824.2500    121.1685      0.0000    821.8016      9.5396
   824.5000    118.8559      0.0000    829.8159      9.8164
   824.7500    120.0197      0.0000    834.2278     10.2211
   825.0000    122.9391      0.0000    836.2928     10.7135
   825.2500    124.9465      0.0000    837.9318     11.2178
   825.5000    124.4568      0.0000    839.4106     11.6517
   825.7500    122.1080      0.0000    838.9636     11.9613
   826.0000    120.0233      0.0000    835.0817     12.1400
   826.2500    119.7300      0.0000    828.5775     12.2209
   826.5000    120.7379      0.0000    821.9633     12.2527
   826.7500    121.1184      0.0000    817.1615     12.2756
   827.0000    119.3683      0.0000    814.0992     12.3075
   827.2500    115.7427      0.0000    811.1850     12.3352
   827.5000    112.0244      0.0000    806.8430     12.3143
   827.7500    110.1644      0.0000    800.9711     12.1965
   828.0000    111.0342      0.0000    795.4086     11.9741
   828.2500    114.1603      0.0000    792.8182     11.6993
   828.5000    118.3141      0.0000    794.5916     11.4499
   828.7500    122.1963      0.0000    799.6677     11.2763
   829.0000    124.6706      0.0000    805.4623     11.1837
   829.2500    124.8387      0.0000    809.8096     11.1546
   829.5000    122.4931      0.0000    811.9647     11.1780
   829.7500    118.5721      0.0000    812.1682     11.2498
   830.0000    114.6324      0.0000    810.8320     11.3522
   830.2500    111.5186      0.0000    808.3190     11.4425
   830.5000    108.6505      0.0000    805.1515     11.4727
   830.7500    104.6706      0.0000    801.8904     11.4293
   831.0000     98.6937      0.0000    798.6777     11.3558
   831.2500     90.9925      0.0000    795.2897     11.3280
   831.5000     82.7170      0.0000    791.7064     11.3977
   831.7500     75.0147      0.0000    788.1539     11.5580
   832.0000     68.4024      0.0000    784.6557     11.7561
   832.2500     62.9115      0.0000    781.2008     11.9352
   832.5000     58.4697      0.0000    778.3472     12.0641
   832.7500     54.8605      0.0000    777.0031     12.1425
   833.0000     51.6764      0.0000    777.4371     12.1900
   833.2500     48.7455      0.0000    778.7815     12.2325
   833.5000     46.4976      0.0000    779.7628     12.2868
   833.7500     45.7044      0.0000    779.9103     12.3490
   834.0000     46.8943      0.0000    779.7581     12.3965
   834.2500     50.0274      0.0000    779.7605     12.4079
   834.5000     54.6359      0.0000    779.5883     12.3853
   834.7500     60.2607      0.0000    778.9144     12.3588
   835.0000     66.8246      0.0000    778.4570     12.3665
   835.2500     74.6607      0.0000    779.7217     12.4267
   835.5000     84.1457      0.0000    783.7886     12.5272
   835.7500     95.0423      0.0000    790.3777     12.6329
   836.0000    106.0099      0.0000    797.8627     12.7039
   836.2500    114.9368      0.0000    804.2097     12.7138
   836.5000    120.0762      0.0000    808.1597     12.6611
   836.7500    121.0456      0.0000    809.6133     12.5691
   837.0000    119.0117      0.0000    809.0989     12.4711
   837.2500    116.1881      0.0000    807.2533     12.3930
   837.5000    114.8768      0.0000    804.8259     12.3410
   837.7500    116.3951      0.0000    802.6307     12.3065
   838.0000    120.5953      0.0000    801.1418     12.2830
   838.2500    126.1782      0.0000    800.3273     12.2743
   838.5000    131.2598      0.0000    800.0019     12.2835
   838.7500    134.0557      0.0000    800.1242     12.2955
   839.0000    133.8508      0.0000    800.8271     12.2819
   839.2500    131.6107      0.0000    802.3122     12.2200
   839.5000    129.2995      0.0000    804.4401     12.1033
   839.7500    128.3723      0.0000    806.2387     11.9331
   840.0000    128.9369      0.0000    806.1072     11.7053
   840.2500    130.2201      0.0000    802.8468     11.4105
   840.5000    131.5169      0.0000    796.7668     11.0406
   840.7500    132.6006      0.0000    790.4530     10.5836
   841.0000    133.4754      0.0000    789.0754     10.0039
   841.2500    134.0307      0.0000    800.4064      9.2403
   841.5000    134.0782      0.0000    833.1310      8.2600
   841.7500    133.6882      0.0000    891.3066      7.1384
   842.0000    133.2681      0.0000    968.2952      6.0489
   842.2500    133.0376      0.0000   1049.5782      5.1207
   842.5000    132.3774      0.0000   1124.0155      4.3327
   842.7500    129.7611      0.0000   1188.8135      3.6042
   843.0000    123.4185      0.0000   1243.7705      2.9481
   843.2500    112.4843      0.0000   1288.9895      2.4615
   843.5000     98.0200      0.0000   1328.5259      2.2004
   843.7500     82.8805      2.7383   1365.9683      2.1341
   844.0000     70.0355      3.0000   1393.6709      2.2075
   844.2500     60.8447      0.0000   1392.9572      2.4157
   844.5000     54.9718      0.0000   1347.9419      2.8256
   844.7500     51.5634      0.0000   1259.3796      3.5322
   845.0000     50.0912      0.0000   1146.8715      4.5668
   845.2500     50.2715      0.0000   1037.4670      5.8324
   845.5000     51.6789      0.0000    949.5813      7.1500
   845.7500     53.5942      0.0000    886.3160      8.3583
   846.0000     55.2230      0.0000    841.6089      9.3615
   846.2500     56.2067      0.0000    809.3453     10.1174
   846.5000     56.9373      0.0000    786.3948     10.6261
   846.7500     58.0895      0.0000    770.5798     10.9335
   847.0000     59.7646      0.0000    758.9711     11.1255
   847.2500     61.3048      0.0000    748.8523     11.2868
