~Version Information
VERS.                      2.0: CWLS Log ASCII Standard - VERSION 2.0
WRAP.                       NO: One line per depth step
~Well Information Block
STRT.FT               860.0000: 
STOP.FT              2360.5000: 
STEP.FT                 0.1000: 
NULL.                -999.2500: 
COMP.          Pioneer Natural Resources: COMPANY
WELL.            Cayenne 23-23: WELL
FLD.           Purgatoire River: FIELD
LOC.           2555' FSL & 2386' FWL: LOCATION
PROV.                 Colorado: PROVINCE
CNTY.               Las Animas: COUNTRY
SRVC.                Patterson: SERVICE COMPANY
DATE.          Wed Aug 17 08:28:25 2005: LOG DATE
UWI.           05 071 08476 00: UNIQUE WELL ID
~Curve Information Block
DEPT.FT            0 000 00 00: Depth
DCAL.in                       : CDL Caliper
RHOB.g/cc                     : CDL Bulk Density
RHOC.g/cc                     : CDL Density Correction
DPOR.pu                       : CDL Density Porosity
GR.GAPI                       : Gamma Ray
NPOR.pu                       : Neutron Porosity
~Parameter Information Block
~A  Depth       DCAL        RHOB        RHOC        DPOR         GR         NPOR    
# ...
  1954.4000      8.0233      2.5386      0.0459      6.7538     95.8192     19.8067
  1954.5000      8.0356      2.5553      0.0603      5.7378    106.4152     21.2042
  1954.6000      8.0356      2.5661      0.0934      5.0877    115.8747     22.1714
  1954.7000      8.0356      2.5635      0.0535      5.2420    122.8264     22.8937
  1954.8000      8.0186      2.5605      0.0025      5.4216    124.5655     23.1421
  1954.9000      8.0186      2.5705      0.0537      4.8163    120.0690     23.3490
  1955.0000      8.0571      2.5853      0.0008      3.9230    116.6273     23.3378
  1955.1000      8.0571      2.5885      0.0489      3.7292    118.9305     22.4800
  1955.2000      8.0571      2.5725      0.0363      4.6996    129.6767     21.3481
  1955.3000      8.1040      2.5475      0.0031      6.2095    126.8120     21.2715
  1955.4000      8.1040      2.5290     -0.0034      7.3348    122.2152     22.4702
  1955.5000      8.1127      2.5180     -0.0018      8.0017    118.4666     24.0433
  1955.6000      8.1127      2.5044      0.0359      8.8245    117.5583     24.8163
  1955.7000      8.1127      2.4874     -0.0208      9.8551    117.3250     24.0319
  1955.8000      8.0702      2.4807     -0.0070     10.2636    114.3794     22.3821
  1955.9000      8.0702      2.4758      0.0560     10.5555    109.0850     21.0213
  1956.0000      8.0535      2.4561      0.0222     11.7508    105.3761     20.3617
  1956.1000      8.0535      2.4399      0.0293     12.7328    103.6975     19.9107
  1956.2000      8.0535      2.4390      0.0586     12.7853     99.9321     18.7445
  1956.3000      8.0491      2.4356      0.0490     12.9952     92.2943     17.5565
  1956.4000      8.0491      2.4258      0.0600     13.5893     83.4837     17.4410
  1956.5000      8.0420      2.4188      0.0235     14.0095     77.7623     17.7489
  1956.6000      8.0420      2.4147      0.0362     14.2616     73.1757     17.7580
  1956.7000      8.0420      2.4091      0.0517     14.6021     65.6548     17.7409
  1956.8000      8.0465      2.4098     -0.0156     14.5601     57.0685     17.6855
  1956.9000      8.0465      2.4261      0.0516     13.5718     52.3838     17.3692
  1957.0000      8.0547      2.4415      0.0455     12.6385     53.6183     17.0831
  1957.1000      8.0547      2.4380      0.0938     12.8495     56.7032     17.0517
  1957.2000      8.0547      2.4264      0.0398     13.5529     56.5247     17.4011
  1957.3000      8.0611      2.4265      0.0404     13.5430     55.2113     17.9192
  1957.4000      8.0611      2.4304      0.0826     13.3094     53.5717     17.8497
  1957.5000      8.0531      2.4177      0.0734     14.0777     50.2107     17.1859
  1957.6000      8.0531      2.4011      0.0478     15.0830     48.5595     16.3781
  1957.7000      8.0531      2.4038      0.0677     14.9232     48.7212     15.2814
  1957.8000      8.0691      2.4140      0.0798     14.3057     47.5089     14.0356
  1957.9000      8.0691      2.4095      0.0812     14.5771     46.2839     13.4820
  1958.0000      8.0733      2.3929      0.0525     15.5801     46.4959     14.1742
  1958.1000      8.0733      2.3775      0.0567     16.5172     48.1446     15.7850
  1958.2000      8.0733      2.3713      0.0288     16.8926     52.0701     17.4155
  1958.3000      8.0800      2.3804      0.0395     16.3385     55.6220     18.4273
  1958.4000      8.0800      2.4034      0.0573     14.9482     55.3869     18.8208
  1958.5000      8.0809      2.4265      0.0454     13.5448     53.5179     18.4737
  1958.6000      8.0809      2.4307      0.0862     13.2889     54.4536     17.2307
  1958.7000      8.0809      2.4132      0.0808     14.3492     58.3427     16.0295
  1958.8000      8.0811      2.3918      0.0714     15.6505     59.4715     15.7719
  1958.9000      8.0811      2.3752      0.0619     16.6560     55.3624     16.2103
  1959.0000      8.0790      2.3650      0.0242     17.2723     52.7204     16.9348
  1959.1000      8.0790      2.3640      0.0771     17.3351     54.3732     17.5234
  1959.2000      8.0790      2.3641      0.0754     17.3284     54.2517     17.7764
  1959.3000      8.0798      2.3650      0.0169     17.2737     51.8585     18.0943
  1959.4000      8.0798      2.3725      0.0700     16.8176     51.1476     18.2681
  1959.5000      8.0794      2.3689      0.0762     17.0359     51.9352     17.8826
  1959.6000      8.0794      2.3427      0.0242     18.6238     52.4417     17.4888
  1959.7000      8.0794      2.3231     -0.0345     19.8119     52.5528     17.2531
  1959.8000      8.0871      2.3372      0.0229     18.9575     52.5037     16.9526
  1959.9000      8.0871      2.3672      0.1039     17.1407     49.4246     16.5129
  1960.0000      8.0778      2.3847      0.0459     16.0768     43.4059     15.8416
  1960.1000      8.0778      2.3914      0.0581     15.6710     41.5089     15.4003
  1960.2000      8.0778      2.3994      0.0941     15.1888     45.8974     16.1180
  1960.3000      8.0757      2.4116      0.0697     14.4485     51.5109     17.8812
  1960.4000      8.0757      2.4206      0.0841     13.9009     52.9121     19.1423
  1960.5000      8.0846      2.4150      0.0763     14.2394     50.0434     19.1406
  1960.6000      8.0846      2.3934      0.0412     15.5523     48.5786     18.5179
  1960.7000      8.0846      2.3645      0.0117     17.3007     49.8599     17.9975
  1960.8000      8.0909      2.3425     -0.0018     18.6354     49.8850     17.4222
  1960.9000      8.0909      2.3399      0.0047     18.7959     47.0283     16.7117
  1961.0000      8.0919      2.3516      0.0602     18.0870     42.8701     16.5465
  1961.1000      8.0919      2.3623      0.0647     17.4347     40.6506     16.4887
  1961.2000      8.0919      2.3661      0.0174     17.2036     40.5514     15.6045
  1961.3000      8.0942      2.3540      0.0821     17.9364     38.3111     14.6993
  1961.4000      8.0942      2.3238      0.0180     19.7694     33.0303     14.5394
  1961.5000      8.0944      2.2993     -0.0112     21.2561     29.8156     14.7384
  1961.6000      8.0944      2.3010     -0.0196     21.1509     30.9782     14.8405
  1961.7000      8.0944      2.3223      0.0489     19.8604     33.3430     14.4879
  1961.8000      8.0974      2.3417      0.0350     18.6824     34.1809     13.6678
  1961.9000      8.0974      2.3470      0.0380     18.3646     34.2736     12.9835
  1962.0000      8.0992      2.3407      0.0126     18.7445     36.2866     12.7451
  1962.1000      8.0992      2.3311      0.0452     19.3262     40.3788     12.6613
  1962.2000      8.0992      2.3280      0.0003     19.5162     42.4673     12.6914
  1962.3000      8.1008      2.3363      0.0264     19.0105     41.1470     12.8766
  1962.4000      8.1008      2.3410      0.0775     18.7291     41.4095     13.1865
  1962.5000      8.1067      2.3324      0.0227     19.2458     43.7627     13.6128
  1962.6000      8.1067      2.3277      0.0225     19.5335     43.4628     14.1418
  1962.7000      8.1067      2.3383      0.0389     18.8927     39.7923     14.7849
  1962.8000      8.1024      2.3616      0.0168     17.4797     36.2697     15.1623
  1962.9000      8.1024      2.3896      0.0880     15.7822     35.5721     15.1474
  1963.0000      8.1017      2.4049      0.0950     14.8539     37.6649     15.0359
  1963.1000      8.1017      2.4007      0.0542     15.1086     39.9596     14.8655
  1963.2000      8.1017      2.3870      0.0910     15.9417     39.1451     14.7370
  1963.3000      8.1048      2.3727      0.0695     16.8057     35.5869     15.1537
  1963.4000      8.1048      2.3622      0.0467     17.4439     32.6418     16.0435
  1963.5000      8.1045      2.3542      0.0664     17.9267     32.5047     16.9674
  1963.6000      8.1045      2.3565     -0.0326     17.7869     33.5152     17.7015
  1963.7000      8.1045      2.3841      0.0357     16.1178     33.3829     17.9890
  1963.8000      8.1068      2.4216      0.0886     13.8437     33.8034     18.1494
  1963.9000      8.1068      2.4412      0.0293     12.6573     36.3986     18.6002
