~Version Information
VERS.                      2.0: CWLS Log ASCII Standard - VERSION 2.0
WRAP.                       NO: One line per depth step
~Well Information Block
STRT.FT               230.0000: 
STOP.FT               706.5000: 
STEP.FT                 0.1000: 
NULL.                -999.2500: 
COMP.          Pioneer Natural Resources: COMPANY
WELL.          Razor Clam 23-27: WELL
FLD.           Purgatoire River: FIELD
LOC.           2499' FSL & 2636' FWL: LOCATION
CNTY.               Las Animas: COUNTY
SRVC.                Patterson: SERVICE COMPANY
DATE.          Mon Feb 13 07:31:47 2006: LOG DATE
UWI.           05 071 08667 00: UNIQUE WELL ID
STAT.                 Colorado: STATE
~Curve Information Block
DEPT.FT            0 000 00 00: Depth
DCAL.in                       : CDL Caliper
RHOB.g/cc                     : CDL Bulk Density
RHOC.g/cc                     : CDL Density Correction
DPOR.pu                       : CDL Density Porosity
GR.GAPI                       : Gamma Ray
NPOR.pu                       : Neutron Porosity
~Parameter Information Block
~A  Depth       DCAL        RHOB        RHOC        DPOR         GR         NPOR    
# ...
   479.6000      8.0088      2.2283      0.1508     25.5554    114.9573     32.6985
   479.7000      8.0088      2.2803      0.1651     22.4032    120.8916     31.7832
   479.8000      8.0070      2.3247      0.1731     19.7149    126.1524     31.1792
   479.9000      8.0070      2.3460      0.1288     18.4265    131.0903     31.0620
   480.0000      8.0065      2.3427      0.0903     18.6261    133.6893     31.0684
   480.1000      8.0065      2.3295      0.0543     19.4246    132.8807     30.8049
   480.2000      8.0065      2.3182      0.0621     20.1086    133.1371     30.3486
   480.3000      8.0070      2.3151      0.0173     20.2992    138.5930     29.8546
   480.4000      8.0070      2.3241      0.0556     19.7506    142.0848     29.4630
   480.5000      8.0058      2.3355      0.0869     19.0613    135.0186     29.5647
   480.6000      8.0058      2.3318      0.0909     19.2857    123.1572     30.4775
   480.7000      8.0058      2.3164      0.0693     20.2206    115.9999     31.4814
   480.8000      8.0036      2.3051      0.0794     20.9019    111.3592     31.7062
   480.9000      8.0036      2.2982      0.0949     21.3187    105.2143     31.6039
   481.0000      8.0055      2.2918      0.0634     21.7084    100.2594     31.9190
   481.1000      8.0055      2.2917      0.0471     21.7172     99.1828     32.5084
   481.2000      8.0055      2.3040     -0.0028     20.9722    102.8694     32.9126
   481.3000      8.0041      2.3284      0.0412     19.4888    109.2648     32.8447
   481.4000      8.0041      2.3545      0.0562     17.9074    112.1683     28.2624
   481.5000      8.0046      2.3729      0.0409     16.7935    110.0129     27.5703
   481.6000      8.0046      2.3888      0.0293     15.8312    107.1453     27.1071
   481.7000      8.0046      2.4103      0.0423     14.5248    104.9220     26.8702
   481.8000      8.0034      2.4370      0.0492     12.9080    102.8265     26.4985
   481.9000      8.0034      2.4638      0.0645     11.2875     98.5201     25.8058
   482.0000      8.0026      2.4860      0.0545      9.9387     90.8163     25.4090
   482.1000      8.0026      2.4986      0.0936      9.1782     84.4250     25.3521
   482.2000      8.0026      2.5000      0.0315      9.0888     82.2043     25.1938
   482.3000      8.0002      2.5014      0.0248      9.0049     83.8343     25.0398
   482.4000      8.0002      2.5108      0.0657      8.4386     88.9374     24.9905
   482.5000      8.0018      2.5128      0.1252      8.3163     93.5910     25.2708
   482.6000      8.0018      2.4904      0.0470      9.6743     93.7730     25.9280
   482.7000      8.0018      2.4621      0.0417     11.3864     91.1540     26.0770
   482.8000      7.9986      2.4492      0.0686     12.1689     88.9300     25.1399
   482.9000      7.9986      2.4423      0.0669     12.5853     88.6103     24.1357
   483.0000      7.9970      2.4329      0.0535     13.1596     89.6260     23.9851
   483.1000      7.9970      2.4248      0.0402     13.6488     88.1832     24.5362
   483.2000      7.9970      2.4265      0.0266     13.5444     84.4820     25.6044
   483.3000      7.9999      2.4440      0.0621     12.4845     83.1974     26.8158
   483.4000      7.9999      2.4646      0.1334     11.2344     85.1015     27.4091
   483.5000      8.0030      2.4691      0.1064     10.9650     89.6568     27.0900
   483.6000      8.0030      2.4568      0.0924     11.7107     94.4919     26.6204
   483.7000      8.0030      2.4414      0.0852     12.6454     97.6446     26.5175
   483.8000      8.0045      2.4333      0.1143     13.1311    102.2160     26.4825
   483.9000      8.0045      2.4354      0.0674     13.0043    110.7671     26.4516
   484.0000      8.0082      2.4415      0.0652     12.6353    116.4538     26.4303
   484.1000      8.0082      2.4398      0.0724     12.7386    114.0496     26.3825
   484.2000      8.0082      2.4287      0.0656     13.4108    108.0389     26.5144
   484.3000      8.0084      2.4133      0.0510     14.3452    101.6230     26.9375
   484.4000      8.0084      2.3997      0.0195     15.1668     97.3818     27.1696
   484.5000      8.0082      2.4000      0.0346     15.1543    100.8216     26.7638
   484.6000      8.0082      2.4166      0.0371     14.1449    109.6617     26.3850
   484.7000      8.0082      2.4310      0.0419     13.2718    115.8010     26.7293
   484.8000      8.0072      2.4218      0.0376     13.8302    114.5663     27.3392
   484.9000      8.0072      2.3960      0.0067     15.3923    106.0776     27.5067
   485.0000      8.0087      2.3813      0.0013     16.2819     97.5698     27.2354
   485.1000      8.0087      2.3884     -0.0071     15.8571     93.7251     27.1660
   485.2000      8.0087      2.3984      0.0104     15.2462     93.7272     27.4075
   485.3000      8.0073      2.3887      0.0302     15.8376     97.7681     27.3567
   485.4000      8.0073      2.3633     -0.0299     17.3751    104.0427     26.8229
   485.5000      8.0066      2.3511     -0.0441     18.1122    107.2407     26.1619
   485.6000      8.0066      2.3625      0.0073     17.4259    106.1876     25.7815
   485.7000      8.0066      2.3781      0.0026     16.4810    107.7973     25.9796
   485.8000      8.0075      2.3828      0.0405     16.1935    112.5992     26.9222
   485.9000      8.0075      2.3829     -0.0108     16.1890    111.2551     28.0434
   486.0000      8.0078      2.3931      0.0257     15.5676    103.1454     28.2900
   486.1000      8.0078      2.4108      0.0539     14.4981     98.0119     27.6361
   486.2000      8.0078      2.4217      0.0907     13.8366     98.0583     27.1718
   486.3000      8.0074      2.4226      0.0577     13.7812     97.1233     27.4569
   486.4000      8.0074      2.4107      0.0645     14.5017     95.5306     28.2168
   486.5000      8.0088      2.3778      0.0456     16.4956     97.6179     28.9061
   486.6000      8.0088      2.3279      0.0145     19.5206    101.4987     28.8600
   486.7000      8.0088      2.2737     -0.0112     22.8075    103.3409     28.0378
   486.8000      8.0107      2.2247     -0.0420     25.7732    102.0340     27.2083
   486.9000      8.0107      2.1817     -0.0232     28.3796     98.0916     27.1739
   487.0000      8.0101      2.1344      0.0026     31.2501     93.8954     27.7838
   487.1000      8.0101      2.0800     -0.0236     34.5451     93.5476     28.1748
   487.2000      8.0101      2.0331     -0.0552     37.3876     95.9530     28.4025
   487.3000      8.0082      2.0095     -0.0475     38.8162     96.3446     28.9869
   487.4000      8.0082      2.0110     -0.0079     38.7263     95.9096     29.6012
   487.5000      8.0107      2.0285      0.0166     37.6681     94.9261     29.7610
   487.6000      8.0107      2.0615      0.0620     35.6665     90.8553     29.5186
   487.7000      8.0107      2.1219      0.0406     32.0048     85.2459     28.7800
   487.8000      8.0108      2.2094      0.1120     26.7054     77.3394     27.8074
   487.9000      8.0108      2.2958      0.1599     21.4688     69.5421     27.5185
   488.0000      8.0065      2.3561      0.1444     17.8119     71.0042     27.7442
   488.1000      8.0065      2.3965      0.1330     15.3630     79.8138     27.5315
   488.2000      8.0065      2.4383      0.0813     12.8288     86.5554     27.3136
   488.3000      8.0052      2.4879      0.1267      9.8248     88.1193     27.6060
   488.4000      8.0052      2.5290      0.1478      7.3325     85.2451     27.7553
   488.5000      8.0039      2.5512      0.0445      5.9886     82.1514     27.2389
   488.6000      8.0039      2.5623      0.0575      5.3150     82.0251     26.2520
   488.7000      8.0039      2.5676      0.0712      4.9948     82.7102     25.4468
   488.8000      8.0040      2.5702      0.0435      4.8342     82.9961     25.2146
   488.9000      8.0040      2.5727      0.0754      4.6867     83.3909     24.9732
   489.0000      8.0032      2.5725      0.0480      4.6941     84.0224     24.1022
   489.1000      8.0032      2.5745      0.0055      4.5763     84.8368     23.0878
