~Version Information
VERS.                      2.0: CWLS Log ASCII Standard - VERSION 2.0
WRAP.                       NO: One line per depth step
~Well Information Block
STRT.FT               830.0000: 
STOP.FT              1782.5000: 
STEP.FT                 0.1000: 
NULL.                -999.2500: 
COMP.          Pioneer Natural Resources: COMPANY
WELL.          Manville 42-14 Tr: WELL
FLD.           Purgatoire River: FIELD
LOC.           2018 FNL & 562' FEL: LOCATION
STAT.                 Colorado: State
CNTY.               Las Animas: COUNTY
CTRY. USA : Country
SECT. 14 : Section
TOWN. 32S : Township
RANG. 66W : Range
SRVC.                Patterson: SERVICE COMPANY
DATE.          Mon Sep 19 09:44:06 2005: LOG DATE
API.           05 071 08522 00: UNIQUE WELL ID
~Curve Information Block
DEPT.FT            0 000 00 00: Depth
DCAL.in                       : CDL Caliper
RHOB.g/cc                     : CDL Bulk Density
RHOC.g/cc                     : CDL Density Correction
DPOR.pu                       : CDL Density Porosity
GR.GAPI                       : Gamma Ray
NPOR.pu                       : Neutron Porosity
~Parameter Information Block
~A  Depth       DCAL        RHOB        RHOC        DPOR         GR         NPOR    
# ...
  1578.8000      9.0187      1.4549      0.0421     72.4287     42.0986     33.6135
  1578.9000      9.0187      1.5019      0.0966     69.5830     43.6591     33.9690
  1579.0000      9.0737      1.5262      0.0859     68.1069     43.9171     34.1692
  1579.1000      9.0737      1.5265      0.0780     68.0886     43.0708     34.3513
  1579.2000      9.0737      1.5186      0.0817     68.5698     41.9214     34.5805
  1579.3000      8.5228      1.5030      0.1235     69.5124     42.2699     34.9395
  1579.4000      8.5228      1.4731      0.0779     71.3271     44.3984     35.0745
  1579.5000      8.5113      1.4370      0.0296     73.5171     45.5780     34.6668
  1579.6000      8.5113      1.4111     -0.0126     75.0855     44.9009     34.1776
  1579.7000      8.5113      1.3989     -0.0084     75.8224     43.7677     33.9137
  1579.8000      8.6460      1.3926     -0.0574     76.2046     42.4494     33.4280
  1579.9000      8.6460      1.3876      0.0094     76.5089     40.7373     33.0753
  1580.0000      8.4673      1.3803      0.0668     76.9545     39.8844     33.7691
  1580.1000      8.4673      1.3716      0.0457     77.4776     40.6267     35.0438
  1580.2000      8.4673      1.3661      0.0850     77.8124     41.3182     35.7308
  1580.3000      8.2619      1.3588      0.0875     78.2542     39.5861     35.5045
  1580.4000      8.2619      1.3481      0.0736     78.9052     37.1236     34.7359
  1580.5000      8.4555      1.3499      0.0262     78.7935     38.2044     33.9343
  1580.6000      8.4555      1.3791      0.0466     77.0246     43.6675     33.6482
  1580.7000      8.4555      1.4332      0.0246     73.7461     49.7973     33.9041
  1580.8000      8.6202      1.5191      0.0281     68.5386     52.6538     34.1982
  1580.9000      8.6202      1.6561      0.0895     60.2362     52.3119     34.2639
  1581.0000      9.1541      1.8265      0.1747     49.9116     51.3864     34.0878
  1581.1000      9.1541      1.9780      0.2159     40.7282     53.1047     33.7037
  1581.2000      9.1541      2.0996      0.1946     33.3585     59.3199     32.9416
  1581.3000      9.4779      2.2318      0.2215     25.3471     68.6079     31.9239
  1581.4000      9.4779      2.3835      0.2557     16.1508     78.5117     31.3660
  1581.5000      9.1942      2.5028      0.2364      8.9228     87.4488     31.3243
  1581.6000      9.1942      2.5540      0.0713      5.8197     94.9982     30.9600
  1581.7000      9.1942      2.5643      0.0247      5.1931     98.0871     29.8174
  1581.8000      8.7633      2.5674      0.0655      5.0060     96.3335     28.3934
  1581.9000      8.7633      2.5718      0.0571      4.7392     98.5856     27.3051
  1582.0000      8.1268      2.5824      0.0719      4.0964    108.5727     26.4614
  1582.1000      8.1268      2.5955      0.1003      3.3016    116.6693     25.5060
  1582.2000      8.1268      2.6044      0.0640      2.7619    118.1364     24.3098
  1582.3000      8.0206      2.6112      0.0807      2.3522    116.3605     22.6366
  1582.4000      8.0206      2.6122      0.0971      2.2918    111.1399     20.5507
  1582.5000      8.0040      2.6060      0.0811      2.6679    104.3122     19.2699
  1582.6000      8.0040      2.6027      0.0554      2.8641     99.3832     19.5299
  1582.7000      8.0040      2.6021      0.0911      2.9037     93.7677     20.1964
  1582.8000      7.9995      2.5917      0.0810      3.5332     86.3558     20.1165
  1582.9000      7.9995      2.5773      0.0301      4.4037     80.5991     19.5937
  1583.0000      7.9763      2.5726      0.0683      4.6886     76.6299     19.2411
  1583.1000      7.9763      2.5821      0.0140      4.1158     74.7187     18.6056
  1583.2000      7.9763      2.6057      0.0330      2.6862     74.3644     17.3005
  1583.3000      7.9734      2.6296      0.0723      1.2386     73.2030     16.3553
  1583.4000      7.9734      2.6371      0.0976      0.7846     72.2798     16.5648
  1583.5000      7.9599      2.6267      0.1419      1.4124     74.6924     17.4004
  1583.6000      7.9599      2.6080      0.1117      2.5438     79.9313     17.6699
  1583.7000      7.9599      2.5937      0.0665      3.4126     85.8038     16.8498
  1583.8000      7.9400      2.5920      0.0757      3.5175     89.4095     16.1351
  1583.9000      7.9400      2.6020      0.0508      2.9102     87.0238     16.7621
  1584.0000      7.9152      2.6122      0.0968      2.2893     80.5925     18.1214
  1584.1000      7.9152      2.6074      0.0793      2.5797     75.0480     18.7920
  1584.2000      7.9152      2.5906      0.0757      3.6026     75.0175     18.3139
  1584.3000      7.9296      2.5711      0.0835      4.7789     82.3446     17.7072
  1584.4000      7.9296      2.5499      0.0653      6.0666     90.1950     17.8351
  1584.5000      7.9755      2.5311      0.0537      7.2088     93.5279     18.8184
  1584.6000      7.9755      2.5171      0.0204      8.0524     95.6013     20.1573
  1584.7000      7.9755      2.5031      0.0320      8.9035     99.2587     20.9518
  1584.8000      7.9792      2.4854      0.0115      9.9782    102.6035     21.0720
  1584.9000      7.9792      2.4698      0.0047     10.9231    105.3327     20.9882
  1585.0000      7.9797      2.4633      0.0174     11.3122    109.6150     21.0909
  1585.1000      7.9797      2.4602      0.0492     11.5051    112.8600     21.4497
  1585.2000      7.9797      2.4519     -0.0161     12.0089    114.8995     21.8846
  1585.3000      7.9932      2.4464      0.0179     12.3386    121.2846     22.4348
  1585.4000      7.9932      2.4506      0.0547     12.0871    132.9649     23.0749
  1585.5000      8.0512      2.4660      0.0003     11.1496    142.9592     23.7707
  1585.6000      8.0512      2.4925      0.1225      9.5446    144.5630     24.7462
  1585.7000      8.0512      2.5163      0.1031      8.1029    140.1561     25.8325
  1585.8000      8.0542      2.5345      0.0853      7.0005    137.6958     26.5945
  1585.9000      8.0542      2.5544      0.1311      5.7956    142.7152     26.7164
  1586.0000      8.0647      2.5663      0.1602      5.0734    152.0295     26.2051
  1586.1000      8.0647      2.5670      0.1191      5.0303    155.7723     26.2242
  1586.2000      8.0647      2.5734      0.1075      4.6416    151.7717     27.3566
  1586.3000      8.0697      2.5868      0.1397      3.8292    149.0286     28.0464
  1586.4000      8.0697      2.5910      0.1391      3.5729    153.6238     27.3947
  1586.5000      8.1643      2.5854      0.0901      3.9134    159.8652     26.0949
  1586.6000      8.1643      2.5806      0.0715      4.2074    157.2928     24.8769
  1586.7000      8.1643      2.5850      0.0775      3.9417    145.2890     24.0167
  1586.8000      8.1299      2.6028      0.0733      2.8608    133.1736     23.3058
  1586.9000      8.1299      2.6231      0.1312      1.6307    126.4476     22.8342
  1587.0000      8.0276      2.6216      0.0988      1.7191    122.0972     22.5995
  1587.1000      8.0276      2.5894      0.0592      3.6736    117.0340     22.3867
  1587.2000      8.0276      2.5421      0.0320      6.5405    113.6309     22.3431
  1587.3000      7.9742      2.5011     -0.0107      9.0240    111.1390     22.6411
  1587.4000      7.9742      2.4764      0.0272     10.5201    106.5833     23.1135
  1587.5000      7.9656      2.4659      0.0064     11.1568    101.7774     23.4720
  1587.6000      7.9656      2.4673      0.0094     11.0717    101.3845     23.4221
  1587.7000      7.9656      2.4767      0.0218     10.5006    106.1340     22.9191
  1587.8000      7.9497      2.4896      0.0541      9.7234    111.6865     22.1973
  1587.9000      7.9497      2.5066      0.0522      8.6937    114.4052     21.4483
  1588.0000      7.9731      2.5248      0.0682      7.5894    113.8445     20.7811
  1588.1000      7.9731      2.5377      0.0818      6.8065    111.0476     20.4233
  1588.2000      7.9731      2.5544      0.1022      5.7924    108.0773     20.6753
  1588.3000      7.9813      2.5942      0.1254      3.3795    109.6468     21.0010
