~Version Information
VERS.                      2.0: CWLS Log ASCII Standard - VERSION 2.0
WRAP.                       NO: One line per depth step
~Well Information Block
STRT.FT               350.0000: 
STOP.FT               906.0000: 
STEP.FT                 0.2500: 
NULL.                -999.2500: 
COMP.          Pioneer Natural Resources: COMPANY
WELL.           Hartford 31-18: WELL
FLD.           Purgatorie River: FIELD
LOC.           375' FNL & 1660' FEL: LOCATION
PROV.                 Colorado: PROVINCE
CNTY.               Las Animas: COUNTRY
SRVC.                Patterson: SERVICE COMPANY
DATE.          Sat Nov 19 19:02:38 2005: LOG DATE
UWI.           05-071-08555               : UNIQUE WELL ID
~Curve Information Block
DEPT.FT            0 000 00 00: Depth
SN.Ohm-m                      : IEL Short Normal
SP.mV                         : IEL Spontaneous Potential
DIR.Ohm-m                     : IEL Induction Resistivity
GR.GAPI                       : Gamma Ray
~Parameter Information Block
~A  Depth        SN          SP         DIR          GR     
# ...
   785.5000     35.9316    220.8092     31.2443     45.7999
   785.7500     35.6194    220.9694     31.2401     46.4746
   786.0000     35.2045    221.0686     31.3027     47.8842
   786.2500     34.7409    221.1349     31.3981     48.4532
   786.5000     34.2857    221.1857     31.4795     48.6252
   786.7500     33.8888    221.2369     31.4991     49.0312
   787.0000     33.5751    221.3047     31.4183     51.6109
   787.2500     33.3300    221.4012     31.2125     54.7669
   787.5000     33.1312    221.5339     30.8745     60.1343
   787.7500     32.9993    221.7133     30.4210     62.8455
   788.0000     32.9822    221.9605     29.8950     63.9843
   788.2500     33.0589    222.3015     29.3555     62.4742
   788.5000     33.0858    222.7520     28.8583     57.5315
   788.7500     32.8765    223.3048     28.4394     53.5770
   789.0000     32.3430    223.9268     28.1119     48.9600
   789.2500     31.5622    224.5657     27.8748     47.6218
   789.5000     30.7056    225.1592     27.7225     48.3115
   789.7500     29.8975    225.6491     27.6493     50.1295
   790.0000     29.1625    225.9986     27.6445     54.1369
   790.2500     28.4999    226.2061     27.6844     57.3024
   790.5000     27.9708    226.3025     27.7298     62.0493
   790.7500     27.6947    226.3309     27.7335     64.8409
   791.0000     27.7600    226.3280     27.6550     68.6015
   791.2500     28.1443    226.3206     27.4726     71.2025
   791.5000     28.7433    226.3302     27.1854     74.9973
   791.7500     29.4619    226.3745     26.8090     76.4790
   792.0000     30.2388    226.4633     26.3726     75.4255
   792.2500     30.9802    226.6005     25.9174     72.4566
   792.5000     31.5055    226.7935     25.4900     66.0499
   792.7500     31.6056    227.0595     25.1289     61.5376
   793.0000     31.1612    227.4212     24.8464     55.5351
   793.2500     30.2173    227.8927     24.6214     52.2476
   793.5000     28.9719    228.4700     24.4082     48.5034
   793.7500     27.6579    229.1266     24.1583     47.0406
   794.0000     26.3888    229.8144     23.8419     47.0995
   794.2500     25.1467    230.4701     23.4566     48.8305
   794.5000     23.9317    231.0312     23.0224     53.2095
   794.7500     22.8576    231.4545     22.5702     56.3755
   795.0000     22.0616    231.7253     22.1318     60.1221
   795.2500     21.5764    231.8502     21.7353     61.8626
   795.5000     21.3337    231.8437     21.4037     64.3399
   795.7500     21.2609    231.7216     21.1560     66.4186
   796.0000     21.3285    231.5056     21.0056     69.5572
   796.2500     21.5190    231.2294     20.9583     70.5874
   796.5000     21.8043    230.9400     21.0092     69.3501
   796.7500     22.1711    230.6919     21.1428     67.0885
   797.0000     22.6279    230.5385     21.3358     63.5106
   797.2500     23.1415    230.5260     21.5608     61.9243
   797.5000     23.6044    230.6849     21.7907     60.9945
   797.7500     23.9294    231.0204     22.0030     60.9618
   798.0000     24.1532    231.5084     22.1858     61.0214
   798.2500     24.3938    232.1024     22.3400     60.6565
   798.5000     24.7058    232.7461     22.4767     58.6023
   798.7500     25.0150    233.3820     22.6076     55.9801
   799.0000     25.2127    233.9545     22.7357     50.8798
   799.2500     25.2714    234.4168     22.8523     47.6320
   799.5000     25.2398    234.7436     22.9404     44.4248
   799.7500     25.1708    234.9399     22.9800     43.6866
   800.0000     25.0812    235.0385     22.9527     44.1668
   800.2500     24.9516    235.0833     22.8441     45.0153
   800.5000     24.7553    235.1131     22.6465     46.5381
   800.7500     24.4999    235.1524     22.3634     47.6899
   801.0000     24.2244    235.2114     22.0111     49.6814
   801.2500     23.9493    235.2897     21.6156     51.1871
   801.5000     23.6522    235.3854     21.2076     53.8195
   801.7500     23.3069    235.5034     20.8180     55.8910
   802.0000     22.9248    235.6577     20.4759     59.0925
   802.2500     22.5336    235.8654     20.2071     60.6695
   802.5000     22.1269    236.1375     20.0301     61.0158
   802.7500     21.6651    236.4716     19.9520     59.6684
   803.0000     21.1274    236.8540     19.9670     56.1329
   803.2500     20.5605    237.2676     20.0572     53.6668
   803.5000     20.0610    237.6993     20.1964     50.8821
   803.7500     19.6977    238.1427     20.3530     49.7464
   804.0000     19.4700    238.5929     20.4943     48.9662
   804.2500     19.3639    239.0396     20.5950     49.0583
   804.5000     19.4177    239.4628     20.6485     50.1583
   804.7500     19.6929    239.8354     20.6722     51.4269
   805.0000     20.1868    240.1331     20.7034     53.6705
   805.2500     20.8079    240.3441     20.7854     55.0416
   805.5000     21.4430    240.4710     20.9533     56.4681
   805.7500     22.0352    240.5251     21.2265     56.9893
   806.0000     22.5786    240.5206     21.6066     57.4373
   806.2500     23.0617    240.4777     22.0793     57.6095
   806.5000     23.4621    240.4266     22.6154     57.4148
   806.7500     23.7837    240.4063     23.1746     56.7911
   807.0000     24.0519    240.4518     23.7119     55.2996
   807.2500     24.2831    240.5795     24.1898     54.3353
   807.5000     24.4842    240.7822     24.5876     53.4823
   807.7500     24.6646    241.0335     24.9039     53.2963
   808.0000     24.8361    241.2934     25.1505     53.2444
   808.2500     25.0144    241.5142     25.3467     53.2514
   808.5000     25.2196    241.6506     25.5171     53.4773
   808.7500     25.4583    241.6773     25.6914     54.0123
   809.0000     25.7140    241.6006     25.9002     55.7885
   809.2500     25.9685    241.4531     26.1667     57.4827
   809.5000     26.2211    241.2751     26.4989     59.4147
   809.7500     26.4754    241.0971     26.8861     59.2062
   810.0000     26.7341    240.9351     27.3049     55.8192
   810.2500     27.0096    240.7951     27.7303     52.0965
   810.5000     27.3166    240.6825     28.1477     46.4645
   810.7500     27.6579    240.6088     28.5548     43.8250
   811.0000     28.0322    240.5950     28.9559     42.3526
   811.2500     28.4401    240.6713     29.3524     42.8143
   811.5000     28.8730    240.8693     29.7386     44.5640
   811.7500     29.3086    241.2110     30.1043     45.6917
   812.0000     29.7115    241.7000     30.4399     46.6827
   812.2500     30.0343    242.3225     30.7389     47.1419
   812.5000     30.2443    243.0514     30.9949     48.6090
   812.7500     30.3576    243.8482     31.1991     50.4717
   813.0000     30.4294    244.6606     31.3415     54.0776
   813.2500     30.5045    245.4276     31.4153     56.2901
   813.5000     30.5825    246.0975     31.4189     58.4623
   813.7500     30.6235    246.6466     31.3539     59.2734
   814.0000     30.5857    247.0839     31.2212     60.3409
   814.2500     30.4602    247.4369     31.0195     61.2436
   814.5000     30.2670    247.7340     30.7465     62.8747
   814.7500     30.0391    247.9961     30.4052     63.9949
   815.0000     29.8148    248.2377     30.0094     65.0837
   815.2500     29.6199    248.4727     29.5857     64.7919
   815.5000     29.4532    248.7181     29.1668     62.1656
   815.7500     29.2922    248.9914     28.7803     59.2830
   816.0000     29.1137    249.3057     28.4395     54.8232
   816.2500     28.9039    249.6639     28.1446     52.7037
   816.5000     28.6542    250.0555     27.8933     51.6876
   816.7500     28.3633    250.4588     27.6917     52.3805
   817.0000     28.0529    250.8450     27.5562     54.4427
   817.2500     27.7716    251.1834     27.5045     55.6331
   817.5000     27.5665    251.4444     27.5455     55.9752
   817.7500     27.4576    251.6030     27.6735     55.0970
   818.0000     27.4431    251.6457     27.8731     53.0349
   818.2500     27.5206    251.5777     28.1268     52.1474
   818.5000     27.7011    251.4262     28.4188     52.7874
   818.7500     28.0004    251.2333     28.7343     54.4274
