~Version Information
VERS.                      2.0: CWLS Log ASCII Standard - VERSION 2.0
WRAP.                       NO: One line per depth step
~Well Information Block
STRT.FT                -8.2500: 
STOP.FT              1118.7500: 
STEP.FT                 0.2500: 
NULL.                -999.2500: 
COMP.          Pioneer Natural Resources: COMPANY
WELL.             Croc 42-9 Tr: WELL
FLD.           Purgatorie River: FIELD
LOC.           --2429' FNL & 315' FEL------: LOCATION
STAT.                       CO: State
CNTY.               Las Animas: COUNTY
CTRY. USA : Country
SECT. 9 : Section
TOWN. 32S : Township
RANG. 66W : Range
SRVC.          Patterson Wireline: SERVICE COMPANY
DATE.          Tue Oct 18 14:14:43 2005: LOG DATE
API.           05 071 08550 00: UNIQUE WELL ID
~Curve Information Block
DEPT.FT            0 000 00 00: Depth
CCL.                          : Casing Collar Locator
TT3.usec                      : CBL 3' Travel Time
AMP3.mV                       : CBL 3' Amplitude
GR.GAPI                       : Gamma Ray
~Parameter Information Block
~A  Depth       CCL         TT3         AMP3         GR     
    -8.2500   -999.2500   -999.2500   -999.2500     78.8371
    -8.0000   -999.2500   -999.2500   -999.2500     79.3460
    -7.7500   -999.2500   -999.2500   -999.2500     80.3634
    -7.5000   -999.2500   -999.2500   -999.2500     81.2015
    -7.2500   -999.2500   -999.2500   -999.2500     81.2888
    -7.0000   -999.2500   -999.2500   -999.2500     80.4933
    -6.7500   -999.2500   -999.2500   -999.2500     79.3380
    -6.5000   -999.2500   -999.2500   -999.2500     78.7078
    -6.2500   -999.2500   -999.2500   -999.2500     79.1091
    -6.0000   -999.2500   -999.2500   -999.2500     80.1584
    -5.7500   -999.2500   -999.2500   -999.2500     80.8514
    -5.5000   -999.2500   -999.2500   -999.2500     80.4041
    -5.2500   -999.2500   -999.2500   -999.2500     78.8130
    -5.0000   -999.2500   -999.2500   -999.2500     76.5107
    -4.7500   -999.2500   -999.2500   -999.2500     73.6367
    -4.5000   -999.2500   -999.2500   -999.2500     69.9635
    -4.2500   -999.2500   -999.2500   -999.2500     65.5525
    -4.0000   -999.2500   -999.2500   -999.2500     61.2333
    -3.7500   -999.2500   -999.2500   -999.2500     58.2289
    -3.5000   -999.2500   -999.2500   -999.2500     57.2984
    -3.2500   -999.2500   1158.0000      0.8556     58.3174
    -3.0000   -999.2500   1158.0000      0.8540     60.6492
    -2.7500   -999.2500   1158.0000      0.8475     63.6982
    -2.5000   -999.2500   1158.0000      0.8386     67.0443
    -2.2500   -999.2500   1158.0000      0.8305     70.2078
    -2.0000   -999.2500   1158.0000      0.8265     72.3521
    -1.7500   -999.2500   1158.0000      0.8289     72.3903
    -1.5000   -999.2500   1158.0000      0.8374     69.8142
    -1.2500   -999.2500   1158.0000      0.8484     65.4834
    -1.0000   -999.2500   1158.0000      0.8576     61.1201
    -0.7500   -999.2500   1158.0000      0.8621     57.7408
    -0.5000   -999.2500   1158.0000      0.8617     54.7833
    -0.2500   -999.2500   1158.0000      0.8571     50.9538
     0.0000   -999.2500   1158.0000      0.8502     45.8264
     0.2500   -999.2500   1158.0000      0.8399     36.6629
     0.5000   -999.2500   1158.0000      0.8409     35.4782
     0.7500   -999.2500   1158.0000      0.8469     36.8879
     1.0000   -999.2500   1158.0000      0.8563     40.2326
     1.2500   -999.2500   1158.0000      0.8660     44.7593
     1.5000   -999.2500   1158.0000      0.8729     49.5213
     1.7500   -999.2500   1158.0000      0.8754     53.2409
     2.0000      0.0000   1158.0000      0.8736     54.7730
     2.2500      0.0000   1158.0000      0.8686     53.8639
     2.5000      0.0000   1158.0000      0.8630     51.4372
     2.7500      0.0000   1157.9844      0.8607     49.0158
     3.0000      0.0000   1157.8796      0.8640     47.7235
     3.2500      0.0000   1157.3037      0.8784     47.7772
     3.5000      0.0000   1154.9032      0.9315     48.7319
     3.7500      0.0000   1146.9077      1.1456     49.9312
     4.0000      0.0000   1125.4121      1.9071     50.7967
     4.2500      0.0000   1078.2750      4.1172     51.0866
     4.5000      0.0000    993.2430      9.2457     51.0367
     4.7500      0.0000    866.5905     18.6810     51.1060
     5.0000      0.0000    711.2371     32.3807     51.5156
     5.2500      0.0000    555.5411     48.0389     52.0003
     5.5000      0.0000    429.3702     62.1148     51.8969
     5.7500      0.0000    347.5409     72.0765     50.6753
     6.0000      0.0000    305.4281     77.6499     48.7483
     6.2500      0.0000    288.3383     80.1490     47.5065
     6.5000      0.0000    282.8885     81.0897     48.1318
     6.7500      0.0000    281.5179     81.4303     50.5791
     7.0000      0.0000    281.2389     81.5751     53.8848
     7.2500      0.0000    281.1853     81.6379     56.9856
     7.5000      0.0000    281.1786     81.6381     59.0554
     7.7500      0.0000    281.1801     81.5849     59.6450
     8.0000      0.0000    281.1882     81.4956     58.8113
     8.2500      0.0000    281.1997     81.3959     56.9374
     8.5000      0.0000    281.2112     81.3090     54.4910
     8.7500      0.0000    281.2209     81.2415     52.0708
     9.0000      0.0000    281.2272     81.1838     50.3272
     9.2500      0.0000    281.2277     81.1277     49.6096
     9.5000      0.0000    281.2203     81.0727     49.9536
     9.7500      0.0000    281.2036     81.0032     51.2581
    10.0000      0.0000    281.1749     80.8399     52.8701
    10.2500      0.0000    281.1293     80.3980     53.2571
    10.5000      0.0000    281.0632     79.3873     51.0555
    10.7500      0.0000    280.9907     77.4884     46.6150
    11.0000      0.0000    280.9861     74.4929     42.0079
    11.2500      0.0000    281.2751     70.4064     39.3308
    11.5000      0.0000    282.5947     65.4151     39.0589
    11.7500      0.0000    287.0966     59.7379     40.0637
    12.0000      0.0000    299.4765     53.5024     41.2297
    12.2500      0.0000    326.6367     46.7558     42.8400
    12.5000      0.0000    373.5916     39.6159     46.0183
    12.7500      0.0000    437.5643     32.4610     51.0219
    13.0000      0.0000    508.1837     25.9540     56.6539
    13.2500      0.0000    576.9829     20.7413     61.3700
    13.5000      0.0000    644.6023     17.0390     64.5683
    13.7500      0.0000    714.2306     14.5650     66.7177
    14.0000      0.0000    780.9660     12.8807     68.5610
    14.2500      0.0000    834.0660     11.7036     70.5054
    14.5000      0.0000    868.3525     10.9093     72.7900
    14.7500      2.0000    888.4261     10.3958     75.8045
    15.0000     -2.0000    902.5079     10.0397     79.7225
    15.2500      0.0000    915.1208      9.7530     83.8205
    15.5000      0.0000    924.4636      9.5453     86.7486
    15.7500      0.0000    924.9146      9.5165     87.8009
    16.0000      0.0000    913.2205      9.7569     87.5262
    16.2500      0.0000    893.0209     10.2400     86.6750
    16.5000      0.0000    872.3873     10.8355     84.8913
    16.7500      0.0000    857.3568     11.4094     81.0398
    17.0000      0.0000    848.7021     11.8729     74.8136
    17.2500      0.0000    843.5731     12.1669     67.6267
    17.5000      0.0000    838.3093     12.2706     61.7753
    17.7500      0.0000    830.1206     12.2230     58.8772
    18.0000      0.0000    818.2386     12.0993     59.3275
    18.2500      0.0000    804.6719     11.9587     62.8185
    18.5000      0.0000    793.0918     11.8184     68.4945
    18.7500      0.0000    786.0547     11.6720     74.5233
    19.0000      0.0000    783.5161     11.5202     78.5402
    19.2500      0.0000    784.2631     11.3900     79.1591
    19.5000      0.0000    787.7048     11.3265     76.9038
    19.7500      0.0000    793.5115     11.3617     73.5988
    20.0000      0.0000    800.5204     11.4788     70.9200
    20.2500      0.0000    807.1556     11.6147     69.2834
    20.5000      0.0000    813.1490     11.7062     67.8809
    20.7500      0.0000    820.5641     11.7350     65.7222
    21.0000      0.0000    833.0657     11.7242     62.5358
    21.2500      0.0000    854.2128     11.7038     58.7937
    21.5000      0.0000    885.1649     11.6864     55.2363
    21.7500      0.0000    921.2219     11.6667     52.3862
    22.0000      0.0000    950.2136     11.6385     50.2842
    22.2500      0.0000    958.9177     11.6103     48.7431
    22.5000      0.0000    945.2224     11.6038     47.8322
    22.7500      0.0000    922.8516     11.6307     47.6941
    23.0000      0.0000    911.2193     11.6732     47.9325
    23.2500      0.0000    921.0366     11.6973     47.8205
    23.5000      0.0000    949.6349     11.6862     47.2985
    23.7500      0.0000    985.7656     11.6542     47.2456
    24.0000      0.0000   1015.7592     11.6298     48.4958
    24.2500      0.0000   1028.6161     11.6301     51.0029
    24.5000      0.0000   1020.2872     11.6540     54.1645
    24.7500      0.0000    994.7228     11.6888     57.5222
    25.0000      0.0000    960.6848     11.7172     60.8217
