~Version Information
VERS.                      2.0: CWLS Log ASCII Standard - VERSION 2.0
WRAP.                       NO: One line per depth step
~Well Information Block
STRT.FT               695.5000: 
STOP.FT              1499.5000: 
STEP.FT                 0.2500: 
NULL.                -999.2500: 
COMP.          Pioneer Natural Resources: COMPANY
WELL.          Pallet Ranch 34-25 Tr: WELL
FLD.           Purgatoire River: FIELD
LOC.           465' FSL & 2138' FEL: LOCATION
PROV.                 Colorado: PROVINCE
CNTY.               Las Animas: COUNTRY
SRVC.                Patterson: SERVICE COMPANY
DATE.          Wed Jan 18 18:58:46 2006: LOG DATE
UWI.           05 071 08657 00: UNIQUE WELL ID
~Curve Information Block
DEPT.FT            0 000 00 00: Depth
SN.Ohm-m                      : IEL Short Normal
SP.mV                         : IEL Spontaneous Potential
DIR.Ohm-m                     : IEL Induction Resistivity
GR.GAPI                       : Gamma Ray
~Parameter Information Block
~A  Depth        SN          SP         DIR          GR     
# ...
  1064.0000   2000.0000   2000.0000      0.0490    133.0139
  1064.2500   2000.0000   2000.0000      0.0479    134.5100
  1064.5000   2000.0000   2000.0000      0.0627    135.9410
  1064.7500   2000.0000   2000.0000      0.1084    135.3932
  1065.0000   2000.0000   2000.0000      0.2243    130.7743
  1065.2500   2000.0000   2000.0000      0.4967    125.3315
  1065.5000   2000.0000   2000.0000      1.2410    115.9007
  1065.7500   2000.0000   2000.0000      5.4085    110.3880
  1066.0000   2000.0000   2000.0000 100000.0000    105.0855
  1066.2500   2000.0000   2000.0000 100000.0000    103.9785
  1066.5000   2000.0000   2000.0000 100000.0000    106.3617
  1066.7500   2000.0000   2000.0000 100000.0000    110.6865
  1067.0000   2000.0000   2000.0000 100000.0000    120.2813
  1067.2500   2000.0000   2000.0000 100000.0000    127.4496
  1067.5000   2000.0000   2000.0000 100000.0000    136.9607
  1067.7500   2000.0000   2000.0000 100000.0000    141.5470
  1068.0000   2000.0000   2000.0000 100000.0000    145.0750
  1068.2500   2000.0000   2000.0000 100000.0000    145.1873
  1068.5000   2000.0000   2000.0000 100000.0000    142.8859
  1068.7500   2000.0000   2000.0000 100000.0000    140.6320
  1069.0000   2000.0000   2000.0000 100000.0000    137.5351
  1069.2500   2000.0000   2000.0000 100000.0000    135.9933
  1069.5000   2000.0000   2000.0000 100000.0000    134.5166
  1069.7500   2000.0000   2000.0000 100000.0000    134.1322
  1070.0000   2000.0000   2000.0000 100000.0000    134.7101
  1070.2500   2000.0000   2000.0000 100000.0000    135.9710
  1070.5000   2000.0000   2000.0000 100000.0000    138.9744
  1070.7500   2000.0000   2000.0000 100000.0000    141.2881
  1071.0000   2000.0000   2000.0000 100000.0000    144.0908
  1071.2500   2000.0000   2000.0000 100000.0000    144.9371
  1071.5000   2000.0000   2000.0000 100000.0000    144.4174
  1071.7500   2000.0000   2000.0000     19.3216    143.1103
  1072.0000   2000.0000   2000.0000      8.8219    140.2365
  1072.2500   2000.0000   2000.0000      5.9353    138.0011
  1072.5000   2000.0000   2000.0000      4.6548    134.7238
  1072.7500   2000.0000   2000.0000      3.9490    132.7289
  1073.0000   2000.0000   2000.0000      3.5011    129.0452
  1073.2500   2000.0000   2000.0000      3.1910    124.7332
  1073.5000   2000.0000   2000.0000      2.9719    113.2705
  1073.7500   2000.0000   2000.0000      2.8278    102.5120
  1074.0000   2000.0000   2000.0000      2.7536     85.6679
  1074.2500   2000.0000   2000.0000      2.7486     77.4222
  1074.5000   2000.0000   2000.0000      2.8140     74.3702
  1074.7500   2000.0000   2000.0000      2.9542     79.6286
  1075.0000   2000.0000   2000.0000      3.1785     96.8510
  1075.2500   2000.0000   2000.0000      3.5008    111.9356
  1075.5000   2000.0000   2000.0000      3.9350    134.1209
  1075.7500   2000.0000   2000.0000      4.4862    145.6379
  1076.0000   2000.0000   2000.0000      5.1363    155.5115
  1076.2500   2000.0000   2000.0000      5.8359    157.4016
  1076.5000   2000.0000   2000.0000      6.5145    155.4979
  1076.7500   2000.0000   2000.0000      7.1122    152.7897
  1077.0000   2000.0000   2000.0000      7.6050    149.1168
  1077.2500   2000.0000   2000.0000      7.9998    147.7892
  1077.5000   2000.0000   2000.0000      8.3121    147.5254
  1077.7500   2000.0000   2000.0000      8.5543    147.7515
  1078.0000   2000.0000   2000.0000      8.7401    146.6734
  1078.2500   2000.0000   2000.0000      8.8920    143.9618
  1078.5000   2000.0000   2000.0000      9.0414    136.2950
  1078.7500   2000.0000   2000.0000      9.2217    129.1859
  1079.0000   2000.0000   2000.0000      9.4597    117.0187
  1079.2500   2000.0000   2000.0000      9.7702    109.1077
  1079.5000   2000.0000   2000.0000     10.1533     99.9295
  1079.7500   2000.0000   2000.0000     10.5969     96.6157
  1080.0000   2000.0000   2000.0000     11.0812     95.7593
  1080.2500   2000.0000   2000.0000     11.5832     96.8816
  1080.5000   2000.0000   2000.0000     12.0795     98.9247
  1080.7500   2000.0000   2000.0000     12.5458     99.6529
  1081.0000   2000.0000   2000.0000     12.9572     99.2752
  1081.2500   2000.0000   2000.0000     13.2892     98.2518
  1081.5000   2000.0000   2000.0000     13.5207     96.6884
  1081.7500   2000.0000   2000.0000     13.6437     96.5779
  1082.0000   2000.0000   2000.0000     13.6722     99.1812
  1082.2500   2000.0000   2000.0000     13.6419    103.0491
  1082.5000   2000.0000   2000.0000     13.5973    111.5040
  1082.7500   2000.0000   2000.0000     13.5733    118.0306
  1083.0000   2000.0000   2000.0000     13.5879    126.9525
  1083.2500   2000.0000   2000.0000     13.6452    131.1020
  1083.5000   2000.0000   2000.0000     13.7439    133.7337
  1083.7500   2000.0000   2000.0000     13.8848    133.4345
  1084.0000   2000.0000   2000.0000     14.0725    131.3358
  1084.2500   2000.0000   2000.0000     14.3138    129.6044
  1084.5000   2000.0000   2000.0000     14.6098    126.8714
  1084.7500   2000.0000   2000.0000     14.9459    124.6193
  1085.0000   2000.0000   2000.0000     15.2877    120.1030
  1085.2500   2000.0000   2000.0000     15.5882    116.5452
  1085.5000   2000.0000   2000.0000     15.8017    111.1119
  1085.7500   2000.0000   2000.0000     15.8927    107.5833
  1086.0000   2000.0000   2000.0000     15.8394    102.3996
  1086.2500   2000.0000   2000.0000     15.6373     99.1949
  1086.5000   2000.0000   2000.0000     15.3082     95.5620
  1086.7500   2000.0000   2000.0000     14.8996     94.4647
  1087.0000   2000.0000   2000.0000     14.4686     95.5120
  1087.2500   2000.0000   2000.0000     14.0606     98.2169
  1087.5000   2000.0000   2000.0000     13.6979    105.2866
  1087.7500   2000.0000   2000.0000     13.3835    111.6666
  1088.0000   2000.0000   2000.0000     13.1106    122.1887
  1088.2500   2000.0000   2000.0000     12.8707    128.4483
  1088.5000   2000.0000   2000.0000     12.6577    134.5290
  1088.7500   2000.0000   2000.0000     12.4707    135.9183
  1089.0000   2000.0000   2000.0000     12.3169    134.8437
  1089.2500   2000.0000   2000.0000     12.2123    132.8505
  1089.5000   2000.0000   2000.0000     12.1801    128.9160
  1089.7500   2000.0000   2000.0000     12.2455    126.0371
  1090.0000   2000.0000   2000.0000     12.4319    121.9912
  1090.2500   2000.0000   2000.0000     12.7559    119.5318
  1090.5000   2000.0000   2000.0000     13.2243    115.0655
  1090.7500   2000.0000   2000.0000     13.8333    110.5562
  1091.0000   2000.0000   2000.0000     14.5726    100.5495
  1091.2500   2000.0000   2000.0000     15.4318     91.9782
  1091.5000   2000.0000   2000.0000     16.4052     77.7082
  1091.7500   2000.0000   2000.0000     17.4920     68.3238
  1092.0000   2000.0000   2000.0000     18.6929     56.2415
  1092.2500   2000.0000   2000.0000     20.0064     50.3469
  1092.5000   2000.0000   2000.0000     21.4233     45.4896
  1092.7500   2000.0000   2000.0000     22.9196     45.0332
  1093.0000   2000.0000   2000.0000     24.4526     48.6058
  1093.2500   2000.0000   2000.0000     25.9627     53.7412
  1093.5000   2000.0000   2000.0000     27.3782     64.4374
  1093.7500   2000.0000   2000.0000     28.6129     72.2215
  1094.0000   2000.0000   2000.0000     29.5598     82.5486
  1094.2500   2000.0000   2000.0000     30.0967     87.8520
  1094.5000   2000.0000   2000.0000     30.1158     93.2890
  1094.7500   2000.0000   2000.0000     29.5670     95.1493
  1095.0000   2000.0000   2000.0000     28.4867     94.7908
  1095.2500   2000.0000   2000.0000     26.9890     92.3708
  1095.5000   2000.0000   2000.0000     25.2149     86.3649
  1095.7500   2000.0000   2000.0000     23.2754     81.7654
  1096.0000   2000.0000   2000.0000     21.2363     75.8241
  1096.2500   2000.0000   2000.0000     19.1525     73.4423
  1096.5000     33.1083      6.8791     17.1074     73.4367
  1096.7500     30.5442      6.9394     15.2103     76.1706
  1097.0000     27.0065      6.9397     13.5559     84.3823
  1097.2500     23.5206      6.9055     12.1890     92.2901
