~Version Information
VERS.                      2.0: CWLS Log ASCII Standard - VERSION 2.0
WRAP.                       NO: One line per depth step
~Well Information Block
STRT.FT               350.0000: 
STOP.FT               906.0000: 
STEP.FT                 0.2500: 
NULL.                -999.2500: 
COMP.          Pioneer Natural Resources: COMPANY
WELL.           Hartford 31-18: WELL
FLD.           Purgatorie River: FIELD
LOC.           375' FNL & 1660' FEL: LOCATION
PROV.                 Colorado: PROVINCE
CNTY.               Las Animas: COUNTRY
SRVC.                Patterson: SERVICE COMPANY
DATE.          Sat Nov 19 19:02:38 2005: LOG DATE
UWI.           05-071-08555               : UNIQUE WELL ID
~Curve Information Block
DEPT.FT            0 000 00 00: Depth
SN.Ohm-m                      : IEL Short Normal
SP.mV                         : IEL Spontaneous Potential
DIR.Ohm-m                     : IEL Induction Resistivity
GR.GAPI                       : Gamma Ray
~Parameter Information Block
~A  Depth        SN          SP         DIR          GR     
# ...
   551.0000   2000.0000   1880.0000     11.2584    125.9363
   551.2500   2000.0000   1880.0000     11.3214    124.7506
   551.5000   2000.0000   1880.0000     11.4110    124.8184
   551.7500   2000.0000   1880.0000     11.5170    125.1710
   552.0000   2000.0000   1880.0000     11.6289    124.4144
   552.2500   2000.0000   1880.0000     11.7380    122.6302
   552.5000   2000.0000   1880.0000     11.8393    118.4944
   552.7500   2000.0000   1880.0000     11.9299    115.4952
   553.0000   2000.0000   1880.0000     12.0049    111.9754
   553.2500   2000.0000   1880.0000     12.0544    110.6241
   553.5000   2000.0000   1880.0000     12.0630    109.6295
   553.7500   2000.0000   1880.0000     12.0141    109.1201
   554.0000   2000.0000   1880.0000     11.8978    108.0101
   554.2500   2000.0000   1880.0000     11.7164    107.0093
   554.5000   2000.0000   1880.0000     11.4845    105.3210
   554.7500   2000.0000   1880.0000     11.2222    104.1658
   555.0000   2000.0000   1880.0000     10.9478    102.5372
   555.2500   2000.0000   1880.0000     10.6734    101.8082
   555.5000   2000.0000   1880.0000     10.4066    102.1586
   555.7500   2000.0000   1880.0000     10.1523    103.8819
   556.0000   2000.0000   1880.0000      9.9135    109.0487
   556.2500   2000.0000   1880.0000      9.6909    113.9495
   556.5000   2000.0000   1880.0000      9.4832    122.1227
   556.7500   2000.0000   1880.0000      9.2890    126.9014
   557.0000   2000.0000   1880.0000      9.1090    131.2454
   557.2500   2000.0000   1880.0000      8.9479    132.0003
   557.5000   2000.0000   1880.0000      8.8132    130.9999
   557.7500   2000.0000   1880.0000      8.7140    129.8958
   558.0000   2000.0000   1880.0000      8.6590    128.8745
   558.2500   2000.0000   1880.0000      8.6547    128.8824
   558.5000   2000.0000   1880.0000      8.7043    129.5060
   558.7500   2000.0000   1880.0000      8.8056    129.8318
   559.0000   2000.0000   1880.0000      8.9500    129.6277
   559.2500   2000.0000   1880.0000      9.1218    129.0081
   559.5000   2000.0000   1880.0000      9.3002    127.5169
   559.7500   2000.0000   1880.0000      9.4640    126.2633
   560.0000   2000.0000   1880.0000      9.5970    124.3338
   560.2500   2000.0000   1880.0000      9.6919    123.2322
   560.5000   2000.0000   1880.0000      9.7503    122.0847
   560.7500   2000.0000   1880.0000      9.7807    121.8384
   561.0000   2000.0000   1880.0000      9.7934    122.8664
   561.2500   2000.0000   1880.0000      9.7970    124.7258
   561.5000   2000.0000   1880.0000      9.7949    128.6457
   561.7500   2000.0000   1880.0000      9.7865    131.0249
   562.0000   2000.0000   1880.0000      9.7695    132.4358
   562.2500   2000.0000   1880.0000      9.7425    131.4270
   562.5000   2000.0000   1880.0000      9.7053    127.4454
   562.7500   2000.0000   1880.0000      9.6567    123.8722
   563.0000   2000.0000   1880.0000      9.5940    118.3203
   563.2500   2000.0000   1880.0000      9.5146    114.9910
   563.5000   2000.0000   1880.0000      9.4196    111.1674
   563.7500   2000.0000   1880.0000      9.3154    109.6364
   564.0000   2000.0000   1880.0000      9.2121    109.1186
   564.2500   2000.0000   1880.0000      9.1198    110.0592
   564.5000   2000.0000   1880.0000      9.0455    113.2711
   564.7500   2000.0000   1880.0000      8.9922    116.1644
   565.0000   2000.0000   1880.0000      8.9602    120.4061
   565.2500   2000.0000   1880.0000      8.9490    122.6781
   565.5000   2000.0000   1880.0000      8.9598    125.4784
   565.7500   2000.0000   1880.0000      8.9954    127.4681
   566.0000   2000.0000   1880.0000      9.0612    131.1629
   566.2500   2000.0000   1880.0000      9.1627    133.7669
   566.5000   2000.0000   1880.0000      9.3026    136.4155
   566.7500   2000.0000   1880.0000      9.4764    136.5672
   567.0000   2000.0000   1880.0000      9.6701    134.5056
   567.2500   2000.0000   1880.0000      9.8608    132.6331
   567.5000   2000.0000   1880.0000     10.0249    131.0476
   567.7500   2000.0000   1880.0000     10.1486    131.1085
   568.0000   2000.0000   1880.0000     10.2335    131.6910
   568.2500   2000.0000   1880.0000     10.2931    131.4969
   568.5000   2000.0000   1880.0000     10.3429    129.7938
   568.7500   2000.0000   1880.0000     10.3921    127.9722
   569.0000   2000.0000   1880.0000     10.4411    124.8133
   569.2500   2000.0000   1880.0000     10.4853    122.7676
   569.5000   2000.0000   1880.0000     10.5200    120.6543
   569.7500   2000.0000   1880.0000     10.5449    120.4042
   570.0000   2000.0000   1880.0000     10.5651    121.9345
   570.2500   2000.0000   1880.0000     10.5889    123.7291
   570.5000   2000.0000   1880.0000     10.6236    126.1837
   570.7500   2000.0000   1880.0000     10.6723    126.9795
   571.0000   2000.0000   1880.0000     10.7343    126.5782
   571.2500   2000.0000   1880.0000     10.8066    125.5305
   571.5000   2000.0000   1880.0000     10.8865    123.6012
   571.7500   2000.0000   1880.0000     10.9722    122.5050
   572.0000   2000.0000   1880.0000     11.0611    121.6448
   572.2500   2000.0000   1880.0000     11.1494    121.7546
   572.5000   2000.0000   1880.0000     11.2328    123.1619
   572.7500   2000.0000   1880.0000     11.3090    125.1055
   573.0000   2000.0000   1880.0000     11.3800    129.3284
   573.2500   2000.0000   1880.0000     11.4526    131.9310
   573.5000   2000.0000   1880.0000     11.5369    132.1502
   573.7500   2000.0000   1880.0000     11.6431    128.4235
   574.0000   2000.0000   1880.0000     11.7785    117.9627
   574.2500   2000.0000   1880.0000     11.9451    109.8036
   574.5000   2000.0000   1880.0000     12.1409     98.9721
   574.7500   2000.0000   1880.0000     12.3618     93.4140
   575.0000   2000.0000   1880.0000     12.6038     87.4209
   575.2500   2000.0000   1880.0000     12.8643     84.7637
   575.5000   2000.0000   1880.0000     13.1423     82.6222
   575.7500   2000.0000   1880.0000     13.4397     82.2931
   576.0000   2000.0000   1880.0000     13.7630     85.8127
   576.2500   2000.0000   1880.0000     14.1242     86.8095
   576.5000     16.3563     97.3222     14.5389     89.1183
   576.7500     16.7449     97.7104     15.0233     91.2296
   577.0000     17.2830     98.0884     15.5899    102.4187
   577.2500     18.0304     98.4639     16.2454    103.8337
   577.5000     19.0312     98.8126     16.9899    102.3852
   577.7500     20.3676     99.0936     17.8167     98.4446
   578.0000     22.1285     99.2701     18.7103     95.9051
   578.2500     24.2407     99.3280     19.6440     88.1842
   578.5000     26.3116     99.2758     20.5792     77.4055
   578.7500     27.7066     99.1283     21.4730     71.2150
   579.0000     28.0105     98.8958     22.2912     63.2066
   579.2500     27.5904     98.5893     23.0171     58.5868
   579.5000     27.3979     98.2296     23.6474     52.6687
   579.7500     27.9294     97.8456     24.1813     49.2405
   580.0000     28.7573     97.4657     24.6135     44.7303
   580.2500     29.2335     97.1118     24.9369     42.5079
   580.5000     29.1796     96.8010     25.1492     41.4206
   580.7500     28.8094     96.5515     25.2572     42.4337
   581.0000     28.3628     96.3917     25.2766     45.8527
   581.2500     27.9724     96.3624     25.2302     48.6853
   581.5000     27.7339     96.5075     25.1455     52.6109
   581.7500     27.6864     96.8502     25.0533     54.4579
   582.0000     27.7337     97.3672     24.9819     55.7320
   582.2500     27.8001     97.9807     24.9525     55.9568
   582.5000     27.9826     98.5789     24.9761     56.3107
   582.7500     28.3496     99.0539     25.0530     56.6710
   583.0000     28.8082     99.3371     25.1746     56.9044
   583.2500     29.3408     99.4143     25.3261     56.7422
   583.5000     30.0472     99.3192     25.4899     56.4713
   583.7500     30.8828     99.1111     25.6488     56.5529
   584.0000     31.6401     98.8511     25.7873     57.0735
   584.2500     32.0972     98.5835     25.8929     57.5263
