~Version Information
VERS.                      2.0: CWLS Log ASCII Standard - VERSION 2.0
WRAP.                       NO: One line per depth step
~Well Information Block
STRT.FT                 0.0000: 
STOP.FT               787.2500: 
STEP.FT                 0.2500: 
NULL.                -999.2500: 
COMP.          Pioneer Natural Resources: COMPANY
WELL.             Veedol 34-28: WELL
FLD.           Purgatorie River: FIELD
LOC.           357' FSL & 2520' FEL: LOCATION
PROV.                 Colorado: PROVINCE
CNTY.               Las Animas: COUNTRY
SRVC.                Patterson: SERVICE COMPANY
DATE.          Wed Dec 28 10:10:37 2005: LOG DATE
UWI.                          : UNIQUE WELL ID
~Curve Information Block
DEPT.FT            0 000 00 00: Depth
CCL.                          : Casing Collar Locator
TT3.usec                      : CBL 3' Travel Time
AMP3.mV                       : CBL 3' Amplitude
GR.GAPI                       : Gamma Ray
~Parameter Information Block
~A  Depth       CCL         TT3         AMP3         GR     
# ...
   335.0000      0.0000    625.9379      9.8092     74.7444
   335.2500      0.0000    608.9482     10.1537     75.4307
   335.5000      0.0000    618.6621     10.5058     75.7500
   335.7500      2.0000    636.1359     10.7088     75.3107
   336.0000      0.0000    629.5977     10.7336     74.3443
   336.2500      0.0000    588.6178     10.6062     73.5013
   336.5000      0.0000    537.7661     10.4302     73.4625
   336.7500      0.0000    513.8995     10.5931     74.5600
   337.0000      0.0000    525.9631     11.5303     76.4767
   337.2500      0.0000    564.2012     12.8750     78.2171
   337.5000      0.0000    620.5350     13.7582     78.6817
   337.7500      0.0000    675.3431     14.0474     77.4808
   338.0000      0.0000    708.4693     14.1008     75.1004
   338.2500      0.0000    720.7313     13.9991     72.3790
   338.5000      0.0000    723.4500     13.7171     70.0160
   338.7500      0.0000    723.6993     13.3347     68.4909
   339.0000      0.0000    723.6070     12.9285     68.0506
   339.2500      0.0000    723.5349     12.5500     68.4892
   339.5000      0.0000    723.5051     12.2690     69.1310
   339.7500      0.0000    723.4700     12.1290     69.2844
   340.0000      0.0000    723.3953     12.0954     68.6543
   340.2500      0.0000    723.2861     12.0870     67.3354
   340.5000      0.0000    723.1730     12.0324     65.6592
   340.7500      0.0000    723.0825     11.9091     64.0415
   341.0000      0.0000    723.0150     11.7518     62.8357
   341.2500      0.0000    722.9619     11.6318     62.4257
   341.5000      0.0000    722.9616     11.6135     63.3354
   341.7500      0.0000    723.0823     11.6891     65.7332
   342.0000      0.0000    723.2961     11.7750     68.7688
   342.2500      0.0000    723.4514     11.8058     70.8764
   342.5000      0.0000    723.4583     11.7886     70.8613
   342.7500      0.0000    723.4096     11.7623     68.6446
   343.0000      0.0000    723.4099     11.7537     65.2318
   343.2500      0.0000    723.4320     11.7616     62.0348
   343.5000      0.0000    723.4335     11.7668     59.9016
   343.7500      0.0000    723.4247     11.7605     58.7901
   344.0000      0.0000    723.3663     11.7394     58.4268
   344.2500      0.0000    723.2022     11.6934     58.7895
   344.5000      0.0000    723.0023     11.6351     59.6765
   344.7500      0.0000    722.8971     11.5987     60.1809
   345.0000      0.0000    722.9254     11.5956     58.9836
   345.2500      0.0000    723.0380     11.6007     55.3909
   345.5000      0.0000    723.1879     11.5736     50.1090
   345.7500      0.0000    723.3554     11.4912     44.8415
   346.0000      0.0000    723.4810     11.3629     40.9914
   346.2500      0.0000    723.4774     11.2121     38.7905
   346.5000      0.0000    723.3446     11.0696     37.6314
   346.7500      0.0000    723.1776     10.9718     36.9987
   347.0000      0.0000    723.0636     10.9195     36.8719
   347.2500      0.0000    723.0081     10.8687     37.2790
   347.5000      0.0000    722.7904     10.7899     37.7321
   347.7500      0.0000    721.6875     10.6905     37.4192
   348.0000      0.0000    718.7164     10.5853     36.0758
   348.2500      0.0000    714.4760     10.4840     34.4811
   348.5000      0.0000    712.2766     10.4030     33.8117
   348.7500      0.0000    714.3686     10.3612     34.5242
   349.0000      0.0000    718.4504     10.3531     36.0773
   349.2500      0.0000    721.0048     10.3482     37.7552
   349.5000      0.0000    720.5565     10.3269     39.5321
   349.7500      0.0000    716.2138     10.2845     42.0368
   350.0000      0.0000    707.5962     10.2245     45.6922
   350.2500      0.0000    697.9456     10.1815     49.8943
   350.5000      0.0000    693.6693     10.2161     53.1021
   350.7500      0.0000    698.0197     10.3483     54.0001
   351.0000      0.0000    706.7816     10.5182     52.7332
   351.2500      0.0000    712.2411     10.6440     50.7574
   351.5000      0.0000    711.2161     10.6992     49.3157
   351.7500      0.0000    707.2739     10.7091     48.3255
   352.0000      0.0000    705.3556     10.7012     46.8677
   352.2500      0.0000    707.5305     10.6951     44.4451
   352.5000      0.0000    712.9526     10.7121     41.5785
   352.7500      0.0000    718.5970     10.7597     39.3235
   353.0000      0.0000    721.9012     10.8198     38.2849
   353.2500      0.0000    722.9129     10.8647     38.1026
   353.5000      0.0000    722.8984     10.8782     37.8929
   353.7500      0.0000    722.6469     10.8511     37.2043
   354.0000      0.0000    722.3668     10.7718     36.5244
   354.2500      0.0000    721.9023     10.6470     36.7951
   354.5000      0.0000    720.4150     10.5255     38.3818
   354.7500      0.0000    716.0992     10.4676     40.5702
   355.0000      0.0000    707.6797     10.4794     42.1071
   355.2500      0.0000    697.0626     10.5047     42.1976
   355.5000      0.0000    688.3764     10.4940     41.0742
   355.7500      0.0000    683.6554     10.4534     39.7804
   356.0000      0.0000    681.8483     10.4177     39.4053
   356.2500      0.0000    681.5135     10.4040     40.4661
   356.5000      0.0000    682.7286     10.4065     43.0771
   356.7500      0.0000    687.1340     10.4209     47.4775
   357.0000      0.0000    695.9489     10.4531     53.7991
   357.2500      0.0000    707.0441     10.5082     61.2593
   357.5000      0.0000    715.9725     10.5816     68.1544
   357.7500      0.0000    720.6069     10.6607     72.9384
   358.0000      0.0000    722.2162     10.7356     75.0384
   358.2500      0.0000    722.6601     10.8021     74.7082
   358.5000      0.0000    722.7818     10.8665     72.7678
   358.7500      0.0000    722.7368     10.9433     70.6474
   359.0000      0.0000    722.3829     11.0320     69.9438
   359.2500      0.0000    721.1195     11.1075     71.2945
   359.5000      0.0000    718.0770     11.1517     73.8334
   359.7500      0.0000    713.9296     11.1666     76.0706
   360.0000      0.0000    711.9995     11.1561     77.1156
   360.2500      0.0000    714.4730     11.1263     76.8809
   360.5000      0.0000    718.9622     11.1007     75.6386
   360.7500      0.0000    722.0756     11.1128     73.9219
   361.0000      0.0000    723.1987     11.1718     72.4938
   361.2500      0.0000    723.0500     11.2499     71.8587
   361.5000      0.0000    720.4052     11.3205     71.7952
   361.7500      0.0000    707.9953     11.3870     71.5145
   362.0000      0.0000    670.4458     11.4655     70.2219
   362.2500      0.0000    597.3926     11.5682     67.6590
   362.5000      0.0000    506.2045     11.7005     64.3797
   362.7500      0.0000    433.2020     11.8622     61.5025
   363.0000      0.0000    395.7097     12.0534     59.9484
   363.2500      0.0000    383.2854     12.2598     59.6914
   363.5000      0.0000    380.4426     12.4371     59.7687
   363.7500      0.0000    379.7297     12.5499     59.2008
   364.0000      0.0000    379.3973     12.6121     57.9587
   364.2500      0.0000    379.2838     12.6591     56.8784
   364.5000      0.0000    379.2513     12.7046     56.6227
   364.7500      0.0000    379.1216     12.7353     56.9622
   365.0000      0.0000    379.1167     12.7279     57.2062
   365.2500      0.0000    381.1542     12.6737     57.2314
   365.5000      0.0000    392.1367     12.5886     57.7722
   365.7500      0.0000    424.6603     12.5060     59.4843
   366.0000      0.0000    481.2273     12.4557     61.9861
   366.2500      0.0000    531.1772     12.4405     64.3298
   366.5000      0.0000    531.1563     12.4481     66.2038
   366.7500      0.0000    481.3522     12.4695     68.0154
   367.0000      0.0000    425.1963     12.4921     69.8145
   367.2500      0.0000    393.0289     12.5061     70.7326
   367.5000      0.0000    382.1362     12.5092     69.7106
   367.7500      0.0000    380.1315     12.4945     66.6029
   368.0000      0.0000    380.6805     12.4641     62.3667
   368.2500      0.0000    383.5442     12.4466     58.1595
