~Version Information
VERS.                      2.0: CWLS Log ASCII Standard - VERSION 2.0
WRAP.                       NO: One line per depth step
~Well Information Block
STRT.FT                -6.2500: 
STOP.FT              2245.0000: 
STEP.FT                 0.0500: 
NULL.                -999.2500: 
COMP.          Pioneer Natural Resources: COMPANY
WELL.          Roadster 41-33 Kv: WELL
FLD.           Purgatoire River: FIELD
LOC.           903' FNL & 248' FEL--: LOCATION
PROV.                 Colorado: PROVINCE
CNTY.               Las Animas: COUNTRY
SRVC.                Patterson: SERVICE COMPANY
DATE.          Tue Jan 17 11:20:00 2006: LOG DATE
UWI.           05 071 08615 00: UNIQUE WELL ID
~Curve Information Block
DEPT.FT            0 000 00 00: Depth
CCL.                          : Casing Collar Locator
TT3.usec                      : CBL 3' Travel Time
AMP3.mV                       : CBL 3' Amplitude
GR.GAPI                       : Gamma Ray
~Parameter Information Block
~A  Depth       CCL         TT3         AMP3         GR     
# ...
  2231.5500      0.0000    712.1935      4.6856   -999.2500
  2231.6000      0.0000    712.1935      4.6856   -999.2500
  2231.6500      0.0000    712.1935      4.6856   -999.2500
  2231.7000      0.0000    712.1935      4.6856   -999.2500
  2231.7500      0.0000    715.6772      4.8166   -999.2500
  2231.8000      0.0000    715.6772      4.8166   -999.2500
  2231.8500      0.0000    715.6772      4.8166   -999.2500
  2231.9000      0.0000    715.6772      4.8166   -999.2500
  2231.9500      0.0000    715.6772      4.8166   -999.2500
  2232.0000      0.0000    718.1570      4.9267   -999.2500
  2232.0500      0.0000    718.1570      4.9267   -999.2500
  2232.1000      0.0000    718.1570      4.9267   -999.2500
  2232.1500      0.0000    718.1570      4.9267   -999.2500
  2232.2000      0.0000    718.1570      4.9267   -999.2500
  2232.2500      0.0000    717.2845      4.9684   -999.2500
  2232.3000      0.0000    717.2845      4.9684   -999.2500
  2232.3500      0.0000    717.2845      4.9684   -999.2500
  2232.4000      0.0000    717.2845      4.9684   -999.2500
  2232.4500      0.0000    717.2845      4.9684   -999.2500
  2232.5000      0.0000    712.3612      4.9599   -999.2500
  2232.5500      0.0000    712.3612      4.9599   -999.2500
  2232.6000      0.0000    712.3612      4.9599   -999.2500
  2232.6500      0.0000    712.3612      4.9599   -999.2500
  2232.7000      0.0000    712.3612      4.9599   -999.2500
  2232.7500      0.0000    704.6364      4.9775   -999.2500
  2232.8000      0.0000    704.6364      4.9775   -999.2500
  2232.8500      0.0000    704.6364      4.9775   -999.2500
  2232.9000      0.0000    704.6364      4.9775   -999.2500
  2232.9500      0.0000    704.6364      4.9775   -999.2500
  2233.0000      0.0000    696.1346      5.0856   -999.2500
  2233.0500      0.0000    696.1346      5.0856   -999.2500
  2233.1000      0.0000    696.1346      5.0856   -999.2500
  2233.1500      0.0000    696.1346      5.0856   -999.2500
  2233.2000      0.0000    696.1346      5.0856   -999.2500
  2233.2500      0.0000    688.1407      5.2676   -999.2500
  2233.3000      0.0000    688.1407      5.2676   -999.2500
  2233.3500      0.0000    688.1407      5.2676   -999.2500
  2233.4000      0.0000    688.1407      5.2676   -999.2500
  2233.4500      0.0000    688.1407      5.2676   -999.2500
  2233.5000      0.0000    679.5157      5.4265   -999.2500
  2233.5500      0.0000    679.5157      5.4265   -999.2500
  2233.6000      0.0000    679.5157      5.4265   -999.2500
  2233.6500      0.0000    679.5157      5.4265   -999.2500
  2233.7000      0.0000    679.5157      5.4265   -999.2500
  2233.7500      0.0000    663.5034      5.4412   -999.2500
  2233.8000      0.0000    663.5034      5.4412   -999.2500
  2233.8500      0.0000    663.5034      5.4412   -999.2500
  2233.9000      0.0000    663.5034      5.4412   -999.2500
  2233.9500      0.0000    663.5034      5.4412   -999.2500
  2234.0000      0.0000    625.3151      5.2111   -999.2500
  2234.0500      0.0000    625.3151      5.2111   -999.2500
  2234.1000      0.0000    625.3151      5.2111   -999.2500
  2234.1500      0.0000    625.3151      5.2111   -999.2500
  2234.2000      0.0000    625.3151      5.2111   -999.2500
  2234.2500      0.0000    548.1110      4.6782   -999.2500
  2234.3000      0.0000    548.1110      4.6782   -999.2500
  2234.3500      0.0000    548.1110      4.6782   -999.2500
  2234.4000      0.0000    548.1110      4.6782   -999.2500
  2234.4500      0.0000    548.1110      4.6782   -999.2500
  2234.5000      0.0000    428.8335      3.8692   -999.2500
  2234.5500      0.0000    428.8335      3.8692   -999.2500
  2234.6000      0.0000    428.8335      3.8692   -999.2500
  2234.6500      0.0000    428.8335      3.8692   -999.2500
  2234.7000      0.0000    428.8335      3.8692   -999.2500
  2234.7500      0.0000    288.7616      2.9347   -999.2500
  2234.8000      0.0000    288.7616      2.9347   -999.2500
  2234.8500      0.0000    288.7616      2.9347   -999.2500
  2234.9000      0.0000    288.7616      2.9347   -999.2500
  2234.9500      0.0000    288.7616      2.9347   -999.2500
  2235.0000      0.0000    162.7065      2.0958   -999.2500
  2235.0500      0.0000    162.7065      2.0958   -999.2500
  2235.1000      0.0000    162.7065      2.0958   -999.2500
  2235.1500      0.0000    162.7065      2.0958   -999.2500
  2235.2000      0.0000    162.7065      2.0958   -999.2500
  2235.2500      0.0000     75.1741      1.5098   -999.2500
  2235.3000      0.0000     75.1741      1.5098   -999.2500
  2235.3500      0.0000     75.1741      1.5098   -999.2500
  2235.4000      0.0000     75.1741      1.5098   -999.2500
  2235.4500      0.0000     75.1741      1.5098   -999.2500
  2235.5000      0.0000     28.0737      1.1918   -999.2500
  2235.5500      0.0000     28.0737      1.1918   -999.2500
  2235.6000      0.0000     28.0737      1.1918   -999.2500
  2235.6500      0.0000     28.0737      1.1918   -999.2500
  2235.7000      0.0000     28.0737      1.1918   -999.2500
  2235.7500      0.0000      8.3870      1.0577   -999.2500
  2235.8000      0.0000      8.3870      1.0577   -999.2500
  2235.8500      0.0000      8.3870      1.0577   -999.2500
  2235.9000      0.0000      8.3870      1.0577   -999.2500
  2235.9500      0.0000      8.3870      1.0577   -999.2500
  2236.0000      0.0000      1.9880      1.0137   -999.2500
  2236.0500      0.0000      1.9880      1.0137   -999.2500
  2236.1000      0.0000      1.9880      1.0137   -999.2500
  2236.1500      0.0000      1.9880      1.0137   -999.2500
  2236.2000      0.0000      1.9880      1.0137   -999.2500
  2236.2500      0.0000      0.3680      1.0026   -999.2500
  2236.3000      0.0000      0.3680      1.0026   -999.2500
  2236.3500      0.0000      0.3680      1.0026   -999.2500
  2236.4000      0.0000      0.3680      1.0026   -999.2500
  2236.4500      0.0000      0.3680      1.0026   -999.2500
  2236.5000      0.0000      0.0489      1.0003   -999.2500
  2236.5500      0.0000      0.0489      1.0003   -999.2500
  2236.6000      0.0000      0.0489      1.0003   -999.2500
  2236.6500      0.0000      0.0489      1.0003   -999.2500
  2236.7000      0.0000      0.0489      1.0003   -999.2500
  2236.7500      0.0000   -999.2500   -999.2500   -999.2500
  2236.8000      0.0000   -999.2500   -999.2500   -999.2500
  2236.8500      0.0000   -999.2500   -999.2500   -999.2500
  2236.9000      0.0000   -999.2500   -999.2500   -999.2500
  2236.9500      0.0000   -999.2500   -999.2500   -999.2500
  2237.0000      0.0000   -999.2500   -999.2500   -999.2500
  2237.0500      0.0000   -999.2500   -999.2500   -999.2500
  2237.1000      0.0000   -999.2500   -999.2500   -999.2500
  2237.1500      0.0000   -999.2500   -999.2500   -999.2500
  2237.2000      0.0000   -999.2500   -999.2500   -999.2500
  2237.2500      0.0000   -999.2500   -999.2500   -999.2500
  2237.3000      0.0000   -999.2500   -999.2500   -999.2500
  2237.3500      0.0000   -999.2500   -999.2500   -999.2500
  2237.4000      0.0000   -999.2500   -999.2500   -999.2500
  2237.4500      0.0000   -999.2500   -999.2500   -999.2500
  2237.5000      0.0000   -999.2500   -999.2500   -999.2500
  2237.5500      0.0000   -999.2500   -999.2500   -999.2500
  2237.6000      0.0000   -999.2500   -999.2500   -999.2500
  2237.6500      0.0000   -999.2500   -999.2500   -999.2500
  2237.7000      0.0000   -999.2500   -999.2500   -999.2500
  2237.7500      0.0000   -999.2500   -999.2500   -999.2500
  2237.8000      0.0000   -999.2500   -999.2500   -999.2500
  2237.8500      0.0000   -999.2500   -999.2500   -999.2500
  2237.9000      0.0000   -999.2500   -999.2500   -999.2500
  2237.9500      0.0000   -999.2500   -999.2500   -999.2500
  2238.0000      0.0000   -999.2500   -999.2500   -999.2500
  2238.0500      0.0000   -999.2500   -999.2500   -999.2500
  2238.1000      0.0000   -999.2500   -999.2500   -999.2500
  2238.1500      0.0000   -999.2500   -999.2500   -999.2500
  2238.2000      0.0000   -999.2500   -999.2500   -999.2500
