~Version Information
VERS.                      2.0: CWLS Log ASCII Standard - VERSION 2.0
WRAP.                       NO: One line per depth step
~Well Information Block
STRT.FT               655.0000: 
STOP.FT              2623.7000: 
STEP.FT                 0.1000: 
NULL.                -999.2500: 
COMP.          Pioneer Natural Resources: COMPANY
WELL.             Aviator 12-4: WELL
FLD.           Purgatoire River: FIELD
LOC.           1969' FNL & 732' FWL--: LOCATION
CNTY.               Las Animas: COUNTY
SRVC.                Patterson: SERVICE COMPANY
DATE.          Mon Apr 10 07:35:20 2006: LOG DATE
UWI.           05 071 08714 00: UNIQUE WELL ID
STAT.                 Colorado: STATE
~Curve Information Block
DEPT.FT            0 000 00 00: Depth
DCAL.in                       : CDL Caliper
RHOB.g/cc                     : CDL Bulk Density
RHOC.g/cc                     : CDL Density Correction
DPOR.pu                       : CDL Density Porosity
NPOR.pu                       : Neutron Porosity
GR.GAPI                       : Gamma Ray
~Parameter Information Block
~A  Depth       DCAL        RHOB        RHOC        DPOR        NPOR         GR     
# ...
  1173.4000      8.1034      2.7151      0.1046     -3.9465     28.6639    113.5700
  1173.5000      8.1060      2.7602      0.1955     -6.6790     28.3956    113.2770
  1173.6000      8.1060      2.7866      0.1722     -8.2807     28.5368    115.1028
  1173.7000      8.1060      2.7827      0.1509     -8.0419     29.0784    121.3493
  1173.8000      8.1066      2.7570      0.0972     -6.4862     29.3082    127.8316
  1173.9000      8.1066      2.7357      0.0274     -5.1954     28.7601    132.8688
  1174.0000      8.1052      2.7356      0.0576     -5.1901     28.0014    135.7099
  1174.1000      8.1052      2.7435      0.0633     -5.6691     27.7606    133.0876
  1174.2000      8.1052      2.7318      0.0728     -4.9549     28.2947    127.6693
  1174.3000      8.1052      2.6868      0.0505     -2.2289     29.2046    124.6331
  1174.4000      8.1052      2.6358     -0.0089      0.8634     29.6268    122.4639
  1174.5000      8.1074      2.6161      0.0735      2.0543     29.6092    122.0546
  1174.6000      8.1074      2.6274      0.0241      1.3726     29.3935    125.7534
  1174.7000      8.1074      2.6467      0.0669      0.2007     28.7920    130.4880
  1174.8000      8.1100      2.6517      0.0781     -0.1001     28.1239    131.2731
  1174.9000      8.1100      2.6418      0.0376      0.4988     27.8303    126.9513
  1175.0000      8.1094      2.6345      0.0510      0.9394     27.9770    125.3865
  1175.1000      8.1094      2.6239      0.0995      1.5794     28.3696    133.2849
  1175.2000      8.1094      2.5971      0.0317      3.2065     28.6327    143.0132
  1175.3000      8.1049      2.5693     -0.0190      4.8905     28.4498    143.6634
  1175.4000      8.1049      2.5605      0.0204      5.4256     28.0282    137.1542
  1175.5000      8.0972      2.5714      0.0231      4.7638     27.6527    130.6433
  1175.6000      8.0972      2.5970      0.0073      3.2124     27.1170    125.5775
  1175.7000      8.0972      2.6305      0.0496      1.1807     26.2557    124.0165
  1175.8000      8.0873      2.6599      0.0738     -0.6028     25.3635    126.1535
  1175.9000      8.0873      2.6802      0.1040     -1.8325     25.0119    125.8492
  1176.0000      8.0821      2.6949      0.1311     -2.7222     25.4135    121.1191
  1176.1000      8.0821      2.7078      0.0959     -3.5060     25.8737    118.0539
  1176.2000      8.0821      2.7161      0.0712     -4.0087     25.7389    121.2847
  1176.3000      8.0845      2.7118      0.0486     -3.7456     25.1069    126.0396
  1176.4000      8.0845      2.6906      0.1091     -2.4583     24.7617    124.2629
  1176.5000      8.0925      2.6591      0.0087     -0.5509     25.1710    117.8654
  1176.6000      8.0925      2.6456     -0.0609      0.2657     25.6396    114.2618
  1176.7000      8.0925      2.6638      0.0557     -0.8360     25.4506    113.8604
  1176.8000      8.1014      2.6812      0.0901     -1.8906     24.9905    114.2334
  1176.9000      8.1014      2.6693      0.0706     -1.1703     24.9572    118.2395
  1177.0000      8.1050      2.6435      0.0305      0.3950     25.8271    128.7021
  1177.1000      8.1050      2.6307     -0.0230      1.1668     27.2484    140.5541
  1177.2000      8.1050      2.6313      0.0640      1.1353     27.9607    145.6904
  1177.3000      8.1044      2.6250      0.0567      1.5159     27.7457    140.9213
  1177.4000      8.1044      2.6104      0.0096      2.3986     27.4851    127.9406
  1177.5000      8.1045      2.6052      0.0382      2.7172     27.3118    117.4301
  1177.6000      8.1045      2.6160      0.0028      2.0607     26.9855    121.2668
  1177.7000      8.1045      2.6364      0.0201      0.8272     26.6816    132.3138
  1177.8000      8.1058      2.6482      0.0829      0.1103     26.6304    137.6080
  1177.9000      8.1058      2.6390      0.0323      0.6683     27.0597    139.7457
  1178.0000      8.1053      2.6153      0.0223      2.1049     27.9140    145.0435
  1178.1000      8.1053      2.5875      0.0297      3.7872     28.8871    150.2881
  1178.2000      8.1053      2.5593      0.0079      5.4979     29.6495    152.6263
  1178.3000      8.1039      2.5296     -0.0049      7.2964     29.8312    153.6564
  1178.4000      8.1039      2.4961      0.0088      9.3293     29.8104    150.7873
  1178.5000      8.1022      2.4643     -0.0429     11.2533     30.1826    141.8089
  1178.6000      8.1022      2.4489     -0.0304     12.1897     30.5670    133.5120
  1178.7000      8.1022      2.4451      0.0247     12.4157     30.5265    131.3940
  1178.8000      8.1026      2.4329      0.0293     13.1596     30.4535    131.2578
  1178.9000      8.1026      2.4057      0.0165     14.8076     30.6555    131.0358
  1179.0000      8.1044      2.3689      0.0361     17.0350     30.7515    136.5937
  1179.1000      8.1044      2.3330      0.0027     19.2129     30.5231    149.4323
  1179.2000      8.1044      2.3158     -0.0071     20.2538     30.6584    160.0061
  1179.3000      8.1061      2.3306      0.0303     19.3601     31.0870    161.1069
  1179.4000      8.1061      2.3734      0.0916     16.7658     30.7448    154.4585
  1179.5000      8.1064      2.4237      0.1422     13.7181     29.7887    146.0175
  1179.6000      8.1064      2.4665      0.1118     11.1232     29.3311    141.2660
  1179.7000      8.1064      2.5000      0.1547      9.0909     29.5745    139.6850
  1179.8000      8.1069      2.5250      0.1445      7.5787     29.5856    140.4714
  1179.9000      8.1069      2.5472      0.1143      6.2323     28.9319    145.2320
  1180.0000      8.1111      2.5631      0.1224      5.2643     28.3133    150.0062
  1180.1000      8.1111      2.5610      0.0790      5.3941     28.2449    149.6466
  1180.2000      8.1111      2.5454      0.0886      6.3409     28.3221    145.8784
  1180.3000      8.1160      2.5289      0.0932      7.3381     27.9275    143.3272
  1180.4000      8.1160      2.5166      0.0664      8.0832     27.2707    141.5990
  1180.5000      8.1190      2.5123      0.0207      8.3456     27.1228    141.3759
  1180.6000      8.1190      2.5175      0.0703      8.0329     27.6246    147.3547
  1180.7000      8.1190      2.5205      0.0487      7.8510     27.9148    157.0785
  1180.8000      8.1215      2.5177      0.0048      8.0154     27.8102    163.9190
  1180.9000      8.1215      2.5238      0.0519      7.6503     27.9036    163.1039
  1181.0000      8.1245      2.5407      0.0710      6.6252     28.1840    151.8835
  1181.1000      8.1245      2.5568      0.0725      5.6461     28.2977    136.2939
  1181.2000      8.1245      2.5717      0.0776      4.7447     27.9889    127.5068
  1181.3000      8.1273      2.5876      0.0943      3.7838     27.2445    128.0567
  1181.4000      8.1273      2.5906      0.1371      3.6010     26.7555    128.1041
  1181.5000      8.1287      2.5729      0.1076      4.6715     26.8032    121.5267
  1181.6000      8.1287      2.5512      0.0521      5.9891     26.7901    114.0172
  1181.7000      8.1287      2.5417      0.0641      6.5634     26.4003    112.7164
  1181.8000      8.1288      2.5436      0.0265      6.4470     25.8251    118.5697
  1181.9000      8.1288      2.5488      0.0377      6.1312     25.5510    126.5113
  1182.0000      8.1306      2.5460      0.0747      6.3032     25.5651    133.1498
  1182.1000      8.1306      2.5357     -0.0053      6.9276     25.3574    140.0908
  1182.2000      8.1306      2.5384     -0.0180      6.7648     25.1620    143.3773
  1182.3000      8.1317      2.5637      0.0307      5.2309     25.5484    139.8441
  1182.4000      8.1317      2.5984      0.0976      3.1280     25.7764    135.4487
  1182.5000      8.1312      2.6245      0.0840      1.5482     24.9303    132.6915
  1182.6000      8.1312      2.6334      0.0735      1.0079     23.6706    129.9583
  1182.7000      8.1312      2.6333      0.0692      1.0138     23.0837    130.3143
  1182.8000      8.1318      2.6432      0.0472      0.4092     23.3827    135.2514
  1182.9000      8.1318      2.6710      0.1313     -1.2708     23.8092    135.1212
