~Version Information
VERS.                      2.0: CWLS Log ASCII Standard - VERSION 2.0
WRAP.                       NO: One line per depth step
~Well Information Block
STRT.FT                -5.0000: 
STOP.FT               912.2500: 
STEP.FT                 0.2500: 
NULL.                -999.2500: 
COMP.          Pioneer Natural Resources: COMPANY
WELL.               Ernie 31-6: WELL
FLD.           Purgatoire River: FIELD
LOC.           681' FNL & 2138' FEL: LOCATION
CNTY.               Las Animas: COUNTY
SRVC.                         : SERVICE COMPANY
DATE.          Tue Jun 27 10:36:58 2006: LOG DATE
UWI.           05 071 08716 00: UNIQUE WELL ID
STAT.                       CO: STATE
~Curve Information Block
DEPT.FT            0 000 00 00: Depth
GR.GAPI                       : Gamma Ray
CCL.                          : Casing Collar Locator
TT3.usec                      : CBL 3' Travel Time
AMP3.mV                       : CBL 3' Amplitude
~Parameter Information Block
~A  Depth        GR         CCL         TT3         AMP3    
# ...
   330.0000    131.8275      0.0000    741.2236      7.0572
   330.2500    126.0715      0.0000    741.2945      7.2175
   330.5000    116.6390      0.0000    732.6038      7.3019
   330.7500    106.3264      0.0000    721.0225      7.1962
   331.0000     98.1064      0.0000    713.8335      6.8733
   331.2500     93.2069      1.7474    714.1777      6.4132
   331.5000     90.7754      0.0000    720.3234      5.9622
   331.7500     89.1848      0.0000    729.3687      5.6657
   332.0000     87.6904      0.0000    739.5262      5.5850
   332.2500     87.1846      0.0000    748.7755      5.6619
   332.5000     89.7129      0.0000    753.8436      5.7893
   332.7500     97.1369      0.0000    752.3273      5.9122
   333.0000    109.5773      0.0000    745.0945      6.0379
   333.2500    124.6035      0.0000    735.6615      6.1756
   333.5000    138.1468      0.0000    727.5434      6.3041
   333.7500    146.8295      0.0000    722.3945      6.3926
   334.0000    149.8685      0.0000    719.9976      6.4279
   334.2500    148.9707      0.0000    719.3181      6.4189
   334.5000    146.6564      0.0000    719.5342      6.3829
   334.7500    144.8571      0.0000    720.5212      6.3368
   335.0000    144.6695      0.0000    722.6833      6.2943
   335.2500    146.4421      0.0000    726.2520      6.2650
   335.5000    149.6538      0.0000    730.4815      6.2505
   335.7500    153.1224      0.0000    733.6759      6.2449
   336.0000    155.6733      0.0000    734.5786      6.2399
   336.2500    156.4938      0.0000    733.8992      6.2287
   336.5000    154.9960      0.0000    733.9609      6.2078
   336.7500    150.8196      0.0000    736.4951      6.1787
   337.0000    144.1449      0.0000    741.0515      6.1503
   337.2500    135.8171      0.0000    745.7151      6.1329
   337.5000    127.2488      0.0000    748.9774      6.1296
   337.7500    120.3314      0.0000    750.6517      6.1348
   338.0000    116.9314      0.0000    751.3684      6.1398
   338.2500    117.7990      0.0000    751.7280      6.1333
   338.5000    121.8870      0.0000    751.9692      6.0983
   338.7500    126.8236      0.0000    752.1050      6.0222
   339.0000    129.9914      0.0000    752.1284      5.9163
   339.2500    129.5690      0.0000    752.0206      5.8198
   339.5000    125.3920      0.0000    751.5891      5.7738
   339.7500    119.1530      0.0000    750.2703      5.7901
   340.0000    113.4909      0.0000    747.2452      5.8488
   340.2500    110.7449      0.0000    742.1149      5.9184
   340.5000    112.3303      0.0000    735.6607      5.9714
   340.7500    118.5855      0.0000    729.5779      5.9862
   341.0000    128.6425      0.0000    725.1188      5.9515
   341.2500    140.5109      0.0000    722.2686      5.8775
   341.5000    151.7522      0.0000    720.3903      5.7966
   341.7500    160.5153      0.0000    719.1425      5.7452
   342.0000    166.2132      0.0000    718.5144      5.7348
   342.2500    169.4449      0.0000    718.4122      5.7370
   342.5000    171.4329      0.0000    718.5493      5.7040
   342.7500    173.2861      0.0000    718.6362      5.6144
   343.0000    175.3150      0.0000    718.5466      5.4972
   343.2500    176.8612      0.0000    718.3143      5.4059
   343.5000    176.9795      0.0000    718.0391      5.3698
   343.7500    175.5355      0.0000    717.7895      5.3765
   344.0000    173.6021      0.0000    717.5785      5.3969
   344.2500    172.4705      0.0000    717.3875      5.4176
   344.5000    172.1530      0.0000    717.2081      5.4473
   344.7500    171.3920      0.0000    717.0672      5.5003
   345.0000    169.4564      0.0000    717.0096      5.5798
   345.2500    167.4265      0.0000    717.0457      5.6721
   345.5000    167.2931      0.0000    717.1112      5.7503
   345.7500    169.9849      0.0000    717.0974      5.7836
   346.0000    174.5645      0.0000    716.9217      5.7518
   346.2500    179.3589      0.0000    716.5710      5.6621
   346.5000    183.5235      0.0000    716.0964      5.5506
   346.7500    187.0914      0.0000    715.5928      5.4596
   347.0000    189.7549      0.0000    715.1694      5.4095
   347.2500    190.4879      0.0000    714.9072      5.3923
   347.5000    188.7288      0.0000    714.8251      5.3911
   347.7500    185.2978      0.0000    714.8850      5.3996
   348.0000    181.7475      0.0000    715.0244      5.4198
   348.2500    179.1390      0.0000    715.1875      5.4502
   348.5000    177.5832      0.0000    715.3460      5.4807
   348.7500    176.5949      0.0000    715.5011      5.4951
   349.0000    175.5126      0.0000    715.6673      5.4737
   349.2500    173.7722      0.0000    715.8561      5.4041
   349.5000    171.4440      0.0000    716.0749      5.2985
   349.7500    169.7524      0.0000    716.3249      5.1938
   350.0000    170.4861      0.0000    716.5822      5.1251
   350.2500    174.1616      0.0000    716.7845      5.1015
   350.5000    178.6860      0.0000    716.8588      5.1081
   350.7500    180.2952      0.0000    716.7748      5.1254
   351.0000    176.2629      0.0000    716.5732      5.1408
   351.2500    167.1151      0.0000    716.3461      5.1478
   351.5000    156.5006      0.0000    716.1883      5.1457
   351.7500    148.9062      0.0000    716.1362      5.1435
   352.0000    147.0502      0.0000    716.0889      5.1582
   352.2500    150.6782      0.0000    715.7420      5.1981
   352.5000    157.1575      0.0000    714.5383      5.2469
   352.7500    163.3290      0.0000    711.7165      5.2773
   353.0000    167.4321      0.0000    706.5614      5.2892
   353.2500    169.6012      0.0000    698.7083      5.3195
   353.5000    170.6045      0.0000    687.7444      5.4009
   353.7500    170.4718      0.0000    671.9446      5.5216
   354.0000    168.6512      0.0000    648.1048      5.6340
   354.2500    165.1800      0.0000    614.7727      5.7006
   354.5000    161.2193      0.0000    576.8633      5.7254
   354.7500    158.3015      0.0000    546.1816      5.7461
   355.0000    157.1530      0.0000    535.7673      5.7998
   355.2500    157.3636      0.0000    551.5537      5.8942
   355.5000    157.9904      0.0000    586.5267      6.0078
   355.7500    158.1801      0.0000    622.4481      6.1053
   356.0000    157.1559      0.0000    641.2871      6.1523
   356.2500    154.0891      0.0000    638.6355      6.1290
   356.5000    148.6324      0.0000    626.2532      6.0466
   356.7500    141.6883      0.0000    621.8093      5.9471
   357.0000    135.1838      0.0000    636.5140      5.8761
   357.2500    130.7044      0.0000    669.6895      5.8518
   357.5000    128.2949      0.0000    711.1381      5.8622
   357.7500    126.6682      0.0000    748.3522      5.8897
   358.0000    124.6005      0.0000    773.7874      5.9299
   358.2500    122.0823      0.0000    787.2340      5.9872
   358.5000    120.1448      0.0000    792.7769      6.0566
   358.7500    119.8366      0.0000    794.6186      6.1132
   359.0000    121.6887      0.0000    795.1577      6.1220
   359.2500    125.8564      0.0000    795.1409      6.0582
   359.5000    132.0495      0.0000    794.3712      5.9229
   359.7500    139.2571      0.0000    792.2737      5.7436
   360.0000    145.9383      0.0000    788.5919      5.5643
   360.2500    150.5512      0.0000    784.2009      5.4289
   360.5000    152.1223      0.0000    781.1652      5.3595
   360.7500    150.9478      0.0000    781.3287      5.3403
   361.0000    148.8147      0.0000    784.6081      5.3289
   361.2500    148.0420      0.0000    788.9704      5.2932
   361.5000    150.0676      0.0000    792.0386      5.2354
   361.7500    154.5071      0.0000    792.4934      5.1785
   362.0000    158.8076      0.0000    790.3541      5.1435
   362.2500    159.1489      0.0000    786.7107      5.1411
   362.5000    153.0715      0.0000    783.2945      5.1751
   362.7500    141.7924      0.0000    781.7365      5.2416
   363.0000    129.3201      0.0000    782.7341      5.3287
   363.2500    119.0658      0.0000    785.7115      5.4263
