~Version Information
VERS.                      2.0: CWLS Log ASCII Standard - VERSION 2.0
WRAP.                       NO: One line per depth step
~Well Information Block
STRT.FT               240.0000: 
STOP.FT              1677.0000: 
STEP.FT                 0.1000: 
NULL.                -999.2500: 
COMP.          Pioneer Natural Resources: COMPANY
WELL.          Lorencito 8-1-34-67: WELL
FLD.           Purgatoire River: FIELD
LOC.           1567' FNL & 500' FEL: LOCATION
STAT.                 Colorado: State
CTRY. USA : Country 
CNTY.               Las Animas: COUNTY
SECT. 1 : Section 
TOWN. 34S : Township
RANG. 67W : Range
SRVC.                Patterson: SERVICE COMPANY
DATE.          Fri Aug 26 09:30:14 2005: LOG DATE
API.           05 071 08506 00: UNIQUE WELL ID
~Curve Information Block
DEPT.FT            0 000 00 00: Depth
DCAL.in                       : CDL Caliper
RHOB.g/cc                     : CDL Bulk Density
RHOC.g/cc                     : CDL Density Correction
DPOR.pu                       : CDL Density Porosity
GR.GAPI                       : Gamma Ray
NPOR.pu                       : Neutron Porosity
~Parameter Information Block
~A  Depth       DCAL        RHOB        RHOC        DPOR         GR         NPOR    
# ...
  1286.4000      8.1180      2.4663      0.0488     11.1330    152.0602     21.6514
  1286.5000      8.1166      2.4622      0.0827     11.3810    143.3939     21.3342
  1286.6000      8.1166      2.4416      0.0507     12.6308    138.0273     21.3031
  1286.7000      8.1166      2.4138      0.0249     14.3166    135.6006     21.3977
  1286.8000      8.1173      2.4075      0.0328     14.6949    132.0106     21.5281
  1286.9000      8.1173      2.4274      0.0804     13.4937    131.1062     22.0281
  1287.0000      8.1434      2.4503      0.0681     12.1017    134.8546     22.7944
  1287.1000      8.1434      2.4641      0.1048     11.2665    135.4685     23.1713
  1287.2000      8.1434      2.4703      0.0877     10.8928    132.9640     23.1129
  1287.3000      8.1609      2.4728      0.0410     10.7411    134.7533     23.0419
  1287.4000      8.1609      2.4754      0.0795     10.5843    140.6042     23.1758
  1287.5000      8.1608      2.4845      0.0894     10.0294    145.6520     23.7003
  1287.6000      8.1608      2.5060      0.0708      8.7285    147.0430     24.3708
  1287.7000      8.1608      2.5295      0.0824      7.3008    143.2786     24.6912
  1287.8000      8.1802      2.5344      0.0877      7.0076    137.4852     24.6080
  1287.9000      8.1802      2.5263      0.0283      7.4993    134.2652     24.3637
  1288.0000      8.1135      2.5285      0.0347      7.3645    133.0830     24.1626
  1288.1000      8.1135      2.5368      0.0446      6.8596    133.6126     24.0230
  1288.2000      8.1135      2.5287      0.0492      7.3534    136.6063     23.8514
  1288.3000      8.0606      2.5037     -0.0294      8.8685    137.7368     23.7442
  1288.4000      8.0606      2.4850     -0.0079     10.0018    134.2529     23.7699
  1288.5000      8.0309      2.4869     -0.0458      9.8870    132.7877     23.6972
  1288.6000      8.0309      2.5028      0.0135      8.9199    136.3111     23.5652
  1288.7000      8.0309      2.5221      0.0265      7.7531    137.0205     23.6951
  1288.8000      8.0481      2.5421      0.0322      6.5384    131.8035     24.0766
  1288.9000      8.0481      2.5528      0.0782      5.8880    123.8132     24.2115
  1289.0000      8.0413      2.5448      0.0226      6.3733    115.8532     23.7364
  1289.1000      8.0413      2.5338      0.0355      7.0395    108.2502     23.0048
  1289.2000      8.0413      2.5411      0.0428      6.6013     99.8797     22.6034
  1289.3000      8.0257      2.5616      0.0588      5.3592     94.4835     22.5685
  1289.4000      8.0257      2.5684      0.0933      4.9475     97.7558     22.4675
  1289.5000      7.9870      2.5570      0.0439      5.6380    109.2642     22.1761
  1289.6000      7.9870      2.5452      0.0682      6.3525    121.3129     21.9065
  1289.7000      7.9870      2.5283      0.0344      7.3770    124.7409     21.8884
  1289.8000      7.9681      2.4923     -0.0139      9.5551    117.1937     22.1280
  1289.9000      7.9681      2.4462     -0.0344     12.3543    106.1006     22.1907
  1290.0000      8.0284      2.4165     -0.0524     14.1508    100.3686     21.7599
  1290.1000      8.0284      2.4182     -0.0074     14.0498    101.9356     21.2095
  1290.2000      8.0284      2.4379      0.0161     12.8520    109.8637     20.9952
  1290.3000      8.0290      2.4621      0.0039     11.3870    120.6850     20.9229
  1290.4000      8.0290      2.4861      0.0451      9.9346    126.9125     20.7349
  1290.5000      8.0374      2.5024      0.0637      8.9480    123.8145     20.6956
  1290.6000      8.0374      2.5070      0.0841      8.6696    115.5820     21.0154
  1290.7000      8.0374      2.5033      0.1145      8.8900    109.9661     21.3669
  1290.8000      8.0172      2.4912      0.1281      9.6214    110.5824     21.3434
  1290.9000      8.0172      2.4739      0.0754     10.6728    115.8932     21.0012
  1291.0000      7.9850      2.4696      0.0697     10.9317    119.8485     20.8897
  1291.1000      7.9850      2.4813      0.0834     10.2219    120.5946     21.3258
  1291.2000      7.9850      2.4844      0.0777     10.0340    121.0706     22.0587
  1291.3000      7.9797      2.4701      0.0281     10.9027    122.4535     22.6810
  1291.4000      7.9797      2.4578      0.0519     11.6514    125.0147     22.9368
  1291.5000      7.9907      2.4576      0.0693     11.6601    126.0823     23.0224
  1291.6000      7.9907      2.4685      0.0406     10.9994    125.5709     23.2949
  1291.7000      7.9907      2.4902      0.0278      9.6859    129.4264     23.6035
  1291.8000      8.0148      2.5159      0.0587      8.1262    137.9784     23.6230
  1291.9000      8.0148      2.5395      0.0679      6.6965    141.1061     23.4655
  1292.0000      8.0094      2.5532      0.1032      5.8644    134.7428     23.3483
  1292.1000      8.0094      2.5502      0.0600      6.0505    124.2332     23.3297
  1292.2000      8.0094      2.5445      0.0634      6.3933    114.4839     23.3179
  1292.3000      8.0424      2.5492      0.0949      6.1081    108.3849     23.0357
  1292.4000      8.0424      2.5481      0.1035      6.1761    104.7345     22.4952
  1292.5000      8.0411      2.5303      0.0571      7.2555    103.0272     22.2111
  1292.6000      8.0411      2.5138      0.0034      8.2537    105.5589     22.4886
  1292.7000      8.0411      2.5068      0.0610      8.6779    112.2667     23.0508
  1292.8000      8.0413      2.4983      0.0048      9.1954    119.4348     23.2971
  1292.9000      8.0413      2.4905      0.0353      9.6655    119.8292     23.1016
  1293.0000      8.0563      2.4874      0.0557      9.8569    112.0975     22.9941
  1293.1000      8.0563      2.4898      0.0061      9.7081    105.0082     23.1514
  1293.2000      8.0563      2.4965      0.0486      9.3020    103.6971     23.1968
  1293.3000      8.0875      2.4976     -0.0124      9.2391    106.4735     23.0374
  1293.4000      8.0875      2.4922      0.0385      9.5652    110.7540     23.0370
  1293.5000      8.1066      2.4843      0.0156     10.0413    115.3112     23.4080
  1293.6000      8.1066      2.4770      0.0078     10.4844    120.9927     23.7257
  1293.7000      8.1066      2.4707      0.0178     10.8679    126.2391     23.5937
  1293.8000      8.1129      2.4621      0.0003     11.3853    126.8945     23.3693
  1293.9000      8.1129      2.4466      0.0068     12.3266    123.0514     23.4651
  1294.0000      8.1284      2.4273     -0.0462     13.4945    119.6570     23.7342
  1294.1000      8.1284      2.4223     -0.0582     13.7978    122.5209     23.8333
  1294.2000      8.1284      2.4371     -0.0289     12.9044    132.7372     23.7904
  1294.3000      8.1365      2.4456      0.0479     12.3879    142.4608     23.8813
  1294.4000      8.1365      2.4272     -0.0113     13.5039    144.6856     24.1662
  1294.5000      8.1503      2.3962      0.0159     15.3806    141.1316     24.4143
  1294.6000      8.1503      2.3762     -0.0686     16.5916    135.0983     24.3231
  1294.7000      8.1503      2.3778     -0.0522     16.4972    126.9710     24.1306
  1294.8000      8.1466      2.3893     -0.0421     15.8003    119.6808     24.3466
  1294.9000      8.1466      2.3941     -0.0289     15.5084    117.0707     24.7154
  1295.0000      8.1483      2.3938     -0.0165     15.5289    118.0654     24.6513
  1295.1000      8.1483      2.3986     -0.0419     15.2370    121.4936     24.2176
  1295.2000      8.1483      2.4127     -0.0041     14.3814    128.1577     23.6167
  1295.3000      8.1398      2.4319     -0.0151     13.2164    132.3394     23.1484
  1295.4000      8.1398      2.4493     -0.0327     12.1626    130.4211     23.1636
  1295.5000      8.1375      2.4581      0.0111     11.6305    126.5163     23.6128
  1295.6000      8.1375      2.4558     -0.0087     11.7679    119.4484     24.1116
  1295.7000      8.1375      2.4507     -0.0091     12.0778    111.4064     24.0185
  1295.8000      8.1087      2.4570     -0.0223     11.6971    110.4368     23.2973
  1295.9000      8.1087      2.4832      0.0103     10.1120    118.4572     22.8982
