~Version Information
VERS.                      2.0: CWLS Log ASCII Standard - VERSION 2.0
WRAP.                       NO: One line per depth step
~Well Information Block
STRT.FT                10.0000: 
STOP.FT              1665.0000: 
STEP.FT                 0.1000: 
NULL.                -999.2500: 
COMP.          Pioneer Natural Resources: COMPANY
WELL.          Stock Canyon 34-33: WELL
FLD.           Purgatorie River: FIELD
LOC.           980' FSL & 2191' FEL: LOCATION
PROV.                 Colorado: PROVINCE
CNTY.               Las Animas: COUNTRY
SRVC.                Patterson: SERVICE COMPANY
DATE.          Mon Dec 05 10:33:50 2005: LOG DATE
UWI.                          : UNIQUE WELL ID
~Curve Information Block
DEPT.FT            0 000 00 00: Depth
DCAL.in                       : CDL Caliper
RHOB.g/cc                     : CDL Bulk Density
RHOC.g/cc                     : CDL Density Correction
DPOR.pu                       : CDL Density Porosity
GR.GAPI                       : Gamma Ray
NPOR.pu                       : Neutron Porosity
~Parameter Information Block
~A  Depth       DCAL        RHOB        RHOC        DPOR         GR         NPOR    
# ...
   451.6000      2.7444      2.1263      2.2993     -0.0105     97.7109     21.8417
   451.7000      2.7444      2.0523      2.2044     -0.0120     98.1658     21.7634
   451.8000      2.7444      2.0052      2.2104     -0.0129    100.2003     21.6309
   451.9000      2.7444      1.9966      2.2341     -0.0131    100.7413     21.5605
   452.0000      2.7444      2.0227      2.2807     -0.0126    101.4046     21.7750
   452.1000      2.7444      2.0676      2.3640     -0.0117    103.4166     22.2221
   452.2000      2.7444      2.1117      2.4094     -0.0108    104.9886     22.6327
   452.3000      2.7444      2.1501      2.4450     -0.0100    105.5158     22.7876
   452.4000      2.7444      2.1924      2.4600     -0.0092    105.5330     22.5357
   452.5000      2.7444      2.2448      2.5125     -0.0081    106.2454     22.2545
   452.6000      2.7444      2.3012      2.5349     -0.0070    107.6194     22.3131
   452.7000      2.7444      2.3443      2.6074     -0.0061    108.6090     22.4106
   452.8000      2.7444      2.3609      2.5703     -0.0058    109.1491     22.3352
   452.9000      2.7444      2.3554      2.5646     -0.0059    108.2054     22.0465
   453.0000      2.7444      2.3390      2.5739     -0.0062    104.5433     21.6602
   453.1000      2.7444      2.3161      2.5609     -0.0067     99.6236     21.6500
   453.2000      2.7444      2.2879      2.5341     -0.0072     96.9049     22.2232
   453.3000      2.7444      2.2624      2.4826     -0.0078     98.7068     22.9536
   453.4000      2.7444      2.2477      2.4769     -0.0080    104.7810     23.2409
   453.5000      2.7444      2.2360      2.5152     -0.0083    110.5670     22.9770
   453.6000      2.7444      2.2172      2.4616     -0.0087    110.4151     22.5633
   453.7000      2.7444      2.2008      2.4348     -0.0090    105.4455     22.2170
   453.8000      2.7444      2.1960      2.4451     -0.0091    100.6595     21.7523
   453.9000      2.7444      2.1999      2.4648     -0.0090     98.0593     21.2981
   454.0000      2.7444      2.2112      2.4867     -0.0088     97.2891     21.2865
   454.1000      2.7444      2.2317      2.4559     -0.0084     97.6503     21.6190
   454.2000      2.7444      2.2556      2.5038     -0.0079     99.9613     21.9664
   454.3000      2.7444      2.2711      2.4956     -0.0076    103.7372     22.2134
   454.4000      2.7444      2.2769      2.5301     -0.0075    106.6383     22.2205
   454.5000      2.7444      2.2824      2.5022     -0.0074    110.3038     22.2507
   454.6000      2.7444      2.2906      2.5353     -0.0072    115.0439     22.6278
   454.7000      2.7444      2.2926      2.5124     -0.0072    115.4588     23.1506
   454.8000      2.7444      2.2820      2.5495     -0.0074    110.8794     23.5995
   454.9000      2.7444      2.2621      2.5082     -0.0078    106.4093     23.5938
   455.0000      2.7444      2.2435      2.4799     -0.0081    104.1067     22.9835
   455.1000      2.7444      2.2324      2.4742     -0.0084    102.9252     22.6340
   455.2000      2.7444      2.2284      2.4766     -0.0084    102.5089     22.9901
   455.3000      2.7444      2.2303      2.4928     -0.0084    102.0913     23.4543
   455.4000      2.7444      2.2353      2.5110     -0.0083     99.8618     23.4649
   455.5000      2.7444      2.2432      2.4793     -0.0081     96.3729     23.0187
   455.6000      2.7444      2.2549      2.5197     -0.0079     95.0200     22.6245
   455.7000      2.7444      2.2699      2.5269     -0.0076     97.1570     22.7001
   455.8000      2.7444      2.2924      2.5505     -0.0072     96.7186     22.9453
   455.9000      2.7444      2.3218      2.5227     -0.0066     90.5337     22.8737
   456.0000      2.7444      2.3486      2.5698     -0.0060     88.0468     22.6147
   456.1000      2.7444      2.3666      2.5427     -0.0057     93.7938     22.6431
   456.2000      2.7444      2.3800      2.5701     -0.0054     99.1157     22.9356
   456.3000      2.7444      2.3879      2.5753     -0.0052     98.1321     23.1234
   456.4000      2.7444      2.3853      2.5630     -0.0053     95.6489     23.0017
   456.5000      2.7444      2.3775      2.5368     -0.0055     98.7635     22.6356
   456.6000      2.7444      2.3748      2.5113     -0.0055    104.5791     22.2515
   456.7000      2.7444      2.3809      2.5249     -0.0054    105.4868     21.8897
   456.8000      2.7444      2.3930      2.5308     -0.0051    102.1538     21.4677
   456.9000      2.7444      2.4049      2.5453     -0.0049    100.4983     21.2836
   457.0000      2.7444      2.4111      2.5509     -0.0048    102.5706     21.3756
   457.1000      2.7444      2.4113      2.5504     -0.0048    106.6977     21.3118
   457.2000      2.7444      2.4034      2.5235     -0.0049    109.8930     21.0867
   457.3000      2.7444      2.3782      2.5382     -0.0054    109.4775     21.0126
   457.4000      2.7444      2.3370      2.4912     -0.0063    106.5695     21.0568
   457.5000      2.7444      2.2953      2.4829     -0.0071    103.8349     21.1313
   457.6000      2.7444      2.2615      2.5109     -0.0078    102.5822     21.0839
   457.7000      2.7444      2.2421      2.4406     -0.0082    102.9635     21.0774
   457.8000      2.7444      2.2506      2.4957     -0.0080    104.4288     21.4637
   457.9000      2.7444      2.2825      2.5330     -0.0074    105.1777     21.9523
   458.0000      2.7444      2.3209      2.5078     -0.0066    103.5568     22.0718
   458.1000      2.7444      2.3610      2.5426     -0.0058    100.5619     21.7468
   458.2000      2.7444      2.4033      2.5817     -0.0049     99.0825     21.2797
   458.3000      2.7444      2.4384      2.6109     -0.0042    100.6618     21.0178
   458.4000      2.7444      2.4555      2.6130     -0.0039    102.7300     20.9406
   458.5000      2.7444      2.4590      2.5911     -0.0038    103.3516     21.1003
   458.6000      2.7444      2.4563      2.6116     -0.0039    103.3328     21.7189
   458.7000      2.7444      2.4466      2.5702     -0.0041    103.5463     22.1608
   458.8000      2.7444      2.4275      2.5812     -0.0045    103.9784     21.5675
   458.9000      2.7444      2.3951      2.5713     -0.0051    103.9112     20.4923
   459.0000      2.7444      2.3531      2.4953     -0.0059    103.1578     19.9765
   459.1000      2.7444      2.3210      2.4829     -0.0066    101.5565     20.1839
   459.2000      2.7444      2.3099      2.4995     -0.0068     98.6664     20.6973
   459.3000      2.7444      2.3118      2.5174     -0.0068     94.9950     21.0892
   459.4000      2.7444      2.3186      2.5263     -0.0066     90.4801     21.0746
   459.5000      2.7444      2.3314      2.5245     -0.0064     86.2265     20.6179
   459.6000      2.7444      2.3530      2.5695     -0.0059     86.0782     20.0456
   459.7000      2.7444      2.3833      2.5704     -0.0053     89.2023     19.5995
   459.8000      2.7444      2.4164      2.6028     -0.0047     91.3730     19.2679
   459.9000      2.7444      2.4411      2.6254     -0.0042     92.2513     19.2986
   460.0000      2.7444      2.4564      2.6042     -0.0039     92.1666     19.6811
   460.1000      2.7444      2.4716      2.6101     -0.0036     91.0183     19.8266
   460.2000      2.7444      2.4859      2.6369     -0.0033     91.6677     19.6313
   460.3000      2.7444      2.4835      2.6246     -0.0033     95.3100     19.3492
   460.4000      2.7444      2.4522      2.5942     -0.0040     98.9433     19.0750
   460.5000      2.7444      2.3971      2.5723     -0.0051    101.0294     19.0682
   460.6000      2.7444      2.3341      2.5347     -0.0063    102.6691     19.4641
   460.7000      2.7444      2.2885      2.4287     -0.0072    100.6557     20.1583
   460.8000      2.7444      2.2777      2.4758     -0.0075     93.5491     20.9848
   460.9000      2.7444      2.2871      2.5063     -0.0073     89.5137     21.4518
   461.0000      2.7444      2.2952      2.5116     -0.0071     92.7714     21.2868
   461.1000      2.7444      2.3016      2.5039     -0.0070     95.8044     20.8614
