~Version Information
VERS.                      2.0: CWLS Log ASCII Standard - VERSION 2.0
WRAP.                       NO: One line per depth step
~Well Information Block
STRT.FT               538.0000: 
STOP.FT              1769.0000: 
STEP.FT                 0.1000: 
NULL.                -999.2500: 
COMP.          Pioneer Natural Resources: COMPANY
WELL.            Dude 43-34 Tr: WELL
FLD.           Purgatoire River: FIELD
LOC.           2083' FSL & 1042' FEL: LOCATION
PROV.                 Colorado: PROVINCE
CNTY.               Las Animas: COUNTRY
SRVC.                Patterson: SERVICE COMPANY
DATE.          Thu Jan 26 07:02:09 2006: LOG DATE
UWI.           05 071 08676 00: UNIQUE WELL ID
~Curve Information Block
DEPT.FT            0 000 00 00: Depth
DCAL.in                       : CDL Caliper
RHOB.g/cc                     : CDL Bulk Density
RHOC.g/cc                     : CDL Density Correction
DPOR.pu                       : CDL Density Porosity
GR.GAPI                       : Gamma Ray
~Parameter Information Block
~A  Depth       DCAL        RHOB        RHOC        DPOR         GR     
# ...
  1277.2000      7.9562      2.5788      0.0586      4.3156     94.4218
  1277.3000      7.9722      2.5925      0.0538      3.4854     89.3910
  1277.4000      7.9722      2.6160      0.1322      2.0611     86.1987
  1277.5000      7.9931      2.6437      0.1387      0.3792     87.1029
  1277.6000      7.9931      2.6626      0.1460     -0.7652     88.8549
  1277.7000      7.9931      2.6670      0.2358     -1.0324     88.0265
  1277.8000      8.0051      2.6581      0.2060     -0.4921     87.0198
  1277.9000      8.0051      2.6406      0.1818      0.5691     87.8073
  1278.0000      7.9428      2.6201      0.1226      1.8092     89.0920
  1278.1000      7.9428      2.6147      0.0788      2.1410     89.6543
  1278.2000      7.9428      2.6374      0.1352      0.7632     89.4298
  1278.3000      7.9307      2.6699      0.1437     -1.2044     90.7120
  1278.4000      7.9307      2.6903      0.1111     -2.4444     96.6068
  1278.5000      7.9207      2.7082      0.1049     -3.5295    103.8772
  1278.6000      7.9207      2.7447      0.1352     -5.7397    105.0726
  1278.7000      7.9207      2.7901      0.2026     -8.4925    101.3635
  1278.8000      7.9316      2.8016      0.2182     -9.1884    100.5407
  1278.9000      7.9316      2.7606      0.1352     -6.7022    105.2050
  1279.0000      7.9299      2.7027      0.0981     -3.1968    110.7605
  1279.1000      7.9299      2.6638      0.0874     -0.8341    112.4287
  1279.2000      7.9299      2.6473      0.0704      0.1614    112.6074
  1279.3000      7.9299      2.6446      0.0853      0.3271    116.9633
  1279.4000      7.9299      2.6398      0.1822      0.6195    126.3255
  1279.5000      7.9496      2.6255      0.0921      1.4838    135.7083
  1279.6000      7.9496      2.6067      0.1027      2.6218    139.6468
  1279.7000      7.9496      2.5717      0.1450      4.7455    137.9562
  1279.8000      7.9552      2.5190      0.0215      7.9396    132.5942
  1279.9000      7.9552      2.4806      0.0185     10.2647    127.6578
  1280.0000      7.9464      2.4837      0.0245     10.0770    130.0513
  1280.1000      7.9464      2.5313      0.0436      7.1965    140.1535
  1280.2000      7.9464      2.6059      0.1243      2.6719    149.8547
  1280.3000      7.9374      2.6789      0.1341     -1.7505    152.7387
  1280.4000      7.9374      2.7281      0.1487     -4.7361    149.7980
  1280.5000      7.9540      2.7471      0.1449     -5.8845    143.1601
  1280.6000      7.9540      2.7461      0.1358     -5.8222    137.1825
  1280.7000      7.9540      2.7373      0.1706     -5.2908    138.4430
  1280.8000      7.9585      2.7231      0.1196     -4.4301    143.4954
  1280.9000      7.9585      2.7011      0.0929     -3.0983    145.9995
  1281.0000      7.9400      2.6632      0.0330     -0.7977    148.6769
  1281.1000      7.9400      2.6043     -0.0023      2.7700    153.6365
  1281.2000      7.9400      2.5524     -0.1687      5.9177    154.3425
  1281.3000      7.9481      2.5478     -0.0670      6.1939    145.9451
  1281.4000      7.9481      2.5795      0.1085      4.2704    135.3055
  1281.5000      7.9852      2.6057      0.1127      2.6837    128.5804
  1281.6000      7.9852      2.6138      0.1612      2.1918    126.4869
  1281.7000      7.9852      2.6089      0.1516      2.4887    130.4659
  1281.8000      7.9857      2.5945      0.1314      3.3608    135.2557
  1281.9000      7.9857      2.5800      0.0823      4.2435    134.0338
  1282.0000      7.9977      2.5722      0.1453      4.7175    131.2907
  1282.1000      7.9977      2.5734      0.0670      4.6411    134.3564
  1282.2000      7.9977      2.5837      0.1258      4.0204    140.8633
  1282.3000      8.0068      2.5823      0.1145      4.1011    144.7931
  1282.4000      8.0068      2.5532      0.0653      5.8651    147.6771
  1282.5000      8.0164      2.5110      0.0293      8.4234    152.6104
  1282.6000      8.0164      2.4691      0.0794     10.9630    155.5594
  1282.7000      8.0164      2.4299      0.0026     13.3380    154.5812
  1282.8000      8.0050      2.4046     -0.0122     14.8714    154.9970
  1282.9000      8.0050      2.3932      0.0865     15.5615    158.1844
  1283.0000      7.9613      2.3746      0.0807     16.6926    160.4569
  1283.1000      7.9613      2.3317      0.1096     19.2926    158.8842
  1283.2000      7.9613      2.2700      0.0628     23.0331    150.9770
  1283.3000      7.9804      2.2027      0.0489     27.1091    140.1571
  1283.4000      7.9804      2.1186      0.0551     32.2071    136.4599
  1283.5000      8.0165      2.0027      0.0320     39.2284    141.5439
  1283.6000      8.0165      1.8740      0.0178     47.0281    150.2386
  1283.7000      8.0165      1.7559      0.0232     54.1876    156.1189
  1283.8000      8.0205      1.6562     -0.0041     60.2310    151.6071
  1283.9000      8.0205      1.5985     -0.0332     63.7270    137.7411
  1284.0000      7.9858      1.6184      0.0012     62.5194    123.6657
  1284.1000      7.9858      1.7163      0.1247     56.5852    112.4247
  1284.2000      7.9858      1.8415      0.3112     49.0023    103.3651
  1284.3000      7.9951      1.9434      0.3274     42.8226    100.5701
  1284.4000      7.9951      2.0262      0.3350     37.8032    103.4941
  1284.5000      8.0459      2.1143      0.3862     32.4695    104.3641
  1284.6000      8.0459      2.2016      0.3961     27.1783    101.1469
  1284.7000      8.0459      2.2707      0.3690     22.9858    102.3595
  1284.8000      8.0834      2.3188      0.3644     20.0735    110.0914
  1284.9000      8.0834      2.3555      0.1538     17.8494    115.8808
  1285.0000      8.2721      2.3956      0.1422     15.4153    117.0553
  1285.1000      8.2721      2.4450      0.1574     12.4265    114.8887
  1285.2000      8.2721      2.4941      0.1832      9.4464    112.5724
  1285.3000      8.2318      2.5145      0.2229      8.2095    115.6435
  1285.4000      8.2318      2.5029      0.0332      8.9170    122.8155
  1285.5000      7.9648      2.5057     -0.0076      8.7447    129.3442
  1285.6000      7.9648      2.5346      0.1019      6.9948    134.3025
  1285.7000      7.9648      2.5539      0.0549      5.8238    135.3678
  1285.8000      7.9848      2.5564      0.0873      5.6753    132.9370
  1285.9000      7.9848      2.5591      0.1175      5.5065    133.1222
  1286.0000      7.9825      2.5608      0.1300      5.4087    137.4110
  1286.1000      7.9825      2.5487      0.0898      6.1417    139.6128
  1286.2000      7.9825      2.5288      0.0858      7.3442    134.6246
  1286.3000      7.9756      2.5194      0.0585      7.9132    130.4238
  1286.4000      7.9756      2.5260      0.1118      7.5146    135.1319
  1286.5000      7.9527      2.5369      0.0874      6.8536    142.7334
  1286.6000      7.9527      2.5388      0.1078      6.7424    146.8195
  1286.7000      7.9527      2.5353      0.1118      6.9525    149.0303
  1286.8000      7.9760      2.5407      0.0906      6.6221    151.3150
  1286.9000      7.9760      2.5462      0.1178      6.2929    156.1786
  1287.0000      8.0027      2.5288      0.0929      7.3460    163.8374
  1287.1000      8.0027      2.4879      0.0880      9.8239    165.4082
  1287.2000      8.0027      2.4429     -0.0077     12.5489    156.6268
  1287.3000      7.9480      2.4069      0.0819     14.7319    148.4247
  1287.4000      7.9480      2.3748      0.0341     16.6779    150.8085
  1287.5000      7.9296      2.3441      0.0135     18.5393    160.2383
  1287.6000      7.9296      2.3116      0.0749     20.5073    166.8772
  1287.7000      7.9296      2.2814      0.0262     22.3379    165.5095
  1287.8000      7.9500      2.2695      0.0674     23.0587    159.5172
  1287.9000      7.9500      2.2782      0.0865     22.5354    156.1886
  1288.0000      7.9556      2.3032      0.0942     21.0170    158.1800
  1288.1000      7.9556      2.3460      0.1675     18.4230    161.1058
  1288.2000      7.9556      2.3983      0.1745     15.2541    161.9677
  1288.3000      7.9680      2.4385      0.2121     12.8188    159.3841
