~Version Information
VERS.                      2.0: CWLS Log ASCII Standard - VERSION 2.0
WRAP.                       NO: One line per depth step
~Well Information Block
STRT.FT               360.0000: 
STOP.FT              2475.0000: 
STEP.FT                 0.1000: 
NULL.                -999.2500: 
COMP.          Pioneer Natural Resources: COMPANY
WELL.          Hellzonfire 32-31: WELL
FLD.           Purgatoire River: FIELD
LOC.           1993' FNL & 2265' FEL: LOCATION
STAT.                 Colorado: State
CNTY.               Las Animas: COUNTY
CTRY. USA : Country
SECT. 31 : Section
TOWN. 32S : Township
RANG. 66W : Range
SRVC.                Patterson: SERVICE COMPANY
DATE.          Fri Sep 02 07:26:13 2005: LOG DATE
API.           05 071 08483 00: UNIQUE WELL ID
~Curve Information Block
DEPT.FT            0 000 00 00: Depth
DCAL.in                       : CDL Caliper
RHOB.g/cc                     : CDL Bulk Density
RHOC.g/cc                     : CDL Density Correction
DPOR.pu                       : CDL Density Porosity
GR.GAPI                       : Gamma Ray
NPOR.pu                       : Neutron Porosity
~Parameter Information Block
~A  Depth       DCAL        RHOB        RHOC        DPOR         GR         NPOR    
# ...
   638.4000      8.2918      2.5050      0.0124      8.7891    149.8615     25.4403
   638.5000      8.3646      2.4669     -0.0036     11.0955    150.4408     25.6158
   638.6000      8.3646      2.4359      0.0109     12.9767    153.7037     25.6504
   638.7000      8.3646      2.4256      0.0171     13.6022    156.7337     25.8215
   638.8000      8.3538      2.4421      0.0048     12.5992    155.9909     26.3370
   638.9000      8.3538      2.4698      0.0544     10.9215    152.3382     26.7513
   639.0000      8.3277      2.4829      0.0433     10.1291    150.6895     26.6844
   639.1000      8.3277      2.4797      0.0338     10.3193    152.0984     26.5630
   639.2000      8.3277      2.4813      0.0222     10.2235    151.4664     26.7716
   639.3000      8.3708      2.4974      0.0407      9.2461    150.7729     27.0387
   639.4000      8.3708      2.5181      0.0308      7.9953    152.8781     27.3472
   639.5000      8.3129      2.5334      0.0383      7.0659    150.4174     27.9842
   639.6000      8.3129      2.5453     -0.0194      6.3484    144.0337     28.7243
   639.7000      8.3129      2.5578      0.0345      5.5874    141.6736     29.1833
   639.8000      8.2831      2.5667      0.0282      5.0499    142.9451     29.3095
   639.9000      8.2831      2.5662      0.0470      5.0813    142.3477     29.0879
   640.0000      8.2903      2.5440      0.0548      6.4240    140.1391     28.7329
   640.1000      8.2903      2.4945     -0.0072      9.4218    140.3498     28.5465
   640.2000      8.2903      2.4487     -0.0639     12.2014    141.7043     28.5551
   640.3000      8.2759      2.4372     -0.0228     12.8982    142.0216     28.5906
   640.4000      8.2759      2.4528      0.0020     11.9510    141.3577     28.5130
   640.5000      8.2547      2.4832     -0.0215     10.1082    141.0524     28.2782
   640.6000      8.2547      2.5218      0.0470      7.7697    142.8480     27.7839
   640.7000      8.2547      2.5521      0.0535      5.9357    146.4778     27.2898
   640.8000      8.2403      2.5582      0.1254      5.5667    149.6044     27.2234
   640.9000      8.2403      2.5322      0.1073      7.1412    151.9337     27.4838
   641.0000      8.2364      2.4799      0.1242     10.3071    154.4035     27.5590
   641.1000      8.2364      2.4190      0.0987     14.0011    153.7073     27.0794
   641.2000      8.2364      2.3728      0.0244     16.8012    150.1782     26.2099
   641.3000      8.2262      2.3568      0.0613     17.7719    148.5297     25.5107
   641.4000      8.2262      2.3606      0.0847     17.5397    149.5501     25.1204
   641.5000      8.1707      2.3656      0.1013     17.2369    152.7121     24.5892
   641.6000      8.1707      2.3742      0.0881     16.7165    156.5095     23.7545
   641.7000      8.1707      2.4020      0.0878     15.0279    158.5248     22.8550
   641.8000      8.1492      2.4440      0.1510     12.4834    161.2401     22.0941
   641.9000      8.1492      2.4742      0.1681     10.6523    164.3175     21.5825
   642.0000      8.2050      2.4779      0.1929     10.4277    161.2055     21.3664
   642.1000      8.2050      2.4586      0.1913     11.5987    155.0858     21.3549
   642.2000      8.2050      2.4268      0.1857     13.5271    151.2327     21.4369
   642.3000      8.3973      2.3959      0.1541     15.4001    147.4149     21.6183
   642.4000      8.3973      2.3677      0.1179     17.1094    146.7790     21.7446
   642.5000      8.5532      2.3317      0.1285     19.2892    148.7081     21.7332
   642.6000      8.5532      2.2969      0.0347     21.4012    140.6148     21.7959
   642.7000      8.5532      2.2906      0.0567     21.7803    125.7565     21.9282
   642.8000      8.6623      2.3119      0.1018     20.4914    120.9486     21.8269
   642.9000      8.6623      2.3399      0.1128     18.7930    126.7715     21.4582
   643.0000      8.7072      2.3757      0.1242     16.6226    132.2890     21.0453
   643.1000      8.7072      2.4161      0.2326     14.1740    133.1741     20.8277
   643.2000      8.7072      2.4399      0.1883     12.7348    136.0432     20.9222
   643.3000      8.7615      2.4493      0.1494     12.1641    144.1952     21.2270
   643.4000      8.7615      2.4572      0.2259     11.6873    150.3494     21.6831
   643.5000      8.7801      2.4531      0.2259     11.9353    148.0424     22.1243
   643.6000      8.7801      2.4287      0.1352     13.4137    141.4369     22.3892
   643.7000      8.7801      2.3937      0.0968     15.5314    138.1595     22.5935
   643.8000      8.7558      2.3550      0.1058     17.8813    137.4701     22.6998
   643.9000      8.7558      2.3188      0.0713     20.0730    138.9872     22.7374
   644.0000      8.6741      2.3012     -0.0032     21.1418    144.3848     22.9051
   644.1000      8.6741      2.3050      0.0347     20.9064    153.3024     23.2218
   644.2000      8.6741      2.3156      0.0116     20.2695    162.2594     23.4534
   644.3000      8.6576      2.3241     -0.0061     19.7506    163.8725     23.3426
   644.4000      8.6576      2.3284      0.0531     19.4926    156.4738     22.9257
   644.5000      8.6378      2.3211      0.0954     19.9311    148.0546     22.4371
   644.6000      8.6378      2.3031      0.0858     21.0232    145.7521     22.0985
   644.7000      8.6378      2.2954      0.0201     21.4922    145.9932     21.8391
   644.8000      8.6819      2.3111      0.0910     20.5388    145.3858     21.5368
   644.9000      8.6819      2.3343      0.0728     19.1350    146.1317     21.3810
   645.0000      8.7171      2.3466      0.0758     18.3852    146.9158     21.2633
   645.1000      8.7171      2.3408      0.0511     18.7364    145.3676     20.8689
   645.2000      8.7171      2.3205      0.0564     19.9698    143.2848     20.4381
   645.3000      8.6992      2.3030      0.0352     21.0278    144.0979     20.4013
   645.4000      8.6992      2.3048      0.0569     20.9193    147.6967     20.6627
   645.5000      8.7209      2.3145      0.0790     20.3354    150.4942     20.8074
   645.6000      8.7209      2.3018      0.0934     21.1018    154.0658     20.6800
   645.7000      8.7209      2.2694     -0.0495     23.0658    161.5435     20.5669
   645.8000      8.7037      2.2441      0.0432     24.5977    165.8794     20.6557
   645.9000      8.7037      2.2314      0.0455     25.3725    160.8545     20.8281
   646.0000      8.5658      2.2339      0.0113     25.2173    154.4231     20.9922
   646.1000      8.5658      2.2457      0.1172     24.5039    153.3720     21.1426
   646.2000      8.5658      2.2418      0.0722     24.7421    151.2428     21.2964
   646.3000      8.6024      2.2208      0.0448     26.0104    143.0957     21.1718
   646.4000      8.6024      2.1988      0.0655     27.3440    136.0353     20.6292
   646.5000      8.5979      2.1780      0.0708     28.6052    133.4522     20.1361
   646.6000      8.5979      2.1586      0.0412     29.7828    128.6602     19.8283
   646.7000      8.5979      2.1430      0.1219     30.7278    122.5421     19.4852
   646.8000      8.5070      2.1209      0.1237     32.0695    121.3694     19.2654
   646.9000      8.5070      2.0847      0.0531     34.2585    122.5551     19.3615
   647.0000      8.4803      2.0430      0.0386     36.7885    121.7983     19.5644
   647.1000      8.4803      2.0033     -0.0011     39.1922    121.2161     19.4469
   647.2000      8.4803      1.9525      0.0809     42.2714    119.9831     18.8159
   647.3000      8.4902      1.8636      0.0551     47.6597    114.5755     17.9569
   647.4000      8.4902      1.7385     -0.0564     55.2395    106.8502     17.0263
   647.5000      8.4471      1.6080     -0.0555     63.1539    101.9016     16.0260
   647.6000      8.4471      1.4940     -0.1135     70.0590     98.5117     15.1026
   647.7000      8.4471      1.3996     -0.0846     75.7826     90.4595     14.3698
   647.8000      8.3398      1.3171     -0.1602     80.7836     79.0162     13.9839
   647.9000      8.3398      1.2557     -0.1795     84.5014     69.0640     13.9780
