~Version Information
VERS.                      2.0: CWLS Log ASCII Standard - VERSION 2.0
WRAP.                       NO: One line per depth step
~Well Information Block
STRT.FT               890.0000: 
STOP.FT              2097.0000: 
STEP.FT                 0.2500: 
NULL.                -999.2500: 
COMP.          Pioneer Natural Resources: COMPANY
WELL.          Greenwood 43-29 Tr: WELL
FLD.           Purgatoire River: FIELD
LOC.           1478' FSL & 744' FEL: LOCATION
STAT.                 Colorado: State
CNTY.               Las Animas: COUNTY
CTRY. USA : Country
SECT. 29 : Section
TOWN. 32S : Township
RANG. 67W : Range
SRVC.                Patterson: SERVICE COMPANY
DATE.          Wed Aug 31 08:07:28 2005: LOG DATE
API.           05 071 08478 00: UNIQUE WELL ID
~Curve Information Block
DEPT.FT            0 000 00 00: Depth
SN.Ohm-m                      : IEL Short Normal
SP.mV                         : IEL Spontaneous Potential
DIR.Ohm-m                     : IEL Induction Resistivity
GR.GAPI                       : Gamma Ray
~Parameter Information Block
~A  Depth        SN          SP         DIR          GR     
# ...
  1124.5000   2000.0000   2000.0000     10.1520    136.2433
  1124.7500   2000.0000   2000.0000     10.3593    140.9462
  1125.0000   2000.0000   2000.0000     10.5725    148.0716
  1125.2500   2000.0000   2000.0000     10.7796    152.4274
  1125.5000   2000.0000   2000.0000     10.9610    158.4470
  1125.7500   2000.0000   2000.0000     11.0965    162.1086
  1126.0000   2000.0000   2000.0000     11.1728    166.5046
  1126.2500   2000.0000   2000.0000     11.1888    168.2938
  1126.5000   2000.0000   2000.0000     11.1556    168.9157
  1126.7500   2000.0000   2000.0000     11.0927    167.9793
  1127.0000   2000.0000   2000.0000     11.0237    164.8503
  1127.2500   2000.0000   2000.0000     10.9718    161.9956
  1127.5000   2000.0000   2000.0000     10.9539    157.6091
  1127.7500   2000.0000   2000.0000     10.9766    155.2387
  1128.0000   2000.0000   2000.0000     11.0347    152.8490
  1128.2500   2000.0000   2000.0000     11.1170    151.6036
  1128.5000   2000.0000   2000.0000     11.2131    149.0701
  1128.7500   2000.0000   2000.0000     11.3186    146.6379
  1129.0000   2000.0000   2000.0000     11.4319    142.4946
  1129.2500   2000.0000   2000.0000     11.5498    139.9664
  1129.5000   2000.0000   2000.0000     11.6687    136.7558
  1129.7500   2000.0000   2000.0000     11.7898    134.7420
  1130.0000   2000.0000   2000.0000     11.9205    131.7298
  1130.2500   2000.0000   2000.0000     12.0694    129.9867
  1130.5000   2000.0000   2000.0000     12.2404    128.2191
  1130.7500   2000.0000   2000.0000     12.4324    127.4851
  1131.0000   2000.0000   2000.0000     12.6410    126.2336
  1131.2500   2000.0000   2000.0000     12.8596    124.7930
  1131.5000   2000.0000   2000.0000     13.0763    121.3523
  1131.7500   2000.0000   2000.0000     13.2734    118.3198
  1132.0000   2000.0000   2000.0000     13.4336    113.1362
  1132.2500   2000.0000   2000.0000     13.5503    109.5710
  1132.5000   2000.0000   2000.0000     13.6335    104.8750
  1132.7500   2000.0000   2000.0000     13.7034    102.9881
  1133.0000   2000.0000   2000.0000     13.7778    103.6426
  1133.2500   2000.0000   2000.0000     13.8624    106.8763
  1133.5000   2000.0000   2000.0000     13.9509    115.1363
  1133.7500   2000.0000   2000.0000     14.0308    121.7105
  1134.0000   2000.0000   2000.0000     14.0902    130.9208
  1134.2500   2000.0000   2000.0000     14.1207    135.6991
  1134.5000   2000.0000   2000.0000     14.1204    140.2237
  1134.7500   2000.0000   2000.0000     14.0978    141.6078
  1135.0000   2000.0000   2000.0000     14.0753    141.8988
  1135.2500   2000.0000   2000.0000     14.0845    141.3702
  1135.5000   2000.0000   2000.0000     14.1566    140.2013
  1135.7500   2000.0000   2000.0000     14.3113    139.3672
  1136.0000   2000.0000   2000.0000     14.5549    137.7875
  1136.2500   2000.0000   2000.0000     14.8868    136.2321
  1136.5000   2000.0000   2000.0000     15.3085    133.3063
  1136.7500   2000.0000   2000.0000     15.8236    131.6329
  1137.0000   2000.0000   2000.0000     16.4298    130.7730
  1137.2500   2000.0000   2000.0000     17.1109    131.4084
  1137.5000   2000.0000   2000.0000     17.8410    133.1471
  1137.7500   2000.0000   2000.0000     18.6026    133.9398
  1138.0000   2000.0000   2000.0000     19.4050    133.1968
  1138.2500   2000.0000   2000.0000     20.2839    130.8764
  1138.5000   2000.0000   2000.0000     21.2775    124.7136
  1138.7500   2000.0000   2000.0000     22.3959    119.6162
  1139.0000   2000.0000   2000.0000     23.6058    112.6666
  1139.2500   2000.0000   2000.0000     24.8489    109.6284
  1139.5000   2000.0000   2000.0000     26.0859    108.2166
  1139.7500   2000.0000   2000.0000     27.3316    108.9857
  1140.0000   2000.0000   2000.0000     28.6447    111.0316
  1140.2500   2000.0000   2000.0000     30.0825    111.8700
  1140.5000   2000.0000   2000.0000     31.6540    111.1290
  1140.7500   2000.0000   2000.0000     33.3030    109.3832
  1141.0000   2000.0000   2000.0000     34.9219    106.2719
  1141.2500   2000.0000   2000.0000     36.3875    104.8034
  1141.5000   2000.0000   2000.0000     37.6001    103.9586
  1141.7500   2000.0000   2000.0000     38.5087    103.7245
  1142.0000   2000.0000   2000.0000     39.1001    102.5793
  1142.2500   2000.0000   2000.0000     39.3697    101.1543
  1142.5000   2000.0000   2000.0000     39.3124     99.1668
  1142.7500   2000.0000   2000.0000     38.9694     98.8524
  1143.0000   2000.0000   2000.0000     38.4849    100.6980
  1143.2500   2000.0000   2000.0000     38.0884    103.3031
  1143.5000   2000.0000   2000.0000     37.9841    108.2691
  1143.7500   2000.0000   2000.0000     38.2256    111.5573
  1144.0000   2000.0000   2000.0000     38.6604    115.4400
  1144.2500   2000.0000   2000.0000     38.9945    117.0878
  1144.5000   2000.0000   2000.0000     38.9439    118.2983
  1144.7500   2000.0000   2000.0000     38.3658    118.3762
  1145.0000   2000.0000   2000.0000     37.2628    117.3297
  1145.2500   2000.0000   2000.0000     35.7144    115.9023
  1145.5000   2000.0000   2000.0000     33.8444    113.3592
  1145.7500   2000.0000   2000.0000     31.8359    112.0012
  1146.0000   2000.0000   2000.0000     29.9166    111.1813
  1146.2500   2000.0000   2000.0000     28.2918    111.6226
  1146.5000   2000.0000   2000.0000     27.0707    114.0597
  1146.7500   2000.0000   2000.0000     26.2382    116.9383
  1147.0000   2000.0000   2000.0000     25.6803    122.3459
  1147.2500   2000.0000   2000.0000     25.2466    125.6925
  1147.5000   2000.0000   2000.0000     24.8174    128.8609
  1147.7500   2000.0000   2000.0000     24.3423    129.5399
  1148.0000   2000.0000   2000.0000     23.8314    129.0641
  1148.2500   2000.0000   2000.0000     23.3161    128.3214
  1148.5000   2000.0000   2000.0000     22.8156    127.3403
  1148.7500   2000.0000   2000.0000     22.3255    127.0243
  1149.0000   2000.0000   2000.0000     21.8278    127.0525
  1149.2500   2000.0000   2000.0000     21.3086    127.0573
  1149.5000   2000.0000   2000.0000     20.7675    126.0425
  1149.7500   2000.0000   2000.0000     20.2104    124.3675
  1150.0000   2000.0000   2000.0000     19.6379    121.2313
  1150.2500   2000.0000   2000.0000     19.0481    119.9318
  1150.5000   2000.0000   2000.0000     18.4515    120.9781
  1150.7500   2000.0000   2000.0000     17.8817    123.8051
  1151.0000   2000.0000   2000.0000     17.3914    129.6746
  1151.2500   2000.0000   2000.0000     17.0349    133.3968
  1151.5000   2000.0000   2000.0000     16.8510    137.5263
  1151.7500   2000.0000   2000.0000     16.8504    139.4471
  1152.0000   2000.0000   2000.0000     17.0069    141.6635
  1152.2500   2000.0000   2000.0000     17.2564    142.7345
  1152.5000   2000.0000   2000.0000     17.5117    143.2957
  1152.7500   2000.0000   2000.0000     17.6958    142.5624
  1153.0000   2000.0000   2000.0000     17.7767    139.0266
  1153.2500   2000.0000   2000.0000     17.7740    134.8699
  1153.5000   2000.0000   2000.0000     17.7338    126.5748
  1153.7500   2000.0000   2000.0000     17.6976    120.3041
  1154.0000   2000.0000   2000.0000     17.6886    110.5983
  1154.2500   2000.0000   2000.0000     17.7214    104.3968
  1154.5000   2000.0000   2000.0000     17.8186     96.9964
  1154.7500   2000.0000   2000.0000     18.0191     94.5555
  1155.0000   2000.0000   2000.0000     18.3681     96.4328
  1155.2500   2000.0000   2000.0000     18.8929    101.6318
  1155.5000   2000.0000   2000.0000     19.5805    113.6388
  1155.7500   2000.0000   2000.0000     20.3729    122.3715
  1156.0000   2000.0000   2000.0000     21.1821    132.6343
  1156.2500   2000.0000   2000.0000     21.9158    135.8427
  1156.5000   2000.0000   2000.0000     22.4911    133.7411
  1156.7500   2000.0000   2000.0000     22.8381    127.9654
  1157.0000   2000.0000   2000.0000     22.9113    115.2084
  1157.2500   2000.0000   2000.0000     22.7146    106.2375
  1157.5000   2000.0000   2000.0000     22.3163     95.9360
  1157.7500   2000.0000   2000.0000     21.8301     92.7379
