~Version Information
VERS.                      2.0: CWLS Log ASCII Standard - VERSION 2.0
WRAP.                       NO: One line per depth step
~Well Information Block
STRT.FT                -6.7500: 
STOP.FT              1466.2500: 
STEP.FT                 0.2500: 
NULL.                -999.2500: 
COMP.          Pioneer Natural Resources: COMPANY
WELL.          Pallet Ranch 34-15 Tr: WELL
FLD.           Purgatorie River: FIELD
LOC.           465' FSL & 2138' FEL--: LOCATION
PROV.                       CO: PROVINCE
CNTY.               Las Animas: COUNTRY
SRVC.          Patterson Wireline: SERVICE COMPANY
DATE.          Wed Jan 25 09:38:09 2006: LOG DATE
UWI.           05 071 08657 00: UNIQUE WELL ID
~Curve Information Block
DEPT.FT            0 000 00 00: Depth
CCL.                          : Casing Collar Locator
TT3.usec                      : CBL 3' Travel Time
AMP3.mV                       : CBL 3' Amplitude
GR.GAPI                       : Gamma Ray
~Parameter Information Block
~A  Depth       CCL         TT3         AMP3         GR     
# ...
  1333.2500      0.0000    710.9357      5.7071    172.7025
  1333.5000      0.0000    710.4809      5.7186    169.5198
  1333.7500      0.0000    705.8775      5.7111    168.1866
  1334.0000      0.0000    698.3261      5.6943    168.8901
  1334.2500      0.0000    689.3245      5.6767    170.3421
  1334.5000      0.0000    680.6345      5.6588    170.1802
  1334.7500      0.0000    674.0057      5.6308    166.6615
  1335.0000      0.0000    670.2292      5.5848    159.6507
  1335.2500      0.0000    668.7271      5.5335    149.8561
  1335.5000      0.0000    668.3066      5.5136    137.8347
  1335.7500      0.0000    668.1101      5.5587    124.3880
  1336.0000      0.0000    667.8550      5.6649    111.4566
  1336.2500      0.0000    667.5412      5.7855    101.7259
  1336.5000      0.0000    667.1356      5.8595     97.1650
  1336.7500      0.0000    666.4518      5.8435     98.0033
  1337.0000      0.0000    665.2739      5.7299    102.7744
  1337.2500      0.0000    663.6435      5.5556    108.9431
  1337.5000      0.0000    662.0820      5.3948    113.6389
  1337.7500      0.0000    661.3992      5.3219    114.5874
  1338.0000      0.0000    662.2067      5.3647    111.2628
  1338.2500      0.0000    664.6866      5.4935    105.4240
  1338.5000      0.0000    668.5732      5.6491    100.1620
  1338.7500      0.0000    672.8326      5.7742     97.8675
  1339.0000      0.0000    675.6377      5.8300     98.6439
  1339.2500      0.0000    675.6218      5.8105    100.4454
  1339.5000      0.0000    673.3132      5.7476    101.1412
  1339.7500      0.0000    670.7806      5.6911    100.9497
  1340.0000      0.0000    669.9988      5.6717    102.5351
  1340.2500      0.0000    671.7830      5.6859    108.1020
  1340.5000      0.0000    675.4915      5.7145    116.6604
  1340.7500      0.0000    678.8756      5.7434    124.8880
  1341.0000      0.0000    678.6192      5.7672    130.4415
  1341.2500      0.0000    671.9133      5.7812    133.5597
  1341.5000      0.0000    657.8398      5.7787    135.6593
  1341.7500      0.0000    637.7230      5.7542    137.4254
  1342.0000      0.0000    615.4340      5.7100    138.5539
  1342.2500      0.0000    597.5410      5.6602    138.7570
  1342.5000      0.0000    591.1346      5.6251    138.5547
  1342.7500      0.0000    599.1561      5.6166    138.9248
  1343.0000      0.0000    617.4854      5.6282    140.3061
  1343.2500      0.0000    637.6060      5.6425    142.1490
  1343.5000      0.0000    652.5241      5.6510    143.3820
  1343.7500      0.0000    660.0670      5.6650    143.0231
  1344.0000      0.0000    661.7064      5.7053    140.4992
  1344.2500      0.0000    660.0502      5.7798    136.1218
  1344.5000      0.0000    657.6749      5.8719    131.3257
  1344.7500      0.0000    656.7029      5.9508    127.8868
  1345.0000      0.0000    658.0110      5.9925    126.8719
  1345.2500      0.0000    660.8201      5.9940    128.5031
  1345.5000      0.0000    663.5978      5.9682    132.4844
  1345.7500      0.0000    665.3826      5.9297    138.0427
  1346.0000      0.0000    666.1779      5.8880    143.9849
  1346.2500      0.0000    666.4290      5.8488    149.1394
  1346.5000      0.0000    666.4971      5.8140    152.8931
  1346.7500      0.0000    666.5539      5.7807    155.3797
  1347.0000      0.0000    666.6786      5.7420    157.1739
  1347.2500      0.0000    666.8871      5.6929    158.5168
  1347.5000      0.0000    667.0974      5.6370    158.6722
  1347.7500      0.0000    667.1554      5.5883    156.2689
  1348.0000      0.0000    666.9208      5.5642    150.3574
  1348.2500      0.0000    666.2773      5.5738    140.9871
  1348.5000      0.0000    665.0096      5.6104    129.0294
  1348.7500      0.0000    662.8129      5.6565    116.0486
  1349.0000      0.0000    659.6971      5.6941    104.3868
  1349.2500      0.0000    656.4212      5.7124     96.5224
  1349.5000      0.0000    653.9455      5.7080     93.4311
  1349.7500      0.0000    651.9423      5.6825     93.5798
  1350.0000      0.0000    648.0765      5.6420     94.1538
  1350.2500      0.0000    639.3546      5.5993     93.6619
  1350.5000      0.0000    624.7108      5.5737     93.3051
  1350.7500      0.0000    607.1326      5.5790     95.7046
  1351.0000      0.0000    593.6161      5.6098    102.2929
  1351.2500      0.0000    591.5111      5.6441    112.0216
  1351.5000      0.0000    602.9461      5.6618    122.4714
  1351.7500      0.0000    622.7152      5.6613    131.7247
  1352.0000      0.0000    642.3472      5.6560    138.8830
  1352.2500      0.0000    656.1332      5.6576    143.3297
  1352.5000      0.0000    663.3610      5.6647    144.5020
  1352.7500      0.0000    666.2591      5.6707    142.6526
  1353.0000      0.0000    667.1685      5.6769    139.2476
  1353.2500      0.0000    667.3787      5.6924    136.2318
  1353.5000      0.0000    667.3403      5.7223    135.0826
  1353.7500      0.0000    667.1131      5.7597    136.4032
  1354.0000      0.0000    666.4446      5.7924    139.7005
  1354.2500      0.0000    664.5430      5.8148    143.2361
  1354.5000      0.0000    659.8360      5.8345    144.7351
  1354.7500      0.0000    650.2767      5.8661    143.0635
  1355.0000      0.0000    634.5826      5.9133    139.3678
  1355.2500      0.0000    614.0345      5.9456    136.2503
  1355.5000      0.0000    593.6333      5.8984    135.5229
  1355.7500      0.0000    581.4016      5.7262    136.6402
  1356.0000      0.0000    585.1896      5.4625    137.2977
  1356.2500      0.0000    607.7770      5.2004    135.6179
  1356.5000      0.0000    643.5143      5.0095    131.9168
  1356.7500      0.0000    680.3876      4.8931    128.4084
  1357.0000     -2.0000    707.2473      4.8227    127.1831
  1357.2500      0.0000    720.3668      4.7857    128.3346
  1357.5000      0.0000    723.4810      4.8050    129.7785
  1357.7500      0.0000    722.0975      4.9272    128.7619
  1358.0000      0.0000    718.5853      5.1741    123.8155
  1358.2500      0.0000    712.2881      5.4852    115.7414
  1358.5000      0.0000    702.6254      5.7327    107.2882
  1358.7500      0.0000    691.0650      5.8262    101.9141
  1359.0000      0.0000    680.4162      5.7856    102.0525
  1359.2500      0.0000    672.8233      5.6932    107.7265
  1359.5000      0.0000    668.6134      5.6037    116.6640
  1359.7500      0.0000    666.7884      5.5238    125.6570
  1360.0000      0.0000    666.1726      5.4482    131.6605
  1360.2500      0.0000    666.0500      5.3829    132.3425
  1360.5000      0.0000    666.1195      5.3348    126.9850
  1360.7500      0.0000    666.2449      5.2969    117.3131
  1361.0000      0.0000    666.3280      5.2522    106.9453
  1361.2500      0.0000    666.3111      5.1886     99.6174
  1361.5000      0.0000    666.2013      5.1046     97.4402
  1361.7500      0.0000    666.0392      5.0041    100.0208
  1362.0000      0.0000    665.8571      4.8931    104.8568
  1362.2500      0.0000    665.6676      4.7840    109.0241
  1362.5000      0.0000    665.4864      4.6982    111.0292
  1362.7500      0.0000    665.3488      4.6583    111.1564
  1363.0000      0.0000    665.2974      4.6746    110.2145
  1363.2500      0.0000    665.3607      4.7381    108.3395
  1363.5000      0.0000    665.5538      4.8274    105.1724
  1363.7500      0.0000    665.8838      4.9224    100.9096
  1364.0000      0.0000    666.3126      5.0134     96.9273
  1364.2500      0.0000    666.7088      5.0982     95.3027
  1364.5000      0.0000    666.7664      5.1763     97.6629
  1364.7500      0.0000    665.8781      5.2476    104.2522
  1365.0000      0.0000    662.8976      5.3146    113.6347
  1365.2500      0.0000    656.2521      5.3809    122.8900
  1365.5000      0.0000    645.0005      5.4463    128.4604
  1365.7500      0.0000    630.4180      5.5021    127.9650
  1366.0000      0.0000    616.3481      5.5348    121.9879
  1366.2500      0.0000    607.4747      5.5371    114.0389
  1366.5000      0.0000    606.9402      5.5178    108.5018
