~Version Information
VERS.                      2.0: CWLS Log ASCII Standard - VERSION 2.0
WRAP.                       NO: One line per depth step
~Well Information Block
STRT.FT                -7.0000: 
STOP.FT              3030.2500: 
STEP.FT                 0.2500: 
NULL.                -999.2500: 
COMP.          Pioneer Natural Resources: COMPANY
WELL.            Cleaver 24-12: WELL
FLD.           Purgatorie River: FIELD
LOC.           204' FSL & 2351' FWL--: LOCATION
CNTY.               Las Animas: COUNTY
SRVC.          Patterson Wireline: SERVICE COMPANY
DATE.          Thu Feb 02 12:17:57 2006: LOG DATE
UWI.           05 071 08634 00: UNIQUE WELL ID
STAT.                       CO: STATE
~Curve Information Block
DEPT.FT            0 000 00 00: Depth
CCL.                          : Casing Collar Locator
TT3.usec                      : CBL 3' Travel Time
AMP3.mV                       : CBL 3' Amplitude
GR.GAPI                       : Gamma Ray
~Parameter Information Block
~A  Depth       CCL         TT3         AMP3         GR     
# ...
  2204.0000      0.0000    670.9300      9.9182    150.9793
  2204.2500      0.0000    675.6409      9.7847    150.4509
  2204.5000      0.0000    677.7220      9.6610    150.4009
  2204.7500      0.0000    676.8818      9.5514    150.9155
  2205.0000      0.0000    674.2146      9.4554    152.2940
  2205.2500      0.0000    671.3893      9.3654    154.6761
  2205.5000      0.0000    669.5162      9.2699    157.0466
  2205.7500      0.0000    668.9789      9.1612    157.8661
  2206.0000      0.0000    670.1534      9.0436    156.7044
  2206.2500      0.0000    673.9134      8.9363    154.6357
  2206.5000      0.0000    680.9864      8.8642    153.2204
  2206.7500      0.0000    690.2687      8.8404    153.3722
  2207.0000      0.0000    697.8361      8.8560    154.8313
  2207.2500      0.0000    698.7789      8.8909    156.3741
  2207.5000      0.0000    690.7009      8.9308    156.6560
  2207.7500      0.0000    675.0745      8.9710    154.9583
  2208.0000      0.0000    655.5186      9.0074    151.4427
  2208.2500      0.0000    636.3259      9.0364    147.1545
  2208.5000      0.0000    622.6380      9.0608    143.7588
  2208.7500      0.0000    619.6318      9.0919    142.7938
  2209.0000      0.0000    629.2394      9.1427    144.8357
  2209.2500      0.0000    647.3075      9.2214    149.1217
  2209.5000      0.0000    665.1113      9.3286    153.6964
  2209.7500      0.0000    674.8668      9.4580    156.1577
  2210.0000      0.0000    673.9007      9.6008    154.9046
  2210.2500      0.0000    664.1814      9.7511    150.0854
  2210.5000      0.0000    650.0792      9.9073    143.5649
  2210.7500      0.0000    637.5378     10.0710    138.1013
  2211.0000      0.0000    632.6154     10.2439    136.0389
  2211.2500      0.0000    637.6263     10.4223    138.0183
  2211.5000      0.0000    648.9572     10.5888    142.7388
  2211.7500      0.0000    660.3847     10.7098    147.9617
  2212.0000      0.0000    668.1795     10.7508    151.5880
  2212.2500      0.0000    672.6211     10.7055    152.1952
  2212.5000      0.0000    675.9850     10.6114    149.4632
  2212.7500      0.0000    680.1860     10.5285    144.2535
  2213.0000      0.0000    685.4689     10.4903    137.8878
  2213.2500      0.0000    690.1923     10.4749    131.3397
  2213.5000      0.0000    691.9413     10.4241    125.2978
  2213.7500      0.0000    689.5298     10.2864    120.7409
  2214.0000      0.0000    684.0629     10.0386    118.9433
  2214.2500      0.0000    678.0623      9.6796    120.6555
  2214.5000      0.0000    673.7988      9.2212    125.4089
  2214.7500      0.0000    672.6859      8.6909    131.8894
  2215.0000      0.0000    675.7360      8.1400    138.8346
  2215.2500      0.0000    683.6074      7.6391    145.0236
  2215.5000      0.0000    695.6751      7.2536    148.5299
  2215.7500      0.0000    709.5654      7.0125    147.2748
  2216.0000      0.0000    722.4979      6.8961    141.3894
  2216.2500      0.0000    733.3959      6.8555    134.5325
  2216.5000      0.0000    743.4254      6.8482    131.5531
  2216.7500      0.0000    754.3950      6.8599    134.3627
  2217.0000      0.0000    766.5801      6.9077    140.3169
  2217.2500      0.0000    777.6086      7.0323    144.5219
  2217.5000      0.0000    782.9806      7.2786    143.4495
  2217.7500      0.0000    778.2620      7.6680    136.7182
  2218.0000      0.0000    762.2384      8.1750    126.6032
  2218.2500      0.0000    738.8394      8.7284    116.5551
  2218.5000      0.0000    715.5894      9.2366    109.5337
  2218.7500      0.0000    699.3041      9.6248    106.8549
  2219.0000      0.0000    692.6359      9.8599    108.2388
  2219.2500      0.0000    694.0571      9.9486    112.5473
  2219.5000      0.0000    700.1671      9.9169    118.1159
  2219.7500      0.0000    707.6823      9.7960    122.8156
  2220.0000      0.0000    714.1165      9.6249    124.5757
  2220.2500      0.0000    717.6833      9.4524    122.2928
  2220.5000      0.0000    717.1474      9.3221    116.4333
  2220.7500      0.0000    712.3134      9.2494    108.7865
  2221.0000      0.0000    704.4660      9.2190    101.3251
  2221.2500      0.0000    694.7284      9.2101     95.0876
  2221.5000      0.0000    681.3112      9.2204     90.1516
  2221.7500      0.0000    660.7163      9.2613     86.4996
  2222.0000      0.0000    633.6065      9.3309     84.5249
  2222.2500      0.0000    607.8471      9.3995     84.4960
  2222.5000      0.0000    592.9734      9.4279     85.6575
  2222.7500      0.0000    591.7442      9.3977     86.1253
  2223.0000      0.0000    598.7270      9.3236     83.9811
  2223.2500      0.0000    606.8868      9.2348     78.7699
  2223.5000      0.0000    614.3388      9.1512     72.0088
  2223.7500      0.0000    624.0659      9.0772     66.2524
  2224.0000      0.0000    637.0193      9.0138     63.6223
  2224.2500      0.0000    647.9106      8.9673     64.8865
  2224.5000      0.0000    650.6638      8.9433     69.3362
  2224.7500      0.0000    646.2006      8.9380     75.3423
  2225.0000      0.0000    641.3304      8.9416     81.4776
  2225.2500      0.0000    640.9413      8.9495     87.4380
  2225.5000      0.0000    644.7016      8.9656     93.7978
  2225.7500      0.0000    650.8038      8.9949    100.9686
  2226.0000      0.0000    659.0443      9.0335    108.7911
  2226.2500      0.0000    669.2078      9.0673    116.9260
  2226.5000      0.0000    678.7056      9.0822    124.8017
  2226.7500      0.0000    683.7245      9.0786    131.2018
  2227.0000      0.0000    682.7604      9.0762    134.9600
  2227.2500      0.0000    678.0143      9.0979    136.3408
  2227.5000      0.0000    673.0266      9.1494    136.9076
  2227.7500      0.0000    669.7958      9.2173    137.7232
  2228.0000      0.0000    668.1503      9.2845    138.3819
  2228.2500      0.0000    666.6199      9.3427    138.2221
  2228.5000      0.0000    663.0162      9.3927    137.8416
  2228.7500      0.0000    654.8386      9.4381    138.6530
  2229.0000      0.0000    640.9795      9.4774    141.1128
  2229.2500      0.0000    624.2092      9.5050    144.0148
  2229.5000      0.0000    611.0117      9.5219    145.5649
  2229.7500      0.0000    606.3784      9.5428    144.6166
  2230.0000      0.0000    608.4742      9.5868    140.8886
  2230.2500      0.0000    610.8268      9.6586    134.7812
  2230.5000      0.0000    610.3435      9.7448    127.4848
  2230.7500      0.0000    610.2972      9.8266    120.7696
  2231.0000      0.0000    614.7833      9.8921    115.8644
  2231.2500      0.0000    623.9983      9.9370    112.3268
  2231.5000      0.0000    636.3444      9.9620    108.3021
  2231.7500      0.0000    650.0742      9.9773    102.1713
  2232.0000      0.0000    659.3876     10.0077     94.0757
  2232.2500      0.0000    653.5797     10.0825     86.0290
  2232.5000      0.0000    625.9599     10.2086     80.8259
  2232.7500      0.0000    582.9556     10.3546     80.7107
  2233.0000      0.0000    541.6066     10.4667     86.3310
  2233.2500      0.0000    519.0514     10.5005     96.2320
  2233.5000      0.0000    524.9855     10.4449    107.3795
  2233.7500      0.0000    559.1378     10.3263    116.8886
  2234.0000      0.0000    610.6095     10.1972    123.8779
  2234.2500      0.0000    661.1172     10.1123    129.5765
  2234.5000      0.0000    694.3197     10.1028    135.2669
  2234.7500      0.0000    704.7825     10.1646    140.2701
  2235.0000      0.0000    698.6191     10.2690    142.4540
  2235.2500      0.0000    686.3976     10.3842    140.5523
  2235.5000      0.0000    675.6353     10.4915    135.3443
  2235.7500      0.0000    668.1555     10.5847    128.7127
  2236.0000      0.0000    661.8102     10.6608    122.2838
  2236.2500      0.0000    653.3088     10.7146    116.9939
  2236.5000      0.0000    639.9643     10.7444    113.2321
  2236.7500      0.0000    620.3671     10.7614    110.9794
  2237.0000      0.0000    594.7465     10.7860    109.9658
  2237.2500      0.0000    565.0016     10.8307    109.6990
