~Version Information
VERS.                      2.0: CWLS Log ASCII Standard - VERSION 2.0
WRAP.                       NO: One line per depth step
~Well Information Block
STRT.FT                -8.7500: 
STOP.FT              1035.7500: 
STEP.FT                 0.2500: 
NULL.                -999.2500: 
COMP.          Pioneer Natural Resources: COMPANY
WELL.                Mac 22-36: WELL
FLD.           Purgatorie River: FIELD
LOC.           2545' FNL & 1398' FWL--: LOCATION
PROV.                       CO: PROVINCE
CNTY.               Las Animas: COUNTRY
SRVC.          Patterson Wireline: SERVICE COMPANY
DATE.          Thu Dec 08 13:20:05 2005: LOG DATE
UWI.           08 071 08594 00: UNIQUE WELL ID
~Curve Information Block
DEPT.FT            0 000 00 00: Depth
CCL.                          : Casing Collar Locator
TT3.usec                      : CBL 3' Travel Time
AMP3.mV                       : CBL 3' Amplitude
GR.GAPI                       : Gamma Ray
~Parameter Information Block
~A  Depth       CCL         TT3         AMP3         GR     
# ...
    58.2500      0.0000    943.5211     10.7535     74.7803
    58.5000      0.0000    916.7348     11.0518     72.3904
    58.7500      0.0000    893.6130     11.2921     71.0616
    59.0000      0.0000    875.8655     11.4479     72.5154
    59.2500      0.0000    865.2254     11.5314     76.1635
    59.5000      0.0000    861.5161     11.5846     80.0211
    59.7500      0.0000    861.0652     11.6625     82.3557
    60.0000      0.0000    857.6989     11.8078     82.6173
    60.2500      0.0000    846.4516     12.0248     81.1583
    60.5000      0.0000    827.0051     12.2861     78.4143
    60.7500      0.0000    804.2528     12.5766     74.6708
    61.0000      0.0000    785.1157     12.9219     70.4878
    61.2500      0.0000    773.8368     13.3571     66.7352
    61.5000      0.0000    769.2941     13.8703     63.9325
    61.7500      0.0000    766.5862     14.3934     61.8335
    62.0000      0.0000    761.6328     14.8512     59.9224
    62.2500      0.0000    754.9017     15.2017     58.1976
    62.5000      0.0000    750.7123     15.4281     57.2357
    62.7500      0.0000    752.6253     15.5224     57.5207
    63.0000      0.0000    759.7863     15.5077     58.9601
    63.2500      0.0000    767.8073     15.4694     61.1099
    63.5000      0.0000    772.4951     15.5236     63.5326
    63.7500      0.0000    772.3641     15.7313     65.7707
    64.0000      0.0000    768.4350     16.0497     67.2536
    64.2500      0.0000    762.7851     16.3733     67.4737
    64.5000      0.0000    757.3859     16.6116     66.2590
    64.7500      0.0000    753.4495     16.7283     63.8451
    65.0000      0.0000    751.2015     16.7243     60.7564
    65.2500      0.0000    750.1809     16.5979     57.7737
    65.5000      0.0000    749.7828     16.3369     56.0110
    65.7500      0.0000    749.6087     15.9633     56.6597
    66.0000      0.0000    749.5048     15.5789     60.2131
    66.2500      0.0000    749.4565     15.3333     65.8058
    66.5000      0.0000    749.4769     15.3202     71.5153
    66.7500      0.0000    749.5475     15.5101     75.6032
    67.0000      0.0000    749.6492     15.7821     77.6493
    67.2500      0.0000    749.7911     16.0108     78.5758
    67.5000      0.0000    749.9920     16.1262     79.6891
    67.7500      0.0000    750.2899     16.1220     81.7738
    68.0000      0.0000    750.8700     16.0286     84.8471
    68.2500      0.0000    752.0895     15.8684     88.2617
    68.5000      0.0000    754.0766     15.6332     91.0196
    68.7500      0.0000    756.1745     15.3165     92.5720
    69.0000      0.0000    757.1292     14.9635     93.4026
    69.2500      0.0000    756.1934     14.6691     94.3281
    69.5000      0.0000    753.8981     14.5137     95.2548
    69.7500      0.0000    751.4926     14.4997     95.1950
    70.0000      0.0000    749.8444     14.5423     93.6327
    70.2500      0.0000    749.1076     14.5165     91.4053
    70.5000      0.0000    749.3417     14.3281     90.1934
    70.7500      0.0000    751.4337     13.9619     91.4761
    71.0000      0.0000    757.7322     13.4818     95.6651
    71.2500      0.0000    771.6022     12.9920    101.4455
    71.5000      0.0000    795.1574     12.5872    106.1163
    71.7500      0.0000    826.1654     12.3132    107.3809
    72.0000      0.0000    857.4230     12.1549    105.0431
    72.2500      0.0000    880.6196     12.0583    100.8874
    72.5000      0.0000    891.7625     11.9706     97.0411
    72.7500      0.0000    892.9809     11.8669     94.4996
    73.0000      0.0000    889.5476     11.7474     93.0484
    73.2500      0.0000    885.7886     11.6180     92.3395
    73.5000      0.0000    883.4017     11.4796     92.6281
    73.7500      0.0000    882.2571     11.3413     94.4412
    74.0000      0.0000    881.7301     11.2368     97.7584
    74.2500      0.0000    881.2779     11.2078    101.4194
    74.5000      0.0000    880.3017     11.2539    103.4204
    74.7500      0.0000    877.9345     11.3138    102.3165
    75.0000      0.0000    873.3597     11.3218     98.5014
    75.2500      0.0000    866.6882     11.2853     93.7679
    75.5000      0.0000    859.6160     11.2905     89.8514
    75.7500      0.0000    854.8796     11.4234     87.6022
    76.0000      0.0000    854.6164     11.6870     86.9954
    76.2500      0.0000    858.9186     11.9931     87.3658
    76.5000      0.0000    865.8113     12.2298     87.8091
    76.7500      0.0000    872.6672     12.3344     87.6750
    77.0000      0.0000    878.0461     12.3038     86.8537
    77.2500      0.0000    882.6840     12.1513     85.9119
    77.5000      0.0000    889.2386     11.8797     85.8808
    77.7500      0.0000    900.5885     11.5047     87.3676
    78.0000      0.0000    916.5172     11.0832     89.7823
    78.2500      0.0000    931.0832     10.6998     91.7456
    78.5000      0.0000    935.3486     10.4267     92.0964
    78.7500      0.0000    925.1161     10.2964     90.2801
    79.0000      0.0000    904.8723     10.3000     86.3788
    79.2500      0.0000    882.6893     10.4005     81.4735
    79.5000      0.0000    863.2736     10.5506     77.5537
    79.7500      0.0000    847.3056     10.7040     76.2677
    80.0000      0.0000    834.6124     10.8125     77.7453
    80.2500      0.0000    825.2628     10.8257     80.7670
    80.5000      0.0000    818.6121     10.7154     83.7461
    80.7500      0.0000    813.2916     10.5040     85.5537
    81.0000      0.0000    808.4106     10.2561     85.8691
    81.2500      0.0000    804.1175     10.0362     85.1097
    81.5000      0.0000    800.9604      9.8760     84.2999
    81.7500      0.0000    799.0552      9.7730     84.9433
    82.0000      0.0000    798.0593      9.7067     88.1589
    82.2500      0.0000    797.6659      9.6530     93.2502
    82.5000      0.0000    798.1325      9.5955     97.7161
    82.7500      0.0000    800.9975      9.5297     99.4315
    83.0000      0.0000    810.0323      9.4599     98.7581
    83.2500      0.0000    830.8130      9.3930     98.2784
    83.5000      0.0000    866.3290      9.3333    100.3716
    83.7500      0.0000    910.1555      9.2816    104.7381
    84.0000      0.0000    946.2067      9.2375    108.2336
    84.2500      0.0000    960.4082      9.2039    107.4844
    84.5000      0.0000    952.7659      9.1894    101.7552
    84.7500      0.0000    934.2847      9.2029     93.3123
    85.0000      0.0000    914.9115      9.2396     85.4953
    85.2500      0.0000    899.7991      9.2804     80.8189
    85.5000      0.0000    892.5125      9.3152     80.1690
    85.7500      0.0000    893.5772      9.3639     82.6169
    86.0000      0.0000    898.3975      9.4579     85.8856
    86.2500      0.0000    902.9082      9.5986     87.8751
    86.5000      0.0000    909.0406      9.7439     88.2121
    86.7500      0.0000    921.0693      9.8307     88.2151
    87.0000      0.0000    940.5118      9.8070     89.5005
    87.2500      0.0000    967.2487      9.6600     92.8500
    87.5000      0.0000   1000.6678      9.4296     98.0633
    87.7500      0.0000   1035.2285      9.1810    104.2188
    88.0000      0.0000   1057.8660      8.9551    109.8670
    88.2500      0.0000   1055.4573      8.7611    113.2300
    88.5000      0.0000   1027.3564      8.6263    112.7790
    88.7500      0.0000    988.9540      8.6260    108.3564
    89.0000      0.0000    960.6435      8.8457    101.9908
    89.2500      0.0000    952.8124      9.3210     96.9954
    89.5000      0.0000    961.7116     10.0062     95.6773
    89.7500      0.0000    977.9020     10.7707     97.9803
    90.0000      0.0000    995.4490     11.4326    102.1650
    90.2500      0.0000   1012.4088     11.8494    106.1787
    90.5000      0.0000   1026.4885     12.0075    108.4865
    90.7500      0.0000   1035.4037     12.0075    108.5508
    91.0000      0.0000   1041.3063     11.9528    106.9209
    91.2500      0.0000   1050.5587     11.8735    104.4710
    91.5000      0.0000   1067.4905     11.7669    101.5808
