~Version Information
VERS.                      2.0: CWLS Log ASCII Standard - VERSION 2.0
WRAP.                       NO: One line per depth step
~Well Information Block
STRT.FT                10.0000: 
STOP.FT              1350.5000: 
STEP.FT                 0.1000: 
NULL.                -999.2500: 
COMP.          Pioneer Natural Resources: COMPANY
WELL.              Dicks 32-5R: WELL
FLD.           Purgatorie River: FIELD
LOC.           1485' FNL & 1684' FEL: LOCATION
PROV.                 Colorado: PROVINCE
CNTY.               Las Animas: COUNTRY
SRVC.                Patterson: SERVICE COMPANY
DATE.          Fri Dec 09 10:06:15 2005: LOG DATE
UWI.                          : UNIQUE WELL ID
~Curve Information Block
DEPT.FT            0 000 00 00: Depth
DCAL.in                       : CDL Caliper
RHOB.g/cc                     : CDL Bulk Density
RHOC.g/cc                     : CDL Density Correction
DPOR.pu                       : CDL Density Porosity
GR.GAPI                       : Gamma Ray
NPOR.pu                       : Neutron Porosity
~Parameter Information Block
~A  Depth       DCAL        RHOB        RHOC        DPOR         GR         NPOR    
# ...
  1334.8000      7.9789      2.5341      0.0801      7.0259    129.9924   -999.2500
  1334.9000      7.9789      2.5022      0.0559      8.9549    128.7733   -999.2500
  1335.0000      7.9399      2.4731      0.0277     10.7195    120.1059   -999.2500
  1335.1000      7.9399      2.4524      0.0064     11.9783    109.0792   -999.2500
  1335.2000      7.9399      2.4401      0.0531     12.7227    101.4529   -999.2500
  1335.3000      7.9320      2.4325      0.0267     13.1838     95.2132   -999.2500
  1335.4000      7.9320      2.4299      0.0512     13.3365     89.6349   -999.2500
  1335.5000      7.9443      2.4332      0.0779     13.1385     87.7899   -999.2500
  1335.6000      7.9443      2.4412      0.0466     12.6532     87.6920   -999.2500
  1335.7000      7.9443      2.4514      0.0984     12.0383     86.0354   -999.2500
  1335.8000      7.9513      2.4498      0.1324     12.1352     83.8025   -999.2500
  1335.9000      7.9513      2.4291      0.0663     13.3892     82.3701   -999.2500
  1336.0000      7.9448      2.4058      0.0581     14.8027     80.9712   -999.2500
  1336.1000      7.9448      2.3934      0.0567     15.5509     80.0102   -999.2500
  1336.2000      7.9448      2.3874      0.0322     15.9165     81.1879   -999.2500
  1336.3000      7.9549      2.3787      0.0503     16.4398     82.5026   -999.2500
  1336.4000      7.9549      2.3661      0.0342     17.2076     81.7953   -999.2500
  1336.5000      7.9334      2.3560      0.0151     17.8178     81.0040   -999.2500
  1336.6000      7.9334      2.3513      0.0130     18.1049     76.0265   -999.2500
  1336.7000      7.9334      2.3501      0.0139     18.1782     57.0167   -999.2500
  1336.8000      7.9380      2.3552     -0.0102     17.8656     29.0946   -999.2500
  1336.9000      7.9380      2.3622      0.0520     17.4421      9.1137   -999.2500
  1337.0000      7.9744      2.3577      0.0234     17.7137      1.6456   -999.2500
  1337.1000      7.9744      2.3466     -0.0197     18.3864      0.1647   -999.2500
  1337.2000      7.9744      2.3417      0.0527     18.6860      0.0086   -999.2500
  1337.3000      7.9615      2.3428      0.0117     18.6153      0.0000   -999.2500
  1337.4000      7.9615      2.3469      0.0503     18.3672   -999.2500   -999.2500
  1337.5000      7.9628      2.3526      0.0160     18.0262   -999.2500   -999.2500
  1337.6000      7.9628      2.3650      0.0055     17.2741   -999.2500   -999.2500
  1337.7000      7.9628      2.3879      0.0420     15.8858   -999.2500   -999.2500
  1337.8000      7.9618      2.4179      0.0279     14.0638   -999.2500   -999.2500
  1337.9000      7.9618      2.4488      0.0530     12.1952   -999.2500   -999.2500
  1338.0000      7.9589      2.4721      0.0693     10.7789   -999.2500   -999.2500
  1338.1000      7.9589      2.4895      0.0404      9.7292   -999.2500   -999.2500
  1338.2000      7.9589      2.5026      0.0797      8.9313   -999.2500   -999.2500
  1338.3000      7.9508      2.5012      0.0619      9.0169   -999.2500   -999.2500
  1338.4000      7.9508      2.4839     -0.0053     10.0671   -999.2500   -999.2500
  1338.5000      7.9648      2.4645      0.0038     11.2419   -999.2500   -999.2500
  1338.6000      7.9648      2.4510      0.0147     12.0615   -999.2500   -999.2500
  1338.7000      7.9648      2.4445     -0.0068     12.4572   -999.2500   -999.2500
  1338.8000      7.9402      2.4446     -0.0128     12.4498   -999.2500   -999.2500
  1338.9000      7.9402      2.4462      0.0088     12.3544   -999.2500   -999.2500
  1339.0000      7.9758      2.4447      0.0312     12.4420   -999.2500   -999.2500
  1339.1000      7.9758      2.4423      0.0103     12.5854   -999.2500   -999.2500
  1339.2000      7.9758      2.4414      0.0520     12.6402   -999.2500   -999.2500
  1339.3000      7.9518      2.4401      0.0648     12.7216   -999.2500   -999.2500
  1339.4000      7.9518      2.4411      0.0614     12.6632   -999.2500   -999.2500
  1339.5000      7.9286      2.4484      0.0601     12.2199   -999.2500   -999.2500
  1339.6000      7.9286      2.4569      0.0922     11.7038   -999.2500   -999.2500
  1339.7000      7.9286      2.4586      0.0845     11.5971   -999.2500   -999.2500
  1339.8000      7.8967      2.4554      0.0517     11.7934   -999.2500   -999.2500
  1339.9000      7.8967      2.4581      0.0620     11.6295   -999.2500   -999.2500
  1340.0000      7.9340      2.4730      0.0183     10.7267   -999.2500   -999.2500
  1340.1000      7.9340      2.4973      0.0581      9.2573   -999.2500   -999.2500
  1340.2000      7.9340      2.5258      0.0255      7.5269   -999.2500   -999.2500
  1340.3000      7.9255      2.5543      0.0634      5.8015   -999.2500   -999.2500
  1340.4000      7.9255      2.5730      0.0778      4.6669   -999.2500   -999.2500
  1340.5000      7.9116      2.5764      0.0392      4.4627   -999.2500   -999.2500
  1340.6000      7.9116      2.5679      0.0602      4.9754   -999.2500   -999.2500
  1340.7000      7.9116      2.5518      0.0208      5.9496   -999.2500   -999.2500
  1340.8000      7.9545      2.5361      0.0367      6.9027   -999.2500   -999.2500
  1340.9000      7.9545      2.5262      0.0509      7.5012   -999.2500   -999.2500
  1341.0000      7.9531      2.5252      0.0175      7.5640   -999.2500   -999.2500
  1341.1000      7.9531      2.5359      0.0277      6.9149   -999.2500   -999.2500
  1341.2000      7.9531      2.5420      0.0875      6.5433   -999.2500   -999.2500
  1341.3000      7.9533      2.5199      0.0843      7.8843   -999.2500   -999.2500
  1341.4000      7.9533      2.4823     -0.0074     10.1663   -999.2500   -999.2500
  1341.5000      7.9402      2.4643      0.0348     11.2576   -999.2500   -999.2500
  1341.6000      7.9402      2.4705      0.0524     10.8762   -999.2500   -999.2500
  1341.7000      7.9402      2.4762      0.0686     10.5304   -999.2500   -999.2500
  1341.8000      7.9227      2.4714      0.0305     10.8238   -999.2500   -999.2500
  1341.9000      7.9227      2.4723      0.0619     10.7702   -999.2500   -999.2500
  1342.0000      7.9565      2.4833      0.1129     10.1043   -999.2500   -999.2500
  1342.1000      7.9565      2.4883      0.1009      9.7978   -999.2500   -999.2500
  1342.2000      7.9565      2.4843      0.0659     10.0407   -999.2500   -999.2500
  1342.3000      7.9508      2.4858      0.0538      9.9514   -999.2500   -999.2500
  1342.4000      7.9508      2.4953      0.0763      9.3749   -999.2500   -999.2500
  1342.5000      7.9643      2.5017      0.0461      8.9905   -999.2500   -999.2500
  1342.6000      7.9643      2.5003      0.0442      9.0707   -999.2500   -999.2500
  1342.7000      7.9643      2.4936      0.0315      9.4795   -999.2500   -999.2500
  1342.8000      7.9520      2.4881      0.0397      9.8135   -999.2500   -999.2500
  1342.9000      7.9520      2.4895      0.0444      9.7274   -999.2500   -999.2500
  1343.0000      7.9486      2.4959      0.0286      9.3392   -999.2500   -999.2500
  1343.1000      7.9486      2.5022      0.0238      8.9577   -999.2500   -999.2500
  1343.2000      7.9486      2.5041      0.0228      8.8394   -999.2500   -999.2500
  1343.3000      7.9392      2.5033      0.0147      8.8932   -999.2500   -999.2500
  1343.4000      7.9392      2.5113     -0.0028      8.4038   -999.2500   -999.2500
  1343.5000      7.9484      2.5379      0.0501      6.7949   -999.2500   -999.2500
  1343.6000      7.9484      2.5762      0.0596      4.4715   -999.2500   -999.2500
  1343.7000      7.9484      2.6113      0.1130      2.3471   -999.2500   -999.2500
  1343.8000      7.9594      2.6321      0.1040      1.0862   -999.2500   -999.2500
  1343.9000      7.9594      2.6345      0.1381      0.9381   -999.2500   -999.2500
  1344.0000      7.9555      2.6222      0.0882      1.6827   -999.2500   -999.2500
  1344.1000      7.9555      2.6066      0.1200      2.6314   -999.2500   -999.2500
  1344.2000      7.9555      2.5955      0.1204      3.3013   -999.2500   -999.2500
  1344.3000      7.8887      2.5898      0.0826      3.6508   -999.2500   -999.2500
