~Version Information
VERS.                      2.0: CWLS Log ASCII Standard - VERSION 2.0
WRAP.                       NO: One line per depth step
~Well Information Block
STRT.FT               440.0000: 
STOP.FT              1702.7500: 
STEP.FT                 0.2500: 
NULL.                -999.2500: 
COMP.          Pioneer Natural Resources: COMPANY
WELL.          Culver 14-12 Tr: WELL
FLD.           Purgatoire River: FIELD
LOC.           915' FSL & 1048' FWL--: LOCATION
STAT.                 Colorado: State
CNTY.               Las Animas: COUNTY
CTRY. USA : Country
SECT. 12 : Section
TOWN. 32S : Township
RANG. 66W : Range
SRVC.                Patterson: SERVICE COMPANY
DATE.          Tue Sep 27 23:38:23 2005: LOG DATE
API.           05 071 08520 00: UNIQUE WELL ID
~Curve Information Block
DEPT.FT            0 000 00 00: Depth
SN.Ohm-m                      : IEL Short Normal
SP.mV                         : IEL Spontaneous Potential
DIR.Ohm-m                     : IEL Induction Resistivity
GR.GAPI                       : Gamma Ray
~Parameter Information Block
~A  Depth        SN          SP         DIR          GR     
# ...
   507.0000   2000.0000   2014.0000     42.9580     54.2745
   507.2500   2000.0000   2014.0000     43.9407     54.3931
   507.5000   2000.0000   2014.0000     44.7696     54.7863
   507.7500   2000.0000   2014.0000     45.4586     55.0513
   508.0000   2000.0000   2014.0000     46.0640     55.1043
   508.2500   2000.0000   2014.0000     46.6433     54.8246
   508.5000   2000.0000   2014.0000     47.2186     54.2377
   508.7500   2000.0000   2014.0000     47.7637     54.0877
   509.0000   2000.0000   2014.0000     48.2142     54.6538
   509.2500   2000.0000   2014.0000     48.4930     55.5144
   509.5000   2000.0000   2014.0000     48.5484     57.0173
   509.7500   2000.0000   2014.0000     48.3843     57.7742
   510.0000   2000.0000   2014.0000     48.0633     58.0136
   510.2500   2000.0000   2014.0000     47.6700     57.4912
   510.5000   2000.0000   2014.0000     47.2683     56.1305
   510.7500   2000.0000   2014.0000     46.8868     55.3472
   511.0000   2000.0000   2014.0000     46.5362     55.0762
   511.2500   2000.0000   2014.0000     46.2256     55.5724
   511.5000   2000.0000   2014.0000     45.9548     56.8887
   511.7500   2000.0000   2014.0000     45.6977     57.7199
   512.0000   2000.0000   2014.0000     45.4069     58.3039
   512.2500   2000.0000   2014.0000     45.0379     58.2138
   512.5000   2000.0000   2014.0000     44.5732     57.8233
   512.7500   2000.0000   2014.0000     44.0280     57.6775
   513.0000   2000.0000   2014.0000     43.4454     57.6666
   513.2500   2000.0000   2014.0000     42.8861     57.6203
   513.5000   2000.0000   2014.0000     42.4107     57.2421
   513.7500   2000.0000   2014.0000     42.0550     56.7440
   514.0000   2000.0000   2014.0000     41.8151     55.6499
   514.2500   2000.0000   2014.0000     41.6566     54.7963
   514.5000   2000.0000   2014.0000     41.5404     53.8317
   514.7500   2000.0000   2014.0000     41.4443     53.7429
   515.0000   2000.0000   2014.0000     41.3664     54.4459
   515.2500   2000.0000   2014.0000     41.3143     54.9893
   515.5000   2000.0000   2014.0000     41.2935     54.9193
   515.7500   2000.0000   2014.0000     41.3016     54.1456
   516.0000   2000.0000   2014.0000     41.3288     52.6334
   516.2500   2000.0000   2014.0000     41.3640     51.9693
   516.5000   2000.0000   2014.0000     41.3976     51.9157
   516.7500   2000.0000   2014.0000     41.4111     52.3943
   517.0000   2000.0000   2014.0000     41.3567     53.4442
   517.2500   2000.0000   2014.0000     41.1486     54.1168
   517.5000   2000.0000   2014.0000     40.6911     54.8879
   517.7500   2000.0000   2014.0000     39.9370     55.3865
   518.0000   2000.0000   2014.0000     38.9274     56.8304
   518.2500   2000.0000   2014.0000     37.7712     58.8338
   518.5000   2000.0000   2014.0000     36.5791     64.3074
   518.7500   2000.0000   2014.0000     35.4086     69.8123
   519.0000   2000.0000   2014.0000     34.2555     80.2123
   519.2500   2000.0000   2014.0000     33.0792     87.6642
   519.5000   2000.0000   2014.0000     31.8356     97.8363
   519.7500   2000.0000   2014.0000     30.4967    103.2285
   520.0000   2000.0000   2014.0000     29.0611    108.9941
   520.2500   2000.0000   2014.0000     27.5601    111.6181
   520.5000   2000.0000   2014.0000     26.0561    114.4593
   520.7500   2000.0000   2014.0000     24.6287    115.8842
   521.0000   2000.0000   2014.0000     23.3531    117.5149
   521.2500   2000.0000   2014.0000     22.2824    118.4002
   521.5000   2000.0000   2014.0000     21.4396    119.7560
   521.7500   2000.0000   2014.0000     20.8166    120.7438
   522.0000   2000.0000   2014.0000     20.3811    121.9182
   522.2500   2000.0000   2014.0000     20.0846    122.0421
   522.5000   2000.0000   2014.0000     19.8719    120.7297
   522.7500   2000.0000   2014.0000     19.6916    118.8922
   523.0000   2000.0000   2014.0000     19.5080    115.1827
   523.2500   2000.0000   2014.0000     19.3091    112.5033
   523.5000   2000.0000   2014.0000     19.1053    108.9640
   523.7500   2000.0000   2014.0000     18.9185    107.2228
   524.0000   2000.0000   2014.0000     18.7695    105.5648
   524.2500   2000.0000   2014.0000     18.6697    104.9496
   524.5000   2000.0000   2014.0000     18.6193    104.5990
   524.7500   2000.0000   2014.0000     18.6091    104.8048
   525.0000   2000.0000   2014.0000     18.6267    106.0033
   525.2500   2000.0000   2014.0000     18.6657    107.3372
   525.5000   2000.0000   2014.0000     18.7323    109.2504
   525.7500   2000.0000   2014.0000     18.8459    109.5965
   526.0000   2000.0000   2014.0000     19.0327    107.5630
   526.2500   2000.0000   2014.0000     19.3195    104.5210
   526.5000   2000.0000   2014.0000     19.7302     98.7267
   526.7500   2000.0000   2014.0000     20.2864     95.0449
   527.0000   2000.0000   2014.0000     21.0055     90.8089
   527.2500   2000.0000   2014.0000     21.8911     88.8049
   527.5000   2000.0000   2014.0000     22.9203     86.4353
   527.7500   2000.0000   2014.0000     24.0367     85.0479
   528.0000   2000.0000   2014.0000     25.1588     83.3250
   528.2500   2000.0000   2014.0000     26.2050     82.5561
   528.5000   2000.0000   2014.0000     27.1244     81.9677
   528.7500   2000.0000   2014.0000     27.9112     81.7197
   529.0000   2000.0000   2014.0000     28.5944     81.0311
   529.2500   2000.0000   2014.0000     29.2119     80.2277
   529.5000   2000.0000   2014.0000     29.7864     78.7411
   529.7500   2000.0000   2014.0000     30.3187     77.7609
   530.0000   2000.0000   2014.0000     30.8008     76.4403
   530.2500   2000.0000   2014.0000     31.2341     75.6966
   530.5000   2000.0000   2014.0000     31.6355     74.9004
   530.7500   2000.0000   2014.0000     32.0242     74.5337
   531.0000   2000.0000   2014.0000     32.4027     73.8457
   531.2500   2000.0000   2014.0000     32.7561     73.1255
   531.5000   2000.0000   2014.0000     33.0758     71.7743
   531.7500   2000.0000   2014.0000     33.3802     70.8496
   532.0000   2000.0000   2014.0000     33.7089     69.5196
   532.2500   2000.0000   2014.0000     34.0944     68.7730
   532.5000   2000.0000   2014.0000     34.5367     68.4646
   532.7500   2000.0000   2014.0000     34.9958     69.1698
   533.0000   2000.0000   2014.0000     35.3999     71.4727
   533.2500   2000.0000   2014.0000     35.6671     73.3119
   533.5000   2000.0000   2014.0000     35.7408     75.6252
   533.7500   2000.0000   2014.0000     35.6218     76.6610
   534.0000   2000.0000   2014.0000     35.3704     77.4983
   534.2500   2000.0000   2014.0000     35.0734     77.6574
   534.5000   2000.0000   2014.0000     34.8036     77.4459
   534.7500   2000.0000   2014.0000     34.5943     77.1281
   535.0000   2000.0000   2014.0000     34.4285     76.6233
   535.2500   2000.0000   2014.0000     34.2366     76.3914
   535.5000   2000.0000   2014.0000     33.9186     76.4596
   535.7500   2000.0000   2014.0000     33.3909     77.0153
   536.0000   2000.0000   2014.0000     32.6342     79.1856
   536.2500   2000.0000   2014.0000     31.7005     81.8934
   536.5000   2000.0000   2014.0000     30.6712     88.1539
   536.7500   2000.0000   2014.0000     29.6071     93.4301
   537.0000   2000.0000   2014.0000     28.5301    101.2350
   537.2500   2000.0000   2014.0000     27.4405    105.1918
   537.5000   2000.0000   2014.0000     26.3450    108.4951
   537.7500   2000.0000   2014.0000     25.2701    109.5078
   538.0000   2000.0000   2014.0000     24.2568    111.1240
   538.2500   2000.0000   2014.0000     23.3473    113.1750
   538.5000   2000.0000   2014.0000     22.5771    118.0115
   538.7500   2000.0000   2014.0000     21.9707    121.7920
   539.0000   2000.0000   2014.0000     21.5375    126.6349
   539.2500   2000.0000   2014.0000     21.2703    128.5325
   539.5000   2000.0000   2014.0000     21.1494    128.9579
   539.7500   2000.0000   2014.0000     21.1523    127.9325
   540.0000   2000.0000   2014.0000     21.2607    125.4786
   540.2500   2000.0000   2014.0000     21.4613    123.7479
