~Version Information
VERS.                      2.0: CWLS Log ASCII Standard - VERSION 2.0
WRAP.                       NO: One line per depth step
~Well Information Block
STRT.FT                -7.7500: 
STOP.FT              2248.5000: 
STEP.FT                 0.2500: 
NULL.                -999.2500: 
COMP.          Pioneer Natural Resources: COMPANY
WELL.          Interceptor 43-13 Tr: WELL
FLD.           Purgatoire River: FIELD
LOC.           2006' FSL & 438' FEL--: LOCATION
PROV.                       CO: PROVINCE
CNTY.               Las Animas: COUNTRY
SRVC.          Patterson Wireline: SERVICE COMPANY
DATE.          Thu Nov 17 10:14:59 2005: LOG DATE
UWI.           05 071 08549 00: UNIQUE WELL ID
~Curve Information Block
DEPT.FT            0 000 00 00: Depth
CCL.                          : Casing Collar Locator
TT3.usec                      : CBL 3' Travel Time
AMP3.mV                       : CBL 3' Amplitude
GR.GAPI                       : Gamma Ray
~Parameter Information Block
~A  Depth       CCL         TT3         AMP3         GR     
# ...
  1901.7500      0.0000    673.3564      6.9168    117.6278
  1902.0000      0.0000    682.4662      6.0502    122.0880
  1902.2500      0.0000    688.9578      5.1429    124.5549
  1902.5000      0.0000    695.6790      4.2756    123.6625
  1902.7500      0.0000    702.2993      3.5166    119.8416
  1903.0000      0.0000    706.7039      2.8699    114.6431
  1903.2500      0.0000    706.9854      2.3018    109.7115
  1903.5000      0.0000    702.9884      1.8084    106.1912
  1903.7500      0.0000    696.5262      1.4521    104.7936
  1904.0000      0.0000    690.1977      1.3099    106.1611
  1904.2500      0.0000    685.7515      1.3854    110.4841
  1904.5000      0.0000    683.4058      1.5919    116.4997
  1904.7500      0.0000    682.4796      1.8249    121.8113
  1905.0000      0.0000    682.4053      2.0305    124.9802
  1905.2500      0.0000    683.2421      2.2020    126.5997
  1905.5000      0.0000    685.5673      2.3387    127.5358
  1905.7500      0.0000    689.9589      2.4263    126.8812
  1906.0000      0.0000    696.2971      2.4449    122.6659
  1906.2500      0.0000    703.3932      2.3875    114.1626
  1906.5000      0.0000    709.4543      2.2769    102.6584
  1906.7500      0.0000    713.0358      2.1723     90.1633
  1907.0000      0.0000    713.6027      2.1503     78.1196
  1907.2500      0.0000    711.5660      2.2555     67.4787
  1907.5000      0.0000    708.2907      2.4569     59.4168
  1907.7500      0.0000    705.8427      2.6580     55.4087
  1908.0000      0.0000    705.8461      2.7640     56.5752
  1908.2500      0.0000    708.1442      2.7477     62.9300
  1908.5000      0.0000    710.9186      2.6566     72.9131
  1908.7500      0.0000    712.4266      2.5639     83.5336
  1909.0000      0.0000    712.4895      2.5176     91.4551
  1909.2500      0.0000    712.1791      2.5271     94.4455
  1909.5000      0.0000    712.1945      2.5775     92.0885
  1909.7500      0.0000    711.7985      2.6472     85.6757
  1910.0000      0.0000    709.4703      2.7131     77.7977
  1910.2500      0.0000    704.5189      2.7448     71.5018
  1910.5000      0.0000    697.9374      2.7091     68.8838
  1910.7500      0.0000    691.6896      2.5954     70.1965
  1911.0000      0.0000    687.2563      2.4335     74.5742
  1911.2500      0.0000    684.8693      2.2762     81.6261
  1911.5000      0.0000    683.8749      2.1635     91.8899
  1911.7500      0.0000    683.5198      2.1059    105.4117
  1912.0000      0.0000    683.3989      2.0964    120.2153
  1912.2500      0.0000    683.4651      2.1303    132.9850
  1912.5000      0.0000    683.9111      2.2085    141.6239
  1912.7500      0.0000    685.1525      2.3256    146.6891
  1913.0000      0.0000    687.8312      2.4595    150.0305
  1913.2500      0.0000    692.4689      2.5824    152.6250
  1913.5000      0.0000    698.6855      2.6822    154.1804
  1913.7500      0.0000    704.6594      2.7629    154.2261
  1914.0000      0.0000    707.9144      2.8199    152.8297
  1914.2500      0.0000    707.4858      2.8300    150.3908
  1914.5000      0.0000    705.5352      2.7824    147.1656
  1914.7500      0.0000    705.9480      2.7119    143.1166
  1915.0000      0.0000    710.4406      2.6835    138.2909
  1915.2500      0.0000    716.7115      2.7404    133.3896
  1915.5000      0.0000    721.3484      2.8679    129.5939
  1915.7500      0.0000    723.4178      3.0036    127.3950
  1916.0000      0.0000    723.7234      3.0807    125.6744
  1916.2500     -2.0000    721.8760      3.0651    122.4255
  1916.5000      0.0000    716.4476      2.9502    116.5914
  1916.7500      0.0000    707.6132      2.7383    109.2600
  1917.0000      0.0000    697.9116      2.4583    103.2923
  1917.2500      0.0000    690.6193      2.1958    101.5550
  1917.5000      0.0000    688.3713      2.0701    104.5312
  1917.7500      0.0000    692.5276      2.1561    109.3281
  1918.0000      0.0000    702.2245      2.4296    111.7565
  1918.2500      0.0000    713.7211      2.7787    109.6405
  1918.5000      0.0000    722.0040      3.0631    103.8596
  1918.7500      0.0000    724.2751      3.1889     96.6839
  1919.0000      0.0000    721.8012      3.1559     90.0326
  1919.2500      0.0000    718.1415      3.0374     85.1342
  1919.5000      0.0000    716.2314      2.9159     82.5676
  1919.7500      0.0000    717.3694      2.8350     81.8870
  1920.0000      0.0000    721.7375      2.7963     81.7412
  1920.2500      0.0000    728.5681      2.7784     81.0847
  1920.5000      0.0000    735.8491      2.7550     79.9726
  1920.7500      0.0000    740.7819      2.7059     78.6653
  1921.0000      0.0000    741.2423      2.6236     76.4725
  1921.2500      0.0000    737.0901      2.5154     72.3707
  1921.5000      0.0000    730.2213      2.4003     66.5452
  1921.7500      0.0000    723.3006      2.3017     60.6211
  1922.0000      0.0000    718.2043      2.2428     56.4224
  1922.2500      0.0000    715.3549      2.2457     54.7704
  1922.5000      0.0000    714.1863      2.3292     55.2231
  1922.7500      0.0000    713.9578      2.5019     56.5272
  1923.0000      0.0000    714.1758      2.7488     57.5190
  1923.2500      0.0000    714.5759      3.0255     58.0269
  1923.5000      0.0000    715.0015      3.2712     58.8025
  1923.7500      0.0000    715.3653      3.4389     60.2526
  1924.0000      0.0000    715.6377      3.5188     61.4732
  1924.2500      0.0000    715.7798      3.5357     60.9613
  1924.5000      0.0000    715.6382      3.5257     58.0867
  1924.7500      0.0000    714.8566      3.5175     53.6385
  1925.0000      0.0000    712.9000      3.5326     49.1870
  1925.2500      0.0000    709.3732      3.5932     46.1643
  1925.5000      0.0000    704.6295      3.7185     45.2458
  1925.7500      0.0000    700.0669      3.9028     46.0812
  1926.0000      0.0000    697.3710      4.0988     47.4643
  1926.2500      0.0000    697.0873      4.2374     48.1344
  1926.5000      0.0000    698.1492      4.2748     47.8802
  1926.7500      0.0000    699.2092      4.2231     47.9927
  1927.0000      0.0000    700.2390      4.1358     50.4921
  1927.2500      0.0000    702.2845      4.0600     56.6087
  1927.5000      0.0000    705.7599      3.9975     65.6400
  1927.7500      0.0000    709.6557      3.9099     75.1787
  1928.0000      0.0000    712.2941      3.7588     82.7319
  1928.2500      0.0000    712.0419      3.5342     87.3714
  1928.5000      0.0000    706.8854      3.2434     89.9396
  1928.7500      0.0000    694.3911      2.8917     91.9827
  1929.0000      0.0000    674.1065      2.4935     94.8314
  1929.2500      0.0000    650.9268      2.1028     99.5467
  1929.5000      0.0000    634.2836      1.8036    107.0472
  1929.7500      0.0000    631.5145      1.6503    117.3559
  1930.0000      0.0000    641.9728      1.6290    128.4644
  1930.2500      0.0000    658.1723      1.6913    136.7628
  1930.5000      0.0000    671.8122      1.8113    139.4650
  1930.7500      0.0000    679.1066      1.9928    136.5644
  1931.0000     -2.0000    682.6255      2.2361    130.1839
  1931.2500      0.0000    688.4648      2.5097    122.4487
  1931.5000      2.0000    700.0320      2.7442    114.4287
  1931.7500      0.0000    714.3273      2.8646    106.6211
  1932.0000      0.0000    725.0173      2.8635     99.6493
  1932.2500      0.0000    728.5353      2.8444     94.4389
  1932.5000      0.0000    726.3359      2.9538     91.9508
  1932.7500      0.0000    722.2595      3.2619     92.5693
  1933.0000      0.0000    719.0797      3.7233     95.6289
  1933.2500      0.0000    717.4656      4.2240     99.6315
  1933.5000      0.0000    716.9319      4.6341    103.0751
  1933.7500      0.0000    716.8491      4.8612    105.3041
  1934.0000      0.0000    716.7593      4.9087    106.8105
  1934.2500      0.0000    716.1366      4.8764    108.6177
  1934.5000      0.0000    713.9454      4.8787    111.1969
  1934.7500      0.0000    708.1981      4.9647    114.1784
  1935.0000      0.0000    696.6444      5.1131    117.2257
