~Version Information
VERS.                      2.0: CWLS Log ASCII Standard - VERSION 2.0
WRAP.                       NO: One line per depth step
~Well Information Block
STRT.FT               770.0000: 
STOP.FT              2171.0000: 
STEP.FT                 0.1000: 
NULL.                -999.2500: 
COMP.          Pioneer Natural Resources: COMPANY
WELL.              Kermit 32-7: WELL
FLD.           Purgatoire River: FIELD
LOC.           2002' FNL & 2103' FEL: LOCATION
PROV.                 Colorado: PROVINCE
CNTY.               Las Animas: COUNTRY
SRVC.                Patterson: SERVICE COMPANY
DATE.          Thu Jan 12 03:02:28 2006: LOG DATE
UWI.           05 071 08647 00: UNIQUE WELL ID
~Curve Information Block
DEPT.FT            0 000 00 00: Depth
DCAL.in                       : CDL Caliper
RHOB.g/cc                     : CDL Bulk Density
RHOC.g/cc                     : CDL Density Correction
DPOR.pu                       : CDL Density Porosity
GR.GAPI                       : Gamma Ray
NPOR.pu                       : Neutron Porosity
~Parameter Information Block
~A  Depth       DCAL        RHOB        RHOC        DPOR         GR         NPOR    
   770.0000      4.3421      2.5697     -0.0497      4.8670    123.9443     19.5174
   770.1000      4.3421      2.5834     -0.0715      4.0388    122.9094     19.4974
   770.2000      4.3421      2.5494     -0.1203      6.0943    121.3002     19.6721
   770.3000      4.3435      2.4890     -0.1479      9.7597    120.3690     19.8528
   770.4000      4.3435      2.4259     -0.1658     13.5798    118.1870     19.6353
   770.5000      4.3428      2.3831     -0.2213     16.1788    118.0681     19.0987
   770.6000      4.3428      2.3724     -0.2478     16.8217    123.3215     18.6039
   770.7000      4.3428      2.3830     -0.2166     16.1834    128.8651     18.6131
   770.8000      4.3410      2.3894     -0.2103     15.7941    130.7568     19.1831
   770.9000      4.3410      2.3825     -0.2100     16.2112    132.2968     18.9426
   771.0000      4.3460      2.3833     -0.3439     16.1623    130.5453     17.3651
   771.1000      4.3460      2.3999     -0.1610     15.1571    123.3833     16.0332
   771.2000      4.3460      2.3970     -0.2133     15.3353    116.5937     15.6171
   771.3000      4.3417      2.3357     -0.2221     19.0476    116.3311     15.5417
   771.4000      4.3417      2.1852     -0.2626     28.1667    124.3606     15.7820
   771.5000      4.3451      1.9392     -0.3235     43.0780    135.9882     16.5294
   771.6000      4.3451      1.6856     -0.4821     58.4490    140.6186     17.5746
   771.7000      4.3451      1.5793     -0.5296     64.8909    136.3419     18.4960
   771.8000      4.3440      1.6941     -0.5023     57.9337    132.7416     18.7515
   771.9000      4.3440      1.9656     -0.3844     41.4795    131.0538     18.4609
   772.0000      4.4153      2.2871     -0.2715     21.9946    126.4039     18.0009
   772.1000      4.4153      2.6013     -0.0245      2.9537    121.7365     17.4223
   772.2000      4.4153      2.8457      0.5126    -11.8605    119.1389     17.0185
   772.3000      5.2604      2.9208      0.5487    -16.4129    116.8827     17.0373
   772.4000      5.2604      2.7943      0.3779     -8.7444    114.1295     17.7227
   772.5000      7.8527      2.5561     -0.1588      5.6927    110.0207     18.7284
   772.6000      7.8527      2.3415     -0.3805     18.6955    103.4416     18.7464
   772.7000      7.8527      2.2109     -0.3980     26.6127     99.5611     17.8350
   772.8000      8.1969      2.1494     -0.4169     30.3390    103.8960     17.0821
   772.9000      8.1969      2.1340     -0.4606     31.2750    107.5887     16.8581
   773.0000      8.1937      2.1413     -0.4267     30.8289    100.3534     17.6611
   773.1000      8.1937      2.1519     -0.4755     30.1876     88.3114     19.2916
   773.2000      8.1937      2.1644     -0.4660     29.4308     81.0497     20.1098
   773.3000      8.1932      2.1714     -0.3771     29.0084     80.3135     19.7270
   773.4000      8.1932      2.1619     -0.4823     29.5834     83.3620     19.2434
   773.5000      8.1931      2.1471     -0.4382     30.4785     87.1016     18.9339
   773.6000      8.1931      2.1302     -0.4375     31.5048     91.3899     18.6312
   773.7000      8.1931      2.1056     -0.4019     32.9965     96.7046     18.5926
   773.8000      8.1869      2.0860     -0.4798     34.1841    100.2643     19.0544
   773.9000      8.1869      2.0884     -0.4809     34.0384     97.5093     19.4781
   774.0000      8.1948      2.1019     -0.4416     33.2161     90.4549     18.7930
   774.1000      8.1948      2.1065     -0.4514     32.9418     89.2957     17.3502
   774.2000      8.1948      2.1116     -0.4578     32.6304     97.2023     16.6380
   774.3000      8.1962      2.1349     -0.4189     31.2178    104.4192     16.9528
   774.4000      8.1962      2.1670     -0.3497     29.2753    104.2510     17.4010
   774.5000      8.1945      2.1836     -0.3727     28.2691    100.7198     17.3727
   774.6000      8.1945      2.1753     -0.3655     28.7727     98.7166     16.8807
   774.7000      8.1945      2.1585     -0.4514     29.7889    100.7944     16.4046
   774.8000      8.1944      2.1524     -0.4049     30.1555    105.4027     16.2048
   774.9000      8.1944      2.1528     -0.4002     30.1341    107.8286     16.0336
   775.0000      8.1954      2.1417     -0.4154     30.8062    109.1852     16.2099
   775.1000      8.1954      2.1100     -0.4542     32.7279    108.6174     17.4033
   775.2000      8.1954      2.0727     -0.5289     34.9891     99.4414     19.2447
   775.3000      8.1964      2.0595     -0.5489     35.7906     86.6211     20.3253
   775.4000      8.1964      2.0771     -0.4496     34.7212     81.1620     19.7623
   775.5000      8.1974      2.1017     -0.4457     33.2283     81.6946     18.4942
   775.6000      8.1974      2.1181     -0.4900     32.2345     81.8811     17.7495
   775.7000      8.1974      2.1353     -0.4773     31.1911     81.7115     17.4007
   775.8000      8.2000      2.1569     -0.3851     29.8843     85.4169     17.0602
   775.9000      8.2000      2.1654     -0.3965     29.3680     91.9633     17.0475
   776.0000      8.2001      2.1405     -0.3641     30.8797     95.1387     17.2542
   776.1000      8.2001      2.0873     -0.4439     34.1002     91.2989     17.3317
   776.2000      8.2001      2.0432     -0.5710     36.7730     84.3019     17.3058
   776.3000      8.2043      2.0359     -0.4999     37.2179     81.8195     17.1485
   776.4000      8.2043      2.0519     -0.4637     36.2483     85.4829     16.8575
   776.5000      8.2013      2.0677     -0.4804     35.2914     92.5513     16.7476
   776.6000      8.2013      2.0800     -0.4899     34.5447     99.0330     16.6660
   776.7000      8.2013      2.0891     -0.3926     33.9912     99.4110     15.7362
   776.8000      8.2032      2.0906     -0.4298     33.9023     94.0859     14.3179
   776.9000      8.2032      2.0924     -0.4671     33.7925     87.5079     13.5950
   777.0000      8.2017      2.0982     -0.4060     33.4398     81.7797     13.8196
   777.1000      8.2017      2.0964     -0.4546     33.5486     76.5064     14.9806
   777.2000      8.2017      2.0873     -0.4394     34.1051     73.6079     16.7843
   777.3000      8.2009      2.0855     -0.5313     34.2124     74.7829     18.0588
   777.4000      8.2009      2.0975     -0.4069     33.4864     76.7571     18.1037
   777.5000      8.2031      2.1016     -0.3947     33.2344     78.9292     17.6928
   777.6000      8.2031      2.0858     -0.4440     34.1917     82.7092     17.9238
   777.7000      8.2031      2.0739     -0.4471     34.9150     83.3033     18.8938
   777.8000      8.2048      2.0846     -0.4789     34.2666     78.5486     19.7724
   777.9000      8.2048      2.1081     -0.4663     32.8432     74.0934     20.1007
   778.0000      8.2052      2.1155     -0.4361     32.3930     75.8122     20.2518
   778.1000      8.2052      2.0872     -0.4347     34.1089     83.7687     20.8724
   778.2000      8.2052      2.0467     -0.5346     36.5632     91.2540     21.8946
   778.3000      8.2076      2.0370     -0.5028     37.1489     92.1024     22.7841
   778.4000      8.2076      2.0545     -0.4388     36.0888     84.8356     23.4051
   778.5000      8.2111      2.0598     -0.4777     35.7711     77.3062     23.7896
   778.6000      8.2111      2.0427     -0.5503     36.8030     82.2432     23.9307
   778.7000      8.2111      2.0231     -0.5332     37.9950     98.0359     24.3134
   778.8000      8.2242      2.0149     -0.5168     38.4932    112.4759     25.0894
   778.9000      8.2242      2.0177     -0.5730     38.3232    120.8969     25.6782
   779.0000      8.2235      2.0237     -0.6041     37.9589    125.5000     25.2953
   779.1000      8.2235      2.0350     -0.5921     37.2724    126.9265     23.8849
   779.2000      8.2235      2.0647     -0.6208     35.4728    121.9086     22.9213
   779.3000      8.2249      2.1161     -0.5393     32.3605    110.9680     23.0682
   779.4000      8.2249      2.1746     -0.4992     28.8123    104.9407     23.3258
   779.5000      8.2249      2.2181     -0.4540     26.1775    109.6579     23.5040
