~Version Information
VERS.                      2.0: CWLS Log ASCII Standard - VERSION 2.0
WRAP.                       NO: One line per depth step
~Well Information Block
STRT.FT               695.5000: 
STOP.FT              1499.5000: 
STEP.FT                 0.2500: 
NULL.                -999.2500: 
COMP.          Pioneer Natural Resources: COMPANY
WELL.          Pallet Ranch 34-25 Tr: WELL
FLD.           Purgatoire River: FIELD
LOC.           465' FSL & 2138' FEL: LOCATION
PROV.                 Colorado: PROVINCE
CNTY.               Las Animas: COUNTRY
SRVC.                Patterson: SERVICE COMPANY
DATE.          Wed Jan 18 18:58:46 2006: LOG DATE
UWI.           05 071 08657 00: UNIQUE WELL ID
~Curve Information Block
DEPT.FT            0 000 00 00: Depth
SN.Ohm-m                      : IEL Short Normal
SP.mV                         : IEL Spontaneous Potential
DIR.Ohm-m                     : IEL Induction Resistivity
GR.GAPI                       : Gamma Ray
~Parameter Information Block
~A  Depth        SN          SP         DIR          GR     
# ...
   963.5000   2000.0000   2000.0000      8.0856     95.6354
   963.7500   2000.0000   2000.0000      1.8124     95.6605
   964.0000   2000.0000   2000.0000      0.8698    102.4833
   964.2500   2000.0000   2000.0000      0.5427    111.0158
   964.5000   2000.0000   2000.0000      0.4098    125.3460
   964.7500   2000.0000   2000.0000      0.3764    132.7430
   965.0000   2000.0000   2000.0000      0.4238    137.0829
   965.2500   2000.0000   2000.0000      0.5789    135.0972
   965.5000   2000.0000   2000.0000      0.9617    126.1555
   965.7500   2000.0000   2000.0000      2.1696    117.5628
   966.0000   2000.0000   2000.0000     18.2792    103.6548
   966.2500   2000.0000   2000.0000 100000.0000     95.6546
   966.5000   2000.0000   2000.0000 100000.0000     88.4333
   966.7500   2000.0000   2000.0000 100000.0000     87.6503
   967.0000   2000.0000   2000.0000 100000.0000     92.1158
   967.2500   2000.0000   2000.0000 100000.0000     97.6216
   967.5000   2000.0000   2000.0000 100000.0000    106.4386
   967.7500   2000.0000   2000.0000 100000.0000    110.6633
   968.0000   2000.0000   2000.0000 100000.0000    112.0294
   968.2500   2000.0000   2000.0000 100000.0000    109.2932
   968.5000   2000.0000   2000.0000 100000.0000    101.1583
   968.7500   2000.0000   2000.0000 100000.0000     94.4761
   969.0000   2000.0000   2000.0000 100000.0000     84.5425
   969.2500   2000.0000   2000.0000 100000.0000     78.5119
   969.5000   2000.0000   2000.0000 100000.0000     70.6412
   969.7500   2000.0000   2000.0000 100000.0000     66.4230
   970.0000   2000.0000   2000.0000 100000.0000     62.5109
   970.2500   2000.0000   2000.0000 100000.0000     62.0288
   970.5000   2000.0000   2000.0000 100000.0000     64.6489
   970.7500   2000.0000   2000.0000 100000.0000     68.1592
   971.0000   2000.0000   2000.0000 100000.0000     74.8726
   971.2500   2000.0000   2000.0000 100000.0000     79.8775
   971.5000   2000.0000   2000.0000 100000.0000     88.3649
   971.7500   2000.0000   2000.0000 100000.0000     95.0498
   972.0000   2000.0000   2000.0000 100000.0000    106.4818
   972.2500   2000.0000   2000.0000    590.7275    114.1563
   972.5000   2000.0000   2000.0000     93.2224    123.7179
   972.7500   2000.0000   2000.0000 100000.0000    128.1497
   973.0000   2000.0000   2000.0000 100000.0000    132.3456
   973.2500   2000.0000   2000.0000 100000.0000    134.2708
   973.5000   2000.0000   2000.0000 100000.0000    136.8193
   973.7500   2000.0000   2000.0000 100000.0000    138.3969
   974.0000   2000.0000   2000.0000 100000.0000    140.2057
   974.2500   2000.0000   2000.0000 100000.0000    140.6389
   974.5000   2000.0000   2000.0000 100000.0000    139.2081
   974.7500   2000.0000   2000.0000 100000.0000    136.3216
   975.0000   2000.0000   2000.0000 100000.0000    128.6620
   975.2500   2000.0000   2000.0000    130.6884    121.5410
   975.5000   2000.0000   2000.0000     19.4664    108.7190
   975.7500   2000.0000   2000.0000      7.8638     99.3054
   976.0000   2000.0000   2000.0000      3.8662     84.9457
   976.2500   2000.0000   2000.0000      2.1727     76.0770
   976.5000   2000.0000   2000.0000      1.3693     65.5004
   976.7500   2000.0000   2000.0000      0.9551     60.8068
   977.0000   2000.0000   2000.0000      0.7311     56.8143
   977.2500   2000.0000   2000.0000      0.6116     55.4157
   977.5000   2000.0000   2000.0000      0.5562     54.4390
   977.7500   2000.0000   2000.0000      0.5420     54.8129
   978.0000   2000.0000   2000.0000      0.5490     58.2391
   978.2500   2000.0000   2000.0000      0.5525     63.0791
   978.5000   2000.0000   2000.0000      0.5254     73.8807
   978.7500   2000.0000   2000.0000      0.4544     82.2667
   979.0000   2000.0000   2000.0000      0.3545     93.9408
   979.2500   2000.0000   2000.0000      0.2551    100.0736
   979.5000   2000.0000   2000.0000      0.1775    106.4571
   979.7500   2000.0000   2000.0000      0.1277    109.0306
   980.0000   2000.0000   2000.0000      0.1018    110.4671
   980.2500   2000.0000   2000.0000      0.0935    109.7323
   980.5000   2000.0000   2000.0000      0.0986    106.1609
   980.7500   2000.0000   2000.0000      0.1150    102.4158
   981.0000   2000.0000   2000.0000      0.1408     95.7684
   981.2500   2000.0000   2000.0000      0.1728     91.6033
   981.5000   2000.0000   2000.0000      0.2077     87.6444
   981.7500   2000.0000   2000.0000      0.2460     87.2396
   982.0000   2000.0000   2000.0000      0.2952     89.6194
   982.2500   2000.0000   2000.0000      0.3721     92.1788
   982.5000   2000.0000   2000.0000      0.5040     95.6315
   982.7500   2000.0000   2000.0000      0.7370     97.1604
   983.0000   2000.0000   2000.0000      1.1484     98.4907
   983.2500   2000.0000   2000.0000      1.8333     99.2046
   983.5000   2000.0000   2000.0000      2.7979    101.0593
   983.7500   2000.0000   2000.0000      3.9327    103.3593
   984.0000   2000.0000   2000.0000      5.5245    108.5566
   984.2500   2000.0000   2000.0000      9.5792    112.7013
   984.5000   2000.0000   2000.0000     44.5120    118.9754
   984.7500   2000.0000   2000.0000 100000.0000    123.1113
   985.0000   2000.0000   2000.0000 100000.0000    129.7065
   985.2500   2000.0000   2000.0000 100000.0000    134.3804
   985.5000   2000.0000   2000.0000 100000.0000    141.0180
   985.7500   2000.0000   2000.0000 100000.0000    144.6771
   986.0000   2000.0000   2000.0000 100000.0000    148.6741
   986.2500   2000.0000   2000.0000 100000.0000    150.2541
   986.5000   2000.0000   2000.0000 100000.0000    150.4798
   986.7500   2000.0000   2000.0000 100000.0000    148.9054
   987.0000   2000.0000   2000.0000 100000.0000    144.4391
   987.2500   2000.0000   2000.0000 100000.0000    141.0261
   987.5000   2000.0000   2000.0000 100000.0000    137.2241
   987.7500   2000.0000   2000.0000 100000.0000    136.2993
   988.0000   2000.0000   2000.0000 100000.0000    137.4338
   988.2500   2000.0000   2000.0000 100000.0000    139.4943
   988.5000   2000.0000   2000.0000   2200.0210    143.8864
   988.7500   2000.0000   2000.0000     57.4078    147.3670
   989.0000   2000.0000   2000.0000     27.9881    152.5496
   989.2500   2000.0000   2000.0000     18.5129    155.1929
   989.5000   2000.0000   2000.0000     14.3292    156.5500
   989.7500   2000.0000   2000.0000     12.3718    155.1998
   990.0000   2000.0000   2000.0000     11.5380    149.8775
   990.2500   2000.0000   2000.0000     11.2555    144.8897
   990.5000   2000.0000   2000.0000     11.1411    137.3524
   990.7500   2000.0000   2000.0000     10.9710    133.3783
   991.0000   2000.0000   2000.0000     10.7162    129.5719
   991.2500   2000.0000   2000.0000     10.4805    128.0530
   991.5000   2000.0000   2000.0000     10.3762    126.1765
   991.7500   2000.0000   2000.0000     10.4493    124.7993
   992.0000   2000.0000   2000.0000     10.6744    122.5945
   992.2500   2000.0000   2000.0000     10.9862    121.3157
   992.5000   2000.0000   2000.0000     11.3223    120.1335
   992.7500   2000.0000   2000.0000     11.6547    119.9071
   993.0000   2000.0000   2000.0000     11.9873    120.2965
   993.2500   2000.0000   2000.0000     12.3305    121.0249
   993.5000   2000.0000   2000.0000     12.6791    122.8751
   993.7500   2000.0000   2000.0000     13.0118    124.3647
   994.0000   2000.0000   2000.0000     13.3049    125.7494
   994.2500   2000.0000   2000.0000     13.5470    125.3710
   994.5000   2000.0000   2000.0000     13.7469    122.7739
   994.7500   2000.0000   2000.0000     13.9302    120.2963
   995.0000   2000.0000   2000.0000     14.1298    116.2982
   995.2500   2000.0000   2000.0000     14.3698    113.4062
   995.5000   2000.0000   2000.0000     14.6507    108.6407
   995.7500   2000.0000   2000.0000     14.9453    105.8049
   996.0000   2000.0000   2000.0000     15.2122    104.0531
   996.2500   2000.0000   2000.0000     15.4242    105.3085
   996.5000   2000.0000   2000.0000     15.5880    110.0740
   996.7500   2000.0000   2000.0000     15.7367    113.7831
