~Version Information
VERS.                      2.0: CWLS Log ASCII Standard - VERSION 2.0
WRAP.                       NO: One line per depth step
~Well Information Block
STRT.FT               400.0000: 
STOP.FT              1804.7000: 
STEP.FT                 0.1000: 
NULL.                -999.2500: 
COMP.          Pioneer Natural Resources: COMPANY
WELL.           Lynch 43-30 Tr: WELL
FLD.           Purgatoire River: FIELD
LOC.           1431' FSL & 296' FEL--: LOCATION
PROV.                 Colorado: PROVINCE
CNTY.               Las Animas: COUNTRY
SRVC.                Patterson: SERVICE COMPANY
DATE.          Thu Jul 28 10:43:37 2005: LOG DATE
UWI.           05 071 08447 00: UNIQUE WELL ID
~Curve Information Block
DEPT.FT            0 000 00 00: Depth
DCAL.in                       : CDL Caliper
RHOB.g/cc                     : CDL Bulk Density
RHOC.g/cc                     : CDL Density Correction
DPOR.pu                       : CDL Density Porosity
NPOR.pu                       : Neutron Porosity
GR.GAPI                       : Gamma Ray
~Parameter Information Block
~A  Depth       DCAL        RHOB        RHOC        DPOR        NPOR         GR     
# ...
  1676.8000      7.9131      2.5090      0.0416      8.5445     27.3254    117.2140
  1676.9000      7.9131      2.5123      0.0412      8.3461     27.1301    116.5212
  1677.0000      7.9139      2.5124      0.0448      8.3374     26.7583    119.3135
  1677.1000      7.9139      2.5120      0.0361      8.3618     26.5008    124.9380
  1677.2000      7.9139      2.5079      0.0610      8.6146     26.4627    127.5483
  1677.3000      7.9069      2.4926      0.0467      9.5413     26.6779    126.8488
  1677.4000      7.9069      2.4765      0.0307     10.5144     26.9124    127.3068
  1677.5000      7.8935      2.4704      0.0558     10.8855     26.8586    127.1142
  1677.6000      7.8935      2.4673      0.0504     11.0732     26.5906    122.5796
  1677.7000      7.8935      2.4674      0.0479     11.0652     26.1339    115.4241
  1677.8000      7.8825      2.4812      0.0562     10.2280     25.6147    109.7285
  1677.9000      7.8825      2.5100      0.0755      8.4875     25.3263    107.1435
  1678.0000      7.8815      2.5451      0.0817      6.3547     25.4055    107.0106
  1678.1000      7.8815      2.5741      0.1125      4.5999     25.9842    109.2644
  1678.2000      7.8815      2.5846      0.0983      3.9660     26.8348    114.3457
  1678.3000      7.8838      2.5717      0.1153      4.7451     27.4654    119.9245
  1678.4000      7.8838      2.5420      0.0824      6.5444     27.7639    123.8574
  1678.5000      7.8814      2.5170      0.0694      8.0609     27.7712    126.5537
  1678.6000      7.8814      2.5089      0.0806      8.5503     27.4493    127.1786
  1678.7000      7.8814      2.5080      0.0782      8.6074     27.1104    124.7144
  1678.8000      7.8826      2.5057      0.0758      8.7431     27.2541    121.7001
  1678.9000      7.8826      2.5041      0.0699      8.8424     27.7304    121.4013
  1679.0000      7.8879      2.5041      0.0799      8.8425     27.8723    125.8720
  1679.1000      7.8879      2.5069      0.0677      8.6710     27.3519    134.2731
  1679.2000      7.8879      2.5194      0.0709      7.9154     26.5736    140.6746
  1679.3000      7.8795      2.5364      0.0902      6.8830     26.3570    140.8961
  1679.4000      7.8795      2.5393      0.0979      6.7067     26.7092    136.0365
  1679.5000      7.8557      2.5289      0.0661      7.3392     26.7419    131.1153
  1679.6000      7.8557      2.5243      0.0767      7.6196     26.2933    132.5976
  1679.7000      7.8557      2.5263      0.0875      7.4958     26.1481    137.5992
  1679.8000      7.8340      2.5260      0.0750      7.5122     26.3003    138.0844
  1679.9000      7.8340      2.5274      0.0767      7.4275     26.0389    134.7762
  1680.0000      7.8250      2.5345      0.0811      6.9971     25.3060    133.7529
  1680.1000      7.8250      2.5436      0.0870      6.4479     24.6521    134.6437
  1680.2000      7.8250      2.5536      0.0774      5.8436     24.3384    133.1272
  1680.3000      7.8283      2.5642      0.0948      5.2019     24.0105    132.1553
  1680.4000      7.8283      2.5712      0.0867      4.7772     23.6831    131.1517
  1680.5000      7.8499      2.5758      0.0809      4.4992     23.7617    123.6176
  1680.6000      7.8499      2.5779      0.0940      4.3699     23.9100    114.8280
  1680.7000      7.8499      2.5754      0.0774      4.5224     23.7239    112.2655
  1680.8000      7.8873      2.5787      0.0673      4.3192     23.4389    114.2310
  1680.9000      7.8873      2.5954      0.0830      3.3076     23.3304    117.5000
  1681.0000      7.9154      2.6131      0.0881      2.2362     23.6490    121.5555
  1681.1000      7.9154      2.6167      0.0867      2.0166     24.6220    124.2003
  1681.2000      7.9154      2.6027      0.0783      2.8688     25.6745    122.5451
  1681.3000      7.9287      2.5758      0.0659      4.4954     26.2989    119.9667
  1681.4000      7.9287      2.5466      0.0528      6.2647     26.9925    120.9342
  1681.5000      7.9350      2.5276      0.0359      7.4210     27.9267    124.3011
  1681.6000      7.9350      2.5185      0.0550      7.9717     28.5754    127.8631
  1681.7000      7.9350      2.5068      0.0458      8.6816     28.9124    129.5944
  1681.8000      7.9385      2.4932      0.0310      9.5057     29.0287    127.6716
  1681.9000      7.9385      2.4874      0.0411      9.8564     28.8252    125.0848
  1682.0000      7.9403      2.4872      0.0444      9.8652     28.5224    127.9320
  1682.1000      7.9403      2.4881      0.0409      9.8129     28.3913    133.6304
  1682.2000      7.9403      2.4939      0.0480      9.4606     28.2760    133.3165
  1682.3000      7.9393      2.5173      0.0438      8.0453     27.9597    123.6089
  1682.4000      7.9393      2.5722      0.0560      4.7143     27.5361    112.8382
  1682.5000      7.9359      2.6472      0.1104      0.1673     26.9658    111.6132
  1682.6000      7.9359      2.7077      0.1250     -3.4976     26.4234    116.9499
  1682.7000      7.9359      2.7419      0.1185     -5.5723     26.2222    119.0243
  1682.8000      7.9284      2.7672      0.1239     -7.1008     25.9721    115.2619
  1682.9000      7.9284      2.7949      0.1285     -8.7827     25.4298    107.2342
  1683.0000      7.9037      2.8160      0.1467    -10.0618     25.1823     97.3196
  1683.1000      7.9037      2.8148      0.1389     -9.9877     25.5902     91.7927
  1683.2000      7.9037      2.7888      0.1242     -8.4122     26.0120     94.6729
  1683.3000      7.8598      2.7444      0.1145     -5.7219     25.8576    100.4330
  1683.4000      7.8598      2.6858      0.0931     -2.1722     25.6523    100.1130
  1683.5000      7.8306      2.6185      0.0733      1.9065     25.5905     97.0651
  1683.6000      7.8306      2.5526      0.0526      5.9018     25.1447    101.3431
  1683.7000      7.8306      2.5028      0.0333      8.9192     24.7463    112.4839
  1683.8000      7.8409      2.4816      0.0314     10.2075     24.9446    122.0019
  1683.9000      7.8409      2.4857      0.0473      9.9555     25.2444    125.1917
  1684.0000      7.8809      2.5005      0.0568      9.0608     25.3238    125.3814
  1684.1000      7.8809      2.5164      0.0588      8.0993     25.3032    128.6673
  1684.2000      7.8809      2.5310      0.0785      7.2143     25.0457    133.5530
  1684.3000      7.9152      2.5476      0.0642      6.2038     24.6705    130.7203
  1684.4000      7.9152      2.5707      0.0866      4.8063     24.4600    120.0998
  1684.5000      7.9288      2.5889      0.1035      3.7031     24.1662    113.0327
  1684.6000      7.9288      2.5898      0.0872      3.6509     23.6055    111.8290
  1684.7000      7.9288      2.5796      0.0943      4.2691     23.2450    112.0709
  1684.8000      7.9326      2.5771      0.0644      4.4208     23.5303    111.9203
  1684.9000      7.9326      2.5940      0.0899      3.3929     24.0723    110.1880
  1685.0000      7.9342      2.6173      0.1054      1.9847     24.0986    107.8691
  1685.1000      7.9342      2.6327      0.0864      1.0492     23.7393    107.9402
  1685.2000      7.9342      2.6402      0.1084      0.5966     23.7807    111.0951
  1685.3000      7.9338      2.6403      0.0929      0.5859     24.0553    110.0429
  1685.4000      7.9338      2.6412      0.0809      0.5340     23.8095    101.7374
  1685.5000      7.9291      2.6460      0.1040      0.2430     23.1006     94.8896
  1685.6000      7.9291      2.6435      0.0850      0.3954     22.3071     93.2022
  1685.7000      7.9291      2.6282      0.0926      1.3205     21.9102     91.3747
  1685.8000      7.9214      2.6116      0.0620      2.3301     22.2228     86.7691
  1685.9000      7.9214      2.6132      0.0596      2.2274     22.6312     81.8416
  1686.0000      7.9175      2.6308      0.0901      1.1624     22.4565     78.5440
  1686.1000      7.9175      2.6467      0.0798      0.1983     22.0339     76.7051
  1686.2000      7.9175      2.6703      0.0627     -1.2276     22.2858     75.9306
  1686.3000      7.9187      2.7188      0.0974     -4.1707     23.1298     76.3634
