~Version Information
VERS.                      2.0: CWLS Log ASCII Standard - VERSION 2.0
WRAP.                       NO: One line per depth step
~Well Information Block
STRT.FT               430.0000: 
STOP.FT              2074.0000: 
STEP.FT                 0.1000: 
NULL.                -999.2500: 
COMP.          Pioneer Natural Resources: COMPANY
WELL.             Fleming 11-2: WELL
FLD.           Purgatoire River: FIELD
LOC.           534' FNL & 160' FWL: LOCATION
CNTY.               Las Animas: COUNTY
SRVC.                Patterson: SERVICE COMPANY
DATE.          Tue Jun 27 10:07:47 2006: LOG DATE
UWI.           05 071 08491 00: UNIQUE WELL ID
STAT.                 Colorado: STATE
~Curve Information Block
DEPT.FT            0 000 00 00: Depth
DCAL.in                       : CDL Caliper
RHOB.g/cc                     : CDL Bulk Density
RHOC.g/cc                     : CDL Density Correction
DPOR.pu                       : CDL Density Porosity
GR.GAPI                       : Gamma Ray
NPOR.pu                       : Neutron Porosity
~Parameter Information Block
~A  Depth       DCAL        RHOB        RHOC        DPOR         GR         NPOR    
   430.0000      2.1641      2.0243      0.2110     37.9184     32.6392     15.4151
   430.1000      2.1641      2.0098      0.2495     38.8005     36.5208     15.7325
   430.2000      2.1641      2.0088      0.2472     38.8620     40.4975     16.9537
   430.3000      2.1682      2.0237      0.2349     37.9549     40.3514     17.6338
   430.4000      2.1682      2.0619      0.3073     35.6438     38.3260     17.0039
   430.5000      2.1720      2.1164      0.3594     32.3418     38.5739     16.1972
   430.6000      2.1720      2.1711      0.3816     29.0251     41.9167     16.1913
   430.7000      2.1720      2.2131      0.4041     26.4787     44.9479     17.0788
   430.8000      2.1705      2.2309      0.4574     25.4021     45.9388     18.1673
   430.9000      2.1705      2.2208      0.4175     26.0130     45.7387     18.3189
   431.0000      2.1680      2.1874      0.4201     28.0339     42.5144     17.6441
   431.1000      2.1680      2.1298      0.3938     31.5243     36.6833     17.2472
   431.2000      2.1680      2.0473      0.3371     36.5248     34.1249     17.3322
   431.3000      2.1707      1.9474      0.2993     42.5793     35.9095     17.2042
   431.4000      2.1707      1.8431      0.2385     48.9056     36.3391     16.6657
   431.5000      2.1799      1.7444      0.2564     54.8872     34.5772     16.3398
   431.6000      2.1799      1.6544      0.2355     60.3385     32.1457     16.5653
   431.7000      2.1799      1.5843      0.2050     64.5888     29.0856     17.3614
   431.8000      2.1948      1.5463      0.2714     66.8910     27.1129     18.4491
   431.9000      2.1948      1.5307      0.3291     67.8339     26.8858     19.0686
   432.0000      2.2131      1.5187      0.3714     68.5618     27.4301     18.6188
   432.1000      2.2131      1.5036      0.3960     69.4772     28.4539     17.3543
   432.2000      2.2131      1.4865      0.4115     70.5176     29.8506     16.1617
   432.3000      2.2285      1.4648      0.4310     71.8312     31.7953     15.7376
   432.4000      2.2285      1.4324      0.4229     73.7942     34.6310     16.1418
   432.5000      2.2387      1.3846      0.3850     76.6914     37.4662     17.0001
   432.6000      2.2387      1.3235      0.3362     80.3946     37.7874     17.5526
   432.7000      2.2387      1.2598      0.2837     84.2557     34.1752     16.9875
   432.8000      2.2445      1.2095      0.2221     87.3039     30.9336     15.6095
   432.9000      2.2445      1.1812      0.2229     89.0191     33.9446     14.4619
   433.0000      2.2451      1.1647      0.2195     90.0170     40.0026     14.2354
   433.1000      2.2451      1.1439      0.2135     91.2816     41.2645     14.9643
   433.2000      2.2451      1.1115      0.1961     93.2400     38.7939     15.5683
   433.3000      2.2424      1.0699      0.1581     95.7623     37.5193     15.0427
   433.4000      2.2424      1.0268      0.1188     98.3744     36.7966     13.8799
   433.5000      2.2344      0.9893      0.1007    100.6479     33.9215     13.1114
   433.6000      2.2344      0.9556      0.1201    102.6913     29.9504     13.2248
   433.7000      2.2344      0.9184      0.0804    104.9427     28.1914     14.1802
   433.8000      2.2226      0.8759      0.0584    107.5192     29.4271     15.7199
   433.9000      2.2226      0.8299      0.0258    110.3078     32.1345     17.0926
   434.0000      2.2184      0.7801     -0.0090    113.3298     34.8486     17.5569
   434.1000      2.2184      0.7247     -0.0526    116.6851     37.3602     17.4899
   434.2000      2.2184      0.6653     -0.1234    120.2818     40.6155     17.5198
   434.3000      2.2173      0.6052     -0.1542    123.9286     45.6444     17.5139
   434.4000      2.2173      0.5484     -0.2356    127.3724     49.8734     17.2371
   434.5000      2.2142      0.5011     -0.2804    130.2365     49.5540     17.2600
   434.6000      2.2142      0.4622     -0.2725    132.5925     48.2410     17.9362
   434.7000      2.2142      0.4268     -0.3351    134.7375     50.8632     18.5947
   434.8000      2.2131      0.3966     -0.3569    136.5676     54.4519     18.7372
   434.9000      2.2131      0.3710     -0.3649    138.1192     57.4737     18.9160
   435.0000      2.2126      0.3433     -0.3957    139.8003     62.8230     19.2462
   435.1000      2.2126      0.3095     -0.4143    141.8476     66.9322     19.4474
   435.2000      2.2126      0.2748     -0.4769    143.9500     65.6794     19.9193
   435.3000      2.2114      0.2477     -0.4918    145.5943     61.7182     20.6767
   435.4000      2.2114      0.2266     -0.4853    146.8703     58.1347     21.0820
   435.5000      2.2113      0.2043     -0.5298    148.2240     57.6035     21.3096
   435.6000      2.2113      0.1792     -0.5417    149.7457     60.8133     21.9717
   435.7000      2.2113      0.1545     -0.5788    151.2441     62.9144     22.4232
   435.8000      2.2107      0.1326     -0.5894    152.5684     60.4211     22.2439
   435.9000      2.2107      0.1135     -0.6083    153.7259     57.4095     22.0915
   436.0000      2.2100      0.1001     -0.6536    154.5394     58.4438     22.1965
   436.1000      2.2100      0.0942     -0.6358    154.8977     64.0471     22.7473
   436.2000      2.2100      0.0870     -0.6077    155.3313     71.9105     23.6539
   436.3000      2.2105      0.0793     -0.6968    155.8019     75.9594     24.2588
   436.4000      2.2105      0.0884     -0.6814    155.2465     73.4958     24.4420
   436.5000      2.2110      0.1131     -0.5984    153.7521     69.7421     24.2850
   436.6000      2.2110      0.1311     -0.5908    152.6597     69.6499     23.6464
   436.7000      2.2110      0.1366     -0.6239    152.3275     72.0869     23.0720
   436.8000      2.2119      0.1426     -0.6039    151.9663     72.7227     23.3040
   436.9000      2.2119      0.1602     -0.6199    150.8951     70.6441     23.7830
   437.0000      2.2133      0.1901     -0.5690    149.0861     68.1703     23.5541
   437.1000      2.2133      0.2208     -0.5286    147.2233     68.3357     22.6826
   437.2000      2.2133      0.2438     -0.5375    145.8289     71.2439     21.7605
   437.3000      2.2157      0.2633     -0.5298    144.6471     74.0381     21.5874
   437.4000      2.2157      0.2883     -0.5196    143.1308     76.4473     22.4701
   437.5000      2.2213      0.3279     -0.4978    140.7328     79.8993     23.4875
   437.6000      2.2213      0.3854     -0.4399    137.2512     83.5438     23.7027
   437.7000      2.2213      0.4530     -0.3797    133.1523     84.5952     23.5039
   437.8000      2.2293      0.5228     -0.3291    128.9212     82.4773     23.6078
   437.9000      2.2293      0.5949     -0.2833    124.5508     80.0463     23.7606
   438.0000      2.2357      0.6686     -0.1967    120.0825     79.6544     23.6580
   438.1000      2.2357      0.7367     -0.1486    115.9593     80.6205     23.6559
   438.2000      2.2357      0.7935     -0.0925    112.5145     80.2879     23.7527
   438.3000      2.2381      0.8371     -0.0551    109.8706     78.2699     23.6657
   438.4000      2.2381      0.8652     -0.0121    108.1690     76.3798     23.5328
   438.5000      2.2385      0.8804     -0.0135    107.2476     73.4737     23.6710
   438.6000      2.2385      0.8911      0.0060    106.5999     69.8816     23.8029
   438.7000      2.2385      0.9034      0.0134    105.8572     70.8670     23.4405
   438.8000      2.2388      0.9218      0.0053    104.7391     79.3547     22.9978
   438.9000      2.2388      0.9487      0.0342    103.1067     91.1107     22.9588
   439.0000      2.2398      0.9818      0.0558    101.1031     95.7350     22.9216
   439.1000      2.2398      1.0252      0.0259     98.4701     91.8141     22.8881
   439.2000      2.2398      1.0891      0.0608     94.5997     89.5126     23.2431
   439.3000      2.2397      1.1735      0.0886     89.4837     91.8309     23.5863
   439.4000      2.2397      1.2684      0.1429     83.7314     90.7773     23.6038
   439.5000      2.2347      1.3631      0.1827     77.9924     82.7896     23.4561
