~Version Information
VERS.                      2.0: CWLS Log ASCII Standard - VERSION 2.0
WRAP.                       NO: One line per depth step
~Well Information Block
STRT.FT               687.7500: 
STOP.FT              1252.7500: 
STEP.FT                 0.2500: 
NULL.                -999.2500: 
COMP.          Pioneer Natural Resources: COMPANY
WELL.          Rock Island 44-24 Tr: WELL
FLD.           Purgatoire River: FIELD
LOC.           814' FSL & 761' FEL--: LOCATION
CNTY.               Las Animas: COUNTY
SRVC.                Patterson: SERVICE COMPANY
DATE.          Wed Apr 19 21:31:44 2006: LOG DATE
UWI.           05 071 08680 00: UNIQUE WELL ID
STAT.                 Colorado: STATE
~Curve Information Block
DEPT.FT            0 000 00 00: Depth
DIR.Ohm-m                     : IEL Induction Resistivity
GR.GAPI                       : Gamma Ray
~Parameter Information Block
~A  Depth       DIR          GR     
# ...
   743.5000     13.6479     87.5483
   743.7500     13.4691     93.5158
   744.0000     13.2429    104.2866
   744.2500     12.9729    111.3776
   744.5000     12.6649    119.8495
   744.7500     12.3354    123.3959
   745.0000     12.0122    125.8250
   745.2500     11.7294    126.4024
   745.5000     11.5194    127.4565
   745.7500     11.4046    128.6833
   746.0000     11.3912    130.4277
   746.2500     11.4681    130.6581
   746.5000     11.6087    128.9945
   746.7500     11.7767    126.9350
   747.0000     11.9321    123.5853
   747.2500     12.0396    121.6779
   747.5000     12.0764    119.7670
   747.7500     12.0379    119.3967
   748.0000     11.9366    120.6562
   748.2500     11.7942    122.6283
   748.5000     11.6338    126.2645
   748.7500     11.4762    128.3908
   749.0000     11.3398    130.3797
   749.2500     11.2416    130.6992
   749.5000     11.1974    129.1750
   749.7500     11.2210    126.5490
   750.0000     11.3231    120.4626
   750.2500     11.5089    115.6214
   750.5000     11.7749    108.4130
   750.7500     12.1043    104.0853
   751.0000     12.4649     98.6692
   751.2500     12.8124     96.0136
   751.5000     13.0987     94.0390
   751.7500     13.2843     94.2396
   752.0000     13.3503     96.3295
   752.2500     13.3022     98.2242
   752.5000     13.1644    100.6501
   752.7500     12.9677    101.7095
   753.0000     12.7374    102.7701
   753.2500     12.4885    103.4729
   753.5000     12.2271    104.8548
   753.7500     11.9553    105.9397
   754.0000     11.6760    107.2123
   754.2500     11.3958    107.2460
   754.5000     11.1245    105.4907
   754.7500     10.8721    103.5089
   755.0000     10.6452    101.1026
   755.2500     10.4434    100.9460
   755.5000     10.2585    103.6995
   755.7500     10.0771    107.2184
   756.0000      9.8873    113.5881
   756.2500      9.6855    117.7631
   756.5000      9.4788    123.4114
   756.7500      9.2813    126.8352
   757.0000      9.1069    131.3233
   757.2500      8.9638    133.4602
   757.5000      8.8543    134.6091
   757.7500      8.7777    133.8760
   758.0000      8.7339    131.0170
   758.2500      8.7234    128.5493
   758.5000      8.7464    125.2585
   758.7500      8.7995    123.8586
   759.0000      8.8747    123.1728
   759.2500      8.9602    123.5718
   759.5000      9.0445    125.2251
   759.7500      9.1198    126.7505
   760.0000      9.1845    128.9397
   760.2500      9.2421    129.9616
   760.5000      9.2974    130.4463
   760.7500      9.3532    129.9386
   761.0000      9.4097    128.1133
   761.2500      9.4652    126.6987
   761.5000      9.5178    125.3428
   761.7500      9.5671    125.1193
   762.0000      9.6135    125.0287
   762.2500      9.6574    124.5193
   762.5000      9.6993    122.8578
   762.7500      9.7408    121.6558
   763.0000      9.7869    121.0325
   763.2500      9.8465    121.9573
   763.5000      9.9312    125.3493
   763.7500     10.0539    128.2982
   764.0000     10.2245    131.9437
   764.2500     10.4486    132.9575
   764.5000     10.7262    132.1305
   764.7500     11.0544    130.6763
   765.0000     11.4307    128.5290
   765.2500     11.8559    127.4028
   765.5000     12.3337    125.5339
   765.7500     12.8671    123.6195
   766.0000     13.4544    119.5711
   766.2500     14.0869    116.6019
   766.5000     14.7513    113.0479
   766.7500     15.4343    111.7200
   767.0000     16.1269    110.9883
   767.2500     16.8230    110.7485
   767.5000     17.5171    109.7957
   767.7500     18.2028    108.4930
   768.0000     18.8749    105.5132
   768.2500     19.5303    102.8862
   768.5000     20.1668     98.0235
   768.7500     20.7828     94.3490
   769.0000     21.3779     89.0711
   769.2500     21.9524     86.3883
   769.5000     22.5041     84.3137
   769.7500     23.0254     84.0910
   770.0000     23.5060     84.6562
   770.2500     23.9396     85.2651
   770.5000     24.3321     86.5989
   770.7500     24.7070     87.9633
   771.0000     25.1063     90.5491
   771.2500     25.5816     92.2638
   771.5000     26.1735     94.4257
   771.7500     26.8890     95.5522
   772.0000     27.6913     96.3986
   772.2500     28.5155     95.9507
   772.5000     29.3081     93.3963
   772.7500     30.0601     90.8256
   773.0000     30.8050     87.0229
   773.2500     31.5842     85.2067
   773.5000     32.4135     83.8952
   773.7500     33.2803     83.6899
   774.0000     34.1681     83.4928
   774.2500     35.0752     82.8612
   774.5000     36.0074     80.3661
   774.7500     36.9530     77.4894
   775.0000     37.8692     71.7510
   775.2500     38.6936     67.5691
   775.5000     39.3671     61.9794
   775.7500     39.8434     59.2968
   776.0000     40.0875     57.3041
   776.2500     40.0813     57.1499
   776.5000     39.8434     57.6380
   776.7500     39.4342     57.7296
   777.0000     38.9241     56.9238
   777.2500     38.3446     55.8885
   777.5000     37.6598     54.1219
   777.7500     36.7810     53.0531
   778.0000     35.6061     51.9561
   778.2500     34.0644     51.7546
   778.5000     32.1484     52.5727
   778.7500     29.9269     54.0959
   779.0000     27.5308     58.3051
   779.2500     25.1141     62.5495
   779.5000     22.8092     70.8901
   779.7500     20.7002     77.3515
   780.0000     18.8226     87.2755
   780.2500     17.1792     93.3948
   780.5000     15.7564    101.4308
   780.7500     14.5341    106.3585
   781.0000     13.4915    113.9419
   781.2500     12.6104    119.1668
   781.5000     11.8765    126.2516
   781.7500     11.2761    129.7249
   782.0000     10.7935    132.5459
   782.2500     10.4092    133.0471
   782.5000     10.1026    132.2966
   782.7500      9.8557    131.0531
   783.0000      9.6560    128.7556
   783.2500      9.4964    127.5720
   783.5000      9.3734    127.0689
   783.7500      9.2845    127.3879
   784.0000      9.2261    127.8711
   784.2500      9.1934    127.9434
   784.5000      9.1813    128.1031
   784.7500      9.1862    128.4420
   785.0000      9.2061    128.8828
   785.2500      9.2395    128.8317
   785.5000      9.2854    128.4451
   785.7500      9.3424    128.3463
   786.0000      9.4096    128.6438
   786.2500      9.4858    128.8938
   786.5000      9.5679    128.7415
   786.7500      9.6487    128.0792
   787.0000      9.7170    126.3253
   787.2500      9.7611    124.9268
   787.5000      9.7728    123.1209
   787.7500      9.7496    122.3868
   788.0000      9.6938    122.1517
   788.2500      9.6100    122.5751
   788.5000      9.5049    124.0133
   788.7500      9.3881    125.3167
   789.0000      9.2724    127.1664
   789.2500      9.1721    128.0246
   789.5000      9.0987    128.7770
   789.7500      9.0580    129.2131
   790.0000      9.0484    130.1298
   790.2500      9.0628    130.7370
   790.5000      9.0929    130.7774
   790.7500      9.1327    129.8744
   791.0000      9.1804    127.5638
   791.2500      9.2373    126.1312
   791.5000      9.3045    125.1936
   791.7500      9.3801    125.4103
   792.0000      9.4590    126.2599
   792.2500      9.5356    126.7503
   792.5000      9.6074    127.2040
   792.7500      9.6767    127.4791
   793.0000      9.7506    128.2112
   793.2500      9.8398    129.0360
   793.5000      9.9582    130.6148
   793.7500     10.1216    131.5511
   794.0000     10.3447    132.1407
   794.2500     10.6343    131.7677
   794.5000     10.9830    129.7977
   794.7500     11.3666    127.4000
   795.0000     11.7489    122.4090
   795.2500     12.0942    118.8185
   795.5000     12.3771    114.8338
   795.7500     12.5855    114.0418
   796.0000     12.7138    116.0990
   796.2500     12.7580    119.0504
   796.5000     12.7170    124.1089
   796.7500     12.5994    127.0841
   797.0000     12.4275    130.4236
   797.2500     12.2351    131.9479
   797.5000     12.0615    133.4159
   797.7500     11.9462    133.9666
   798.0000     11.9265    134.2648
   798.2500     12.0349    134.1039
   798.5000     12.2975    133.0542
   798.7500     12.7336    131.4106
   799.0000     13.3573    126.4469
