~Version Information
VERS.                      2.0: CWLS Log ASCII Standard - VERSION 2.0
WRAP.                       NO: One line per depth step
~Well Information Block
STRT.FT                -8.0000: 
STOP.FT              1661.0000: 
STEP.FT                 0.2500: 
NULL.                -999.2500: 
COMP.          Pioneer Natural Resources: COMPANY
WELL.          Rollerball 34-30: WELL
FLD.           Purgatorie River: FIELD
LOC.           893' FSL & 2408' FEL----: LOCATION
CNTY.               Las Animas: COUNTY
SRVC.          Patterson Wireline: SERVICE COMPANY
DATE.          Mon Feb 20 08:34:38 2006: LOG DATE
UWI.           05 071 08581 00: UNIQUE WELL ID
STAT.                       CO: STATE
~Curve Information Block
DEPT.FT            0 000 00 00: Depth
CCL.                          : Casing Collar Locator
TT3.usec                      : CBL 3' Travel Time
AMP3.mV                       : CBL 3' Amplitude
GR.GAPI                       : Gamma Ray
~Parameter Information Block
~A  Depth       CCL         TT3         AMP3         GR     
# ...
  1298.5000      0.0000    719.6951      4.6158    129.9418
  1298.7500      0.0000    707.1475      4.6412    120.3658
  1299.0000      0.0000    694.4586      4.6717    109.3524
  1299.2500      0.0000    685.1537      4.7001     99.3477
  1299.5000      0.0000    679.9991      4.7137     92.1479
  1299.7500      0.0000    676.7610      4.6988     88.6022
  1300.0000      0.0000    672.6713      4.6515     88.9176
  1300.2500      0.0000    667.0293      4.5809     92.7968
  1300.5000      0.0000    660.6165      4.5024     98.9796
  1300.7500      0.0000    652.8672      4.4271    105.1643
  1301.0000      0.0000    641.6296      4.3597    109.2521
  1301.2500      0.0000    626.5988      4.3038    110.8892
  1301.5000      0.0000    611.7336      4.2675    111.5628
  1301.7500      0.0000    602.8758      4.2617    113.0734
  1302.0000      0.0000    602.7938      4.2912    115.8347
  1302.2500      0.0000    608.7714      4.3483    118.5797
  1302.5000      0.0000    614.9559      4.4148    119.7493
  1302.7500      0.0000    616.8812      4.4738    118.9978
  1303.0000      0.0000    613.9344      4.5169    117.2224
  1303.2500      0.0000    608.3693      4.5434    115.4752
  1303.5000      0.0000    602.8942      4.5585    114.2110
  1303.7500      0.0000    599.1038      4.5729    113.4718
  1304.0000      0.0000    597.3409      4.6001    113.3781
  1304.2500      0.0000    597.4833      4.6487    114.2510
  1304.5000      0.0000    599.9902      4.7159    116.4610
  1304.7500      0.0000    606.4584      4.7872    120.2928
  1305.0000      0.0000    619.0500      4.8417    125.6280
  1305.2500      0.0000    638.7816      4.8615    131.5006
  1305.5000      0.0000    663.8307      4.8412    136.2904
  1305.7500      0.0000    689.2793      4.7902    138.7227
  1306.0000      0.0000    708.4585      4.7248    138.6076
  1306.2500      0.0000    714.9188      4.6592    136.6411
  1306.5000      0.0000    704.5895      4.6028    133.8772
  1306.7500      0.0000    678.0416      4.5599    131.4045
  1307.0000      0.0000    641.4206      4.5300    130.1382
  1307.2500      0.0000    604.1835      4.5096    130.6760
  1307.5000      0.0000    574.6364      4.4967    133.1425
  1307.7500      0.0000    556.7888      4.4923    136.8716
  1308.0000      0.0000    550.2228      4.4983    140.3817
  1308.2500      0.0000    551.8196      4.5161    142.1843
  1308.5000      0.0000    558.0139      4.5471    141.8914
  1308.7500      0.0000    566.5456      4.5929    140.6317
  1309.0000      0.0000    576.7330      4.6519    140.3135
  1309.2500      0.0000    588.3752      4.7180    142.0587
  1309.5000      0.0000    600.6164      4.7821    145.1237
  1309.7500      0.0000    611.7468      4.8356    147.6074
  1310.0000      0.0000    620.0062      4.8720    148.2567
  1310.2500      0.0000    624.7321      4.8887    147.2395
  1310.5000      0.0000    626.5672      4.8889    145.3011
  1310.7500      0.0000    626.3949      4.8798    142.8115
  1311.0000      0.0000    624.5315      4.8680    139.7840
  1311.2500      0.0000    621.4529      4.8556    136.3134
  1311.5000      0.0000    619.0952      4.8417    132.6972
  1311.7500      0.0000    620.6229      4.8241    129.3155
  1312.0000      0.0000    628.0119      4.7982    126.4007
  1312.2500      0.0000    639.6937      4.7589    123.5594
  1312.5000      0.0000    651.1068      4.7050    119.6844
  1312.7500      0.0000    657.5487      4.6421    113.9284
  1313.0000      0.0000    656.2143      4.5801    106.7702
  1313.2500      0.0000    646.4621      4.5279     99.5129
  1313.5000      0.0000    629.9411      4.4882     92.6617
  1313.7500      0.0000    610.9258      4.4563     85.4827
  1314.0000      0.0000    595.4763      4.4251     77.4357
  1314.2500      0.0000    589.5795      4.3903     69.4425
  1314.5000      0.0000    597.8022      4.3517     63.2445
  1314.7500      0.0000    621.9109      4.3085     59.5943
  1315.0000      0.0000    658.3752      4.2575     57.4148
  1315.2500      0.0000    697.5602      4.1963     54.8763
  1315.5000      0.0000    728.3191      4.1251     51.1794
  1315.7500      0.0000    745.1621      4.0453     47.2445
  1316.0000      0.0000    750.8459      3.9556     44.7484
  1316.2500      0.0000    752.5032      3.8532     44.5256
  1316.5000      0.0000    755.6364      3.7382     45.8057
  1316.7500      0.0000    760.2117      3.6169     46.9121
  1317.0000      0.0000    760.2476      3.5012     46.6740
  1317.2500      0.0000    746.6362      3.4031     45.1211
  1317.5000      0.0000    712.5153      3.3308     42.9890
  1317.7500      0.0000    659.2918      3.2854     40.9390
  1318.0000      0.0000    598.3610      3.2619     39.4026
  1318.2500      0.0000    545.0261      3.2542     38.7098
  1318.5000      0.0000    509.3906      3.2630     38.8171
  1318.7500      0.0000    493.2527      3.2951     39.0095
  1319.0000      0.0000    494.2258      3.3553     38.4559
  1319.2500      0.0000    509.6217      3.4396     37.2760
  1319.5000      0.0000    535.4244      3.5363     36.7348
  1319.7500      0.0000    564.5528      3.6320     38.1738
  1320.0000      0.0000    589.7915      3.7182     41.9550
  1320.2500      0.0000    608.7503      3.7944     47.5221
  1320.5000      0.0000    624.2626      3.8680     53.9927
  1320.7500      0.0000    639.7775      3.9517     60.2450
  1321.0000      0.0000    654.8912      4.0588     64.7710
  1321.2500      0.0000    665.0259      4.1983     66.2718
  1321.5000      0.0000    665.4531      4.3684     64.7598
  1321.7500      0.0000    656.3582      4.5532     61.8043
  1322.0000      0.0000    643.7146      4.7268     59.4147
  1322.2500      0.0000    634.7494      4.8645     58.6359
  1322.5000      0.0000    632.8262      4.9555     59.1931
  1322.7500      0.0000    636.8655      5.0056     60.2762
  1323.0000      0.0000    644.5536      5.0305     61.4226
  1323.2500      0.0000    654.8064      5.0432     62.8580
  1323.5000      0.0000    667.0754      5.0476     65.5171
  1323.7500      0.0000    679.3041      5.0426     70.8996
  1324.0000      0.0000    687.1672      5.0289     80.3207
  1324.2500      0.0000    685.2818      5.0120     93.4774
  1324.5000      0.0000    669.6832      4.9988    107.6267
  1324.7500      0.0000    640.9014      4.9953    118.8867
  1325.0000      0.0000    606.2044      5.0023    124.9068
  1325.2500      0.0000    577.6942      5.0091    126.1170
  1325.5000      0.0000    565.0524      4.9865    124.4373
  1325.7500      0.0000    568.4440      4.8956    121.4596
  1326.0000      0.0000    579.3124      4.7237    118.0854
  1326.2500      0.0000    589.0698      4.5225    114.9605
  1326.5000      0.0000    596.4389      4.3837    112.2263
  1326.7500      0.0000    606.3970      4.3481    108.9426
  1327.0000      0.0000    623.3411      4.3637    103.6391
  1327.2500      0.0000    645.6183      4.3674     95.8173
  1327.5000      0.0000    665.3972      4.3789     86.4807
  1327.7500      0.0000    672.9791      4.4685     77.0287
  1328.0000      0.0000    662.2979      4.6511     68.1944
  1328.2500      2.0000    635.1085      4.8526     60.2614
  1328.5000      0.0000    602.2194      4.9665     53.5905
  1328.7500      0.0000    579.6040      4.9303     48.5492
  1329.0000      0.0000    578.8806      4.7643     45.2966
  1329.2500      0.0000    598.5979      4.5516     43.7898
  1329.5000      0.0000    625.3184      4.3683     43.7698
  1329.7500      0.0000    643.4139      4.2376     44.6953
  1330.0000      0.0000    643.2806      4.1662     45.9226
  1330.2500      0.0000    622.9222      4.1939     47.1418
  1330.5000      0.0000    586.4170      4.3624     48.5770
  1330.7500      0.0000    542.1894      4.6472     50.5393
  1331.0000      0.0000    500.2009      4.9569     52.7500
  1331.2500      0.0000    467.9806      5.1995     54.2966
  1331.5000      0.0000    447.9544      5.3355     54.5358
  1331.7500      0.0000    437.9714      5.3781     54.1451
