~Version Information
VERS.                      2.0: CWLS Log ASCII Standard - VERSION 2.0
WRAP.                       NO: One line per depth step
~Well Information Block
STRT.FT               -10.0000: 
STOP.FT              1935.0000: 
STEP.FT                 0.2500: 
NULL.                -999.2500: 
COMP.          Pioneer Natural Resources: COMPANY
WELL.           Willys 32-8 Tr: WELL
FLD.           Purgatorie River: FIELD
LOC.           1843' FNL & 2355' FEL--: LOCATION
CNTY.               Las Animas: COUNTY
SRVC.          Patterson Wireline: SERVICE COMPANY
DATE.          Wed Feb 15 13:29:41 2006: LOG DATE
UWI.           05 071 08688 00: UNIQUE WELL ID
STAT.                       CO: STATE
~Curve Information Block
DEPT.FT            0 000 00 00: Depth
CCL.                          : Casing Collar Locator
TT3.usec                      : CBL 3' Travel Time
AMP3.mV                       : CBL 3' Amplitude
GR.GAPI                       : Gamma Ray
~Parameter Information Block
~A  Depth       CCL         TT3         AMP3         GR     
# ...
   626.5000      0.0000    775.0687     11.0575    146.7442
   626.7500      0.0000    774.8967     11.1818    146.9175
   627.0000      0.0000    774.6255     11.2994    146.6701
   627.2500      0.0000    774.3521     11.3967    144.8629
   627.5000      0.0000    774.1374     11.4716    141.0877
   627.7500      0.0000    774.0076     11.5280    136.1922
   628.0000      0.0000    773.9984     11.5722    131.8210
   628.2500      0.0000    774.1510     11.6125    129.5201
   628.5000      0.0000    774.4499     11.6584    129.9942
   628.7500      0.0000    774.7897     11.7145    132.7236
   629.0000      0.0000    775.0714     11.7763    136.0873
   629.2500      0.0000    775.4040     11.8331    138.3428
   629.5000      0.0000    776.2861     11.8735    139.0497
   629.7500      0.0000    778.5876     11.8877    139.3781
   630.0000      0.0000    783.1299     11.8699    140.4630
   630.2500      0.0000    789.9191     11.8226    141.5545
   630.5000      0.0000    797.7214     11.7576    140.3340
   630.7500      0.0000    804.6862     11.6892    135.1074
   631.0000      0.0000    809.6162     11.6244    126.6302
   631.2500      0.0000    812.6775     11.5598    117.9252
   631.5000      0.0000    815.1269     11.4860    112.1696
   631.7500      0.0000    818.5980     11.3926    110.4088
   632.0000      0.0000    824.3333     11.2750    111.1587
   632.2500      0.0000    832.4161     11.1378    111.9750
   632.5000      0.0000    841.4782     10.9967    111.2850
   632.7500      0.0000    849.4772     10.8720    109.0057
   633.0000      0.0000    855.0562     10.7791    105.8492
   633.2500      0.0000    858.1965     10.7245    102.5192
   633.5000      0.0000    859.7261     10.7096     99.6031
   633.7500      0.0000    860.4642     10.7378     97.4027
   634.0000      0.0000    860.8019     10.8132     95.1570
   634.2500      0.0000    860.7714     10.9304     91.0804
   634.5000      0.0000    860.2234     11.0663     84.0264
   634.7500      0.0000    858.8309     11.1844     74.8930
   635.0000      0.0000    856.0745     11.2526     65.9144
   635.2500      0.0000    851.6442     11.2600     58.9421
   635.5000      0.0000    846.2059     11.2203     54.7000
   635.7500      0.0000    841.4344     11.1616     53.1325
   636.0000      0.0000    838.5648     11.1114     53.9867
   636.2500      0.0000    836.9040     11.0867     57.2656
   636.5000      0.0000    834.5366     11.0922     63.2137
   636.7500      0.0000    830.6297     11.1216     71.4664
   637.0000      0.0000    826.4146     11.1587     80.1894
   637.2500      0.0000    823.7924     11.1826     86.5771
   637.5000      0.0000    823.4333     11.1784     88.6299
   637.7500      0.0000    824.2119     11.1455     86.4935
   638.0000      0.0000    824.1989     11.0967     82.0514
   638.2500      0.0000    822.1953     11.0511     77.2992
   638.5000      0.0000    818.3605     11.0251     73.0689
   638.7500      0.0000    813.3141     11.0253     69.1389
   639.0000      0.0000    807.1566     11.0437     65.2934
   639.2500      0.0000    800.2033     11.0526     61.9254
   639.5000      0.0000    794.6876     11.0090     59.5596
   639.7500      0.0000    794.4499     10.8702     58.3696
   640.0000      0.0000    801.7104     10.6133     58.5234
   640.2500      0.0000    814.5219     10.2425     60.4121
   640.5000      0.0000    828.3667      9.7849     63.7772
   640.7500      0.0000    839.8022      9.2839     67.0472
   641.0000      0.0000    847.2798      8.8000     68.5960
   641.2500      0.0000    848.5092      8.4086     68.6387
   641.5000      0.0000    839.4786      8.1816     68.9989
   641.7500      0.0000    818.6424      8.1418     70.9059
   642.0000      0.0000    791.6962      8.2146     73.7175
   642.2500      0.0000    769.4874      8.2524     75.8885
   642.5000      0.0000    760.2465      8.1539     76.6436
   642.7500      0.0000    764.5222      7.9690     76.5446
   643.0000      0.0000    776.4958      7.8519     76.8981
   643.2500      0.0000    788.3553      7.9133     79.0348
   643.5000      0.0000    795.1563      8.1469     83.9398
   643.7500      0.0000    798.1769      8.4807     91.8091
   644.0000      0.0000    802.8922      8.8553    101.5412
   644.2500      0.0000    811.8028      9.2597    111.0556
   644.5000      0.0000    819.5444      9.7217    118.6956
   644.7500      0.0000    815.5362     10.2715    124.3823
   645.0000      0.0000    791.7277     10.9085    129.1515
   645.2500      0.0000    749.8550     11.6020    133.5572
   645.5000      0.0000    703.3451     12.2938    136.6195
   645.7500      0.0000    670.2214     12.8865    136.4040
   646.0000      0.0000    660.2040     13.2697    131.8868
   646.2500      0.0000    668.1898     13.3862    124.3307
   646.5000      0.0000    681.2958     13.2649    116.6265
   646.7500      0.0000    690.3943     12.9904    111.0835
   647.0000      0.0000    693.9839     12.6601    107.7721
   647.2500      0.0000    694.4650     12.3576    104.9745
   647.5000      0.0000    694.0780     12.1398    101.3792
   647.7500      0.0000    693.7729     12.0297     97.8139
   648.0000      0.0000    693.7225     12.0207     96.5064
   648.2500      0.0000    693.8526     12.0861     98.4951
   648.5000      0.0000    694.0876     12.1912    102.3212
   648.7500      0.0000    694.3500     12.3035    105.5827
   649.0000      0.0000    694.5565     12.3981    107.2713
   649.2500      0.0000    694.6415     12.4612    108.1657
   649.5000      0.0000    694.5987     12.4941    109.4858
   649.7500      0.0000    694.4886     12.5126    111.8994
   650.0000      0.0000    694.4014     12.5364    115.6512
   650.2500      0.0000    694.4092     12.5791    120.7866
   650.5000      0.0000    694.5275     12.6446    126.9685
   650.7500      0.0000    694.6989     12.7294    133.3891
   651.0000      0.0000    694.8276     12.8227    138.9314
   651.2500      0.0000    694.8402     12.9073    142.4251
   651.5000      0.0000    694.7305     12.9659    143.2730
   651.7500      0.0000    694.5648     12.9905    142.2705
   652.0000      0.0000    694.4402     12.9875    141.4365
   652.2500      0.0000    694.4122     12.9698    142.2975
   652.5000      0.0000    694.4564     12.9446    144.1001
   652.7500      0.0000    694.5068     12.9112    144.0480
   653.0000      0.0000    694.5245     12.8704    139.8374
   653.2500      0.0000    694.5197     12.8301    132.2348
   653.5000      0.0000    694.5216     12.7993    124.9371
   653.7500      0.0000    694.5486     12.7799    121.4500
   654.0000      0.0000    694.6006     12.7670    121.9452
   654.2500      0.0000    694.6605     12.7539    123.2370
   654.5000      0.0000    694.7006     12.7376    121.7624
   654.7500      0.0000    694.7027     12.7207    116.3999
   655.0000      0.0000    694.6707     12.7093    108.6264
   655.2500      0.0000    694.6172     12.7056    100.5783
   655.5000      0.0000    694.5533     12.7019     93.4182
   655.7500      0.0000    694.5116     12.6847     87.4133
   656.0000      0.0000    694.6658     12.6492     82.8064
   656.2500      0.0000    695.5715     12.6126     79.9224
   656.5000      0.0000    698.4796     12.6085     78.5268
   656.7500      0.0000    705.2520     12.6650     77.7112
   657.0000      0.0000    717.2059     12.7866     76.7462
   657.2500      0.0000    733.2612     12.9551     75.7953
   657.5000      0.0000    749.5030     13.1434     75.4100
   657.7500      0.0000    761.5120     13.3294     75.3644
   658.0000      0.0000    767.2737     13.5000     74.3291
   658.2500      0.0000    767.3896     13.6512     70.9483
   658.5000      0.0000    762.9721     13.7861     65.3233
   658.7500      0.0000    754.4714     13.9129     59.3074
   659.0000      0.0000    742.6880     14.0365     55.0763
   659.2500      0.0000    729.8372     14.1497     53.3022
   659.5000      0.0000    718.6068     14.2369     52.9041
   659.7500      0.0000    710.3264     14.2914     52.5553
