~Version Information
VERS.                      2.0: CWLS Log ASCII Standard - VERSION 2.0
WRAP.                       NO: One line per depth step
~Well Information Block
STRT.FT                -7.7500: 
STOP.FT              2248.5000: 
STEP.FT                 0.2500: 
NULL.                -999.2500: 
COMP.          Pioneer Natural Resources: COMPANY
WELL.          Interceptor 43-13 Tr: WELL
FLD.           Purgatoire River: FIELD
LOC.           2006' FSL & 438' FEL--: LOCATION
PROV.                       CO: PROVINCE
CNTY.               Las Animas: COUNTRY
SRVC.          Patterson Wireline: SERVICE COMPANY
DATE.          Thu Nov 17 10:14:59 2005: LOG DATE
UWI.           05 071 08549 00: UNIQUE WELL ID
~Curve Information Block
DEPT.FT            0 000 00 00: Depth
CCL.                          : Casing Collar Locator
TT3.usec                      : CBL 3' Travel Time
AMP3.mV                       : CBL 3' Amplitude
GR.GAPI                       : Gamma Ray
~Parameter Information Block
~A  Depth       CCL         TT3         AMP3         GR     
# ...
   863.2500      0.0000    281.1698     72.0619    117.8212
   863.5000      0.0000    281.1517     71.6067    115.3363
   863.7500      0.0000    281.1366     71.3764    111.5812
   864.0000      0.0000    281.1259     71.4221    105.3700
   864.2500      0.0000    281.1198     71.6410     97.3382
   864.5000      0.0000    281.1201     71.8635     89.4400
   864.7500      0.0000    281.1275     71.9834     83.2408
   865.0000      0.0000    281.1402     71.9978     78.9422
   865.2500      0.0000    281.1533     71.9404     76.0962
   865.5000      0.0000    281.1626     71.8274     74.7872
   865.7500      0.0000    281.1667     71.6784     75.7056
   866.0000      0.0000    281.1672     71.5416     79.2355
   866.2500      0.0000    281.1669     71.4655     84.7872
   866.5000      0.0000    281.1677     71.4492     91.0346
   866.7500      0.0000    281.1690     71.4164     96.8238
   867.0000      0.0000    281.1682     71.2316    101.9577
   867.2500      0.0000    281.1625     70.7650    106.9872
   867.5000      0.0000    281.1531     69.9908    112.0231
   867.7500      0.0000    281.1451     69.0380    115.9357
   868.0000      0.0000    281.1432     68.1181    117.1683
   868.2500      0.0000    281.1478     67.3889    115.3972
   868.5000      0.0000    281.1559     66.8898    111.9054
   868.7500      0.0000    281.1649     66.5862    108.2492
   869.0000      0.0000    281.1728     66.4360    105.2974
   869.2500      0.0000    281.1764     66.4096    103.6049
   869.5000      0.0000    281.1715     66.4760    103.7295
   869.7500      0.0000    281.1559     66.5887    105.7133
   870.0000      0.0000    281.1321     66.6935    108.8527
   870.2500      0.0000    281.1046     66.7585    112.3877
   870.5000      0.0000    281.0770     66.8026    116.0171
   870.7500      0.0000    281.0518     66.8848    119.3712
   871.0000      0.0000    281.0313     67.0587    121.2876
   871.2500      0.0000    281.0191     67.3358    120.2063
   871.5000      0.0000    281.0179     67.6846    115.6982
   871.7500      0.0000    281.0270     68.0502    109.4839
   872.0000      0.0000    281.0417     68.3728    104.3014
   872.2500      0.0000    281.0585     68.5889    101.3405
   872.5000      0.0000    281.0886     68.6338     98.9987
   872.7500      0.0000    281.1960     68.4462     94.4601
   873.0000      0.0000    281.6084     67.9379     86.4102
   873.2500      0.0000    282.8798     66.8923     76.2226
   873.5000      0.0000    285.8986     64.8953     66.8876
   873.7500      0.0000    291.3090     61.5914     60.9561
   874.0000      0.0000    298.3747     57.2805     59.2976
   874.2500      0.0000    304.5046     53.1653     61.2394
   874.5000      0.0000    306.7694     50.6024     65.2153
   874.7500      0.0000    304.3985     50.0090     69.1386
   875.0000      0.0000    299.4047     50.7106     70.8242
   875.2500      0.0000    294.6119     51.7364     68.9629
   875.5000      0.0000    291.5405     52.4924     64.1216
   875.7500      0.0000    290.1654     52.8182     58.5984
   876.0000      0.0000    289.9215     52.7721     55.0006
   876.2500      2.0000    290.5159     52.4338     54.9427
   876.5000      0.0000    291.9739     51.8749     59.0264
   876.7500      0.0000    294.0911     51.3509     67.4699
   877.0000      0.0000    295.8943     51.4569     80.1513
   877.2500      0.0000    295.9604     52.8544     96.0716
   877.5000      0.0000    293.6341     55.7378    113.0818
   877.7500      0.0000    289.7730     59.6801    128.2758
   878.0000      0.0000    286.0066     63.9163    138.8556
   878.2500      0.0000    283.4151     67.6305    143.2393
   878.5000      0.0000    282.0745     70.1992    142.1375
   878.7500      0.0000    281.5297     71.4830    138.6735
   879.0000      0.0000    281.3427     71.8586    136.6625
   879.2500      0.0000    281.2750     71.8646    137.9954
   879.5000      0.0000    281.2346     71.8455    141.6725
   879.7500      0.0000    281.1978     71.8896    145.5756
   880.0000      0.0000    281.1622     71.9529    148.6995
   880.2500      0.0000    281.1330     71.9494    151.2939
   880.5000      0.0000    281.1147     71.7848    153.4234
   880.7500      0.0000    281.1071     71.3797    154.1696
   881.0000      0.0000    281.1057     70.7128    152.3695
   881.2500      0.0000    281.1042     69.8496    147.8211
   881.5000      0.0000    281.0997     68.9246    141.4906
   881.7500      0.0000    281.0941     68.0853    134.5456
   882.0000      0.0000    281.0921     67.4370    127.4716
   882.2500      0.0000    281.0959     67.0215    120.3678
   882.5000      0.0000    281.1015     66.8243    113.9329
   882.7500      0.0000    281.1035     66.7849    109.6618
   883.0000      0.0000    281.1009     66.8077    108.8916
   883.2500      0.0000    281.0977     66.8047    111.9921
   883.5000      0.0000    281.0984     66.7632    118.4760
   883.7500      0.0000    281.1016     66.7606    127.1676
   884.0000      0.0000    281.1013     66.8837    135.8999
   884.2500      0.0000    281.0923     67.1341    141.9773
   884.5000      0.0000    281.0750     67.4257    143.9073
   884.7500      0.0000    281.0551     67.6648    142.5782
   885.0000      0.0000    281.0387     67.8096    140.3818
   885.2500      0.0000    281.0274     67.8583    139.3313
   885.5000      0.0000    281.0182     67.8169    139.9978
   885.7500      0.0000    281.0070     67.6942    141.7934
   886.0000      0.0000    280.9924     67.5171    143.8430
   886.2500      0.0000    280.9769     67.3436    145.5946
   886.5000      0.0000    280.9641     67.2598    146.8397
   886.7500      0.0000    280.9556     67.3449    147.3743
   887.0000      0.0000    280.9524     67.6159    146.8620
   887.2500      0.0000    280.9568     68.0121    145.1526
   887.5000      0.0000    280.9708     68.4474    142.7288
   887.7500      0.0000    280.9925     68.8772    140.7058
   888.0000      0.0000    281.0142     69.3059    140.0077
   888.2500      0.0000    281.0248     69.7312    140.4741
   888.5000      0.0000    281.0149     70.0844    141.1915
   888.7500      0.0000    280.9837     70.2316    141.7877
   889.0000      0.0000    280.9417     70.0536    142.9673
   889.2500      0.0000    280.9053     69.5450    145.4682
   889.5000      0.0000    280.8869     68.8404    148.8185
   889.7500      0.0000    280.8899     68.1452    151.7577
   890.0000      0.0000    280.9125     67.6423    153.8034
   890.2500      0.0000    280.9522     67.4447    155.7284
   890.5000      0.0000    281.0056     67.5900    158.2387
   890.7500      0.0000    281.0658     68.0486    160.6290
   891.0000      0.0000    281.1237     68.7387    161.1567
   891.2500      0.0000    281.1719     69.5292    158.7090
   891.5000      0.0000    281.2091     70.2166    154.1147
   891.7500      0.0000    281.2450     70.5392    149.8940
   892.0000      0.0000    281.3028     70.2953    148.4950
   892.2500      0.0000    281.4103     69.4853    150.4064
   892.5000      0.0000    281.5685     68.3310    153.8361
   892.7500      0.0000    281.7207     67.1599    156.2753
   893.0000      0.0000    281.7751     66.2640    156.3717
   893.2500      0.0000    281.6859     65.8076    154.4030
   893.5000      0.0000    281.5044     65.7932    151.5123
   893.7500      0.0000    281.3294     66.0990    148.9508
   894.0000      0.0000    281.2230     66.5699    147.6478
   894.2500      0.0000    281.1837     67.0682    147.7741
   894.5000      0.0000    281.1799     67.4566    148.5712
   894.7500      0.0000    281.1853     67.6062    148.9682
   895.0000      0.0000    281.1893     67.4757    148.4681
   895.2500      0.0000    281.1902     67.1557    147.3579
   895.5000      0.0000    281.1881     66.8068    146.3238
   895.7500      0.0000    281.1810     66.5630    145.9405
   896.0000      0.0000    281.1678     66.4868    146.1058
   896.2500      0.0000    281.1508     66.5774    145.8190
   896.5000      0.0000    281.1340     66.8043    143.9444
