~Version Information
VERS.                      2.0: CWLS Log ASCII Standard - VERSION 2.0
WRAP.                       NO: One line per depth step
~Well Information Block
STRT.FT                -8.2500: 
STOP.FT               686.7500: 
STEP.FT                 0.2500: 
NULL.                -999.2500: 
COMP.          Pioneer Natural Resources: COMPANY
WELL.           Quintessa 23-7: WELL
FLD.           Purgatorie River: FIELD
LOC.           1964' FSL & 2589' FWL--: LOCATION
PROV.                       CO: PROVINCE
CNTY.               Las Animas: COUNTRY
SRVC.          Patterson Wireline: SERVICE COMPANY
DATE.          Wed Nov 23 10:31:07 2005: LOG DATE
UWI.           05 071 08558 00: UNIQUE WELL ID
~Curve Information Block
DEPT.FT            0 000 00 00: Depth
CCL.                          : Casing Collar Locator
TT3.usec                      : CBL 3' Travel Time
AMP3.mV                       : CBL 3' Amplitude
GR.GAPI                       : Gamma Ray
~Parameter Information Block
~A  Depth       CCL         TT3         AMP3         GR     
# ...
   125.7500      0.0000    634.3509     17.2402     94.5120
   126.0000      0.0000    670.6367     17.6529     88.4943
   126.2500      0.0000    708.8726     17.8713     84.4724
   126.5000      0.0000    737.6850     17.9589     83.6385
   126.7500      0.0000    753.4358     18.0465     85.6448
   127.0000      0.0000    758.6544     18.2160     89.0713
   127.2500      0.0000    757.8113     18.4522     92.5348
   127.5000      0.0000    753.2829     18.6968     95.3228
   127.7500      0.0000    742.7872     18.9136     97.1396
   128.0000      0.0000    719.3488     19.0960     97.8316
   128.2500      0.0000    676.0153     19.2379     97.6521
   128.5000      0.0000    615.3294     19.3175     97.3734
   128.7500      0.0000    554.9139     19.3055     97.7183
   129.0000      0.0000    519.1672     19.1836     98.8721
   129.2500      0.0000    521.9641     18.9642    100.7425
   129.5000      0.0000    558.2995     18.6954    103.2258
   129.7500      0.0000    611.3040     18.4500    105.7981
   130.0000      0.0000    661.9573     18.3027    107.2566
   130.2500      0.0000    693.5963     18.2979    106.5406
   130.5000      0.0000    696.4371     18.4199    103.7865
   130.7500      0.0000    673.4317     18.5977    100.2724
   131.0000      0.0000    639.2066     18.7466     97.4714
   131.2500      0.0000    610.6570     18.8096     96.2909
   131.5000      0.0000    598.9733     18.7686     96.9532
   131.7500      0.0000    608.7682     18.6332     99.2061
   132.0000      0.0000    639.1926     18.4297    102.4925
   132.2500      0.0000    682.8492     18.1973    105.9916
   132.5000      0.0000    727.1110     17.9881    108.6737
   132.7500      0.0000    760.7673     17.8633    109.6296
   133.0000      0.0000    780.0785     17.8710    108.5493
   133.2500      0.0000    788.0350     18.0087    105.7193
   133.5000      0.0000    789.4709     18.2099    101.5713
   133.7500      0.0000    788.0104     18.3853     96.5461
   134.0000      0.0000    785.9450     18.4861     91.2377
   134.2500      0.0000    784.7625     18.5267     86.3735
   134.5000      0.0000    784.7083     18.5534     82.7198
   134.7500      0.0000    784.3339     18.6058     81.0468
   135.0000      0.0000    780.6056     18.7045     81.8230
   135.2500      0.0000    769.0627     18.8573     84.7917
   135.5000      0.0000    744.2932     19.0660     89.1108
   135.7500      0.0000    703.9741     19.3267     93.9077
   136.0000      0.0000    656.5986     19.6143     98.4731
   136.2500      0.0000    623.1619     19.8668    102.1736
   136.5000      0.0000    623.5829     20.0078    104.6684
   136.7500      0.0000    658.4662     20.0076    106.1203
   137.0000      0.0000    708.1212     19.9130    106.7263
   137.2500      0.0000    750.3408     19.8017    106.0592
   137.5000      0.0000    775.6761     19.7165    103.4119
   137.7500      0.0000    787.0040     19.6505     98.8897
   138.0000      0.0000    790.8675     19.5767     93.6750
   138.2500      0.0000    791.7592     19.4707     89.0776
   138.5000      0.0000    791.4363     19.3117     85.6471
   138.7500      0.0000    790.2234     19.0787     83.3097
   139.0000      0.0000    788.2997     18.7612     82.1148
   139.2500      0.0000    786.4167     18.3785     82.5725
   139.5000      0.0000    785.6944     17.9896     85.1656
   139.7500      0.0000    786.6599     17.6741     89.5674
   140.0000      0.0000    788.6041     17.4847     94.3537
   140.2500      0.0000    790.1025     17.4083     97.5248
   140.5000      0.0000    790.1017     17.3761     97.6482
   140.7500      0.0000    788.6016     17.3179     94.9463
   141.0000      0.0000    786.6698     17.2116     91.3487
   141.2500      0.0000    785.7663     17.0869     89.0454
   141.5000      0.0000    786.6241     16.9907     88.6000
   141.7500      0.0000    788.6882     16.9561     88.4788
   142.0000      0.0000    790.7445     16.9948     86.6238
   142.2500      0.0000    791.9067     17.1082     82.5021
   142.5000      0.0000    791.8550     17.3048     77.5529
   142.7500      0.0000    790.5514     17.6001     73.8562
   143.0000      0.0000    788.2412     17.9831     72.6737
   143.2500      0.0000    785.7308     18.3797     74.0047
   143.5000      0.0000    783.8290     18.6844     76.9507
   143.7500      0.0000    781.7115     18.8481     80.2333
   144.0000      0.0000    775.6425     18.9145     82.5095
   144.2500      0.0000    760.5649     18.9594     82.6266
   144.5000      0.0000    735.0616     19.0151     80.1676
   144.7500      0.0000    705.5727     19.0629     75.8958
   145.0000      0.0000    682.7844     19.0782     71.4720
   145.2500      0.0000    671.4712     19.0662     68.7306
   145.5000      0.0000    667.2570     19.0578     69.2553
   145.7500      0.0000    666.4649     19.0738     74.0807
   146.0000      0.0000    673.9240     19.0952     83.0742
   146.2500      0.0000    695.5171     19.0768     94.3983
   146.5000      0.0000    727.2219     18.9934    104.8536
   146.7500      0.0000    757.4244     18.8656    111.0854
   147.0000      0.0000    777.7581     18.7381    111.0674
   147.2500      0.0000    787.8329     18.6410    105.2377
   147.5000      0.0000    791.5621     18.5765     96.4813
   147.7500      0.0000    792.5689     18.5320     88.4212
   148.0000      0.0000    792.6986     18.5001     83.1528
   148.2500      0.0000    792.6015     18.4851     80.4963
   148.5000      0.0000    792.4446     18.4874     79.1278
   148.7500      0.0000    792.2925     18.4887     77.8711
   149.0000      0.0000    792.1738     18.4714     76.1372
   149.2500      0.0000    792.1074     18.4556     74.0309
   149.5000      0.0000    792.0963     18.4935     72.2508
   149.7500      0.0000    792.1290     18.6125     71.2973
   150.0000      0.0000    792.1851     18.7743     70.7662
   150.2500      0.0000    792.2374     18.9036     69.9440
   150.5000      0.0000    792.2548     18.9505     68.8947
   150.7500      0.0000    792.2196     18.9206     68.2683
   151.0000      0.0000    792.1482     18.8560     68.2622
   151.2500      0.0000    792.0831     18.7964     68.4870
   151.5000      0.0000    792.0549     18.7584     68.7928
   151.7500      0.0000    792.0528     18.7420     69.6233
   152.0000      0.0000    792.0360     18.7464     71.4303
   152.2500      0.0000    791.9432     18.7720     73.9361
   152.5000      0.0000    791.6522     18.8049     75.9889
   152.7500      0.0000    790.9074     18.8040     76.1772
   153.0000      0.0000    789.3999     18.7170     73.9195
   153.2500      0.0000    787.1202     18.5237     70.0933
   153.5000      0.0000    784.6534     18.2650     66.4144
   153.7500      0.0000    782.7314     18.0209     64.0871
   154.0000      0.0000    781.1802     17.8520     63.0904
   154.2500      0.0000    778.6749     17.7626     62.6729
   154.5000      0.0000    774.0771     17.7159     62.2615
   154.7500      0.0000    767.8657     17.6793     61.7223
   155.0000      0.0000    761.8539     17.6537     60.9087
   155.2500      0.0000    757.6651     17.6636     59.4658
   155.5000      0.0000    755.8422     17.7211     57.3647
   155.7500      0.0000    756.1113     17.8035     55.2602
   156.0000      0.0000    757.7689     17.8708     53.8588
   156.2500      0.0000    759.6531     17.9074     53.0823
   156.5000      0.0000    760.3995     17.9349     52.1901
   156.7500      0.0000    759.3315     17.9779     50.6420
   157.0000      0.0000    757.0115     18.0276     48.6005
   157.2500      0.0000    754.6296     18.0468     46.7081
   157.5000      0.0000    752.9767     18.0023     45.7041
   157.7500      0.0000    752.1145     17.8853     46.1067
   158.0000      0.0000    751.7389     17.7158     47.8249
   158.2500      0.0000    751.5753     17.5396     49.9890
   158.5000      0.0000    751.4961     17.4136     51.4801
   158.7500      0.0000    751.4701     17.3724     51.8169
   159.0000      0.0000    751.4941     17.4058     51.4257
