~Version Information
VERS.                      2.0: CWLS Log ASCII Standard - VERSION 2.0
WRAP.                       NO: One line per depth step
~Well Information Block
STRT.FT                -4.0000: 
STOP.FT              1544.0000: 
STEP.FT                 0.2500: 
NULL.                -999.2500: 
COMP.          Pioneer Natural Resources: COMPANY
WELL.           Screamin 12-29: WELL
FLD.           Purgatoire River: FIELD
LOC.           2038' FNL & 612' FWL--: LOCATION
CNTY.               Las Animas: COUNTY
SRVC.                Patterson: SERVICE COMPANY
DATE.          Fri Apr 14 00:36:42 2006: LOG DATE
UWI.           05 071 08661 00: UNIQUE WELL ID
STAT.                 Colorado: STATE
~Curve Information Block
DEPT.FT            0 000 00 00: Depth
GR.GAPI                       : Gamma Ray
CCL.                          : Casing Collar Locator
TT3.usec                      : CBL 3' Travel Time
AMP3.mV                       : CBL 3' Amplitude
~Parameter Information Block
~A  Depth        GR         CCL         TT3         AMP3    
# ...
   297.5000     93.7937      0.0000    759.7744      8.2489
   297.7500     94.9766      0.0000    751.6235      8.2446
   298.0000     97.5319      0.0000    746.6414      8.1523
   298.2500     99.4842      0.0000    747.5847      8.0900
   298.5000    101.7303      0.0000    752.2509      8.0187
   298.7500    102.4955      0.0000    755.3743      7.9876
   299.0000    103.2744      0.0000    757.5480      7.9908
   299.2500    104.1263      0.0000    757.0186      8.0433
   299.5000    105.8270      0.0000    754.2233      8.1845
   299.7500    106.5682      0.0000    751.5935      8.2851
   300.0000    106.0058      0.0000    746.2912      8.3805
   300.2500    104.4525      0.0000    741.5141      8.3908
   300.5000    101.3201      0.0000    733.7151      8.3405
   300.7500     99.4484      0.0000    729.9920      8.2840
   301.0000     97.5824      0.0000    729.1801      8.1984
   301.2500     96.7967      0.0000    731.6612      8.1534
   301.5000     95.9098      0.0000    737.6066      8.1101
   301.7500     95.5569      0.0000    741.6138      8.0899
   302.0000     95.5460      0.0000    745.8662      8.0491
   302.2500     95.6576      0.0000    746.9753      8.0094
   302.5000     95.1049      0.0000    746.6743      7.9526
   302.7500     93.7892      0.0000    746.4391      7.9339
   303.0000     90.4899      0.0000    748.1306      7.9361
   303.2500     88.1367      0.0000    750.8141      7.9422
   303.5000     86.1067      0.0000    755.6652      7.9353
   303.7500     86.3976      0.0000    758.2700      7.9177
   304.0000     89.0209      0.0000    759.8837      7.8777
   304.2500     91.3796      0.0000    759.0773      7.8488
   304.5000     94.2100      0.0000    754.9122      7.8253
   304.7500     95.1331      0.0000    750.4918      7.8344
   305.0000     95.0967      0.0000    742.9917      7.8746
   305.2500     94.4016      0.0000    738.7126      7.8986
   305.5000     93.1632      0.0000    735.1606      7.9083
   305.7500     92.8137      0.0000    735.1030      7.9023
   306.0000     93.4309      0.0000    738.1900      7.8876
   306.2500     94.1858      0.0000    741.8157      7.8692
   306.5000     94.8826      0.0000    748.0706      7.8120
   306.7500     95.1218      0.0000    751.5120      7.7610
   307.0000     96.0996      0.0000    753.1967      7.7157
   307.2500     97.3395      0.0000    751.0706      7.7339
   307.5000     99.0045      0.0000    743.3875      7.8207
   307.7500     99.2450      0.0000    736.9402      7.8746
   308.0000     98.2387      0.0000    729.7931      7.8786
   308.2500     97.1157      0.0000    729.0276      7.8241
   308.5000     95.1657      0.0000    734.6883      7.7043
   308.7500     93.7649      0.0000    741.2316      7.6320
   309.0000     92.4765      0.0000    750.3359      7.5613
   309.2500     93.1234      0.0000    753.6691      7.5412
   309.5000     96.8935      0.0000    753.3138      7.5490
   309.7500    100.3869      0.0000    750.2065      7.5723
   310.0000    104.7044      0.0000    743.8936      7.6094
   310.2500    106.0439      0.0000    740.3920      7.6261
   310.5000    105.7083      0.0000    738.6516      7.6445
   310.7500    104.6961      0.0000    740.3698      7.6548
   311.0000    103.9336      0.0000    746.2008      7.6497
   311.2500    104.6448      0.0000    750.7919      7.6187
   311.5000    106.9246      0.0000    756.3218      7.5261
   311.7500    108.1082      0.0000    758.4940      7.4446
   312.0000    107.9798      0.0000    759.8553      7.3313
   312.2500    106.7459      0.0000    760.0547      7.2900
   312.5000    104.0894      0.0000    760.0636      7.3071
   312.7500    101.9412      0.0000    760.1121      7.3593
   313.0000     97.8440      0.0000    760.3676      7.4471
   313.2500     94.7467      0.0000    760.6240      7.4913
   313.5000     91.2371      0.0000    761.0135      7.5332
   313.7500     90.7873      0.0000    761.2075      7.5469
   314.0000     93.3346      0.0000    761.3036      7.5320
   314.2500     96.1300      0.0000    761.1649      7.4898
   314.5000     99.1748      0.0000    760.4285      7.3915
   314.7500     99.3274      0.0000    759.3833      7.3299
   315.0000     96.7815      0.0000    756.7446      7.3007
   315.2500     94.0439      0.0000    754.5162      7.3441
   315.5000     89.7637      0.0000    751.8807      7.4952
   315.7500     87.2544      0.0000    751.5507      7.6247
   316.0000     84.5159      0.0000    753.5317      7.8004
   316.2500     83.7759      0.0000    755.6923      7.8784
   316.5000     84.9916      0.0000    758.3102      7.9265
   316.7500     87.3110      0.0000    759.0437      7.9271
   317.0000     91.6494      0.0000    758.7918      7.9209
   317.2500     93.9429      0.0000    758.2083      7.9296
   317.5000     95.6172      0.0000    757.5067      7.9683
   317.7500     96.1037      0.0000    757.3497      8.0065
   318.0000     97.5260      0.0000    757.4628      8.0714
   318.2500     99.5566      0.0000    757.6762      8.1100
   318.5000    104.2731      0.0000    758.2256      8.1379
   318.7500    107.8785      0.0000    758.7312      8.1289
   319.0000    111.7170      0.0000    759.4139      8.0892
   319.2500    111.8912      0.0000    759.5984      8.0655
   319.5000    108.2829      0.0000    759.2132      8.0562
   319.7500    104.5674      0.0000    758.3841      8.0613
   320.0000     99.7229      0.0000    755.9857      8.0557
   320.2500     97.5816      0.0000    753.6041      8.0341
   320.5000     95.3538      0.0000    749.6754      7.9910
   320.7500     94.1945      0.0000    747.6462      7.9716
   321.0000     93.4157      0.0000    746.0936      7.9711
   321.2500     93.7485      0.0000    745.3712      7.9927
   321.5000     94.4181      0.0000    742.8521      8.0696
   321.7500     93.8258      0.0000    739.8485      8.1547
   322.0000     90.3494      0.0000    734.6399      8.3057
   322.2500     86.8477      0.0000    731.7744      8.3851
   322.5000     82.1670      0.0000    729.2028      8.4217
   322.7500     80.5333      0.0000    728.4094      8.3906
   323.0000     79.5969      0.0000    727.8560      8.2954
   323.2500     78.1902      0.0000    727.7815      8.2196
   323.5000     72.6539      0.0000    728.7680      8.1065
   323.7500     67.3717      0.0000    730.7907      8.0360
   324.0000     60.9299      0.0000    736.4470      7.9383
   324.2500     59.6989      0.0000    741.7411      7.8806
   324.5000     63.4852      0.0000    751.0824      7.8197
   324.7500     69.0452      0.0000    757.7551      7.8037
   325.0000     79.8307      0.0000    767.4989      7.8073
   325.2500     87.3406      0.0000    772.9490      7.8143
   325.5000     96.7288      0.0000    778.1302      7.8213
   325.7500    100.4719      0.0000    779.6656      7.8266
   326.0000    101.4093      0.0000    781.2957      7.8316
   326.2500     99.4508      0.0000    783.6068      7.8219
   326.5000     94.5286      0.0000    790.5222      7.7793
   326.7500     90.8228      0.0000    797.0566      7.7454
   327.0000     85.4526      0.0000    806.2613      7.7204
   327.2500     82.4338      0.0000    808.5894      7.7243
   327.5000     79.7591      0.0000    801.2319      7.7254
   327.7500     79.6027      0.0000    788.8177      7.6997
   328.0000     81.4750      0.0000    764.4991      7.6191
   328.2500     83.5123      0.0000    749.3575      7.5554
   328.5000     86.7552      0.0000    733.9822      7.4752
   328.7500     88.5929      0.0000    729.1884      7.4407
   329.0000     90.0596      0.0000    728.3239      7.4281
   329.2500     89.8105      0.0000    730.7804      7.4494
   329.5000     87.7545      0.0000    737.4064      7.5118
   329.7500     85.8992      0.0000    742.4934      7.5544
   330.0000     83.9108      0.0000    747.9005      7.5840
   330.2500     83.9406      0.0000    748.2972      7.5658
   330.5000     86.9492      0.0000    743.4739      7.4771
   330.7500     90.9382      0.0000    738.0100      7.3904
