~Version Information
VERS.                      2.0: CWLS Log ASCII Standard - VERSION 2.0
WRAP.                       NO: One line per depth step
~Well Information Block
STRT.FT               440.0000: 
STOP.FT              1300.5000: 
STEP.FT                 0.1000: 
NULL.                -999.2500: 
COMP.          Pioneer Natural Resources: COMPANY
WELL.              Yoshi 14-30: WELL
FLD.           Purgatoire River: FIELD
LOC.           993' FSL & 823' FWL: LOCATION
CNTY.               Las Animas: COUNTY
SRVC.                Patterson: SERVICE COMPANY
DATE.          Fri Feb 17 14:59:28 2006: LOG DATE
UWI.           05 071 08699 00: UNIQUE WELL ID
STAT.                 Colorado: STATE
~Curve Information Block
DEPT.FT            0 000 00 00: Depth
DCAL.in                       : CDL Caliper
RHOB.g/cc                     : CDL Bulk Density
RHOC.g/cc                     : CDL Density Correction
DPOR.pu                       : CDL Density Porosity
GR.GAPI                       : Gamma Ray
NPOR.pu                       : Neutron Porosity
~Parameter Information Block
~A  Depth       DCAL        RHOB        RHOC        DPOR         GR         NPOR    
# ...
   660.8000      8.0397      2.4192      0.1145     13.9859    143.7225     18.2733
   660.9000      8.0397      2.3521      0.1319     18.0541    145.6735     17.8532
   661.0000      8.0401      2.2400      0.0628     24.8487    152.6929     17.4396
   661.1000      8.0401      2.1103      0.0046     32.7063    164.9317     17.3479
   661.2000      8.0401      1.9899     -0.0458     40.0089    177.8347     17.8817
   661.3000      8.0412      1.8905     -0.0711     46.0322    182.6263     18.6996
   661.4000      8.0412      1.8146     -0.0910     50.6330    175.1510     19.8129
   661.5000      8.0434      1.7656     -0.1068     53.6014    159.8912     21.3015
   661.6000      8.0434      1.7555     -0.0543     54.2150    145.5270     22.7287
   661.7000      8.0434      1.7973     -0.0116     51.6764    135.4294     24.1520
   661.8000      8.0450      1.8908      0.1064     46.0116    126.5472     25.7974
   661.9000      8.0450      2.0148      0.2035     38.4955    120.4097     27.3893
   662.0000      8.0441      2.1422      0.2547     30.7774    121.6791     28.5748
   662.1000      8.0441      2.2543      0.2409     23.9798    124.6157     28.8320
   662.2000      8.0441      2.3499      0.1689     18.1856    118.4138     28.2230
   662.3000      8.0416      2.4314      0.2040     13.2511    106.4511     27.7468
   662.4000      8.0416      2.4792      0.1604     10.3517     98.5735     27.9113
   662.5000      8.0388      2.4872      0.0038      9.8693     96.3581     27.9468
   662.6000      8.0388      2.4814      0.0297     10.2206     97.3553     27.2538
   662.7000      8.0388      2.4768     -0.0081     10.4974    102.4361     26.3975
   662.8000      8.0372      2.4788     -0.0138     10.3730    111.8415     26.0016
   662.9000      8.0372      2.4938     -0.0160      9.4649    118.9408     25.8415
   663.0000      8.0368      2.5115      0.0203      8.3913    117.8113     25.3711
   663.1000      8.0368      2.5249      0.0080      7.5793    110.0133     24.6625
   663.2000      8.0368      2.5426      0.0258      6.5074    101.0248     24.0238
   663.3000      8.0367      2.5637      0.0453      5.2316     97.2212     23.4300
   663.4000      8.0367      2.5779      0.0367      4.3713     98.9713     22.9585
   663.5000      8.0364      2.5838      0.0342      4.0094    102.4519     22.8133
   663.6000      8.0364      2.5859      0.0133      3.8835    106.0098     22.7807
   663.7000      8.0364      2.5850      0.0117      3.9388    108.0594     22.6364
   663.8000      8.0354      2.5820      0.0315      4.1203    106.3219     22.7602
   663.9000      8.0354      2.5738      0.0759      4.6161    101.1502     23.4522
   664.0000      8.0344      2.5577      0.0042      5.5965     97.3550     24.1917
   664.1000      8.0344      2.5390     -0.0048      6.7249     98.2831     24.5227
   664.2000      8.0344      2.5211     -0.0080      7.8145     99.2408     24.8371
   664.3000      8.0348      2.5060     -0.0118      8.7255     97.5215     25.3601
   664.4000      8.0348      2.5041     -0.0358      8.8435    100.5531     25.8917
   664.5000      8.0358      2.5164      0.0013      8.0965    112.2313     26.3617
   664.6000      8.0358      2.5271      0.0302      7.4467    124.5367     26.6978
   664.7000      8.0358      2.5337     -0.0184      7.0491    133.3513     26.8510
   664.8000      8.0360      2.5494      0.0314      6.0996    141.4136     26.9761
   664.9000      8.0360      2.5757      0.0291      4.5015    146.7590     27.4295
   665.0000      8.0356      2.6004      0.0803      3.0081    147.4542     28.3817
   665.1000      8.0356      2.6035      0.0940      2.8208    147.1394     29.3933
   665.2000      8.0356      2.5843      0.0318      3.9805    148.3336     30.1547
   665.3000      8.0356      2.5714      0.0195      4.7612    150.9283     30.8482
   665.4000      8.0356      2.5828      0.0437      4.0751    155.1176     31.4935
   665.5000      8.0357      2.6141      0.0546      2.1771    157.6244     31.7888
   665.6000      8.0357      2.6608      0.0395     -0.6549    152.8837     31.6508
   665.7000      8.0357      2.7114      0.0868     -3.7210    140.5854     31.6690
   665.8000      8.0350      2.7461      0.0869     -5.8228    126.3517     32.0246
   665.9000      8.0350      2.7680      0.0503     -7.1526    114.9727     32.1459
   666.0000      8.0341      2.7944      0.0842     -8.7499    107.4042     31.8219
   666.1000      8.0341      2.8112      0.0956     -9.7699    102.0117     31.1788
   666.2000      8.0341      2.7952      0.0691     -8.7997     97.3205     30.3507
   666.3000      8.0344      2.7508      0.0429     -6.1066     95.0335     29.9236
   666.4000      8.0344      2.6960     -0.0050     -2.7892     95.4135     29.9687
   666.5000      8.0349      2.6520     -0.0416     -0.1230     95.0841     29.5583
   666.6000      8.0349      2.6321     -0.0297      1.0856     91.4378     28.3639
   666.7000      8.0349      2.6294     -0.0529      1.2514     86.3496     27.0393
   666.8000      8.0343      2.6326     -0.0180      1.0557     83.9193     26.0302
   666.9000      8.0343      2.6394      0.0272      0.6410     84.0996     25.2985
   667.0000      8.0337      2.6468      0.0534      0.1956     84.0483     24.7133
   667.1000      8.0337      2.6461      0.0375      0.2368     82.1349     23.9976
   667.2000      8.0337      2.6327      0.0666      1.0458     80.6651     23.0635
   667.3000      8.0348      2.6122      0.0470      2.2914     82.6707     22.1563
   667.4000      8.0348      2.5999      0.0028      3.0391     86.0456     21.5296
   667.5000      8.0359      2.6028      0.0709      2.8590     87.2837     21.3427
   667.6000      8.0359      2.6120      0.0231      2.3021     87.0808     21.4270
   667.7000      8.0359      2.6190      0.0366      1.8796     86.2501     21.5202
   667.8000      8.0364      2.6192      0.0160      1.8675     84.7405     21.4274
   667.9000      8.0364      2.6153     -0.0012      2.1043     83.6394     21.1270
   668.0000      8.0366      2.6100      0.0363      2.4248     83.5531     21.0587
   668.1000      8.0366      2.5931      0.0480      3.4472     87.5856     21.4888
   668.2000      8.0366      2.5652     -0.0241      5.1419     96.2722     22.2889
   668.3000      8.0362      2.5464     -0.0101      6.2771    103.5862     23.0096
   668.4000      8.0362      2.5473     -0.0453      6.2218    106.2314     23.5029
   668.5000      8.0353      2.5579      0.0164      5.5825    106.5401     23.9995
   668.6000      8.0353      2.5631     -0.0190      5.2677    109.9501     24.2692
   668.7000      8.0353      2.5551      0.0345      5.7527    117.0939     23.9707
   668.8000      8.0346      2.5336      0.0343      7.0535    121.5380     23.4001
   668.9000      8.0346      2.5185     -0.0366      7.9672    122.8751     23.1982
   669.0000      8.0342      2.5266      0.0202      7.4762    125.8425     23.4078
   669.1000      8.0342      2.5434      0.0381      6.4615    129.6389     23.6635
   669.2000      8.0342      2.5518      0.0468      5.9535    131.5861     23.8403
   669.3000      8.0342      2.5494      0.0282      6.0954    134.4275     24.1277
   669.4000      8.0342      2.5444      0.0085      6.3976    141.4456     24.4067
   669.5000      8.0345      2.5433      0.0261      6.4690    148.1403     24.4663
   669.6000      8.0345      2.5356      0.0768      6.9361    147.0489     24.5767
   669.7000      8.0345      2.5155      0.0225      8.1502    141.9500     24.6645
   669.8000      8.0349      2.4973      0.0195      9.2570    142.2820     24.3190
   669.9000      8.0349      2.4876      0.0130      9.8400    147.8149     23.9417
   670.0000      8.0349      2.4858     -0.0036      9.9487    153.0280     23.9957
   670.1000      8.0349      2.4940      0.0363      9.4531    156.7382     24.0361
   670.2000      8.0349      2.5043      0.0672      8.8324    161.9033     24.0077
   670.3000      8.0348      2.5066      0.0510      8.6899    167.2709     24.2089
