~Version Information
VERS.                      2.0: CWLS Log ASCII Standard - VERSION 2.0
WRAP.                       NO: One line per depth step
~Well Information Block
STRT.FT               370.0000: 
STOP.FT              1282.5000: 
STEP.FT                 0.1000: 
NULL.                -999.2500: 
COMP.          Pioneer Natural Resources: COMPANY
WELL.          Irish Eyes 33-21: WELL
FLD.           Purgatoire River: FIELD
LOC.           1379' FSL & 2544' FEL: LOCATION
PROV.                 Colorado: PROVINCE
CNTY.               Las Animas: COUNTRY
SRVC.                Patterson: SERVICE COMPANY
DATE.          Mon Jan 16 13:31:01 2006: LOG DATE
UWI.           05 071 08658 00: UNIQUE WELL ID
~Curve Information Block
DEPT.FT            0 000 00 00: Depth
DCAL.in                       : CDL Caliper
RHOB.g/cc                     : CDL Bulk Density
RHOC.g/cc                     : CDL Density Correction
DPOR.pu                       : CDL Density Porosity
GR.GAPI                       : Gamma Ray
NPOR.pu                       : Neutron Porosity
~Parameter Information Block
~A  Depth       DCAL        RHOB        RHOC        DPOR         GR         NPOR    
# ...
   427.6000      8.0604      3.0912      0.0855    -26.7411     82.7372     22.1325
   427.7000      8.0604      2.9662     -0.0073    -19.1636     80.8084     21.1209
   427.8000      8.0572      2.8317     -0.1128    -11.0107     78.6531     20.2748
   427.9000      8.0572      2.7228     -0.1799     -4.4107     75.8876     19.9591
   428.0000      8.0526      2.6641     -0.0132     -0.8522     71.1133     20.1318
   428.1000      8.0526      2.6329      0.0600      1.0384     64.9187     20.3069
   428.2000      8.0526      2.5962      0.0648      3.2632     60.9486     20.0866
   428.3000      8.0593      2.5495     -0.0053      6.0883     60.8367     19.5409
   428.4000      8.0593      2.5133     -0.0411      8.2830     61.9182     18.7234
   428.5000      8.0530      2.4981     -0.0073      9.2090     60.2118     17.8614
   428.6000      8.0530      2.4923     -0.0036      9.5552     56.5236     17.4281
   428.7000      8.0530      2.4828      0.0132     10.1344     54.4880     17.3978
   428.8000      8.0525      2.4685     -0.0150     10.9990     54.7027     17.1867
   428.9000      8.0525      2.4597     -0.0505     11.5354     54.6055     16.7609
   429.0000      8.0545      2.4623      0.0300     11.3733     49.7424     16.6718
   429.1000      8.0545      2.4716     -0.0099     10.8142     41.5182     16.8316
   429.2000      8.0545      2.4795      0.0468     10.3313     40.1199     16.7573
   429.3000      8.0613      2.4717      0.0540     10.8083     48.4897     16.3769
   429.4000      8.0613      2.4462     -0.0062     12.3497     54.7546     15.9665
   429.5000      8.0563      2.4271      0.0167     13.5113     51.2134     15.8469
   429.6000      8.0563      2.4261      0.0300     13.5680     43.1118     16.0414
   429.7000      8.0563      2.4278      0.0528     13.4680     38.6769     16.5400
   429.8000      8.0561      2.4254     -0.0259     13.6150     38.7386     17.1407
   429.9000      8.0561      2.4443     -0.0401     12.4682     39.3019     17.2810
   430.0000      8.0758      2.4867      0.0698      9.8972     39.1814     16.7348
   430.1000      8.0758      2.5102      0.1098      8.4729     38.3291     16.0018
   430.2000      8.0758      2.5012      0.0111      9.0194     37.0463     15.8486
   430.3000      8.0772      2.4980      0.0506      9.2095     36.8484     16.2943
   430.4000      8.0772      2.5202      0.0996      7.8682     39.1453     16.6298
   430.5000      8.0817      2.5404      0.0814      6.6442     42.9163     16.5683
   430.6000      8.0817      2.5360      0.0695      6.9083     45.7179     16.4817
   430.7000      8.0817      2.5136      0.1188      8.2657     48.2204     16.4538
   430.8000      8.0757      2.4884      0.0617      9.7940     50.0754     16.2582
   430.9000      8.0757      2.4708      0.0664     10.8587     47.9924     15.9488
   431.0000      8.0746      2.4600      0.0726     11.5132     43.0787     15.6758
   431.1000      8.0746      2.4504      0.0945     12.0991     39.5272     15.5502
   431.2000      8.0746      2.4441      0.0470     12.4784     40.2470     15.6963
   431.3000      8.0844      2.4540      0.0623     11.8815     44.2184     15.9925
   431.4000      8.0844      2.4792      0.0761     10.3522     47.1958     16.2307
   431.5000      8.0964      2.4893      0.1149      9.7377     46.4678     16.4958
   431.6000      8.0964      2.4675      0.0568     11.0635     41.5782     16.7743
   431.7000      8.0964      2.4481      0.0124     12.2370     34.8092     16.9898
   431.8000      8.0912      2.4640      0.0659     11.2706     31.4293     17.2329
   431.9000      8.0912      2.4993      0.0978      9.1348     35.2066     17.3607
   432.0000      8.0736      2.5253      0.0534      7.5588     42.4374     17.3081
   432.1000      8.0736      2.5378      0.0780      6.7982     46.4893     17.4224
   432.2000      8.0736      2.5481      0.0828      6.1767     45.8204     18.0355
   432.3000      8.0733      2.5590      0.1117      5.5180     42.4216     18.9243
   432.4000      8.0733      2.5651      0.0811      5.1465     38.5635     19.2447
   432.5000      8.0497      2.5687      0.0707      4.9254     36.4998     18.7283
   432.6000      8.0497      2.5669      0.1021      5.0369     36.4402     18.1824
   432.7000      8.0497      2.5533      0.0658      5.8583     37.2220     18.1892
   432.8000      8.0396      2.5398      0.0366      6.6808     38.8945     18.6568
   432.9000      8.0396      2.5457      0.0264      6.3183     42.2577     19.4088
   433.0000      8.0330      2.5766      0.0444      4.4466     46.6365     20.1700
   433.1000      8.0330      2.6069      0.1286      2.6099     49.6759     20.7074
   433.2000      8.0330      2.6059      0.1496      2.6724     48.6565     20.9188
   433.3000      8.0325      2.5882      0.0365      3.7459     44.1116     20.7674
   433.4000      8.0325      2.5888      0.0835      3.7117     40.6453     20.5096
   433.5000      8.0308      2.6062      0.0869      2.6553     39.9517     20.3147
   433.6000      8.0308      2.6182      0.0922      1.9271     39.0873     20.0775
   433.7000      8.0308      2.6206      0.0457      1.7848     34.8762     19.7868
   433.8000      8.0284      2.6231      0.0764      1.6318     28.9721     19.4846
   433.9000      8.0284      2.6277      0.0775      1.3513     26.8786     18.9589
   434.0000      8.0342      2.6370      0.0185      0.7861     30.3853     18.2480
   434.1000      8.0342      2.6505      0.0472     -0.0297     34.4468     17.8246
   434.2000      8.0342      2.6496      0.0381      0.0216     33.8813     17.8166
   434.3000      8.0353      2.6273      0.0537      1.3778     30.3655     17.8907
   434.4000      8.0353      2.6047      0.0103      2.7439     28.6664     17.9110
   434.5000      8.0374      2.6016     -0.0263      2.9360     30.9165     17.7820
   434.6000      8.0374      2.6078     -0.0121      2.5546     35.7626     17.1639
   434.7000      8.0374      2.6025      0.0452      2.8808     40.0327     16.1320
   434.8000      8.0373      2.5840     -0.0574      4.0014     42.3612     15.1783
   434.9000      8.0373      2.5641     -0.0704      5.2074     45.2612     14.5830
   435.0000      8.0422      2.5481     -0.0934      6.1766     52.2618     14.1363
   435.1000      8.0422      2.5357     -0.0354      6.9284     62.2778     13.6819
   435.2000      8.0422      2.5103      0.0369      8.4645     69.2175     13.4540
   435.3000      8.0524      2.4616     -0.0111     11.4190     70.4225     13.5566
   435.4000      8.0524      2.4050      0.0566     14.8504     69.8592     13.9605
   435.5000      8.0463      2.3511      0.0097     18.1157     72.7685     14.7256
   435.6000      8.0463      2.3017     -0.0339     21.1070     79.4464     15.7861
   435.7000      8.0463      2.2554     -0.0111     23.9155     84.5641     16.9096
   435.8000      8.0409      2.2077     -0.0124     26.8045     85.1397     17.9712
   435.9000      8.0409      2.1695      0.0086     29.1216     83.6583     18.9594
   436.0000      8.0555      2.1648      0.0380     29.4060     81.6654     19.7670
   436.1000      8.0555      2.2007      0.1354     27.2274     81.7561     20.4161
   436.2000      8.0555      2.2495      0.1957     24.2719     89.7975     21.0642
   436.3000      8.0895      2.2786      0.1292     22.5078    104.0556     21.3567
   436.4000      8.0895      2.2940      0.0209     21.5787    113.4641     20.9897
   436.5000      8.1360      2.3233     -0.0216     19.8027    113.1176     20.4027
   436.6000      8.1360      2.3676      0.0605     17.1141    112.9310     19.7320
   436.7000      8.1360      2.4091      0.0736     14.6009    120.3913     18.7475
   436.8000      8.1163      2.4457      0.0851     12.3812    128.9865     17.5995
   436.9000      8.1163      2.4794      0.1632     10.3400    130.4709     16.5559
   437.0000      8.0897      2.4870      0.2378      9.8765    125.7013     15.8883
   437.1000      8.0897      2.4355      0.1890     12.9999    121.7558     15.6389
