~Version Information
VERS.                      2.0: CWLS Log ASCII Standard - VERSION 2.0
WRAP.                       NO: One line per depth step
~Well Information Block
STRT.FT                -2.7500: 
STOP.FT               973.2500: 
STEP.FT                 0.2500: 
NULL.                -999.2500: 
COMP.          Pioneer Natural Resources: COMPANY
WELL.          Red Raider 22-15: WELL
FLD.           Purgatoire River: FIELD
LOC.           1809' FNL & 2107' FWL: LOCATION
CNTY.               Las Animas: COUNTY
SRVC.                Patterson: SERVICE COMPANY
DATE.          Mon Apr 17 16:50:50 2006: LOG DATE
UWI.           05 071 08718 00: UNIQUE WELL ID
STAT.                 Colorado: STATE
~Curve Information Block
DEPT.FT            0 000 00 00: Depth
GR.GAPI                       : Gamma Ray
CCL.                          : Casing Collar Locator
TT3.usec                      : CBL 3' Travel Time
AMP3.mV                       : CBL 3' Amplitude
~Parameter Information Block
~A  Depth        GR         CCL         TT3         AMP3    
# ...
   231.7500     86.2890      0.0000    256.0038     73.9032
   232.0000     90.4104      0.0000    255.9936     73.8775
   232.2500     95.3202      0.0000    255.9895     73.7561
   232.5000     99.6325      0.0000    255.9905     73.5477
   232.7500    101.6766      0.0000    255.9968     73.2941
   233.0000    100.6874      0.0000    256.0089     73.0435
   233.2500     97.2196      0.0000    256.0256     72.8245
   233.5000     92.6483      0.0000    256.0444     72.6385
   233.7500     88.4913      0.0000    256.0627     72.4714
   234.0000     85.9874      0.0000    256.0773     72.3128
   234.2500     85.7646      0.0000    256.0836     72.1673
   234.5000     87.5591      0.0000    256.0791     72.0563
   234.7500     90.0981      0.0000    256.0652     72.0143
   235.0000     91.4992      0.0000    256.0467     72.0825
   235.2500     90.5000      0.0000    256.0274     72.2929
   235.5000     87.6868      0.0000    256.0076     72.6467
   235.7500     85.1076      0.0000    255.9843     73.1055
   236.0000     84.3909      0.0000    255.9542     73.6045
   236.2500     85.4494      0.0000    255.9172     74.0786
   236.5000     87.0299      0.0000    255.8803     74.4878
   236.7500     88.1041      0.0000    255.8547     74.8292
   237.0000     88.6902      0.0000    255.8453     75.1272
   237.2500     89.7649      0.0000    255.8441     75.4135
   237.5000     92.5118      0.0000    255.8367     75.7112
   237.7500     97.2109      0.0000    255.8138     76.0270
   238.0000    102.6174      0.0000    255.7765     76.3475
   238.2500    106.6222      0.0000    255.7317     76.6438
   238.5000    107.8319      0.0000    255.6871     76.8869
   238.7500    106.5808      0.0000    255.6487     77.0632
   239.0000    104.3632      0.0000    255.6202     77.1757
   239.2500    102.3883      0.0000    255.6029     77.2345
   239.5000    100.8838      0.0000    255.5946     77.2518
   239.7500     99.6035      0.0000    255.5907     77.2432
   240.0000     98.4073      0.0000    255.5847     77.2290
   240.2500     97.2057      0.0000    255.5726     77.2255
   240.5000     95.9047      0.0000    255.5556     77.2352
   240.7500     94.6925      0.0000    255.5377     77.2432
   241.0000     94.0135      0.0000    255.5211     77.2261
   241.2500     93.9890      0.0000    255.5067     77.1720
   241.5000     94.1313      0.0000    255.4975     77.0953
   241.7500     93.8947      0.0000    255.4975     77.0248
   242.0000     93.3603      0.0000    255.5069     76.9751
   242.2500     93.1530      0.0000    255.5214     76.9320
   242.5000     93.7234      0.0000    255.5370     76.8649
   242.7500     94.7262      0.0000    255.5520     76.7471
   243.0000     95.1598      0.0000    255.5647     76.5701
   243.2500     94.4173      0.0000    255.5728     76.3468
   243.5000     93.1753      0.0000    255.5750     76.1064
   243.7500     92.7820      0.0000    255.5730     75.8862
   244.0000     93.7671      0.0000    255.5714     75.7194
   244.2500     95.5328      0.0000    255.5749     75.6241
   244.5000     97.5024      0.0000    255.5856     75.5980
   244.7500     99.9290      0.0000    255.6011     75.6213
   245.0000    103.2786      0.0000    255.6175     75.6654
   245.2500    107.1705      0.0000    255.6330     75.7003
   245.5000    110.2470      0.0000    255.6484     75.7030
   245.7500    111.0432      0.0000    255.6635     75.6632
   246.0000    108.9529      0.0000    255.6757     75.5847
   246.2500    104.5292      0.0000    255.6821     75.4806
   246.5000     99.0532      0.0000    255.6829     75.3661
   246.7500     93.8443      0.0000    255.6810     75.2505
   247.0000     89.7587      0.0000    255.6788     75.1262
   247.2500     87.0586      0.0000    255.6765     74.9618
   247.5000     85.6877      0.0000    255.6748     74.7171
   247.7500     85.6913      0.0000    255.6777     74.3745
   248.0000     87.2845      0.0000    255.6911     73.9571
   248.2500     90.3892      0.0000    255.7175     73.5136
   248.5000     94.1330      0.0000    255.7522     73.0916
   248.7500     96.9891      0.0000    255.7845     72.7248
   249.0000     97.5137      0.0000    255.8058     72.4310
   249.2500     95.1740      0.0000    255.8156     72.2035
   249.5000     90.6786      0.0000    255.8218     72.0055
   249.7500     85.4720      0.0000    255.8334     71.7864
   250.0000     80.8465      0.0000    255.8558     71.5068
   250.2500     77.5486      0.0000    255.8906     71.1540
   250.5000     76.0022      0.0000    255.9358     70.7470
   250.7500     76.4762      0.0000    255.9858     70.3339
   251.0000     78.8871      0.0000    256.0327     69.9701
   251.2500     82.6953      0.0000    256.0698     69.6796
   251.5000     87.1024      0.0000    256.0950     69.4354
   251.7500     91.2033      0.0000    256.1117     69.1845
   252.0000     93.9510      0.0000    256.1286     68.8946
   252.2500     94.2516      0.0000    256.1559     68.5772
   252.5000     91.4585      0.0000    256.1964     68.2775
   252.7500     85.9914      0.0000    256.2401     68.0425
   253.0000     79.4561      0.0000    256.2699     67.8877
   253.2500     74.1106      0.0000    256.2720     67.7804
   253.5000     71.8724      0.0000    256.2469     67.6648
   253.7500     73.2520      0.0000    256.2116     67.5180
   254.0000     76.9946      0.0000    256.1930     67.3745
   254.2500     81.0698      0.0000    256.2075     67.2876
   254.5000     84.2205      0.0000    256.2479     67.2781
   254.7500     86.4712      0.0000    256.2925     67.3273
   255.0000     88.3703      0.0000    256.3240     67.3999
   255.2500     90.2652      0.0000    256.3390     67.4668
   255.5000     92.3148      0.0000    256.3427     67.5243
   255.7500     94.6071      0.0000    256.3401     67.5952
   256.0000     96.9225      0.0000    256.3328     67.6993
   256.2500     98.7964      0.0000    256.3207     67.8246
   256.5000    100.1486      0.0000    256.3058     67.9385
   256.7500    101.3274      0.0000    256.2904     68.0281
   257.0000    102.0867      0.0000    256.2732     68.1205
   257.2500    101.3060      0.0000    256.2479     68.2613
   257.5000     98.3745      0.0000    256.2089     68.4791
   257.7500     94.0768      0.0000    256.1586     68.7684
   258.0000     89.4156      0.0000    256.1084     69.0940
   258.2500     84.3012      0.0000    256.0778     69.4064
   258.5000     78.0706      0.0000    256.0978     69.6524
   258.7500     70.9401      0.0000    256.2787     69.7583
   259.0000     64.6172      0.0000    256.9667     69.5888
   259.2500     61.5448      0.0000    258.9307     68.8946
   259.5000     63.2476      0.0000    263.2536     67.3009
   259.7500     69.0401      0.0000    270.5512     64.4613
   260.0000     76.4548      0.0000    279.8910     60.4301
   260.2500     83.0077      0.0000    288.7675     55.9183
   260.5000     87.4205      0.0000    294.7675     51.9813
   260.7500     89.4118      0.0000    297.3203     49.3253
   261.0000     88.9814      0.0000    297.6097     47.9547
   261.2500     86.3440      0.0000    297.0869     47.4393
   261.5000     82.5599     -3.0000    296.3893     47.3797
   261.7500     79.8095     -3.0000    295.2610     47.6640
   262.0000     80.3162      0.0000    292.9173     48.4768
   262.2500     84.6062      0.0000    288.5598     50.1181
   262.5000     91.0626      0.0000    282.0663     52.6945
   262.7500     97.4281      0.0000    274.4262     55.9278
   263.0000    102.4751      0.0000    267.2935     59.3056
   263.2500    106.0129      0.0000    261.9480     62.3725
   263.5000    107.7624      0.0000    258.6740     64.8279
   263.7500    107.0201      0.0000    256.9981     66.4947
   264.0000    103.6436      0.0000    256.2660     67.3618
   264.2500     98.8460      0.0000    255.9877     67.6179
   264.5000     94.5327      0.0000    255.8911     67.5569
   264.7500     91.9151      0.0000    255.8546     67.4374
   265.0000     90.9533      0.0000    255.8357     67.4023
