~Version Information
VERS.                      2.0: CWLS Log ASCII Standard - VERSION 2.0
WRAP.                       NO: One line per depth step
~Well Information Block
STRT.FT                -5.7500: 
STOP.FT              2734.0000: 
STEP.FT                 0.2500: 
NULL.                -999.2500: 
COMP.          Pioneer Natural Resources: COMPANY
WELL.              Loews 41-32: WELL
FLD.           Purgatoire River: FIELD
LOC.           751' FNL & 128' FEL--: LOCATION
CNTY.               Las Animas: COUNTY
SRVC.                         : SERVICE COMPANY
DATE.          Sat Mar 04 08:20:59 2006: LOG DATE
UWI.           05 071 08693 00: UNIQUE WELL ID
STAT.                       CO: STATE
~Curve Information Block
DEPT.FT            0 000 00 00: Depth
GR.GAPI                       : Gamma Ray
CCL.                          : Casing Collar Locator
TT3.usec                      : CBL 3' Travel Time
AMP3.mV                       : CBL 3' Amplitude
~Parameter Information Block
~A  Depth        GR         CCL         TT3         AMP3    
# ...
   362.7500     58.9164      0.0000    724.6678      4.9376
   363.0000     59.2223      0.0000    726.2565      4.9125
   363.2500     60.2181      0.0000    729.4803      4.8789
   363.5000     61.4651      0.0000    734.5082      4.8364
   363.7500     62.6153      0.0000    741.7413      4.7940
   364.0000     63.8309      0.0000    751.9787      4.7581
   364.2500     65.1939      0.0000    765.6745      4.7293
   364.5000     66.2081      0.0000    781.6385      4.7043
   364.7500     66.3797      0.0000    796.9590      4.6796
   365.0000     66.1179      0.0000    808.7182      4.6545
   365.2500     66.6272      0.0000    815.8003      4.6317
   365.5000     68.8250      0.0000    819.0634      4.6147
   365.7500     72.4797      0.0000    820.1614      4.6050
   366.0000     76.4128      0.0000    820.4325      4.5993
   366.2500     79.5839      0.0000    820.5607      4.5914
   366.5000     81.9584      0.0000    820.6425      4.5791
   366.7500     84.1524      0.0000    820.1356      4.5663
   367.0000     86.2814      0.0000    817.5552      4.5584
   367.2500     87.5279      0.0000    810.4362      4.5579
   367.5000     86.8454      0.0000    796.4664      4.5668
   367.7500     83.7588      0.0000    775.7353      4.5861
   368.0000     78.5547      0.0000    751.9991      4.6133
   368.2500     72.0710      0.0000    730.8444      4.6416
   368.5000     65.3599      0.0000    716.0832      4.6648
   368.7500     59.3847      0.0000    708.0490      4.6818
   369.0000     54.8315      0.0000    705.0057      4.6962
   369.2500     51.9765      0.0000    705.2899      4.7113
   369.5000     50.6899      0.0000    707.9468      4.7254
   369.7500     50.7796      0.0000    712.1459      4.7341
   370.0000     52.2514      0.0000    716.8970      4.7373
   370.2500     54.9377      0.0000    721.6761      4.7439
   370.5000     58.0972      0.0000    726.9899      4.7696
   370.7500     60.9039      0.0000    733.9936      4.8278
   371.0000     63.1769      0.0000    743.6642      4.9196
   371.2500     65.1215      0.0000    756.4950      5.0266
   371.5000     66.4648      0.0000    772.3948      5.1167
   371.7500     66.4426      0.0000    790.1808      5.1624
   372.0000     64.7794      0.0000    807.6980      5.1607
   372.2500     62.1974      0.0000    823.3583      5.1330
   372.5000     59.6786      0.0000    837.6475      5.1044
   372.7500     57.6408      0.0000    852.4961      5.0857
   373.0000     56.1350      0.0000    868.7474      5.0741
   373.2500     55.3310      0.0000    884.1769      5.0637
   373.5000     55.2347      0.0000    894.8547      5.0538
   373.7500     55.2704      0.0000    898.9264      5.0484
   374.0000     54.7339      0.0000    898.0201      5.0531
   374.2500     53.6634      0.0000    894.3716      5.0729
   374.5000     53.0636      0.0000    887.8763      5.1084
   374.7500     54.2296      0.0000    877.1951      5.1505
   375.0000     57.5960      0.0000    863.6116      5.1817
   375.2500     61.9577      0.0000    852.6904      5.1872
   375.5000     65.0302      0.0000    850.3515      5.1676
   375.7500     65.1971      0.0000    856.4860      5.1392
   376.0000     62.7937      0.0000    863.3648      5.1215
   376.2500     59.6556      0.0000    861.4379      5.1264
   376.5000     57.5191      0.0000    846.8365      5.1567
   376.7500     56.8631      0.0000    823.3618      5.2095
   377.0000     57.0074      0.0000    798.4807      5.2772
   377.2500     57.0035      0.0000    778.0648      5.3465
   377.5000     56.3475      0.0000    763.9850      5.4016
   377.7500     55.0805      0.0000    755.1374      5.4311
   378.0000     53.5489      0.0000    749.9053      5.4328
   378.2500     52.2444      0.0000    747.5606      5.4117
   378.5000     51.7128      0.0000    747.9269      5.3740
   378.7500     52.3146      0.0000    750.6260      5.3220
   379.0000     53.9038      0.0000    755.4618      5.2596
   379.2500     55.8257      0.0000    763.1901      5.1997
   379.5000     57.4459      0.0000    774.7504      5.1653
   379.7500     58.7296      0.0000    789.4622      5.1744
   380.0000     60.1810      0.0000    804.6577      5.2211
   380.2500     62.2175      0.0000    817.3534      5.2745
   380.5000     64.6750      0.0000    825.8773      5.3023
   380.7500     66.8215      0.0000    830.1609      5.2955
   381.0000     67.7505      0.0000    831.7439      5.2714
   381.2500     66.9701      0.0000    834.0726      5.2556
   381.5000     64.8366      0.0000    841.4305      5.2653
   381.7500     62.3391      0.0000    854.8464      5.3050
   382.0000     60.2982      0.0000    868.0769      5.3734
   382.2500     58.8726      0.0000    870.1251      5.4703
   382.5000     57.8241      0.0000    854.6630      5.5958
   382.7500     56.9259      0.0000    826.8467      5.7412
   383.0000     55.9704      0.0000    799.3981      5.8856
   383.2500     54.7027      0.0000    782.2333      6.0070
   383.5000     53.0575      0.0000    776.6504      6.0967
   383.7500     51.4591      0.0000    777.9056      6.1575
   384.0000     50.7391      0.0000    780.8579      6.1884
   384.2500     51.6410      0.0000    783.0748      6.1778
   384.5000     54.3374      0.0000    784.4215      6.1163
   384.7500     58.2785      0.0000    785.2659      6.0094
   385.0000     62.3310      0.0000    785.6936      5.8762
   385.2500     65.1918      0.0000    786.1625      5.7412
   385.5000     66.1511      0.0000    788.0793      5.6372
   385.7500     65.7401      0.0000    792.9820      5.6100
   386.0000     65.3824      0.0000    800.9517      5.6933
   386.2500     66.0671      0.0000    809.7574      5.8606
   386.5000     67.2820      0.0000    815.5522      6.0260
   386.7500     67.3723      0.0000    814.9573      6.1196
   387.0000     65.1865      0.0000    807.5314      6.1482
   387.2500     61.5179      0.0000    796.4825      6.1647
   387.5000     58.7113      0.0000    786.2880      6.2015
   387.7500     58.6134      0.0000    779.0319      6.2579
   388.0000     61.0386      2.0000    772.5406      6.3295
   388.2500     64.3535      0.0000    761.8083      6.4396
   388.5000     67.2217      0.0000    742.9553      6.6479
   388.7500     69.2629      0.0000    716.9265      7.0195
   389.0000     70.2669      0.0000    689.6329      7.5576
   389.2500     69.6976      0.0000    667.9355      8.1759
   389.5000     67.2787      0.0000    655.1447      8.7622
   389.7500     63.5998      0.0000    650.2228      9.2497
   390.0000     59.9496      0.0000    650.2691      9.6143
   390.2500     57.6603      0.0000    652.6069      9.8453
   390.5000     57.3699      0.0000    654.9708      9.9486
   390.7500     58.6204      0.0000    655.5370      9.9547
   391.0000     60.3304      0.0000    654.0586      9.9051
   391.2500     61.8582      0.0000    652.5192      9.8365
   391.5000     63.4724      0.0000    653.4977      9.7759
   391.7500     65.6584      0.0000    657.6504      9.7400
   392.0000     68.1086      0.0000    663.2294      9.7317
   392.2500     69.7159      0.0000    667.9566      9.7408
   392.5000     69.6582      0.0000    670.8477      9.7499
   392.7500     68.1895      0.0000    672.6291      9.7458
   393.0000     66.2023      0.0000    675.4473      9.7281
   393.2500     64.2270      0.0000    682.1115      9.7091
   393.5000     62.1065      0.0000    694.1804      9.7018
   393.7500     59.6125      0.0000    709.7784      9.7082
   394.0000     57.1265      0.0000    723.7711      9.7173
   394.2500     55.4804      0.0000    730.7870      9.7139
   394.5000     55.0559      0.0000    728.3422      9.6879
   394.7500     55.1737      0.0000    717.8500      9.6390
   395.0000     54.6535      0.0000    703.6583      9.5751
   395.2500     53.0722      0.0000    690.8813      9.5044
   395.5000     51.3094      0.0000    683.0806      9.4309
   395.7500     50.7906      0.0000    681.1064      9.3558
   396.0000     52.2473      0.0000    683.2295      9.2816
