~Version Information
VERS.                      2.0: CWLS Log ASCII Standard - VERSION 2.0
WRAP.                       NO: One line per depth step
~Well Information Block
STRT.FT               350.0000: 
STOP.FT              2808.2500: 
STEP.FT                 0.2500: 
NULL.                -999.2500: 
COMP.          Pioneer Natural Resources: COMPANY
WELL.          Grey Goose 33-30: WELL
FLD.           Purgatoire River: FIELD
LOC.           2136' FSL & 2065' FEL--: LOCATION
STAT.                 Colorado: State
CNTY.               Las Animas: COUNTY
CTRY. USA : Country
SECT. 30 : Section
TOWN. 32S : Township
RANG. 67W : Range
SRVC.                Patterson: SERVICE COMPANY
DATE.          Fri Nov 04 09:00:45 2005: LOG DATE
API.           05 071 08546 00: UNIQUE WELL ID
~Curve Information Block
DEPT.FT            0 000 00 00: Depth
DIR.Ohm-m                     : IEL Induction Resistivity
SN.Ohm-m                      : IEL Short Normal
SP.mV                         : IEL Spontaneous Potential
GR.GAPI                       : Gamma Ray
~Parameter Information Block
~A  Depth       DIR          SN          SP          GR     
# ...
  1790.5000     17.7061     24.9404     -5.7385     99.2767
  1790.7500     19.0389     27.0528     -6.2353     98.3856
  1791.0000     20.3513     28.9568     -6.8673     97.7420
  1791.2500     21.5857     30.7614     -7.6396     97.4258
  1791.5000     22.7313     32.6194     -8.5489     96.7658
  1791.7500     23.8243     34.6600     -9.5826     96.2821
  1792.0000     24.9276     36.9384    -10.7185     95.5146
  1792.2500     26.1055     39.4101    -11.9248     94.6074
  1792.5000     27.4059     41.9426    -13.1599     91.6624
  1792.7500     28.8480     44.3594    -14.3722     88.2741
  1793.0000     30.4170     46.4937    -15.5016     81.2462
  1793.2500     32.0650     48.2197    -16.4819     75.8633
  1793.5000     33.7175     49.4512    -17.2465     68.3629
  1793.7500     35.2754     50.1228    -17.7355     64.6906
  1794.0000     36.6068     50.1787    -17.9036     61.7038
  1794.2500     37.5440     49.5903    -17.7277     60.8012
  1794.5000     37.9172     48.3961    -17.2120     59.5947
  1794.7500     37.6294     46.7260    -16.3891     58.7186
  1795.0000     36.7193     44.7775    -15.3184     58.7297
  1795.2500     35.3553     42.7529    -14.0802     60.7978
  1795.5000     33.7617     40.8023    -12.7678     67.8922
  1795.7500     32.1397     39.0015    -11.4782     74.6976
  1796.0000     30.6258     37.3676    -10.3039     85.4620
  1796.2500     29.2885     35.8966     -9.3254     91.2744
  1796.5000     28.1469     34.5993     -8.6065     96.0344
  1796.7500     27.1969     33.5146     -8.1912     96.6143
  1797.0000     26.4342     32.6933     -8.1029     95.4492
  1797.2500     25.8659     32.1684     -8.3442     94.5586
  1797.5000     25.5082     31.9355     -8.8968     93.5454
  1797.7500     25.3774     31.9594     -9.7206     92.2017
  1798.0000     25.4807     32.1963    -10.7530     87.2296
  1798.2500     25.8068     32.6139    -11.9085     81.6596
  1798.5000     26.3155     33.1915    -13.0812     71.6566
  1798.7500     26.9266     33.8934    -14.1500     65.6127
  1799.0000     27.5178     34.6187    -14.9891     59.5769
  1799.2500     27.9335     35.1575    -15.4807     57.6016
  1799.5000     28.0035     35.2096    -15.5294     56.4553
  1799.7500     27.5728     34.5019    -15.0752     56.3500
  1800.0000     26.5554     32.9444    -14.1016     57.3311
  1800.2500     24.9927     30.7009    -12.6380     59.1965
  1800.5000     23.0591     28.1066    -10.7548     64.5686
  1800.7500     20.9908     25.4991     -8.5527     70.2262
  1801.0000     18.9892     23.0864     -6.1494     82.3687
  1801.2500     17.1705     20.9239     -3.6645     92.9262
  1801.5000     15.5730     18.9754     -1.2082    111.1080
  1801.7500     14.1887     17.1894      1.1275    123.0839
  1802.0000     12.9930     15.5442      3.2728    137.5530
  1802.2500     11.9603     14.0566      5.1808    143.6052
  1802.5000     11.0717     12.7648      6.8260    146.9878
  1802.7500     10.3167     11.6992      8.2020    146.3451
  1803.0000      9.6905     10.8639      9.3184    143.6866
  1803.2500      9.1902     10.2375     10.1972    142.1671
  1803.5000      8.8097      9.7852     10.8690    141.1868
  1803.7500      8.5371      9.4670     11.3686    141.2648
  1804.0000      8.3545      9.2418     11.7309    142.2730
  1804.2500      8.2402      9.0715     11.9881    143.6858
  1804.5000      8.1725      8.9281     12.1672    146.9904
  1804.7500      8.1333      8.7995     12.2906    149.5384
  1805.0000      8.1120      8.6876     12.3755    152.3647
  1805.2500      8.1050      8.5994     12.4354    152.7661
  1805.5000      8.1127      8.5371     12.4808    150.7561
  1805.7500      8.1352      8.4955     12.5192    148.2065
  1806.0000      8.1691      8.4663     12.5558    144.2926
  1806.2500      8.2077      8.4435     12.5934    142.5432
  1806.5000      8.2420      8.4245     12.6329    141.6383
  1806.7500      8.2629      8.4076     12.6740    141.6405
  1807.0000      8.2635      8.3919     12.7151    141.1968
  1807.2500      8.2404      8.3792     12.7541    140.3923
  1807.5000      8.1954      8.3718     12.7875    139.7058
  1807.7500      8.1342      8.3663     12.8113    140.7278
  1808.0000      8.0654      8.3526     12.8199    145.3062
  1808.2500      7.9981      8.3200     12.8070    149.7739
  1808.5000      7.9398      8.2671     12.7655    156.1503
  1808.7500      7.8955      8.2043     12.6890    158.5893
  1809.0000      7.8667      8.1461     12.5723    157.9198
  1809.2500      7.8515      8.1017     12.4130    154.8220
  1809.5000      7.8452      8.0700     12.2118    148.3077
  1809.7500      7.8417      8.0409     11.9728    144.1475
  1810.0000      7.8348      8.0000     11.7034    139.5345
  1810.2500      7.8190      7.9365     11.4129    137.6226
  1810.5000      7.7915      7.8490     11.1113    136.4078
  1810.7500      7.7523      7.7454     10.8077    136.8090
  1811.0000      7.7032      7.6363     10.5086    139.0802
  1811.2500      7.6464      7.5270     10.2176    141.1868
  1811.5000      7.5835      7.4155      9.9348    144.2834
  1811.7500      7.5157      7.2964      9.6578    146.0369
  1812.0000      7.4450      7.1702      9.3823    147.9155
  1812.2500      7.3749      7.0474      9.1038    148.5122
  1812.5000      7.3104      6.9460      8.8184    148.6132
  1812.7500      7.2575      6.8848      8.5234    148.4355
  1813.0000      7.2208      6.8737      8.2181    147.6407
  1813.2500      7.2027      6.9075      7.9032    146.2538
  1813.5000      7.2031      6.9690      7.5804    142.6150
  1813.7500      7.2200      7.0411      7.2525    139.8148
  1814.0000      7.2499      7.1158      6.9221    136.7239
  1814.2500      7.2884      7.1924      6.5918    135.7835
  1814.5000      7.3304      7.2691      6.2632    135.1666
  1814.7500      7.3716      7.3391      5.9371    134.4762
  1815.0000      7.4094      7.3964      5.6136    132.5762
  1815.2500      7.4431      7.4409      5.2920    131.2493
  1815.5000      7.4724      7.4776      4.9723    130.6506
  1815.7500      7.4968      7.5095      4.6553    131.7738
  1816.0000      7.5153      7.5332      4.3439    135.4369
  1816.2500      7.5273      7.5393      4.0427    138.1375
  1816.5000      7.5335      7.5198      3.7575    139.8627
  1816.7500      7.5354      7.4751      3.4935    138.1175
  1817.0000      7.5352      7.4169      3.2542    130.7834
  1817.2500      7.5352      7.3627      3.0399    123.8700
  1817.5000      7.5370      7.3280      2.8473    113.4909
  1817.7500      7.5415      7.3199      2.6705    108.0719
  1818.0000      7.5476      7.3370      2.5023    103.3100
  1818.2500      7.5535      7.3722      2.3357    102.1209
  1818.5000      7.5573      7.4164      2.1649    102.1665
  1818.7500      7.5582      7.4610      1.9862    103.0223
  1819.0000      7.5571      7.4986      1.7977    105.6325
  1819.2500      7.5556      7.5237      1.5982    108.2047
  1819.5000      7.5560      7.5339      1.3871    112.2672
  1819.7500      7.5607      7.5336      1.1632    114.2410
  1820.0000      7.5728      7.5350      0.9252    115.2280
  1820.2500      7.5970      7.5534      0.6714    114.6721
  1820.5000      7.6394      7.6003      0.4007    113.0183
  1820.7500      7.7061      7.6808      0.1126    112.1711
  1821.0000      7.8024      7.7941     -0.1929    112.2725
  1821.2500      7.9311      7.9332     -0.5153    113.0994
  1821.5000      8.0931      8.0846     -0.8543    113.7982
  1821.7500      8.2875      8.2312     -1.2100    112.8592
  1822.0000      8.5129      8.3608     -1.5835    109.3790
  1822.2500      8.7677      8.4759     -1.9760    106.8563
  1822.5000      9.0506      8.5986     -2.3886    104.6801
  1822.7500      9.3593      8.7656     -2.8209    104.2913
  1823.0000      9.6914      9.0168     -3.2699    103.7325
  1823.2500     10.0444      9.3818     -3.7286    102.6213
  1823.5000     10.4172      9.8709     -4.1853     99.9652
  1823.7500     10.8106     10.4692     -4.6230     98.1180
