~Version Information
 VERS.                                  2.0 : CWLS LAS VERSION
 WRAP.                                   NO : WRAPING MODE
 SWARE .                 MController 2.5.0N : SOFTWARE VERSION
~Well Information
 WELL.                    Hanginstone 21-27 : WELL
 COMP.   Pioneer Natural Resources USA, Inc : COMPANY
 FLD.                      Purgatoire River : FIELD
 LOC.                NE/NW Sec 27 T32S R67W : LOCATION
 DATE.                         1/05-07/2006 : DATE(S) LOGGED
 SRVC.       BLANCO Geological Services LLC : SERVICE COMPANY
 STAT.                                   CO : STATE
 CNTY.                           Las Animas : COUNTY
 CTRY.                                  USA : COUNTRY
 API.                       05-071-08632-00 : API NUMBER
 STRT.FT                             907.00 : START DEPTH
 STOP.FT                            2970.00 : STOP DEPTH
 STEP.FT                               1.00 : DEPTH INCREMENT
 NULL.                                -9999 : NULL VALUE
~Curve information
 DEPTH.FT                                   :
 ROP.MIN/FT                                 :
 GAS.UNITS                                  :
~ASCII Log data
# ...
      1107.0         0.20          5.5 
      1108.0         0.23          5.6 
      1109.0         0.23          5.8 
      1110.0         0.30          5.7 
      1111.0         5.33          6.4 
      1112.0         0.63          5.9 
      1113.0         0.33          6.2 
      1114.0         0.23          5.9 
      1115.0         0.30          5.9 
      1116.0         0.27          6.2 
      1117.0         0.30          5.9 
      1118.0         0.45          5.9 
      1119.0         0.37          5.9 
      1120.0         0.27          5.7 
      1121.0         0.30          5.8 
      1122.0         0.27          5.7 
      1123.0         0.30          5.8 
      1124.0         0.30          5.7 
      1125.0         0.27          5.8 
      1126.0         0.40          5.7 
      1127.0         0.53          5.7 
      1128.0         0.62          5.6 
      1129.0         0.50          5.4 
      1130.0         0.30          5.5 
      1131.0         0.43          5.6 
      1132.0         0.40          5.8 
      1133.0         0.43          5.7 
      1134.0         0.43          5.6 
      1135.0         0.48          5.6 
      1136.0         0.67          5.5 
      1137.0         0.50          5.6 
      1138.0         0.43          5.8 
      1139.0         0.43          5.7 
      1140.0         0.40          5.9 
      1141.0         5.77          6.2 
      1142.0         0.53          6.2 
      1143.0         0.50          6.1 
      1144.0         0.40          6.0 
      1145.0         0.48          6.0 
      1146.0         0.43          6.3 
      1147.0         0.50          6.2 
      1148.0         0.27          6.2 
      1149.0         0.23          5.7 
      1150.0         0.23          6.2 
      1151.0         0.43          6.2 
      1152.0         0.47          6.3 
      1153.0         0.47          6.2 
      1154.0         0.48          6.8 
      1155.0         0.50          6.3 
      1156.0         0.47          5.9 
      1157.0         0.47          5.9 
      1158.0         0.43          6.0 
      1159.0         0.43          5.8 
      1160.0         0.40          5.9 
      1161.0         0.45          5.9 
      1162.0         0.40          5.6 
      1163.0         0.40          5.6 
      1164.0         0.37          5.8 
      1165.0         0.40          5.3 
      1166.0         0.37          5.6 
      1167.0         0.40          5.9 
      1168.0         0.43          5.8 
      1169.0         0.55          6.1 
      1170.0         0.47          6.1 
      1171.0         7.07          6.3 
      1172.0         0.47          6.0 
      1173.0         0.37          6.0 
      1174.0         0.37          6.3 
      1175.0         0.33          6.0 
      1176.0         1.02          6.0 
      1177.0         0.30          6.3 
      1178.0         0.60          6.5 
      1179.0         0.60          6.5 
      1180.0         0.47          6.5 
      1181.0         0.30          6.4 
      1182.0         0.50          6.2 
      1183.0         0.30          6.2 
      1184.0         0.35          6.4 
      1185.0         0.27          6.4 
      1186.0         0.23          6.2 
      1187.0         0.30          6.0 
      1188.0         0.23          6.3 
      1189.0         0.33          5.9 
      1190.0         0.30          6.4 
      1191.0         0.43          6.1 
      1192.0         0.27          6.3 
      1193.0         0.27          6.3 
      1194.0         0.23          6.0 
      1195.0         0.17          6.0 
      1196.0         0.25          5.9 
      1197.0         0.37          5.9 
      1198.0         0.33          6.0 
      1199.0         0.40          6.2 
      1200.0         0.37          6.0 
      1201.0         6.70          6.5 
      1202.0         0.43          6.2 
      1203.0         0.33          6.3 
      1204.0         0.30          6.2 
      1205.0         0.23          6.3 
      1206.0         0.20          7.7 
      1207.0         0.25          7.7 
      1208.0         0.30          7.1 
      1209.0         0.37          7.0 
      1210.0         0.23          7.5 
      1211.0         0.27          7.0 
      1212.0         0.33          6.7 
      1213.0         0.30          6.7 
      1214.0         0.30          6.8 
      1215.0         0.30          7.4 
      1216.0         0.23          7.6 
      1217.0         0.27          7.7 
      1218.0         0.42          8.1 
      1219.0         0.43          8.7 
      1220.0         0.40          8.2 
      1221.0         0.40          7.3 
      1222.0         0.47          6.9 
      1223.0         0.40          6.7 
      1224.0         0.47          7.0 
      1225.0         0.47          7.2 
      1226.0         0.48          6.3 
      1227.0         0.43          6.4 
      1228.0         0.40          6.4 
      1229.0         0.40          6.2 
      1230.0         0.23          6.2 
      1231.0         6.10          6.8 
      1232.0         0.40          6.3 
      1233.0         0.27          6.5 
      1234.0         0.27          6.6 
      1235.0         0.47          7.0 
      1236.0         0.47          6.8 
      1237.0         0.55          6.2 
      1238.0         0.57          6.2 
      1239.0         0.37          6.0 
      1240.0         0.40          6.1 
      1241.0         0.33          6.2 
      1242.0         0.23          6.0 
      1243.0         0.30          6.1 
      1244.0         0.37          6.0 
      1245.0         0.47          6.1 
      1246.0         3.77          6.5 
      1247.0         0.53          6.0 
      1248.0         0.37          5.8 
      1249.0         0.40          6.0 
      1250.0         0.43          6.2 
      1251.0         0.37          7.0 
      1252.0         1.68          7.8 
      1253.0         0.30          7.3 
      1254.0         0.47          7.3 
      1255.0         0.53          8.1 
      1256.0         0.47          7.3 
      1257.0         0.33          6.7 
      1258.0         0.45          6.6 
      1259.0         0.40          6.4 
      1260.0         0.43          6.2 
      1261.0         6.63          6.6 
      1262.0         0.37          6.0 
      1263.0         0.40          6.0 
      1264.0         0.40          7.0 
      1265.0         0.47          6.8 
      1266.0         0.40          6.9 
      1267.0         0.47          6.4 
      1268.0         0.52          6.7 
      1269.0         0.50          6.6 
      1270.0         0.53          6.5 
      1271.0         0.50          6.2 
      1272.0         0.43          6.0 
      1273.0         0.40          6.0 
      1274.0         0.37          6.1 
      1275.0         0.38          6.0 
      1276.0         0.43          6.0 
      1277.0         0.37          5.9 
      1278.0         0.43          5.9 
      1279.0         0.60          6.0 
      1280.0         0.50          6.3 
      1281.0         0.30          6.2 
      1282.0         0.52          6.0 
      1283.0         0.33          5.9 
      1284.0         0.30          6.1 
      1285.0         0.23          6.0 
      1286.0         0.23          6.1 
      1287.0         0.20          5.9 
      1288.0         0.23          5.7 
      1289.0         0.20          5.9 
      1290.0         0.23          5.8 
      1291.0         6.33         22.3 
      1292.0         0.10         15.1 
      1293.0         0.20         16.0 
      1294.0         0.57         15.9 
      1295.0         0.50         15.1 
      1296.0         0.42         16.2 
      1297.0         0.40         17.4 
      1298.0         0.40         15.5 
      1299.0         0.50         12.0 
      1300.0         0.40         10.2 
      1301.0         0.37          8.6 
      1302.0         0.40          8.4 
      1303.0         0.33          8.3 
      1304.0         0.45          7.1 
      1305.0         0.33          6.3 
      1306.0         0.43          6.4 
