~Version Information
VERS.                      2.0: CWLS Log ASCII Standard - VERSION 2.0
WRAP.                       NO: One line per depth step
~Well Information Block
STRT.FT               -14.0000: 
STOP.FT               951.0000: 
STEP.FT                 0.2500: 
NULL.                -999.2500: 
COMP.          Pioneer Natural Resources: COMPANY
WELL.             Giggle 21-22: WELL
FLD.           Purgatoire River: FIELD
LOC.           950' FNL & 2094' FWL: LOCATION
CNTY.               Las Animas: COUNTY
SRVC.                         : SERVICE COMPANY
DATE.          Mon Apr 17 17:51:33 2006: LOG DATE
UWI.           05 071 08726 00: UNIQUE WELL ID
STAT.                       CO: STATE
~Curve Information Block
DEPT.FT            0 000 00 00: Depth
CCL.                          : Casing Collar Locator
TT3.usec                      : CBL 3' Travel Time
AMP3.mV                       : CBL 3' Amplitude
GR.GAPI                       : Gamma Ray
~Parameter Information Block
~A  Depth       CCL         TT3         AMP3         GR     
# ...
   187.0000      0.0000    785.6215      5.5587     76.3777
   187.2500      0.0000    782.3588      5.5949     79.5438
   187.5000      0.0000    778.9307      5.5901     83.5571
   187.7500      0.0000    775.6301      5.5819     87.0830
   188.0000      0.0000    772.9438      5.5803     89.0870
   188.2500      0.0000    771.1580      5.5518     89.3059
   188.5000      0.0000    770.6610      5.4546     88.3120
   188.7500      0.0000    772.4098      5.2818     87.0325
   189.0000      0.0000    777.1517      5.0678     85.9068
   189.2500      0.0000    783.9311      4.8555     84.5828
   189.5000      0.0000    790.2713      4.6644     82.5572
   189.7500      0.0000    794.1714      4.4943     79.7808
   190.0000      0.0000    795.3196      4.3488     76.6097
   190.2500      0.0000    795.0239      4.2399     73.7547
   190.5000     -5.0000    796.2170      4.1748     72.5435
   190.7500      3.2071    802.0706      4.1513     74.4952
   191.0000      0.0000    812.5093      4.1689     79.7991
   191.2500      0.0000    823.2038      4.2427     86.3771
   191.5000      0.0000    829.1895      4.4038     91.2518
   191.7500      0.0000    828.1028      4.6755     92.9997
   192.0000      0.0000    819.9810      5.0306     92.4217
   192.2500      0.0000    806.6348      5.3863     90.9711
   192.5000      0.0000    791.7813      5.6618     89.3081
   192.7500      0.0000    779.4808      5.8379     87.4425
   193.0000      0.0000    771.5313      5.9475     85.4615
   193.2500      0.0000    767.4152      6.0316     83.5022
   193.5000      0.0000    766.6238      6.1149     81.2157
   193.7500      0.0000    769.4078      6.1968     77.8459
   194.0000      0.0000    774.7061      6.2498     73.1506
   194.2500      0.0000    778.9510      6.2427     68.0356
   194.5000      0.0000    778.8195      6.1769     63.9875
   194.7500      0.0000    775.0311      6.0904     61.7497
   195.0000      0.0000    772.0894      6.0294     60.6367
   195.2500      0.0000    773.9268      6.0225     59.2651
   195.5000      0.0000    780.3762      6.0701     56.9532
   195.7500      0.0000    787.9729      6.1369     54.3671
   196.0000      0.0000    793.3574      6.1628     52.8733
   196.2500      0.0000    795.1760      6.1020     53.3679
   196.5000      0.0000    793.5198      5.9615     55.6983
   196.7500      0.0000    789.2344      5.7955     59.1038
   197.0000      0.0000    783.9188      5.6648     63.1558
   197.2500      0.0000    779.3540      5.6025     68.1026
   197.5000      0.0000    776.4219      5.6075     74.0926
   197.7500      0.0000    774.8859      5.6593     80.1662
   198.0000      0.0000    774.0823      5.7337     84.5174
   198.2500      0.0000    773.5299      5.8068     86.0002
   198.5000      0.0000    773.0363      5.8547     85.1617
   198.7500      0.0000    772.5767      5.8619     83.6278
   199.0000      0.0000    772.1927      5.8317     82.7614
   199.2500      0.0000    771.9457      5.7807     83.2495
   199.5000      0.0000    771.8942      5.7237     85.5438
   199.7500      0.0000    772.0565      5.6713     89.7591
   200.0000      0.0000    772.3620      5.6419     94.8158
   200.2500      0.0000    772.6086      5.6631     98.2587
   200.5000      0.0000    772.4570      5.7481     97.5453
   200.7500      0.0000    771.5654      5.8706     91.8690
   201.0000      0.0000    769.9195      5.9766     82.9084
   201.2500      0.0000    768.0632      6.0243     73.6933
   201.5000      0.0000    766.6837      6.0117     66.4296
   201.7500      0.0000    765.7093      5.9667     61.2548
   202.0000      0.0000    764.1940      5.9190     57.0228
   202.2500      0.0000    761.5573      5.8863     53.0697
   202.5000      0.0000    758.7004      5.8793     50.0174
   202.7500      0.0000    757.4966      5.9088     48.8891
   203.0000      0.0000    759.4664      5.9802     49.7378
   203.2500      0.0000    765.3661      6.0858     51.4726
   203.5000      0.0000    775.5737      6.2064     52.9774
   203.7500      0.0000    789.8304      6.3187     53.9961
   204.0000      0.0000    806.1398      6.3997     54.6282
   204.2500      0.0000    820.4130      6.4369     54.3679
   204.5000      0.0000    828.1248      6.4395     52.3734
   204.7500      0.0000    827.0295      6.4314     48.8533
   205.0000      0.0000    818.6548      6.4295     45.5978
   205.2500      0.0000    807.4785      6.4289     44.6264
   205.5000      0.0000    798.3781      6.4125     46.3255
   205.7500      0.0000    793.8246      6.3698     49.0672
   206.0000      0.0000    792.8173      6.3069     50.7453
   206.2500      0.0000    792.5473      6.2432     50.6443
   206.5000      0.0000    791.0259      6.1974     49.6413
   206.7500      0.0000    787.6816      6.1737     48.6765
   207.0000      0.0000    782.0855      6.1570     47.5744
   207.2500      0.0000    773.8981      6.1233     45.6221
   207.5000      0.0000    764.3409      6.0581     42.8110
   207.7500      0.0000    756.0798      5.9716     39.9802
   208.0000      0.0000    750.7806      5.8964     37.9094
   208.2500      0.0000    747.4009      5.8647     36.7486
   208.5000      0.0000    743.3431      5.8804     36.3462
   208.7500      0.0000    737.0493      5.9159     36.7122
   209.0000      0.0000    729.1164      5.9376     37.9231
   209.2500      0.0000    720.8752      5.9321     39.8147
   209.5000      0.0000    712.0328      5.9082     42.1034
   209.7500      0.0000    699.9113      5.8790     44.7186
   210.0000      0.0000    682.2883      5.8486     47.6578
   210.2500      0.0000    662.7701      5.8143     50.4029
   210.5000      0.0000    652.2347      5.7762     51.9128
   210.7500      0.0000    660.9310      5.7418     51.6062
   211.0000      0.0000    687.9473      5.7216     50.0859
   211.2500      0.0000    721.0815      5.7175     48.4844
   211.5000      0.0000    747.5259      5.7189     47.4097
   211.7500      0.0000    762.5396      5.7127     46.8617
   212.0000      0.0000    768.6628      5.6926     46.7000
   212.2500      0.0000    770.3340      5.6596     46.7114
   212.5000      0.0000    770.5340      5.6177     46.5629
   212.7500      0.0000    770.5103      5.5741     46.0416
   213.0000      0.0000    770.5831      5.5381     45.1141
   213.2500      0.0000    770.7474      5.5201     43.6874
   213.5000      0.0000    770.9219      5.5264     41.7111
   213.7500      0.0000    771.0324      5.5517     39.6496
   214.0000      0.0000    771.0496      5.5795     38.5488
   214.2500      0.0000    770.9764      5.5968     39.4176
   214.5000      0.0000    770.8324      5.6041     42.4848
   214.7500      0.0000    770.6603      5.6081     46.8749
   215.0000      0.0000    770.5281      5.6115     50.9566
   215.2500      0.0000    770.5031      5.6139     53.3154
   215.5000      0.0000    770.6218      5.6189     53.6770
   215.7500      0.0000    770.8768      5.6326     52.9335
   216.0000      0.0000    771.2249      5.6573     52.2699
   216.2500      0.0000    771.5958      5.6876     52.3229
   216.5000      0.0000    771.9054      5.7106     53.0140
   216.7500      0.0000    772.0843      5.7156     53.8051
   217.0000      0.0000    772.1191      5.7087     54.0920
   217.2500      0.0000    772.0648      5.7110     53.6753
   217.5000      0.0000    772.0093      5.7326     52.9380
   217.7500      0.0000    772.0190      5.7519     52.4686
   218.0000      0.0000    772.1092      5.7325     52.5477
   218.2500      0.0000    772.2510      5.6621     52.9764
   218.5000      0.0000    772.4054      5.5693     53.1834
   218.7500      0.0000    772.5331      5.4974     52.3956
   219.0000      0.0000    772.5424      5.4616     49.9339
   219.2500      0.0000    772.2018      5.4367     45.6733
   219.5000      0.0000    771.2045      5.3909     40.3417
   219.7500      0.0000    769.5322      5.3286     35.2979
   220.0000      0.0000    767.8516      5.2901     31.8890
   220.2500      0.0000    767.2859      5.3091     30.8483
