~Version Information
 VERS.                                  2.0 : CWLS LAS VERSION
 WRAP.                                   NO : WRAPING MODE
 SWARE .                 MController 2.5.0J : SOFTWARE VERSION
~Well Information
 WELL.                   Stock Canyon 34-33 : WELL
 COMP.   Pioneer Natrural Resources USA Inc : COMPANY
 FLD.                      Purgatoire River : FIELD
 LOC.                 SW/SE SEC33 T31S R65W : LOCATION
 DATE.                             12/04/05 : DATE(S) LOGGED
 SRVC.       Blanco Geological Services LLC : SERVICE COMPANY
 STAT.                             Colorado : STATE
 CNTY.                           Las Animas : COUNTY
 CTRY.                                  USA : COUNTRY
 API.                       05-071-08601-00 : API NUMBER
 STRT.FT                             618.00 : START DEPTH
 STOP.FT                            1661.00 : STOP DEPTH
 STEP.FT                               1.00 : DEPTH INCREMENT
 NULL.                                -9999 : NULL VALUE
~Curve information
 DEPTH.FT                                   :
 ROP.MIN/FT                                 :
 GAS.UNITS                                  :
~ASCII Log data
# ...
      1218.0         0.30         10.9 
      1219.0         0.23         11.0 
      1220.0         0.13         10.0 
      1221.0         0.27          8.8 
      1222.0         0.27          7.8 
      1223.0         0.30          6.8 
      1224.0         0.27          6.6 
      1225.0         0.27          9.6 
      1226.0         2.68         92.3 
      1227.0         0.33         29.6 
      1228.0         0.27         17.7 
      1229.0         0.20         15.8 
      1230.0         0.17         16.2 
      1231.0         0.20         16.2 
      1232.0         0.22         15.9 
      1233.0         0.27         14.2 
      1234.0         0.27         13.7 
      1235.0         0.27         12.7 
      1236.0         0.27         12.9 
      1237.0         0.30         12.6 
      1238.0         0.30         11.5 
      1239.0         0.20         11.5 
      1240.0         0.17         11.1 
      1241.0         0.20         11.1 
      1242.0         0.27         10.2 
      1243.0         0.23         10.3 
      1244.0         0.23         10.8 
      1245.0         0.23         10.8 
      1246.0         0.25         10.0 
      1247.0         0.20         10.0 
      1248.0         0.13          9.6 
      1249.0         0.17          8.9 
      1250.0         0.27          8.5 
      1251.0         0.27          6.4 
      1252.0         0.23          6.1 
      1253.0         0.27          6.3 
      1254.0         0.23         11.7 
      1255.0         0.37         23.2 
      1256.0         1.75         78.3 
      1257.0         0.43         27.1 
      1258.0         0.30         14.7 
      1259.0         0.27         13.2 
      1260.0         0.30         13.2 
      1261.0         0.27         13.6 
      1262.0         0.30         14.2 
      1263.0         0.30         12.9 
      1264.0         0.30         12.3 
      1265.0         0.28         12.3 
      1266.0         0.20         12.5 
      1267.0         0.23         11.8 
      1268.0         0.20         10.8 
      1269.0         0.30         11.7 
      1270.0         0.27         10.5 
      1271.0         0.23          9.3 
      1272.0         0.33          8.8 
      1273.0         0.27          9.7 
      1274.0         0.27          9.0 
      1275.0         0.27          9.2 
      1276.0         0.27         10.1 
      1277.0         0.30          9.0 
      1278.0         0.28          7.7 
      1279.0         0.23          5.6 
      1280.0         0.23          5.2 
      1281.0         0.23          5.1 
      1282.0         0.20          4.4 
      1283.0         0.23          6.1 
      1284.0         0.23          7.1 
      1285.0         0.27         13.2 
      1286.0         2.02         73.4 
      1287.0         0.33         33.2 
      1288.0         0.30         19.2 
      1289.0         0.23         17.4 
      1290.0         0.23         17.9 
      1291.0         0.23         18.1 
      1292.0         0.27         17.4 
      1293.0         0.30         15.5 
      1294.0         0.27         13.3 
      1295.0         0.23         12.8 
      1296.0         0.20         12.8 
      1297.0         0.20         13.2 
      1298.0         0.28         12.2 
      1299.0         0.30         11.2 
      1300.0         0.27         10.6 
      1301.0         0.23         10.6 
      1302.0         0.27          9.8 
      1303.0         0.20          9.3 
      1304.0         0.23         10.0 
      1305.0         0.23          9.2 
      1306.0         0.27          9.0 
      1307.0         0.30          9.7 
      1308.0         0.27         10.3 
      1309.0         0.27          7.6 
      1310.0         0.27          8.4 
      1311.0         0.25          5.6 
      1312.0         0.27          6.2 
      1313.0         0.27          6.1 
      1314.0         0.33          9.4 
      1315.0         0.30         15.7 
      1316.0         2.35         51.6 
      1317.0         0.43         25.6 
      1318.0         0.43         20.1 
      1319.0         0.23         15.6 
      1320.0         0.20         17.8 
      1321.0         0.17         17.8 
      1322.0         0.17         17.4 
      1323.0         0.20         17.0 
      1324.0         0.23         16.9 
      1325.0         0.20         16.9 
      1326.0         0.27         15.4 
      1327.0         0.27         13.6 
      1328.0         0.22         14.2 
      1329.0         0.17         11.6 
      1330.0         0.23         11.5 
      1331.0         0.27         11.5 
      1332.0         0.30         11.0 
      1333.0         0.27          9.9 
      1334.0         0.23          9.7 
      1335.0         0.27          9.7 
      1336.0         0.27          9.6 
      1337.0         0.27          9.8 
      1338.0         0.30          9.1 
      1339.0         0.23          7.8 
      1340.0         0.30          6.6 
      1341.0         0.28          6.5 
      1342.0         0.23          6.1 
      1343.0         0.23          7.1 
      1344.0         0.27          7.4 
      1345.0         0.20         12.1 
      1346.0         2.65         73.2 
      1347.0         0.40         26.6 
      1348.0         0.33         18.1 
      1349.0         0.27         16.7 
      1350.0         0.23         16.1 
      1351.0         0.23         15.9 
      1352.0         0.23         15.2 
      1353.0         0.13         15.1 
      1354.0         0.17         14.0 
      1355.0         0.33         13.8 
      1356.0         0.47         13.8 
      1357.0         0.48         12.9 
      1358.0         0.43         12.5 
      1359.0         0.37         13.3 
      1360.0         0.33         14.2 
      1361.0         0.37         16.3 
      1362.0         0.30         18.2 
      1363.0         0.20         19.0 
      1364.0         0.17         18.7 
      1365.0         0.27         17.7 
      1366.0         0.20         17.0 
      1367.0         0.20         16.6 
      1368.0         0.20         16.7 
      1369.0         0.25         14.5 
      1370.0         0.23         11.8 
      1371.0         0.27         10.6 
      1372.0         0.30          9.1 
      1373.0         0.30          7.8 
      1374.0         0.30          9.1 
      1375.0         0.30         14.4 
      1376.0         2.55        130.6 
      1377.0         0.53         51.1 
      1378.0         0.47         22.6 
      1379.0         0.43         18.5 
      1380.0         0.47         16.6 
      1381.0         0.52         15.1 
      1382.0         0.50         11.9 
      1383.0         0.43         10.7 
      1384.0         0.63         12.3 
      1385.0         0.43         12.6 
      1386.0         0.37         12.8 
      1387.0         0.37         13.5 
      1388.0         0.33         14.5 
      1389.0         0.32         13.5 
      1390.0         0.37         12.7 
      1391.0         0.37         11.8 
      1392.0         0.37         11.8 
      1393.0         0.37         11.4 
      1394.0         0.33         11.6 
      1395.0         0.40         12.6 
      1396.0         0.33         11.8 
      1397.0         0.37         11.7 
      1398.0         0.38         47.3 
      1399.0         0.37         82.3 
      1400.0         0.37         94.4 
      1401.0         0.23         94.9 
      1402.0         0.20        103.7 
      1403.0         0.17        103.7 
      1404.0         0.20        125.1 
      1405.0         0.20        146.0 
      1406.0         2.08        363.7 
      1407.0         0.37        325.4 
      1408.0         0.17        291.4 
      1409.0         0.17        282.8 
      1410.0         0.20        230.0 
      1411.0         0.27        226.5 
      1412.0         0.40        192.7 
      1413.0         0.33        165.8 
      1414.0         0.47        147.5 
      1415.0         0.52        129.0 
      1416.0         0.43        115.4 
      1417.0         0.43        104.5 
