~Version Information
VERS.                      2.0: CWLS Log ASCII Standard - VERSION 2.0
WRAP.                       NO: One line per depth step
~Well Information Block
STRT.FT               -10.7500: 
STOP.FT              1466.2500: 
STEP.FT                 0.2500: 
NULL.                -999.2500: 
COMP.          Pioneer Natural Resources: COMPANY
WELL.             Andrew 23-15: WELL
FLD.           Purgatorie River: FIELD
LOC.           2137' FSL & 2292' FWL--: LOCATION
PROV.                       CO: PROVINCE
CNTY.               Las Animas: COUNTRY
SRVC.          Patterson Wireline: SERVICE COMPANY
DATE.          Thu Aug 18 11:51:45 2005: LOG DATE
UWI.           05 071 08460 00: UNIQUE WELL ID
~Curve Information Block
DEPT.FT            0 000 00 00: Depth
CCL.                          : Casing Collar Locator
TT3.usec                      : CBL 3' Travel Time
AMP3.mV                       : CBL 3' Amplitude
GR.GAPI                       : Gamma Ray
~Parameter Information Block
~A  Depth       CCL         TT3         AMP3         GR     
# ...
  1429.7500      0.0000    779.8078      4.6568     59.1669
  1430.0000      0.0000    782.0484      4.7049     58.9164
  1430.2500      0.0000    783.5426      4.8053     58.4857
  1430.5000      0.0000    784.6148      4.9512     58.0634
  1430.7500      0.0000    785.4065      5.1339     58.0084
  1431.0000      0.0000    785.7248      5.3440     58.7510
  1431.2500      0.0000    784.9761      5.5692     60.9277
  1431.5000      0.0000    782.2280      5.7962     65.2597
  1431.7500      0.0000    776.6764      6.0126     72.0554
  1432.0000      0.0000    768.4713      6.2061     80.7639
  1432.2500      0.0000    759.1428      6.3647     89.9468
  1432.5000      0.0000    750.8534      6.4817     97.9330
  1432.7500      0.0000    745.0196      6.5586    103.8574
  1433.0000      0.0000    741.6960      6.6023    107.8754
  1433.2500      0.0000    740.1168      6.6221    110.1033
  1433.5000      0.0000    739.4642      6.6308    109.9255
  1433.7500      0.0000    739.1132      6.6424    106.9800
  1434.0000      0.0000    738.4775      6.6656    102.3382
  1434.2500      0.0000    736.9658      6.7030     97.8845
  1434.5000      0.0000    734.2593      6.7534     94.7147
  1434.7500      0.0000    730.6774      6.8117     92.6886
  1435.0000      0.0000    727.1405      6.8677     91.1860
  1435.2500      0.0000    724.6269      6.9076     89.7866
  1435.5000      0.0000    723.6857      6.9211     88.5989
  1435.7500      0.0000    724.4244      6.9076     88.2388
  1436.0000      0.0000    726.6576      6.8753     89.0623
  1436.2500      0.0000    729.8607      6.8361     90.3340
  1436.5000      0.0000    733.1797      6.8021     90.5677
  1436.7500      0.0000    735.8472      6.7840     88.7980
  1437.0000      0.0000    737.7072      6.7888     85.4801
  1437.2500      0.0000    739.3607      6.8147     82.2604
  1437.5000      0.0000    741.7840      6.8519     80.9060
  1437.7500      0.0000    745.6390      6.8860     82.2963
  1438.0000      0.0000    750.6448      6.9009     86.1357
  1438.2500      0.0000    755.5934      6.8856     91.1647
  1438.5000      0.0000    759.1016      6.8417     95.5595
  1438.7500      0.0000    760.3511      6.7793     97.7334
  1439.0000      0.0000    759.1655      6.7079     97.2700
  1439.2500      0.0000    755.8120      6.6374     95.0422
  1439.5000      0.0000    750.9974      6.5835     92.2985
  1439.7500      0.0000    745.7485      6.5584     89.7082
  1440.0000      0.0000    740.8272      6.5571     87.2027
  1440.2500      0.0000    736.4497      6.5623     84.5307
  1440.5000      0.0000    733.0119      6.5583     81.8479
  1440.7500      0.0000    731.8989      6.5378     79.8345
  1441.0000      0.0000    734.6766      6.5026     79.3093
  1441.2500      0.0000    741.1234      6.4610     80.5023
  1441.5000      0.0000    748.6569      6.4209     82.4605
  1441.7500      0.0000    754.1188      6.3839     83.3377
  1442.0000      0.0000    755.7684      6.3505     81.7422
  1442.2500      0.0000    753.7222      6.3262     78.0667
  1442.5000      0.0000    749.3495      6.3184     74.2482
  1442.7500      0.0000    744.4968      6.3266     71.8730
  1443.0000      0.0000    740.6477      6.3403     70.7101
  1443.2500      0.0000    738.3298      6.3449     69.4190
  1443.5000      0.0000    737.2414      6.3321     67.3310
  1443.7500      0.0000    736.8530      6.3073     65.0329
  1444.0000      0.0000    736.8085      6.2868     63.4549
  1444.2500      0.0000    736.9579      6.2861     62.8825
  1444.5000      0.0000    737.2234      6.3076     62.7366
  1444.7500      0.0000    737.5870      6.3400     62.0064
  1445.0000      0.0000    738.2310      6.3713     59.9767
  1445.2500      0.0000    739.7178      6.4001     56.7341
  1445.5000      0.0000    742.7827      6.4324     53.0981
  1445.7500      0.0000    747.4434      6.4680     50.1266
  1446.0000      0.0000    752.1608      6.4963     48.5237
  1446.2500      0.0000    754.6011      6.5059     48.2556
  1446.5000      0.0000    753.9746      6.4938     48.7012
  1446.7500      0.0000    752.2413      6.4630     49.2029
  1447.0000      0.0000    752.2313      6.4156     49.4128
  1447.2500      0.0000    754.6666      6.3550     49.2588
  1447.5000      0.0000    757.6190      6.2942     48.9608
  1447.7500      0.0000    758.7913      6.2558     49.0933
  1448.0000      0.0000    757.6016      6.2570     50.2042
  1448.2500      0.0000    754.5707      6.2937     52.1230
  1448.5000      0.0000    749.5633      6.3417     53.8493
  1448.7500      0.0000    742.2717      6.3757     54.3135
  1449.0000      0.0000    734.6258      6.3868     53.1497
  1449.2500      0.0000    730.9841      6.3846     50.6201
  1449.5000      0.0000    734.4828      6.3824     47.1498
  1449.7500      0.0000    743.6855      6.3844     43.3974
  1450.0000      0.0000    753.3919      6.3860     40.5234
  1450.2500      0.0000    757.5981      6.3847     39.6146
  1450.5000      0.0000    751.4122      6.3840     40.6048
  1450.7500      0.0000    732.6717      6.3854     42.1995
  1451.0000      0.0000    704.5961      6.3817     43.1917
  1451.2500      0.0000    676.8901      6.3619     43.6049
  1451.5000      0.0000    661.8521      6.3248     44.1917
  1451.7500      0.0000    666.6552      6.2873     44.8396
  1452.0000      0.0000    687.8936      6.2741     43.8914
  1452.2500      0.0000    713.1023      6.2994     39.3929
  1452.5000      0.0000    727.9520      6.3558     31.0547
  1452.7500      0.0000    723.9547      6.4222     20.8552
  1453.0000      0.0000    702.8611      6.4795     11.6737
  1453.2500      0.0000    675.3609      6.5220      5.3578
  1453.5000      0.0000    653.1277      6.5540      1.9907
  1453.7500      0.0000    639.3881      6.5775      0.5929
  1454.0000      0.0000    627.8677      6.5860      0.1402
  1454.2500      0.0000    611.9947      6.5717      0.0258
  1454.5000      0.0000    593.6004      6.5364      0.0035
  1454.7500      0.0000    581.0659      6.4937      0.0000
  1455.0000      0.0000    579.9910      6.4582   -999.2500
  1455.2500      0.0000    586.7726      6.4359   -999.2500
  1455.5000      0.0000    591.1014      6.4237   -999.2500
  1455.7500      0.0000    584.7524      6.4174   -999.2500
  1456.0000      0.0000    568.4718      6.4181   -999.2500
  1456.2500      0.0000    550.9070      6.4298   -999.2500
  1456.5000      0.0000    541.5706      6.4485   -999.2500
  1456.7500      0.0000    543.2423      6.4436   -999.2500
  1457.0000      0.0000    546.6023      6.3370   -999.2500
  1457.2500      0.0000    530.4943      6.0058   -999.2500
  1457.5000      0.0000    473.2748      5.3412   -999.2500
  1457.7500      0.0000    371.5343      4.3557   -999.2500
  1458.0000      0.0000    248.1942      3.2360   -999.2500
  1458.2500      0.0000    137.7724      2.2500   -999.2500
  1458.5000      0.0000     62.5049      1.5744   -999.2500
  1458.7500      0.0000     22.9064      1.2137   -999.2500
  1459.0000      0.0000      6.7221      1.0637   -999.2500
  1459.2500      0.0000      1.5673      1.0151   -999.2500
  1459.5000      0.0000      0.2858      1.0028   -999.2500
  1459.7500      0.0000      0.0358      1.0004   -999.2500
  1460.0000      0.0000   -999.2500   -999.2500   -999.2500
  1460.2500      0.0000   -999.2500   -999.2500   -999.2500
  1460.5000      0.0000   -999.2500   -999.2500   -999.2500
  1460.7500      0.0000   -999.2500   -999.2500   -999.2500
  1461.0000      0.0000   -999.2500   -999.2500   -999.2500
  1461.2500      0.0000   -999.2500   -999.2500   -999.2500
  1461.5000      0.0000   -999.2500   -999.2500   -999.2500
  1461.7500      0.0000   -999.2500   -999.2500   -999.2500
  1462.0000      0.0000   -999.2500   -999.2500   -999.2500
  1462.2500      0.0000   -999.2500   -999.2500   -999.2500
  1462.5000      0.0000   -999.2500   -999.2500   -999.2500
  1462.7500      0.0000   -999.2500   -999.2500   -999.2500
  1463.0000      0.0000   -999.2500   -999.2500   -999.2500
