~Version Information
VERS.                      2.0: CWLS Log ASCII Standard - VERSION 2.0
WRAP.                       NO: One line per depth step
~Well Information Block
STRT.FT               480.0000: 
STOP.FT              1946.0000: 
STEP.FT                 0.2500: 
NULL.                -999.2500: 
COMP.          XTO Energy Inc.: COMPANY
WELL.          Golden Eagle 19-15: WELL
FLD.           Purgatoire River: FIELD
LOC.           1121' FSL & 2332' FEL--: LOCATION
CNTY.               Las Animas: COUNTY
SRVC.                Patterson: SERVICE COMPANY
DATE.          Sun Mar 12 15:00:51 2006: LOG DATE
UWI.           05 071 08717 00: UNIQUE WELL ID
STAT.                 Colorado: STATE
~Curve Information Block
DEPT.FT            0 000 00 00: Depth
SP.mV                         : DIL Spontaneous Potential
RILD.Ohm-m                    : DIL Deep Resistivity
RILM.Ohm-m                    : DIL Medium Resistivity
RLL3.Ohm-m                    : DIL Shallow Resistivity
GR.GAPI                       : Gamma Ray
~Parameter Information Block
~A  Depth        SP         RILD        RILM        RLL3         GR     
# ...
   760.0000   2005.0000     31.1541     30.6678   2000.0000     64.6576
   760.2500   2005.0000     30.8599     30.6108   2000.0000     65.8137
   760.5000   2005.0000     30.5852     30.5440   2000.0000     67.4639
   760.7500   2005.0000     30.3720     30.4628   2000.0000     68.2648
   761.0000   2005.0000     30.2266     30.3790   2000.0000     68.7734
   761.2500   2005.0000     30.1300     30.3108   2000.0000     68.7789
   761.5000   2005.0000     30.0597     30.2746   2000.0000     68.7680
   761.7500   2005.0000     30.0040     30.2856   2000.0000     68.9315
   762.0000   2005.0000     29.9606     30.3587   2000.0000     69.4692
   762.2500   2005.0000     29.9227     30.5054   2000.0000     70.0104
   762.5000   2005.0000     29.8621     30.7232   2000.0000     71.1688
   762.7500   2005.0000     29.7185     30.9820   2000.0000     72.2197
   763.0000   2005.0000     29.4107     31.2126   2000.0000     74.1642
   763.2500   2005.0000     28.8682     31.3077   2000.0000     75.6447
   763.5000   2005.0000     28.0702     31.1406   2000.0000     78.2360
   763.7500   2005.0000     27.0577     30.5997   2000.0000     80.4116
   764.0000   2005.0000     25.9144     29.6225   2000.0000     84.6543
   764.2500   2005.0000     24.7348     28.2175   2000.0000     88.1401
   764.5000   2005.0000     23.6041     26.4675   2000.0000     94.1240
   764.7500   2005.0000     22.5891     24.5161   2000.0000     98.4772
   765.0000   2005.0000     21.7319     22.5414   2000.0000    105.4175
   765.2500   2005.0000     21.0450     20.7198   2000.0000    110.2595
   765.5000   2005.0000     20.5109     19.1911   2000.0000    117.6470
   765.7500   2005.0000     20.0907     18.0389   2000.0000    122.3408
   766.0000   2005.0000     19.7390     17.2896   2000.0000    127.8750
   766.2500   2005.0000     19.4179     16.9229   2000.0000    129.6677
   766.5000   2005.0000     19.1048     16.8817   2000.0000    128.5608
   766.7500   2005.0000     18.7903     17.0784   2000.0000    125.4856
   767.0000   2005.0000     18.4735     17.4039   2000.0000    118.8214
   767.2500   2005.0000     18.1615     17.7496   2000.0000    114.1155
   767.5000   2005.0000     17.8723     18.0388   2000.0000    108.3279
   767.7500   2005.0000     17.6340     18.2458   2000.0000    105.9169
   768.0000   2005.0000     17.4749     18.3856   2000.0000    104.5670
   768.2500   2005.0000     17.4083     18.4811   2000.0000    104.7506
   768.5000   2005.0000     17.4238     18.5377   2000.0000    105.8092
   768.7500   2005.0000     17.4888     18.5384   2000.0000    106.8572
   769.0000   2005.0000     17.5636     18.4565   2000.0000    108.9398
   769.2500   2005.0000     17.6166     18.2741   2000.0000    110.4167
   769.5000   2005.0000     17.6315     17.9928   2000.0000    111.9193
   769.7500   2005.0000     17.6024     17.6351   2000.0000    112.2580
   770.0000   2005.0000     17.5229     17.2363   2000.0000    112.5338
   770.2500   2005.0000     17.3830     16.8327   2000.0000    113.1959
   770.5000   2005.0000     17.1761     16.4527   2000.0000    115.0970
   770.7500   2005.0000     16.9113     16.1110   2000.0000    116.4760
   771.0000   2005.0000     16.6179     15.8085   2000.0000    117.7260
   771.2500   2005.0000     16.3367     15.5369   2000.0000    117.8380
   771.5000   2005.0000     16.1036     15.2887   2000.0000    117.5172
   771.7500   2005.0000     15.9362     15.0689   2000.0000    117.5827
   772.0000   2005.0000     15.8301     14.9011   2000.0000    118.6432
   772.2500   2005.0000     15.7654     14.8226   2000.0000    119.6436
   772.5000   2005.0000     15.7155     14.8721   2000.0000    120.1837
   772.7500   2005.0000     15.6532     15.0736   2000.0000    119.1768
   773.0000   2005.0000     15.5521     15.4245   2000.0000    115.2366
   773.2500   2005.0000     15.3902     15.8853   2000.0000    111.2678
   773.5000   2005.0000     15.1582     16.3755   2000.0000    104.3472
   773.7500   2005.0000     14.8671     16.7806   2000.0000     99.9055
   774.0000   2005.0000     14.5464     16.9778   2000.0000     94.9470
   774.2500   2005.0000     14.2323     16.8797   2000.0000     93.4015
   774.5000   2005.0000     13.9548     16.4743   2000.0000     94.1439
   774.7500   2005.0000     13.7302     15.8343   2000.0000     96.6014
   775.0000   2005.0000     13.5590     15.0846   2000.0000    102.6884
   775.2500   2005.0000     13.4272     14.3521   2000.0000    107.7238
   775.5000   2005.0000     13.3085     13.7288   2000.0000    115.1742
   775.7500   2005.0000     13.1705     13.2597   2000.0000    119.1555
   776.0000   2005.0000     12.9852     12.9467   2000.0000    122.7458
   776.2500   2005.0000     12.7422     12.7569   2000.0000    123.5305
   776.5000   2005.0000     12.4556     12.6325   2000.0000    122.9564
   776.7500   2005.0000     12.1591     12.5065   2000.0000    122.0527
   777.0000   2005.0000     11.8929     12.3275   2000.0000    121.1996
   777.2500   2005.0000     11.6910     12.0835   2000.0000    121.7064
   777.5000   2005.0000     11.5762     11.8080   2000.0000    125.0136
   777.7500   2005.0000     11.5598     11.5620   2000.0000    128.8486
   778.0000   2005.0000     11.6439     11.4066   2000.0000    135.2468
   778.2500   2005.0000     11.8244     11.3860   2000.0000    138.3157
   778.5000   2005.0000     12.0928     11.5227   2000.0000    139.1856
   778.7500   2005.0000     12.4381     11.8228   2000.0000    137.1605
   779.0000   2005.0000     12.8485     12.2818   2000.0000    131.0577
   779.2500   2005.0000     13.3133     12.8908   2000.0000    125.5689
   779.5000   2005.0000     13.8254     13.6379   2000.0000    116.4227
   779.7500   2005.0000     14.3826     14.5086   2000.0000    110.4789
   780.0000   2005.0000     14.9844     15.4872   2000.0000    102.6042
   780.2500   2005.0000     15.6259     16.5598   2000.0000     98.0593
   780.5000   2005.0000     16.2925     17.7157   2000.0000     91.9837
   780.7500   2005.0000     16.9601     18.9408   2000.0000     88.3707
   781.0000   2005.0000     17.6005     20.2029   2000.0000     83.8629
   781.2500   2005.0000     18.1843     21.4409   2000.0000     81.7046
   781.5000   2005.0000     18.6814     22.5684   2000.0000     80.0506
   781.7500   2005.0000     19.0625     23.4907   2000.0000     79.9864
   782.0000   2005.0000     19.3081     24.1259   2000.0000     81.0301
   782.2500   2005.0000     19.4179     24.4166   2000.0000     82.2324
   782.5000   2005.0000     19.4101     24.3399   2000.0000     84.9367
   782.7500   2005.0000     19.3076     23.9210   2000.0000     87.8232
   783.0000   2005.0000     19.1210     23.2413   2000.0000     94.6165
   783.2500   2005.0000     18.8464     22.4221   2000.0000    100.7367
   783.5000   2005.0000     18.4772     21.5842   2000.0000    110.8400
   783.7500   2005.0000     18.0186     20.8092   2000.0000    116.7932
   784.0000   2005.0000     17.4911     20.1213   2000.0000    122.2806
   784.2500   2005.0000     16.9211     19.4908   2000.0000    122.9905
   784.5000   2005.0000     16.3300     18.8534   2000.0000    120.3373
   784.7500   2005.0000     15.7308     18.1403   2000.0000    117.4383
   785.0000   2005.0000     15.1328     17.3133   2000.0000    114.1123
   785.2500   2005.0000     14.5497     16.3858   2000.0000    113.6687
   785.5000   2005.0000     14.0003     15.4170   2000.0000    116.0804
   785.7500   2005.0000     13.5019     14.4830   2000.0000    119.3364
   786.0000   2005.0000     13.0626     13.6463   2000.0000    125.7655
   786.2500   2005.0000     12.6780     12.9405   2000.0000    130.6488
   786.5000   2005.0000     12.3352     12.3713   2000.0000    138.0614
   786.7500   2005.0000     12.0205     11.9254   2000.0000    142.4872
   787.0000   2005.0000     11.7251     11.5818   2000.0000    147.7383
   787.2500   2005.0000     11.4468     11.3197   2000.0000    150.3243
   787.5000   2005.0000     11.1899     11.1224   2000.0000    152.8970
   787.7500   2005.0000     10.9632     10.9763   2000.0000    153.6002
