~Version Information
VERS.                      2.0: CWLS Log ASCII Standard - VERSION 2.0
WRAP.                       NO: One line per depth step
~Well Information Block
STRT.FT                -8.7500: 
STOP.FT              1525.0000: 
STEP.FT                 0.2500: 
NULL.                -999.2500: 
COMP.          Pioneer Natural Resources: COMPANY
WELL.          Grand Prix 13-12 Tr: WELL
FLD.           Purgatorie River: FIELD
LOC.           2595' FSL & 1277' FWL--: LOCATION
CNTY.               Las Animas: COUNTY
SRVC.          Patterson Wireline: SERVICE COMPANY
DATE.          Thu Apr 13 10:28:30 2006: LOG DATE
UWI.           05 071 08711 00: UNIQUE WELL ID
STAT.                       CO: STATE
~Curve Information Block
DEPT.FT            0 000 00 00: Depth
CCL.                          : Casing Collar Locator
TT3.usec                      : CBL 3' Travel Time
AMP3.mV                       : CBL 3' Amplitude
GR.GAPI                       : Gamma Ray
~Parameter Information Block
~A  Depth       CCL         TT3         AMP3         GR     
# ...
   694.7500      0.0000    784.0505      4.1259    123.7923
   695.0000      0.0000    778.2876      4.2034    120.2833
   695.2500      0.0000    767.5575      4.2553    117.2274
   695.5000      0.0000    754.6337      4.2762    115.3925
   695.7500      0.0000    740.9872      4.2645    115.6071
   696.0000      0.0000    727.8345      4.2251    118.1372
   696.2500      0.0000    716.6436      4.1691    123.1449
   696.5000      0.0000    707.2634      4.1150    130.6631
   696.7500      0.0000    697.0452      4.0848    139.4722
   697.0000      0.0000    684.0562      4.0945    146.7260
   697.2500      0.0000    670.7892      4.1442    149.7469
   697.5000      0.0000    662.7670      4.2190    148.3482
   697.7500      0.0000    663.0374      4.2995    145.0673
   698.0000      0.0000    669.2772      4.3731    143.1192
   698.2500      0.0000    676.5786      4.4371    144.1219
   698.5000      0.0000    681.7822      4.4924    147.2104
   698.7500      0.0000    684.7759      4.5359    149.8857
   699.0000      0.0000    687.1125      4.5603    149.9649
   699.2500      0.0000    690.5762      4.5641    147.0019
   699.5000      0.0000    696.4016      4.5589    141.8685
   699.7500      0.0000    704.4289      4.5610    135.2668
   700.0000      0.0000    712.4376      4.5777    127.0796
   700.2500      0.0000    717.1966      4.6035    117.0857
   700.5000      0.0000    717.1524      4.6267    105.9034
   700.7500      0.0000    714.0312      4.6344     95.0998
   701.0000      0.0000    711.3052      4.6144     86.3712
   701.2500      0.0000    711.3679      4.5564     80.3840
   701.5000      0.0000    714.4042      4.4571     76.3356
   701.7500      0.0000    719.1589      4.3270     72.7573
   702.0000      0.0000    723.9981      4.1910     68.6744
   702.2500      0.0000    727.5314      4.0783     64.0193
   702.5000      0.0000    728.8105      4.0104     59.2519
   702.7500      0.0000    727.2267      3.9979     54.8645
   703.0000      0.0000    722.6140      4.0437     51.2002
   703.2500      0.0000    715.9394      4.1425     48.4937
   703.5000      0.0000    709.7515      4.2749     46.9068
   703.7500      0.0000    707.0753      4.4057     46.6286
   704.0000      0.0000    709.1147      4.4938     47.9389
   704.2500      0.0000    713.9592      4.5127     50.8944
   704.5000      0.0000    717.7603      4.4693     54.9074
   704.7500      0.0000    717.4312      4.4031     58.9991
   705.0000      0.0000    712.6984      4.3634     62.5146
   705.2500      0.0000    706.2176      4.3824     65.2353
   705.5000      0.0000    701.9294      4.4608     66.9902
   705.7500      0.0000    702.8470      4.5720     67.9043
   706.0000      0.0000    709.6648      4.6791     69.0385
   706.2500      0.0000    720.8382      4.7507     72.1083
   706.5000      0.0000    733.7905      4.7684     78.1231
   706.7500      0.0000    746.1763      4.7259     86.2310
   707.0000      0.0000    756.2675      4.6283     93.9329
   707.2500      0.0000    762.5367      4.4903     98.7128
   707.5000      0.0000    763.6476      4.3301     99.9217
   707.7500      0.0000    759.3692      4.1638     99.2087
   708.0000      0.0000    751.0339      4.0032     99.0818
   708.2500      0.0000    740.3583      3.8569    101.1840
   708.5000      0.0000    728.1990      3.7312    105.7520
   708.7500      0.0000    715.2192      3.6275    112.0196
   709.0000      0.0000    703.1222      3.5428    118.6490
   709.2500      0.0000    694.0430      3.4740    123.9548
   709.5000      0.0000    688.8676      3.4235    126.5059
   709.7500      0.0000    686.8083      3.3973    126.2522
   710.0000      0.0000    686.3783      3.3953    124.9027
   710.2500      0.0000    686.3683      3.4073    124.6212
   710.5000      0.0000    686.1830      3.4244    126.2486
   710.7500      0.0000    685.6968      3.4533    128.9389
   711.0000      0.0000    684.9033      3.5133    131.3158
   711.2500      0.0000    683.4807      3.6162    132.7819
   711.5000      0.0000    680.5810      3.7497    133.7415
   711.7500      0.0000    675.1764      3.8796    134.7594
   712.0000      0.0000    666.9211      3.9681    136.0496
   712.2500      0.0000    656.7878      3.9961    137.9747
   712.5000      0.0000    646.8351      3.9749    141.2115
   712.7500      0.0000    639.3898      3.9363    145.7582
   713.0000      0.0000    636.2877      3.9081    150.3691
   713.2500      0.0000    638.3433      3.8969    153.5521
   713.5000      0.0000    645.0795      3.8922    154.8233
   713.7500      0.0000    654.8276      3.8817    154.6972
   714.0000      0.0000    665.1013      3.8610    153.7152
   714.2500      0.0000    673.2272      3.8338    151.7960
   714.5000      0.0000    677.1230      3.8130    148.6776
   714.7500      0.0000    675.7905      3.8221    144.8112
   715.0000      0.0000    669.5861      3.8805    141.3483
   715.2500      0.0000    660.4831      3.9742    139.2611
   715.5000      0.0000    651.8405      4.0539    138.8963
   715.7500      0.0000    647.2646      4.0801    140.0648
   716.0000      0.0000    649.7507      4.0632    141.8226
   716.2500      0.0000    661.4952      4.0428    142.4308
   716.5000      0.0000    682.5490      4.0404    140.5042
   716.7500     -2.0000    708.0878      4.0515    136.4225
   717.0000      0.0000    728.2692      4.0710    132.1787
   717.2500      0.0000    733.7018      4.1169    129.6633
   717.5000      0.0000    722.7805      4.2226    129.1718
   717.7500      0.0000    703.4534      4.3947    129.3903
   718.0000      0.0000    687.1557      4.5745    128.7137
   718.2500      0.0000    681.2922      4.6698    126.6887
   718.5000      0.0000    687.3864      4.6464    124.2026
   718.7500      0.0000    703.7458      4.5638    122.3902
   719.0000      0.0000    726.6039      4.5056    121.6379
   719.2500      0.0000    749.3152      4.5020    121.5614
   719.5000      0.0000    764.5048      4.5297    121.5646
   719.7500      0.0000    768.7158      4.5560    121.4125
   720.0000      0.0000    763.5075      4.5637    121.4568
   720.2500      0.0000    751.5021      4.5511    122.2311
   720.5000      0.0000    733.0624      4.5270    123.8121
   720.7500      0.0000    708.0959      4.5044    125.7448
   721.0000      0.0000    680.9719      4.4888    127.4593
   721.2500      0.0000    661.8516      4.4734    128.5231
   721.5000      0.0000    660.2285      4.4496    128.7300
   721.7500      0.0000    676.2462      4.4211    128.2879
   722.0000      0.0000    700.2051      4.4030    127.9635
   722.2500      0.0000    721.1749      4.4070    128.9288
   722.5000      0.0000    734.4713      4.4331    132.2359
   722.7500      0.0000    741.1218      4.4754    138.0592
   723.0000      0.0000    743.0391      4.5295    145.2213
   723.2500      0.0000    740.6714      4.5893    151.5698
   723.5000      0.0000    734.5578      4.6400    155.0229
   723.7500      0.0000    726.9139      4.6586    154.5573
   724.0000      0.0000    720.6793      4.6273    150.6415
   724.2500      0.0000    717.8177      4.5486    145.0714
   724.5000      0.0000    718.6714      4.4481    140.0677
   724.7500      0.0000    721.4991      4.3599    136.6675
   725.0000      0.0000    722.5798      4.3053    133.5880
   725.2500      0.0000    718.7220      4.2844    127.9975
   725.5000      0.0000    710.3651      4.2843    117.7238
   725.7500      0.0000    701.2914      4.2922    103.0193
   726.0000      0.0000    695.2655      4.3009     86.7205
   726.2500      0.0000    693.4217      4.3076     72.7098
   726.5000      0.0000    694.1866      4.3118     63.5736
   726.7500      0.0000    694.8147      4.3127     59.2589
   727.0000      0.0000    693.2154      4.3075     57.7501
   727.2500      0.0000    688.7109      4.2919     56.7523
   727.5000      0.0000    681.3691      4.2635     55.0337
   727.7500      0.0000    671.3367      4.2244     53.0635
   728.0000      0.0000    659.4122      4.1818     52.5336
