~Version Information
VERS.                      2.0: CWLS Log ASCII Standard - VERSION 2.0
WRAP.                       NO: One line per depth step
~Well Information Block
STRT.FT               -15.7500: 
STOP.FT              1862.5000: 
STEP.FT                 0.2500: 
NULL.                -999.2500: 
COMP.          XTO Energy Inc.: COMPANY
WELL.          Golden Eagle 19-11: WELL
FLD.           Purgatorie River: FIELD
LOC.           2351' FSL &1926' WL--: LOCATION
CNTY.               Las Animas: COUNTY
SRVC.          Patterson Wireline: SERVICE COMPANY
DATE.          Fri Mar 24 16:29:29 2006: LOG DATE
UWI.           05 071 08696 00: UNIQUE WELL ID
STAT.                       CO: STATE
~Curve Information Block
DEPT.FT            0 000 00 00: Depth
CCL.                          : Casing Collar Locator
TT3.usec                      : CBL 3' Travel Time
AMP3.mV                       : CBL 3' Amplitude
GR.GAPI                       : Gamma Ray
~Parameter Information Block
~A  Depth       CCL         TT3         AMP3         GR     
# ...
  1458.2500      0.0000    557.8799      4.6151     95.2485
  1458.5000      0.0000    557.6771      4.5626     95.1915
  1458.7500      0.0000    567.3603      4.5081     94.9970
  1459.0000      0.0000    585.6872      4.4644     94.5218
  1459.2500      0.0000    610.9334      4.4609     93.5431
  1459.5000      0.0000    640.9227      4.5130     91.9016
  1459.7500      0.0000    672.4511      4.5934     89.7256
  1460.0000      0.0000    701.1552      4.6517     87.2012
  1460.2500      0.0000    723.1433      4.6608     84.2013
  1460.5000      0.0000    737.4908      4.6313     80.5185
  1460.7500      0.0000    746.6091      4.5850     76.6466
  1461.0000      2.0000    753.7612      4.5361     74.0341
  1461.2500      0.0000    761.0627      4.4960     74.2374
  1461.5000      0.0000    769.7587      4.4861     77.6941
  1461.7500      0.0000    779.8359      4.5353     83.3042
  1462.0000      0.0000    788.0246      4.6505     89.1276
  1462.2500      0.0000    788.5005      4.7813     93.5136
  1462.5000      0.0000    777.8962      4.8373     95.6612
  1462.7500      0.0000    759.1862      4.7662     95.2680
  1463.0000      0.0000    739.5715      4.6077     92.0027
  1463.2500      0.0000    724.9336      4.4521     85.6109
  1463.5000      0.0000    716.7692      4.3635     76.4416
  1463.7500      0.0000    713.4316      4.3554     65.6805
  1464.0000      0.0000    712.9935      4.4180     55.0642
  1464.2500      0.0000    715.0757      4.5424     46.3587
  1464.5000      0.0000    720.9553      4.7224     40.9307
  1464.7500      0.0000    731.8849      4.9440     39.5434
  1465.0000      0.0000    745.9728      5.1811     42.2370
  1465.2500      0.0000    756.1736      5.4044     48.2393
  1465.5000      0.0000    752.6473      5.5955     56.0168
  1465.7500      0.0000    728.3987      5.7488     63.6384
  1466.0000      0.0000    683.1772      5.8645     69.3754
  1466.2500      0.0000    623.5414      5.9437     72.3127
  1466.5000      0.0000    560.8582      5.9959     72.6374
  1466.7500      0.0000    507.5331      6.0414     71.4287
  1467.0000      0.0000    471.7621      6.0975     70.0807
  1467.2500      0.0000    454.8194      6.1610     69.7625
  1467.5000      0.0000    453.5898      6.2110     71.1510
  1467.7500      0.0000    465.4259      6.2285     74.3212
  1468.0000      0.0000    490.7058      6.2100     78.5984
  1468.2500      0.0000    530.9584      6.1629     82.6563
  1468.5000      0.0000    583.7230      6.0954     85.4395
  1468.7500      0.0000    639.0719      6.0111     87.4808
  1469.0000      0.0000    683.2531      5.9109     90.8984
  1469.2500      0.0000    707.2380      5.7952     97.4001
  1469.5000      0.0000    711.2042      5.6678    106.3042
  1469.7500      0.0000    701.1326      5.5365    114.8595
  1470.0000      0.0000    683.1575      5.4133    120.2498
  1470.2500      0.0000    661.9824      5.3128    120.9720
  1470.5000      0.0000    643.1118      5.2465    117.1534
  1470.7500      0.0000    633.9006      5.2131    110.6687
  1471.0000      0.0000    639.9827      5.1991    104.6218
  1471.2500      0.0000    660.1420      5.1899    101.6830
  1471.5000      0.0000    686.3246      5.1817    102.5982
  1471.7500      0.0000    709.5724      5.1811    106.1202
  1472.0000      0.0000    725.7043      5.1954    109.9190
  1472.2500      0.0000    736.2033      5.2249    111.8082
  1472.5000      0.0000    745.2385      5.2648    110.8111
  1472.7500      0.0000    755.8604      5.3128    107.2259
  1473.0000      0.0000    767.8864      5.3733    101.7365
  1473.2500      0.0000    777.8362      5.4499     94.8948
  1473.5000      0.0000    779.3625      5.5404     87.4557
  1473.7500      0.0000    764.4791      5.6427     80.6067
  1474.0000      0.0000    728.2643      5.7591     75.5546
  1474.2500      0.0000    675.9792      5.8886     72.9078
  1474.5000      0.0000    625.0771      6.0155     72.4850
  1474.7500      0.0000    596.5266      6.1163     73.7047
  1475.0000      0.0000    600.8956      6.1754     76.1058
  1475.2500      0.0000    631.5200      6.1911     79.3868
  1475.5000      0.0000    670.6655      6.1691     83.0418
  1475.7500      0.0000    702.1929      6.1130     86.2375
  1476.0000      0.0000    719.7122      6.0235     88.2024
  1476.2500      0.0000    725.5406      5.8994     88.8659
  1476.5000      0.0000    724.8336      5.7375     89.1031
  1476.7500      0.0000    721.2718      5.5353     90.1302
  1477.0000      0.0000    716.4154      5.2985     92.5152
  1477.2500      0.0000    710.9742      5.0469     95.8504
  1477.5000      0.0000    705.7734      4.8094     99.3331
  1477.7500      0.0000    701.6618      4.6126    102.3705
  1478.0000      0.0000    698.9973      4.4762    104.5244
  1478.2500      0.0000    697.6227      4.4123    105.2602
  1478.5000      0.0000    697.2678      4.4234    104.2225
  1478.7500      0.0000    697.7820      4.4980    101.7555
  1479.0000      0.0000    698.9987      4.6113     98.7632
  1479.2500      0.0000    700.5822      4.7342     95.8878
  1479.5000      0.0000    702.1567      4.8438     92.9435
  1479.7500      0.0000    703.5921      4.9291     89.2754
  1480.0000      0.0000    705.1396      4.9926     84.6400
  1480.2500      0.0000    707.3554      5.0457     79.7865
  1480.5000      0.0000    710.9700      5.0982     76.3260
  1480.7500      0.0000    716.6815      5.1483     75.9000
  1481.0000      0.0000    724.6835      5.1835     78.7414
  1481.2500      0.0000    734.1068      5.1910     82.7372
  1481.5000      0.0000    743.1015      5.1668     84.5483
  1481.7500      0.0000    750.0955      5.1152     82.1102
  1482.0000      0.0000    755.2136      5.0422     75.8555
  1482.2500      0.0000    759.7796      4.9476     67.8408
  1482.5000      0.0000    763.8807      4.8227     60.4479
  1482.7500      0.0000    765.4959      4.6626     55.6491
  1483.0000      0.0000    763.1940      4.4842     54.3634
  1483.2500      0.0000    758.9065      4.3303     56.0383
  1483.5000      0.0000    756.6456      4.2469     59.1280
  1483.7500      0.0000    758.5184      4.2562     62.1639
  1484.0000      0.0000    762.4723      4.3513     64.4179
  1484.2500      0.0000    763.7448      4.5140     65.8848
  1484.5000      0.0000    758.6705      4.7307     67.0242
  1484.7500      0.0000    747.9481      4.9874     68.4103
  1485.0000      0.0000    736.8093      5.2601     70.2475
  1485.2500      0.0000    731.9093      5.5236     72.0322
  1485.5000      0.0000    737.1868      5.7692     72.7168
  1485.7500      0.0000    751.3607      6.0025     71.4009
  1486.0000      0.0000    768.7529      6.2214     68.1422
  1486.2500      0.0000    782.8477      6.4080     64.2036
  1486.5000      0.0000    789.5548      6.5492     61.3489
  1486.7500      0.0000    787.9833      6.6637     60.6911
  1487.0000      0.0000    779.7563      6.8002     62.1001
  1487.2500      0.0000    768.4550      7.0004     64.5753
  1487.5000      0.0000    758.4398      7.2558     67.1021
  1487.7500      0.0000    752.1166      7.5045     69.1995
  1488.0000      0.0000    748.1750      7.6780     70.8405
  1488.2500      0.0000    744.1680      7.7587     72.0809
  1488.5000      0.0000    741.5955      7.7872     72.8618
  1488.7500      0.0000    746.1296      7.8148     73.0068
  1489.0000      0.0000    760.3185      7.8610     72.2853
  1489.2500      0.0000    777.7446      7.9212     70.5859
  1489.5000      0.0000    787.7963      7.9962     68.1943
  1489.7500      0.0000    786.1372      8.0974     65.8528
  1490.0000      0.0000    778.5273      8.2247     64.5572
  1490.2500      0.0000    774.4583      8.3458     65.3394
  1490.5000      0.0000    778.3939      8.4019     68.8861
  1490.7500      0.0000    787.0154      8.3420     74.7601
  1491.0000      0.0000    793.8168      8.1650     80.9359
  1491.2500      0.0000    795.7217      7.9244     84.6955
  1491.5000      0.0000    795.5358      7.6847     84.4651
