~Version Information
VERS.                      2.0: CWLS Log ASCII Standard - VERSION 2.0
WRAP.                       NO: One line per depth step
~Well Information Block
STRT.FT               547.0000: 
STOP.FT              1685.5000: 
STEP.FT                 0.1000: 
NULL.                -999.2500: 
COMP.          Pioneer Natural Resources: COMPANY
WELL.           Pedri 42-33 Tr: WELL
FLD.           Purgatorie River: FIELD
LOC.           1933' FNL & 662' FEL: LOCATION
PROV.                 Colorado: PROVINCE
CNTY.               Las Animas: COUNTRY
SRVC.                Patterson: SERVICE COMPANY
DATE.          Mon Dec 19 13:36:44 2005: LOG DATE
UWI.                          : UNIQUE WELL ID
~Curve Information Block
DEPT.FT            0 000 00 00: Depth
DCAL.in                       : CDL Caliper
RHOB.g/cc                     : CDL Bulk Density
RHOC.g/cc                     : CDL Density Correction
DPOR.pu                       : CDL Density Porosity
GR.GAPI                       : Gamma Ray
~Parameter Information Block
~A  Depth       DCAL        RHOB        RHOC        DPOR         GR     
# ...
  1667.0000      7.8904      2.6003      0.0841      3.0106     96.5870
  1667.1000      7.8904      2.5957      0.0645      3.2932     92.4607
  1667.2000      7.8904      2.5895      0.0721      3.6666     90.7331
  1667.3000      7.8798      2.5860      0.0168      3.8765     91.1986
  1667.4000      7.8798      2.5883      0.0345      3.7402     92.1719
  1667.5000      7.9398      2.5901      0.0255      3.6331     94.4536
  1667.6000      7.9398      2.5907      0.0202      3.5951     97.6986
  1667.7000      7.9398      2.5960      0.0414      3.2731     98.0841
  1667.8000      7.9687      2.6001      0.0626      3.0236     96.3819
  1667.9000      7.9687      2.5955      0.0915      3.3048     96.3093
  1668.0000      7.9663      2.5915      0.0263      3.5467     96.9093
  1668.1000      7.9663      2.5991      0.0610      3.0878     96.5160
  1668.2000      7.9663      2.6095      0.1043      2.4521     96.6175
  1668.3000      7.9444      2.6194      0.0369      1.8570     97.8809
  1668.4000      7.9444      2.6367      0.0848      0.8040     98.2185
  1668.5000      7.9335      2.6498      0.0818      0.0129     95.4573
  1668.6000      7.9335      2.6442      0.0470      0.3489     90.9094
  1668.7000      7.9335      2.6350      0.0387      0.9084     86.9109
  1668.8000      7.9610      2.6369      0.0919      0.7940     83.1405
  1668.9000      7.9610      2.6386      0.0638      0.6887     80.7606
  1669.0000      7.9725      2.6265      0.0706      1.4217     80.8410
  1669.1000      7.9725      2.6068      0.0031      2.6165     81.0244
  1669.2000      7.9725      2.5938      0.0453      3.4057     79.8082
  1669.3000      7.9618      2.5839      0.0787      4.0083     78.1960
  1669.4000      7.9618      2.5762     -0.0062      4.4734     77.7079
  1669.5000      7.9548      2.5809      0.0115      4.1855     79.0148
  1669.6000      7.9548      2.5863      0.0462      3.8602     81.6956
  1669.7000      7.9548      2.5766     -0.0027      4.4501     85.6290
  1669.8000      7.9182      2.5634     -0.0337      5.2499     91.0141
  1669.9000      7.9182      2.5614      0.0232      5.3692     97.3756
  1670.0000      7.9419      2.5617      0.0367      5.3500    103.2315
  1670.1000      7.9419      2.5540      0.0087      5.8188    108.7037
  1670.2000      7.9419      2.5489      0.0188      6.1255    116.0010
  1670.3000      7.9840      2.5536      0.0671      5.8414    124.2044
  1670.4000      7.9840      2.5570      0.0682      5.6382    131.3081
  1670.5000      7.9875      2.5542      0.0284      5.8089    137.1340
  1670.6000      7.9875      2.5538      0.0704      5.8317    139.8206
  1670.7000      7.9875      2.5659      0.0485      5.0995    138.3150
  1670.8000      7.9537      2.5923      0.0942      3.4996    135.7874
  1670.9000      7.9537      2.6208      0.1224      1.7715    133.8970
  1671.0000      7.9309      2.6378      0.0943      0.7410    131.5301
  1671.1000      7.9309      2.6370      0.1147      0.7898    127.4815
  1671.2000      7.9309      2.6220      0.0463      1.6977    120.0360
  1671.3000      7.9266      2.6092      0.0571      2.4735    110.9366
  1671.4000      7.9266      2.6048      0.0297      2.7394    104.7526
  1671.5000      7.9773      2.6025      0.0126      2.8816     99.8864
  1671.6000      7.9773      2.6022      0.0081      2.8947     89.2741
  1671.7000      7.9773      2.6053      0.0514      2.7120     66.1717
  1671.8000      7.9696      2.6093      0.0363      2.4689     34.6860
  1671.9000      7.9696      2.6112      0.0634      2.3489     11.2562
  1672.0000      7.9921      2.6029      0.0732      2.8548      2.0892
  1672.1000      7.9921      2.5885      0.0709      3.7278      0.2127
  1672.2000      7.9921      2.5869      0.0110      3.8259      0.0114
  1672.3000      7.9825      2.5963      0.1097      3.2569      0.0000
  1672.4000      7.9825      2.5990      0.0866      3.0904   -999.2500
  1672.5000      7.9759      2.5991      0.0602      3.0828   -999.2500
  1672.6000      7.9759      2.6072      0.0656      2.5915   -999.2500
  1672.7000      7.9759      2.6123      0.0993      2.2849   -999.2500
  1672.8000      8.0079      2.5970      0.0741      3.2149   -999.2500
  1672.9000      8.0079      2.5645      0.0466      5.1795   -999.2500
  1673.0000      8.0237      2.5367      0.0424      6.8655   -999.2500
  1673.1000      8.0237      2.5327      0.0314      7.1074   -999.2500
  1673.2000      8.0237      2.5518      0.0196      5.9526   -999.2500
  1673.3000      8.0288      2.5766      0.0447      4.4515   -999.2500
  1673.4000      8.0288      2.5940      0.0294      3.3965   -999.2500
  1673.5000      8.0057      2.6053      0.0580      2.7097   -999.2500
  1673.6000      8.0057      2.6110      0.0615      2.3622   -999.2500
  1673.7000      8.0057      2.6093      0.0013      2.4684   -999.2500
  1673.8000      7.9924      2.6072      0.0410      2.5956   -999.2500
  1673.9000      7.9924      2.6103      0.0635      2.4062   -999.2500
  1674.0000      7.9921      2.6163      0.0507      2.0433   -999.2500
  1674.1000      7.9921      2.6225      0.0331      1.6654   -999.2500
  1674.2000      7.9921      2.6297      0.0571      1.2279   -999.2500
  1674.3000      7.9792      2.6386      0.0799      0.6923   -999.2500
  1674.4000      7.9792      2.6448      0.0916      0.3166   -999.2500
  1674.5000      7.9585      2.6345      0.1427      0.9367   -999.2500
  1674.6000      7.9585      2.6087      0.0272      2.5044   -999.2500
  1674.7000      7.9585      2.5849      0.0611      3.9456   -999.2500
  1674.8000      7.9581      2.5643      0.0475      5.1964   -999.2500
  1674.9000      7.9581      2.5483      0.0202      6.1638   -999.2500
  1675.0000      7.9494      2.5473      0.0199      6.2233   -999.2500
  1675.1000      7.9494      2.5571      0.0222      5.6317   -999.2500
  1675.2000      7.9494      2.5667      0.0416      5.0460   -999.2500
  1675.3000      8.0393      2.5703      0.0829      4.8287   -999.2500
  1675.4000      8.0393      2.5634      0.0692      5.2472   -999.2500
  1675.5000      8.0198      2.5533      0.0818      5.8624   -999.2500
  1675.6000      8.0198      2.5540      0.0444      5.8196   -999.2500
  1675.7000      8.0198      2.5629      0.0868      5.2816   -999.2500
  1675.8000      7.9922      2.5613      0.1043      5.3771   -999.2500
  1675.9000      7.9922      2.5490      0.0507      6.1208   -999.2500
  1676.0000      8.0029      2.5508      0.0400      6.0092   -999.2500
  1676.1000      8.0029      2.5741      0.0685      4.6006   -999.2500
  1676.2000      8.0029      2.5944      0.1104      3.3702   -999.2500
  1676.3000      8.0199      2.5929      0.1241      3.4589   -999.2500
  1676.4000      8.0199      2.5743      0.0695      4.5899   -999.2500
  1676.5000      8.0177      2.5494      0.0476      6.0987   -999.2500
  1676.6000      8.0177      2.5281      0.0279      7.3877   -999.2500
  1676.7000      8.0177      2.5198      0.0390      7.8880   -999.2500
  1676.8000      8.0138      2.5222      0.0792      7.7436   -999.2500
  1676.9000      8.0138      2.5250      0.0791      7.5784   -999.2500
  1677.0000      8.0035      2.5199      0.0674      7.8861   -999.2500
  1677.1000      8.0035      2.5048      0.1022      8.8000   -999.2500
  1677.2000      8.0035      2.4897      0.0896      9.7167   -999.2500
  1677.3000      7.9695      2.4863      0.0683      9.9203   -999.2500
  1677.4000      7.9695      2.4920      0.1167      9.5770   -999.2500
  1677.5000      7.9917      2.4901      0.1392      9.6939   -999.2500
  1677.6000      7.9917      2.4731      0.0739     10.7219   -999.2500
  1677.7000      7.9917      2.4508      0.0829     12.0741   -999.2500
  1677.8000      8.1168      2.4369      0.0655     12.9176   -999.2500
  1677.9000      8.1168      2.4405      0.0905     12.6951   -999.2500
  1678.0000      8.0818      2.4583      0.0952     11.6156   -999.2500
  1678.1000      8.0818      2.4799      0.0924     10.3072   -999.2500
