~Version Information
VERS.                      2.0: CWLS Log ASCII Standard - VERSION 2.0
WRAP.                       NO: One line per depth step
~Well Information Block
STRT.FT                -6.7500: 
STOP.FT              1466.2500: 
STEP.FT                 0.2500: 
NULL.                -999.2500: 
COMP.          Pioneer Natural Resources: COMPANY
WELL.          Pallet Ranch 34-15 Tr: WELL
FLD.           Purgatorie River: FIELD
LOC.           465' FSL & 2138' FEL--: LOCATION
PROV.                       CO: PROVINCE
CNTY.               Las Animas: COUNTRY
SRVC.          Patterson Wireline: SERVICE COMPANY
DATE.          Wed Jan 25 09:38:09 2006: LOG DATE
UWI.           05 071 08657 00: UNIQUE WELL ID
~Curve Information Block
DEPT.FT            0 000 00 00: Depth
CCL.                          : Casing Collar Locator
TT3.usec                      : CBL 3' Travel Time
AMP3.mV                       : CBL 3' Amplitude
GR.GAPI                       : Gamma Ray
~Parameter Information Block
~A  Depth       CCL         TT3         AMP3         GR     
# ...
  1065.2500      0.0000    746.5567     10.8412    121.2177
  1065.5000      0.0000    759.2293     10.7267    117.9190
  1065.7500      0.0000    771.2089     10.5558    112.7387
  1066.0000      0.0000    780.7332     10.3607    106.1075
  1066.2500      0.0000    786.3127     10.1626     99.6715
  1066.5000      0.0000    787.5292      9.9586     96.0776
  1066.7500      0.0000    784.5435      9.7150     97.3143
  1067.0000      0.0000    777.4408      9.3945    103.1297
  1067.2500      0.0000    766.3286      8.9995    111.4228
  1067.5000      0.0000    752.1410      8.5832    120.0385
  1067.7500      0.0000    737.3788      8.2136    127.8809
  1068.0000      0.0000    725.4615      7.9268    134.4743
  1068.2500      0.0000    718.5979      7.7134    139.0320
  1068.5000      0.0000    716.3796      7.5386    140.6453
  1068.7500      0.0000    716.7053      7.3682    139.6343
  1069.0000      0.0000    717.6826      7.1826    138.0187
  1069.2500      0.0000    718.4841      6.9777    137.6985
  1069.5000      0.0000    719.0964      6.7603    138.2693
  1069.7500      0.0000    719.9908      6.5452    137.5877
  1070.0000      0.0000    722.1245      6.3507    134.7385
  1070.2500      0.0000    726.8441      6.1933    131.5985
  1070.5000      0.0000    735.0838      6.0796    130.7962
  1070.7500      0.0000    746.0024      6.0000    132.3575
  1071.0000      0.0000    756.4359      5.9323    133.3284
  1071.2500      0.0000    762.3758      5.8560    131.3273
  1071.5000      0.0000    761.4907      5.7679    127.8037
  1071.7500      0.0000    754.4682      5.6820    126.6625
  1072.0000      0.0000    744.3788      5.6141    129.7966
  1072.2500      0.0000    734.8812      5.5661    134.8731
  1072.5000      0.0000    728.4254      5.5264    137.5607
  1072.7500      0.0000    725.4305      5.4847    135.2402
  1073.0000      0.0000    724.6307      5.4458    128.3339
  1073.2500      0.0000    724.0395      5.4297    118.6755
  1073.5000      0.0000    722.2221      5.4660    107.4118
  1073.7500      0.0000    719.5473      5.5849     94.8684
  1074.0000      0.0000    718.1164      5.7977     82.1470
  1074.2500      0.0000    719.7732      6.0728     72.0849
  1074.5000      0.0000    724.1251      6.3366     68.1187
  1074.7500      0.0000    728.8207      6.5099     72.2388
  1075.0000      0.0000    731.4888      6.5507     83.9204
  1075.2500      0.0000    731.1523      6.4726    100.3727
  1075.5000      0.0000    728.1816      6.3298    117.6025
  1075.7500      0.0000    723.5093      6.1855    131.9247
  1076.0000      0.0000    718.2672      6.0840    141.3588
  1076.2500      0.0000    714.1564      6.0429    145.9523
  1076.5000      0.0000    713.3618      6.0633    146.7816
  1076.7500      0.0000    716.9049      6.1378    144.7706
  1077.0000      0.0000    722.9910      6.2480    140.6804
  1077.2500      0.0000    728.0377      6.3655    135.8679
  1077.5000      0.0000    729.7089      6.4656    132.1440
  1077.7500      0.0000    728.4252      6.5409    130.5471
  1078.0000      0.0000    726.0643      6.6009    130.6463
  1078.2500      0.0000    724.0642      6.6596    131.0342
  1078.5000      0.0000    722.8442      6.7230    129.9973
  1078.7500      0.0000    722.2591      6.7885    125.8521
  1079.0000      0.0000    722.0851      6.8541    117.5829
  1079.2500      0.0000    722.1808      6.9297    106.0484
  1079.5000      0.0000    722.4377      7.0339     94.5230
  1079.7500      0.0000    722.6990      7.1761     87.0826
  1080.0000      0.0000    722.7906      7.3418     85.7516
  1080.2500      0.0000    722.6507      7.4991     89.3060
  1080.5000      0.0000    722.3906      7.6169     94.7502
  1080.7500      0.0000    722.1987      7.6793     99.4246
  1081.0000      0.0000    722.2039      7.6876    101.9696
  1081.2500      0.0000    722.4254      7.6572    102.3997
  1081.5000      0.0000    722.7614      7.6088    101.8500
  1081.7500      0.0000    722.9167      7.5559    101.7320
  1082.0000      0.0000    722.3018      7.4992    102.4917
  1082.2500      0.0000    720.1328      7.4308    103.2901
  1082.5000      0.0000    716.0151      7.3461    103.3844
  1082.7500      0.0000    710.7899      7.2490    103.6359
  1083.0000      0.0000    706.6027      7.1499    105.9469
  1083.2500      0.0000    705.4979      7.0574    111.0549
  1083.5000      0.0000    707.7081      6.9734    117.4956
  1083.7500      0.0000    711.6012      6.8964    122.9522
  1084.0000      0.0000    715.2693      6.8304    125.9873
  1084.2500      0.0000    717.8333      6.7892    126.0907
  1084.5000      0.0000    719.3852      6.7878    122.9298
  1084.7500      0.0000    720.2922      6.8280    116.7341
  1085.0000      0.0000    720.8046      6.8919    109.2627
  1085.2500      0.0000    721.0640      6.9532    103.3297
  1085.5000      0.0000    721.1943      6.9947    100.6761
  1085.7500      0.0000    721.3506      7.0146    100.3885
  1086.0000      0.0000    721.8032      7.0182     99.8335
  1086.2500      0.0000    723.0849      7.0058     97.2935
  1086.5000      0.0000    726.0059      6.9711     93.3672
  1086.7500      0.0000    731.1300      6.9111     89.8936
  1087.0000      0.0000    737.6272      6.8350     88.2699
  1087.2500      0.0000    742.6459      6.7604     89.0467
  1087.5000      0.0000    742.8241      6.7018     92.4019
  1087.7500      0.0000    737.2490      6.6654     98.2575
  1088.0000      0.0000    728.3871      6.6520    105.9577
  1088.2500      0.0000    719.4259      6.6604    114.1858
  1088.5000      0.0000    711.3810      6.6833    121.4371
  1088.7500      0.0000    703.5093      6.7069    126.7789
  1089.0000      0.0000    695.6406      6.7172    130.2096
  1089.2500      0.0000    688.8895      6.7077    132.2544
  1089.5000      0.0000    684.4023      6.6788    133.3275
  1089.7500      0.0000    682.4614      6.6326    133.5090
  1090.0000      0.0000    683.0250      6.5712    132.5734
  1090.2500      0.0000    686.4756      6.5026    129.9715
  1090.5000      0.0000    693.2117      6.4446    125.0029
  1090.7500      0.0000    702.4543      6.4206    117.2558
  1091.0000      0.0000    711.9689      6.4474    106.8923
  1091.2500      0.0000    719.4588      6.5221     94.6784
  1091.5000      0.0000    723.7347      6.6222     81.9786
  1091.7500      0.0000    723.8627      6.7195     70.5211
  1092.0000      0.0000    717.8103      6.7944     61.7844
  1092.2500      0.0000    703.8050      6.8381     56.5617
  1092.5000      0.0000    684.1856      6.8461     55.2116
  1092.7500      0.0000    667.0478      6.8135     58.1364
  1093.0000      0.0000    661.6922      6.7397     65.6106
  1093.2500      0.0000    670.7800      6.6384     76.8419
  1093.5000      0.0000    687.6046      6.5370     89.2880
  1093.7500      0.0000    702.0190      6.4676     99.4301
  1094.0000      0.0000    708.4822      6.4563    104.8416
  1094.2500      0.0000    708.4526      6.5179    105.6956
  1094.5000      0.0000    707.0726      6.6497    104.1423
  1094.7500      0.0000    708.6509      6.8244    102.2341
  1095.0000      0.0000    714.1069      6.9958    100.5688
  1095.2500      0.0000    721.2801      7.1215     98.6753
  1095.5000      0.0000    727.1557      7.1825     96.0521
  1095.7500      0.0000    729.7615      7.1872     92.5821
  1096.0000      0.0000    728.2883      7.1584     88.6718
  1096.2500      0.0000    722.5624      7.1174     85.6515
  1096.5000      0.0000    713.4634      7.0747     85.6844
  1096.7500      0.0000    703.6110      7.0337     90.4641
  1097.0000      0.0000    696.4590      7.0010     99.6898
  1097.2500      0.0000    694.0013      6.9898    110.8431
  1097.5000      0.0000    695.2756      7.0103    120.6372
  1097.7500      0.0000    697.1608      7.0561    126.9436
  1098.0000      0.0000    696.8554      7.0964    129.6515
  1098.2500      0.0000    693.9307      7.0828    130.0525
  1098.5000      0.0000    690.0063      6.9681    129.6097
