~Version Information
VERS.                      2.0: CWLS Log ASCII Standard - VERSION 2.0
WRAP.                       NO: One line per depth step
~Well Information Block
STRT.FT                 0.5000: 
STOP.FT              2166.0000: 
STEP.FT                 0.2500: 
NULL.                -999.2500: 
COMP.          Pioneer Natural Resources: COMPANY
WELL.          Bear Cub Federal 11-23: WELL
FLD.           Purgatoire River: FIELD
LOC.           1225' FNL & 1268 ' FWL--: LOCATION
CNTY.               Las Animas: COUNTY
SRVC.                Patterson: SERVICE COMPANY
DATE.          Mon Jul 17 10:21:31 2006: LOG DATE
UWI.           05 071 08509 00: UNIQUE WELL ID
STAT.                 Colorado: STATE
~Curve Information Block
DEPT.FT            0 000 00 00: Depth
CCL.                          : Casing Collar Locator
TT3.usec                      : CBL 3' Travel Time
AMP3.mV                       : CBL 3' Amplitude
GR.GAPI                       : Gamma Ray
~Parameter Information Block
~A  Depth       CCL         TT3         AMP3         GR     
# ...
  1843.0000      0.0000    670.3547      3.1832    115.6566
  1843.2500      0.0000    670.0615      3.1961    117.7111
  1843.5000      0.0000    665.4403      3.2131    121.7970
  1843.7500      0.0000    661.4284      3.2462    123.8630
  1844.0000      0.0000    658.5319      3.3563    123.8029
  1844.2500      0.0000    659.9208      3.4709    120.8660
  1844.5000      0.0000    665.4172      3.7078    112.3063
  1844.7500      0.0000    669.1479      3.9210    105.0362
  1845.0000      0.0000    670.6675      4.3357     94.8665
  1845.2500      0.0000    666.9617      4.6641     89.9236
  1845.5000      2.0000    653.1254      5.1953     85.3681
  1845.7500      2.0000    639.4505      5.5540     83.2751
  1846.0000      0.0000    615.9301      6.0846     79.9688
  1846.2500      0.0000    600.3572      6.4496     77.3533
  1846.5000      0.0000    581.3099      7.0657     73.0114
  1846.7500      0.0000    575.2263      7.5169     70.1178
  1847.0000      0.0000    582.0958      8.1161     66.5753
  1847.2500      0.0000    597.0165      8.3465     65.2752
  1847.5000      0.0000    625.6155      8.3150     65.2786
  1847.7500      0.0000    641.9572      8.0486     66.3220
  1848.0000      0.0000    656.3539      7.3875     68.3496
  1848.2500      0.0000    659.9453      6.8584     69.2815
  1848.5000      0.0000    660.9063      6.0639     69.4957
  1848.7500      0.0000    660.8984      5.5806     69.0501
  1849.0000      0.0000    660.9506      4.9554     67.8868
  1849.2500      0.0000    659.6457      4.6084     66.6744
  1849.5000      0.0000    650.7368      4.1897     64.0893
  1849.7500      0.0000    637.3294      3.9710     62.1248
  1850.0000      0.0000    604.6155      3.7165     59.0733
  1850.2500      0.0000    576.2482      3.5868     56.6249
  1850.5000      0.0000    529.4455      3.4405     52.0223
  1850.7500      0.0000    498.8087      3.3655     49.0857
  1851.0000      0.0000    459.2211      3.2596     46.7759
  1851.2500      0.0000    439.6106      3.1767     46.7343
  1851.5000      0.0000    421.4126      3.0218     46.9676
  1851.7500      0.0000    415.2117      2.9085     46.1750
  1852.0000      0.0000    410.8001      2.7695     43.4301
  1852.2500      0.0000    409.4278      2.7306     41.3179
  1852.5000      0.0000    409.2084      2.7838     38.9897
  1852.7500      0.0000    411.5798      2.8836     38.3004
  1853.0000      0.0000    423.9110      3.0781     38.3469
  1853.2500      0.0000    441.5598      3.2079     38.7423
  1853.5000      0.0000    485.0973      3.3755     39.2900
  1853.7500      0.0000    522.8862      3.4662     39.5717
  1854.0000      0.0000    581.3929      3.5826     40.6441
  1854.2500      0.0000    614.5496      3.6610     42.6842
  1854.5000      0.0000    650.0170      3.7948     49.2369
  1854.7500      0.0000    666.1017      3.8891     56.1746
  1855.0000      0.0000    686.4838      4.0144     69.2056
  1855.2500      0.0000    699.9926      4.0811     78.4122
  1855.5000      0.0000    716.5941      4.1726     91.4978
  1855.7500      0.0000    721.2161      4.2427     99.5422
  1856.0000      0.0000    716.8790      4.3664    110.6432
  1856.2500      0.0000    710.2796      4.4476    117.0817
  1856.5000      0.0000    703.9118      4.5317    124.0040
  1856.7500      0.0000    704.4907      4.5481    126.1754
  1857.0000      0.0000    709.3395      4.5137    126.3877
  1857.2500      0.0000    711.2578      4.4670    125.9806
  1857.5000      0.0000    707.9667      4.4041    127.1976
  1857.7500      0.0000    702.1190      4.3884    129.6345
  1858.0000      0.0000    691.7108      4.4112    134.2241
  1858.2500      0.0000    685.8237      4.4404    136.7885
  1858.5000      0.0000    680.1301      4.4666    139.3415
  1858.7500      0.0000    678.3555      4.4626    140.5834
  1859.0000      0.0000    678.5597      4.4426    142.1915
  1859.2500      0.0000    680.9521      4.4420    142.8407
  1859.5000      0.0000    688.5967      4.4912    142.7677
  1859.7500      0.0000    696.1665      4.5604    142.1858
  1860.0000      0.0000    709.5442      4.7002    140.9894
  1860.2500      0.0000    718.4647      4.8025    140.0755
  1860.5000      0.0000    729.6508      4.9553    138.6497
  1860.7500      0.0000    734.4534      5.0556    137.7877
  1861.0000      0.0000    735.8130      5.2050    136.5055
  1861.2500      0.0000    732.3702      5.3007    135.1688
  1861.5000      0.0000    722.4489      5.4257    131.2807
  1861.7500      0.0000    715.1230      5.4892    127.1048
  1862.0000      0.0000    707.1046      5.5520    119.1301
  1862.2500      0.0000    704.4645      5.5780    113.6063
  1862.5000      0.0000    702.7162      5.6107    106.7689
  1862.7500      0.0000    701.3756      5.6360    104.0263
  1863.0000      0.0000    697.9144      5.6807    103.6148
  1863.2500      0.0000    695.4172      5.7116    106.0362
  1863.5000      0.0000    693.7831      5.7597    113.2481
  1863.7500      0.0000    694.7346      5.8006    119.5163
  1864.0000      0.0000    697.6102      5.8924    128.5800
  1864.2500      0.0000    698.2529      5.9760    132.9194
  1864.5000      0.0000    693.5728      6.1143    135.8468
  1864.7500      0.0000    686.5844      6.1970    136.0340
  1865.0000      0.0000    675.3688      6.2894    135.4990
  1865.2500      0.0000    671.2499      6.3336    134.9571
  1865.5000      0.0000    671.8787      6.3873    132.7900
  1865.7500      0.0000    674.5201      6.4170    129.7127
  1866.0000      0.0000    677.1779      6.4423    122.9375
  1866.2500      0.0000    677.1335      6.4356    118.1478
  1866.5000      0.0000    675.2527      6.3725    112.8896
  1866.7500      0.0000    673.6198      6.2916    111.2944
  1867.0000      0.0000    671.1300      6.1264    111.1308
  1867.2500      0.0000    668.7929      6.0015    111.7514
  1867.5000      0.0000    662.3738      5.8025    113.0635
  1867.7500      0.0000    655.8216      5.6578    114.0795
  1868.0000      0.0000    642.3629      5.4203    115.2023
  1868.2500      0.0000    628.8862      5.2594    114.9825
  1868.5000      0.0000    597.3427      5.0465    112.4543
  1868.7500      0.0000    571.3787      4.9362    109.6098
  1869.0000      0.0000    542.9702      4.8193    105.0496
  1869.2500      0.0000    542.5164      4.7696    102.6640
  1869.5000      0.0000    573.3996      4.7346    101.0131
  1869.7500      0.0000    606.1597      4.7333    101.3410
  1870.0000      0.0000    651.4222      4.7333    103.2399
  1870.2500      0.0000    669.5460      4.7049    104.5291
  1870.5000      0.0000    672.9164      4.5786    105.2010
  1870.7500      0.0000    660.8990      4.4366    104.8371
  1871.0000      0.0000    630.6485      4.1755    104.1799
  1871.2500      0.0000    610.4888      4.0009    104.1123
  1871.5000      0.0000    593.9381      3.7750    104.1686
  1871.7500      0.0000    595.9860      3.6552    103.8906
  1872.0000      0.0000    615.8300      3.5256    103.0535
  1872.2500      0.0000    634.5599      3.4763    102.5475
  1872.5000      0.0000    658.4063      3.4563    102.1252
  1872.7500      0.0000    664.0002      3.4687    102.1007
  1873.0000      0.0000    647.7302      3.4986    102.9379
  1873.2500      0.0000    620.9834      3.5081    104.3918
  1873.5000      0.0000    572.6859      3.4771    107.3905
  1873.7500      0.0000    549.5389      3.4167    109.0118
  1874.0000      0.0000    547.3364      3.2762    109.6932
  1874.2500      0.0000    568.4713      3.1688    109.0032
  1874.5000      0.0000    617.7593      3.0269    106.7472
  1874.7500      0.0000    647.6120      2.9631    104.3462
  1875.0000      0.0000    667.3028      2.9286     98.7846
  1875.2500      0.0000    660.9142      2.9432     93.7840
  1875.5000      0.0000    635.5786      2.9960     85.5665
  1875.7500      0.0000    620.0174      3.0339     80.6857
  1876.0000      0.0000    606.6937      3.0728     75.8253
  1876.2500      0.0000    598.9467      3.0805     74.6699
