~Version Information
VERS.                      2.0: CWLS Log ASCII Standard - VERSION 2.0
WRAP.                       NO: One line per depth step
~Well Information Block
STRT.FT                -2.0000: 
STOP.FT              2017.5000: 
STEP.FT                 0.2500: 
NULL.                -999.2500: 
COMP.          Pioneer Natural Resources: COMPANY
WELL.            Zink 44-10 Tr: WELL
FLD.           Purgatoire River: FIELD
LOC.           486' FSL & 554' FEL--: LOCATION
PROV.                 Colorado: PROVINCE
CNTY.               Las Animas: COUNTRY
SRVC.                Patterson: SERVICE COMPANY
DATE.          Mon Aug 01 14:01:23 2005: LOG DATE
UWI.           05 071 08446 00: UNIQUE WELL ID
~Curve Information Block
DEPT.FT            0 000 00 00: Depth
CCL.                          : Casing Collar Locator
TT3.usec                      : CBL 3' Travel Time
AMP3.mV                       : CBL 3' Amplitude
GR.GAPI                       : Gamma Ray
~Parameter Information Block
~A  Depth       CCL         TT3         AMP3         GR     
# ...
  1572.5000      0.0000    873.9438     12.6542    129.6482
  1572.7500      0.0000    868.6006     13.5307    134.1184
  1573.0000      0.0000    852.9477     14.4844    139.3069
  1573.2500      0.0000    838.2589     15.5318    143.8795
  1573.5000      0.0000    830.1083     16.6891    145.2522
  1573.7500      0.0000    826.4053     17.9748    141.8664
  1574.0000      0.0000    823.3524     19.3780    135.0256
  1574.2500      0.0000    820.3621     20.8043    128.3084
  1574.5000      0.0000    819.4653     22.0704    124.8447
  1574.7500      0.0000    821.7228     22.9844    124.9750
  1575.0000      0.0000    825.0817     23.4583    126.4002
  1575.2500      0.0000    825.5091     23.5583    126.5091
  1575.5000      0.0000    819.8452     23.4532    124.6718
  1575.7500      0.0000    807.3521     23.2995    122.4256
  1576.0000      0.0000    789.1443     23.1511    121.4252
  1576.2500      0.0000    767.1053     22.9501    121.3394
  1576.5000      0.0000    743.5446     22.5839    120.0044
  1576.7500      0.0000    720.9992     21.9544    115.6082
  1577.0000      0.0000    701.6943     21.0259    108.3193
  1577.2500      0.0000    687.2386     19.8496     99.8841
  1577.5000      0.0000    678.5233     18.5507     92.2458
  1577.7500      0.0000    675.1953     17.2698     86.7522
  1578.0000      0.0000    675.2532     16.1062     84.0646
  1578.2500      0.0000    675.9721     15.1115     84.0593
  1578.5000      0.0000    675.9221     14.3057     85.6727
  1578.7500      0.0000    676.0656     13.6681     87.4151
  1579.0000      0.0000    678.5215     13.1267     88.5379
  1579.2500      0.0000    684.2439     12.6004     89.5953
  1579.5000      0.0000    692.1774     12.0634     91.5036
  1579.7500      0.0000    700.8669     11.5476     94.0970
  1580.0000      0.0000    710.2213     11.0851     95.9544
  1580.2500      0.0000    720.5585     10.6715     95.6898
  1580.5000      0.0000    730.0268     10.2874     93.2395
  1580.7500      0.0000    735.2463      9.9345     89.8514
  1581.0000      0.0000    736.3760      9.6453     86.9066
  1581.2500      0.0000    739.5903      9.4727     84.9011
  1581.5000      0.0000    751.0558      9.4714     83.6357
  1581.7500      0.0000    768.5595      9.6680     83.1035
  1582.0000      0.0000    782.2312     10.0382     83.5897
  1582.2500      0.0000    784.1792     10.5133     84.7740
  1582.5000      0.0000    775.3638     11.0076     85.4697
  1582.7500      0.0000    763.6870     11.4443     84.8854
  1583.0000      0.0000    757.8964     11.7750     83.7480
  1583.2500      0.0000    762.2592     11.9981     83.5693
  1583.5000      0.0000    774.2047     12.1598     84.9811
  1583.7500      0.0000    786.8859     12.3320     87.1943
  1584.0000      0.0000    794.8720     12.5876     88.9268
  1584.2500      0.0000    797.4338     12.9788     89.4491
  1584.5000      0.0000    796.9907     13.5129     88.8967
  1584.7500      0.0000    795.9371     14.1379     87.9006
  1585.0000      0.0000    795.2681     14.7714     86.8167
  1585.2500      0.0000    794.9716     15.3556     85.2488
  1585.5000      0.0000    794.7667     15.8845     82.6668
  1585.7500      0.0000    794.3760     16.3763     79.5036
  1586.0000      0.0000    793.3969     16.8305     77.1443
  1586.2500      0.0000    791.0665     17.2181     76.6193
  1586.5000      0.0000    786.3066     17.4997     77.6197
  1586.7500      0.0000    778.4081     17.6374     78.9818
  1587.0000      0.0000    768.0273     17.5994     79.9908
  1587.2500      0.0000    757.3109     17.3798     81.3213
  1587.5000      0.0000    748.6171     17.0275     84.9069
  1587.7500      0.0000    742.9670     16.6376     92.4980
  1588.0000      0.0000    739.4858     16.2854    103.6361
  1588.2500      0.0000    735.9138     15.9642    114.9531
  1588.5000      0.0000    730.1494     15.5927    122.1392
  1588.7500      0.0000    722.1522     15.0783    123.2046
  1589.0000      0.0000    714.0173     14.3726    120.1301
  1589.2500      0.0000    707.6331     13.4877    117.3213
  1589.5000      0.0000    702.9641     12.4895    117.9739
  1589.7500      0.0000    699.2914     11.4736    121.4460
  1590.0000      0.0000    697.5894     10.5220    124.1970
  1590.2500      0.0000    701.1442      9.6621    123.2377
  1590.5000      0.0000    713.7606      8.8635    118.3688
  1590.7500      0.0000    736.1138      8.0748    111.3853
  1591.0000      0.0000    762.1859      7.2652    104.0783
  1591.2500      0.0000    780.2557      6.4429     97.4249
  1591.5000      0.0000    780.5964      5.6463     92.1678
  1591.7500      0.0000    763.3616      4.9217     89.3043
  1592.0000      0.0000    737.7369      4.3047     89.3901
  1592.2500      0.0000    713.8209      3.8132     91.5271
  1592.5000      0.0000    696.9753      3.4486     93.7750
  1592.7500      0.0000    688.7333      3.1998     94.6937
  1593.0000      0.0000    689.8259      3.0464     94.2118
  1593.2500      0.0000    701.6780      2.9638     93.2718
  1593.5000      0.0000    726.4285      2.9294     92.9491
  1593.7500      0.0000    764.4594      2.9278     93.6090
  1594.0000      0.0000    809.0187      2.9549     94.7338
  1594.2500      0.0000    844.4729      3.0169     95.7411
  1594.5000      0.0000    855.6518      3.1283     96.8316
  1594.7500      0.0000    841.8609      3.3065     98.6988
  1595.0000      0.0000    819.0079      3.5668    101.5492
  1595.2500      0.0000    805.7584      3.9170    104.8405
  1595.5000      0.0000    808.8776      4.3524    107.9868
  1595.7500      0.0000    821.9511      4.8577    110.8533
  1596.0000      0.0000    834.8201      5.4137    113.4428
  1596.2500      0.0000    842.0982      6.0026    115.6246
  1596.5000      0.0000    844.8068      6.6110    117.3132
  1596.7500      0.0000    847.5342      7.2299    118.3119
  1597.0000      0.0000    854.6954      7.8516    117.9430
  1597.2500      0.0000    866.8021      8.4648    115.6435
  1597.5000      0.0000    878.5001      9.0474    112.1587
  1597.7500      0.0000    882.2987      9.5614    109.5446
  1598.0000      0.0000    877.0554      9.9601    109.7146
  1598.2500      0.0000    871.2698     10.2161    113.1715
  1598.5000      0.0000    874.7451     10.3454    118.9231
  1598.7500      0.0000    887.3912     10.3949    125.0751
  1599.0000      0.0000    900.0500     10.4043    129.6496
  1599.2500      0.0000    906.8621     10.3772    131.5432
  1599.5000      0.0000    912.5484     10.2905    130.8619
  1599.7500      0.0000    925.5193     10.1227    128.3074
  1600.0000      0.0000    948.6999      9.8627    124.6652
  1600.2500      0.0000    979.9606      9.4924    120.9662
  1600.5000      0.0000   1016.2448      9.0006    118.3145
  1600.7500      0.0000   1052.6580      8.4409    116.8770
  1601.0000      0.0000   1080.8170      7.9440    115.3436
  1601.2500      0.0000   1092.9138      7.6323    112.1314
  1601.5000     -2.0000   1087.5737      7.5359    107.2521
  1601.7500     -2.0000   1070.6530      7.6153    102.6176
  1602.0000      2.0000   1050.8611      7.8448    100.5096
  1602.2500      0.0000   1033.2477      8.2657    102.0342
  1602.5000      0.0000   1014.6951      8.9604    106.7444
  1602.7500      0.0000    987.3039      9.9452    113.1141
  1603.0000      0.0000    948.7167     11.0499    119.1946
  1603.2500      0.0000    906.9349     11.9512    123.2877
  1603.5000      0.0000    873.2819     12.4020    124.7592
  1603.7500      0.0000    853.1149     12.4175    124.5631
  1604.0000      0.0000    844.4669     12.2038    124.6474
  1604.2500      0.0000    842.4284     11.9539    126.5513
  1604.5000      0.0000    842.9088     11.7430    130.4650
  1604.7500      0.0000    843.7404     11.5573    135.2272
  1605.0000      0.0000    844.2800     11.3563    139.0477
  1605.2500      0.0000    844.6503     11.1153    140.6497
  1605.5000      0.0000    845.4755     10.8455    139.8095
  1605.7500      0.0000    848.4462     10.5880    136.7337
