~Version Information
VERS.                      2.0: CWLS Log ASCII Standard - VERSION 2.0
WRAP.                       NO: One line per depth step
~Well Information Block
STRT.FT                 0.0000: 
STOP.FT              1507.7500: 
STEP.FT                 0.2500: 
NULL.                -999.2500: 
COMP.          Pioneer Natural Resources: COMPANY
WELL.          Pioneer 34-27 Tr: WELL
FLD.           Purgatorie River: FIELD
LOC.           243' FSL & 1593' FEL: LOCATION
STAT.                 Colorado: State
CNTY.               Las Animas: COUNTY
CTRY. USA : Country
SECT. 27 : Section
TOWN. 32S : Township
RANG. 67W : Range
SRVC.                Patterson: SERVICE COMPANY
DATE.          Wed Oct 12 09:30:25 2005: LOG DATE
API.                          : UNIQUE WELL ID
~Curve Information Block
DEPT.FT            0 000 00 00: Depth
GR.GAPI                       : Gamma Ray
CCL.                          : Casing Collar Locator
TT3.usec                      : CBL 3' Travel Time
AMP3.mV                       : CBL 3' Amplitude
~Parameter Information Block
~A  Depth        GR         CCL         TT3         AMP3    
     0.0000   -999.2500   -999.2500   1200.0000      1.8425
     0.2500   -999.2500   -999.2500   1200.0000      1.8304
     0.5000   -999.2500   -999.2500   1200.0000      1.8147
     0.7500   -999.2500   -999.2500   1200.0000      1.8005
     1.0000   -999.2500   -999.2500   1200.0000      1.7896
     1.2500   -999.2500   -999.2500   1200.0000      1.7807
     1.5000   -999.2500   -999.2500   1200.0000      1.7668
     1.7500   -999.2500   -999.2500   1200.0000      1.7413
     2.0000   -999.2500   -999.2500   1200.0000      1.7161
     2.2500   -999.2500   -999.2500   1200.0000      1.7057
     2.5000   -999.2500   -999.2500   1200.0000      1.7021
     2.7500   -999.2500   -999.2500   1200.0000      1.6939
     3.0000   -999.2500   -999.2500   1200.0000      1.6889
     3.2500   -999.2500   -999.2500   1200.0000      1.6979
     3.5000   -999.2500   -999.2500   1200.0000      1.7169
     3.7500   -999.2500      0.0000   1200.0000      1.7297
     4.0000   -999.2500      0.0000   1200.0000      1.7269
     4.2500   -999.2500      0.0000   1200.0000      1.7204
     4.5000   -999.2500      0.0000   1200.0000      1.7266
     4.7500   -999.2500      0.0000   1200.0000      1.7421
     5.0000   -999.2500      0.0000   1200.0000      1.7528
     5.2500   -999.2500      0.0000   1200.0000      1.7521
     5.5000   -999.2500      0.0000   1200.0000      1.7497
     5.7500   -999.2500      0.0000   1200.0000      1.7612
     6.0000   -999.2500      0.0000   1200.0000      1.7857
     6.2500   -999.2500      0.0000   1200.0000      1.8062
     6.5000   -999.2500      0.0000   1200.0000      1.8093
     6.7500   -999.2500      0.0000   1200.0000      1.7935
     7.0000   -999.2500      0.0000   1200.0000      1.7683
     7.2500   -999.2500      0.0000   1200.0000      1.7435
     7.5000   -999.2500      0.0000   1200.0000      1.7212
     7.7500   -999.2500      0.0000   1200.0000      1.7044
     8.0000   -999.2500      0.0000   1200.0000      1.6943
     8.2500   -999.2500      0.0000   1200.0000      1.6852
     8.5000     50.5026      0.0000   1200.0000      1.6782
     8.7500     50.1597      0.0000   1200.0000      1.6815
     9.0000     49.2408      0.0000   1199.9706      1.6930
     9.2500     47.4402      0.0000   1199.6311      1.7082
     9.5000     44.9937      0.0000   1197.0684      1.7479
     9.7500     42.7555      0.0000   1184.5565      1.9306
    10.0000     41.6888      0.0000   1143.8219      2.8499
    10.2500     42.0729      0.0000   1051.5900      6.5051
    10.5000     43.3285      0.0000    897.2988     16.7282
    10.7500     44.7872      0.0000    697.6512     35.8862
    11.0000     46.5989      0.0000    500.1706     59.3733
    11.2500     49.7175      0.0000    359.1485     78.0425
    11.5000     54.8417      0.0000    290.3834     87.7280
    11.7500     61.4282      0.0000    268.2645     91.1925
    12.0000     67.9232      0.0000    263.6684     92.3062
    12.2500     72.9914      0.0000    263.0726     92.8738
    12.5000     76.4024      0.0000    263.0235     93.3138
    12.7500     78.7129      0.0000    263.0081     93.6586
    13.0000     80.2867      0.0000    262.9869     93.8083
    13.2500     80.9542      0.0000    262.9648     93.3925
    13.5000     80.6553      0.0000    262.9448     91.7754
    13.7500     79.9512      0.0000    262.9662     88.5602
    14.0000     79.5795      0.0000    263.0885     84.0368
    14.2500     79.6830      0.0000    263.3408     78.8065
    14.5000     79.7107      0.0000    263.7588     73.2151
    14.7500     78.9974      0.0000    264.5733     67.3521
    15.0000     77.3162      0.0000    266.6061     61.2234
    15.2500     74.9733      0.0000    271.4618     54.8507
    15.5000     72.5592      0.0000    280.1709     48.3881
    15.7500     70.6336      0.0000    291.0173     42.1321
    16.0000     69.4771      0.0000    301.0457     36.3678
    16.2500     69.0388      0.0000    310.6449     31.2383
    16.5000     69.0776      0.0000    323.3753     26.8300
    16.7500     69.2632      0.0000    340.1648     23.2897
    17.0000     69.2491      0.0000    356.6409     20.7983
    17.2500     68.9695      0.0000    367.8609     19.4121
    17.5000     68.7947      0.0000    373.2391     18.8937
    17.7500     69.0717      0.0000    375.3163     18.8175
    18.0000     69.6318      0.0000    376.3014     18.8444
    18.2500     70.0318      0.0000    377.1082     18.8383
    18.5000     70.0926      0.0000    377.9770     18.8090
    18.7500     69.9461      0.0000    378.9000     18.7888
    19.0000     69.8351      0.0000    379.6406     18.7632
    19.2500     70.1512      0.0000    379.4132     18.7120
    19.5000     71.3129      0.0000    376.6204     18.6598
    19.7500     73.2020      0.0000    370.0897     18.6343
    20.0000     75.0128      0.0000    361.4091     18.6216
    20.2500     76.0100      0.0000    354.4558     18.6081
    20.5000     76.1932      0.0000    353.1898     18.6127
    20.7500     76.0916      0.0000    363.8558     18.6479
    21.0000     76.1835      0.0000    395.0731     18.6901
    21.2500     76.5570      0.0000    439.8201     18.7006
    21.5000     76.8341      0.0000    462.9955     18.6785
    21.7500     76.3120      0.0000    440.5096     18.6710
    22.0000     74.3860      0.0000    395.7542     18.7069
    22.2500     71.1196      0.0000    362.6855     18.7582
    22.5000     67.4037      0.0000    346.0851     18.7815
    22.7500     64.2942      0.0000    335.0375     18.7775
    23.0000     62.1135      0.0000    324.6599     18.7938
    23.2500     60.4451      0.0000    318.2733     18.8529
    23.5000     58.9765      0.0000    322.7218     18.9131
    23.7500     57.9424      0.0000    344.6646     18.9221
    24.0000     57.5871      0.0000    378.7628     18.8764
    24.2500     57.5143      0.0000    400.1497     18.8214
    24.5000     56.8983      0.0000    391.9735     18.8087
    24.7500     55.3095      0.0000    369.6539     18.8472
    25.0000     53.1205      0.0000    354.7458     18.8982
    25.2500     51.1091      0.0000    349.9915     18.9284
    25.5000     49.8198      0.0000    349.2479     18.9493
    25.7500     49.2801      0.0000    349.1360     18.9942
    26.0000     49.0991      0.0000    349.0671     19.0758
    26.2500     48.7348      0.0000    349.1198     19.1705
    26.5000     47.7749      0.0000    349.2895     19.2354
    26.7500     46.1749      0.0000    349.4064     19.2595
    27.0000     44.3607      0.0000    349.1678     19.2969
    27.2500     43.0321      0.0000    348.0234     19.3907
    27.5000     42.6724      0.0000    345.2414     19.4819
    27.7500     43.1405      0.0000    341.3341     19.4831
    28.0000     43.7793      0.0000    339.1982     19.4089
    28.2500     44.0517      0.0000    340.9563     19.3565
    28.5000     44.0384      0.0000    344.6451     19.4007
    28.7500     44.1840      0.0000    347.1363     19.5360
    29.0000     44.6282      0.0000    347.6636     19.6924
    29.2500     44.9804      0.0000    346.6784     19.8059
    29.5000     44.7473      0.0000    344.0458     19.8670
    29.7500     43.8047      0.0000    340.3399     19.8940
    30.0000     42.4447      0.0000    338.2568     19.8898
    30.2500     41.1426      0.0000    339.2101     19.8449
    30.5000     40.3504      0.0000    340.3306     19.7597
    30.7500     40.3628      0.0000    339.2096     19.6547
    31.0000     41.1509      0.0000    338.3292     19.5640
    31.2500     42.2621      0.0000    340.6117     19.5078
    31.5000     43.0442      0.0000    344.5881     19.4866
    31.7500     43.0884      0.0000    347.3842     19.5114
    32.0000     42.4282      0.0000    348.4529     19.6035
    32.2500     41.3412      0.0000    348.6600     19.7485
    32.5000     40.0946      0.0000    348.5613     19.8903
    32.7500     38.9599      0.0000    348.0872     19.9801
    33.0000     38.3207      0.0000    346.4915     19.9993
    33.2500     38.5147      0.0000    342.2902     19.9602
