~Version Information
VERS.                      2.0: CWLS Log ASCII Standard - VERSION 2.0
WRAP.                       NO: One line per depth step
~Well Information Block
STRT.FT                -7.5000: 
STOP.FT              1310.7500: 
STEP.FT                 0.2500: 
NULL.                -999.2500: 
COMP.          Pioneer Natural Resources: COMPANY
WELL.          Challenger 31-29: WELL
FLD.           Purgatorie River: FIELD
LOC.           51' FNL & 1923' FEL------: LOCATION
STAT.                       CO: State
CNTY.               Las Animas: COUNTY
CTRY. USA : Country
SECT. 29 : Section
TOWN. 33S : Township
RANG. 65W : Range
SRVC.          Patterson Wireline: SERVICE COMPANY
DATE.          Wed Sep 21 12:11:38 2005: LOG DATE
API.           05 071 08514 00: UNIQUE WELL ID
~Curve Information Block
DEPT.FT            0 000 00 00: Depth
CCL.                          : Casing Collar Locator
TT3.usec                      : CBL 3' Travel Time
AMP3.mV                       : CBL 3' Amplitude
GR.GAPI                       : Gamma Ray
~Parameter Information Block
~A  Depth       CCL         TT3         AMP3         GR     
    -7.5000   -999.2500   -999.2500   -999.2500     96.0541
    -7.2500   -999.2500   -999.2500   -999.2500     99.4552
    -7.0000   -999.2500   -999.2500   -999.2500    102.2316
    -6.7500   -999.2500   -999.2500   -999.2500    103.2287
    -6.5000   -999.2500   -999.2500   -999.2500    102.2276
    -6.2500   -999.2500   -999.2500   -999.2500    100.2542
    -6.0000   -999.2500   -999.2500   -999.2500     98.9189
    -5.7500   -999.2500   -999.2500   -999.2500     99.0128
    -5.5000   -999.2500   -999.2500   -999.2500     99.7773
    -5.2500   -999.2500   -999.2500   -999.2500     99.6911
    -5.0000   -999.2500   -999.2500   -999.2500     98.0085
    -4.7500   -999.2500   -999.2500   -999.2500     95.4674
    -4.5000   -999.2500   -999.2500   -999.2500     93.5503
    -4.2500   -999.2500   -999.2500   -999.2500     93.2198
    -4.0000   -999.2500   -999.2500   -999.2500     94.3158
    -3.7500   -999.2500   -999.2500   -999.2500     95.9992
    -3.5000   -999.2500   -999.2500   -999.2500     97.6555
    -3.2500   -999.2500   -999.2500   -999.2500     99.3316
    -3.0000   -999.2500   -999.2500   -999.2500    101.3587
    -2.7500   -999.2500   -999.2500   -999.2500    103.7776
    -2.5000   -999.2500   1149.0000      2.5667    106.3522
    -2.2500   -999.2500   1149.0000      2.5663    109.0803
    -2.0000   -999.2500   1149.0000      2.5651    112.1713
    -1.7500   -999.2500   1149.0000      2.5613    115.2209
    -1.5000   -999.2500   1149.0000      2.5549    116.8187
    -1.2500   -999.2500   1149.0000      2.5497    115.2192
    -1.0000   -999.2500   1149.0000      2.5498    109.3277
    -0.7500   -999.2500   1149.0000      2.5568     99.3713
    -0.5000   -999.2500   1149.0000      2.5682     87.1164
    -0.2500   -999.2500   1149.0000      2.5791     75.1927
     0.0000   -999.2500   1149.0000      2.5851     65.6453
     0.2500   -999.2500   1149.0000      2.5822     54.4656
     0.5000   -999.2500   1149.0000      2.5771     50.9864
     0.7500   -999.2500   1149.0000      2.5710     47.8158
     1.0000   -999.2500   1149.0000      2.5647     45.0701
     1.2500   -999.2500   1149.0000      2.5597     43.6634
     1.5000   -999.2500   1149.0000      2.5564     44.5330
     1.7500   -999.2500   1149.0000      2.5544     47.5966
     2.0000   -999.2500   1149.0000      2.5523     51.5693
     2.2500   -999.2500   1149.0000      2.5485     54.9956
     2.5000   -999.2500   1149.0000      2.5421     57.3071
     2.7500   -999.2500   1149.0000      2.5335     58.7005
     3.0000      0.0000   1149.0000      2.5243     59.2482
     3.2500      0.0000   1149.0000      2.5174     58.5403
     3.5000      0.0000   1149.0000      2.5156     56.3034
     3.7500      0.0000   1149.0000      2.5200     53.2074
     4.0000      0.0000   1149.0000      2.5292     50.8281
     4.2500      0.0000   1149.0000      2.5396     50.6221
     4.5000      0.0000   1148.9763      2.5482     52.8755
     4.7500      0.0000   1148.8051      2.5539     56.5909
     5.0000     -2.0000   1147.8925      2.5620     60.3246
     5.2500      0.0000   1144.1118      2.5981     63.1817
     5.5000      0.0000   1131.7343      2.7707     65.1590
     5.7500     -2.0000   1099.5673      3.4095     66.7457
     6.0000      0.0000   1032.8622      5.2374     68.3584
     6.2500      0.0000    921.8436      9.3315     70.1057
     6.5000      0.0000    772.7089     16.5426     71.8422
     6.7500      0.0000    610.2654     26.5358     73.3677
     7.0000      0.0000    466.4341     37.4219     74.6996
     7.2500      0.0000    362.9344     46.7357     76.0781
     7.5000      0.0000    302.5812     52.9979     77.5030
     7.7500      0.0000    274.2005     56.3233     78.3915
     8.0000      0.0000    263.5005     57.7467     77.9835
     8.2500      0.0000    260.2840     58.2730     76.0836
     8.5000      0.0000    259.5138     58.4688     73.3248
     8.7500      0.0000    259.3667     58.5438     70.6533
     9.0000      0.0000    259.3443     58.5498     68.5965
     9.2500      0.0000    259.3482     58.5095     67.1818
     9.5000      0.0000    259.3603     58.4586     66.4867
     9.7500      0.0000    259.3779     58.4354     66.8020
    10.0000      0.0000    259.3980     58.4579     68.0350
    10.2500      0.0000    259.4194     58.5141     69.4581
    10.5000      0.0000    259.4405     58.5785     70.4065
    10.7500      0.0000    259.4575     58.6370     70.8232
    11.0000      0.0000    259.4665     58.6924     70.8223
    11.2500      0.0000    259.4666     58.7492     70.3048
    11.5000      0.0000    259.4604     58.8065     69.4257
    11.7500      0.0000    259.4518     58.8683     68.9063
    12.0000      0.0000    259.4425     58.9514     69.4342
    12.2500      0.0000    259.4322     59.0714     71.0608
    12.5000      0.0000    259.4192     59.2226     73.3613
    12.7500      0.0000    259.4042     59.3807     75.8368
    13.0000      0.0000    259.3907     59.5248     78.0159
    13.2500      0.0000    259.3817     59.6505     79.4151
    13.5000      0.0000    259.3774     59.7617     79.7832
    13.7500      0.0000    259.3758     59.8593     79.5674
    14.0000      0.0000    259.3748     59.9405     79.7598
    14.2500      0.0000    259.3757     60.0015     80.7688
    14.5000      0.0000    259.3826     60.0380     81.6638
    14.7500      0.0000    259.3995     60.0471     81.1525
    15.0000      0.0000    259.4249     60.0298     79.2057
    15.2500      0.0000    259.4506     59.9833     77.1678
    15.5000      0.0000    259.4672     59.8834     76.2337
    15.7500      0.0000    259.4704     59.6689     76.2472
    16.0000      0.0000    259.4683     59.2308     76.0986
    16.2500      0.0000    259.4922     58.4107     74.9399
    16.5000      0.0000    259.6319     57.0218     72.7892
    16.7500      0.0000    260.1126     54.8992     70.1569
    17.0000      0.0000    261.4052     51.9583     67.5048
    17.2500      0.0000    264.2665     48.2408     65.1937
    17.5000      0.0000    269.5095     43.9415     63.5990
    17.7500      0.0000    277.8724     39.3859     62.8326
    18.0000      0.0000    290.8752     34.9327     62.3132
    18.2500      0.0000    312.9656     30.8394     60.9685
    18.5000      0.0000    352.3609     27.1969     58.1584
    18.7500      0.0000    416.4877     23.9835     54.3448
    19.0000      0.0000    503.3607     21.1628     50.7544
    19.2500      0.0000    598.6313     18.7300     48.5575
    19.5000      0.0000    684.7708     16.6934     48.4160
    19.7500      0.0000    753.5010     15.0431     50.4448
    20.0000      0.0000    807.7595     13.7448     54.1527
    20.2500      0.0000    852.9727     12.7568     58.4895
    20.5000      0.0000    888.5949     12.0403     62.3607
    20.7500      0.0000    907.9728     11.5517     65.1927
    21.0000      0.0000    905.9335     11.2361     67.0026
    21.2500      0.0000    885.4949     11.0342     68.1840
    21.5000      0.0000    855.2908     10.8964     69.2502
    21.7500      0.0000    821.4949     10.7875     70.4113
    22.0000      0.0000    785.5713     10.6854     71.2630
    22.2500      0.0000    749.3323     10.5809     71.2183
    22.5000      0.0000    717.9030     10.4743     70.4347
    22.7500      0.0000    696.4608     10.3679     70.0102
    23.0000      0.0000    687.0071     10.2621     70.9432
    23.2500      0.0000    689.8314     10.1567     73.0286
    23.5000      0.0000    705.4206     10.0550     75.0995
    23.7500      0.0000    731.8284      9.9637     76.4095
    24.0000      0.0000    761.2714      9.8903     77.5176
    24.2500      0.0000    782.7649      9.8387     79.6448
    24.5000      0.0000    789.5757      9.8047     83.2865
    24.7500      0.0000    783.4874      9.7745     87.5660
    25.0000      0.0000    772.1939      9.7325     90.8241
    25.2500      0.0000    763.4418      9.6695     91.7184
    25.5000      0.0000    760.2396      9.5858     89.8999
    25.7500      0.0000    759.1877      9.4891     86.0357
