~Version Information
 VERS.                                  2.0 : CWLS LAS VERSION
 WRAP.                                   NO : WRAPING MODE
 SWARE .                 MController 2.5.0J : SOFTWARE VERSION
~Well Information
 WELL.                       Parsons 15-23R : WELL
 COMP.                Petrogulf Corporation : COMPANY
 FLD.                      Purgatoire River : FIELD
 LOC.                NE/SW Sec 15 T33S R67W : LOCATION
 DATE.                             09/12/05 : DATE(S) LOGGED
 SRVC.       Blanco Geological Services LLC : SERVICE COMPANY
 STAT.                             Colorado : STATE
 CNTY.                           Las Animas : COUNTY
 CTRY.                                  USA : COUNTRY
 API.                       05-071-08441-00 : API NUMBER
 STRT.FT                             423.00 : START DEPTH
 STOP.FT                            1250.00 : STOP DEPTH
 STEP.FT                               1.00 : DEPTH INCREMENT
 NULL.                                -9999 : NULL VALUE
~Curve information
 DEPTH.FT                                   :
 ROP.MIN/FT                                 :
 GAS.UNITS                                  :
~ASCII Log data
# ...
      1023.0         0.33        791.7 
      1024.0         0.23        755.5 
      1025.0         0.23        738.1 
      1026.0         0.23        728.9 
      1027.0         0.30        716.5 
      1028.0         0.32        703.2 
      1029.0         0.23        688.6 
      1030.0         0.17        683.5 
      1031.0         0.20        681.3 
      1032.0         0.20        680.0 
      1033.0         0.17        679.7 
      1034.0         0.20        679.7 
      1035.0         0.20        680.0 
      1036.0         0.20        679.7 
      1037.0         0.20        677.8 
      1038.0         0.17        674.9 
      1039.0         0.23        673.6 
      1040.0         0.23        670.5 
      1041.0         0.17        666.3 
      1042.0         0.17        657.1 
      1043.0         0.20        644.1 
      1044.0         0.22        619.0 
      1045.0         0.23        598.7 
      1046.0         2.20       1163.7 
      1047.0         0.40       1113.8 
      1048.0         0.30       1002.8 
      1049.0         0.28        921.2 
      1050.0         0.27        872.6 
      1051.0         0.27        843.8 
      1052.0         0.30        814.6 
      1053.0         0.20        785.4 
      1054.0         0.33        768.2 
      1055.0         0.27        747.6 
      1056.0         0.20        731.7 
      1057.0         0.23        720.0 
      1058.0         0.13        707.6 
      1059.0         0.17        701.9 
      1060.0         0.20        695.9 
      1061.0         0.17        691.7 
      1062.0         0.17        687.9 
      1063.0         0.20        685.1 
      1064.0         0.18        684.1 
      1065.0         0.20        683.2 
      1066.0         0.23        684.4 
      1067.0         0.23        681.9 
      1068.0         0.27        681.3 
      1069.0         0.17        674.0 
      1070.0         0.20        677.8 
      1071.0         0.33        680.3 
      1072.0         0.23        680.6 
      1073.0         0.23        672.1 
      1074.0         0.17        650.2 
      1075.0         0.23        632.1 
      1076.0         3.72       1278.3 
      1077.0         0.30        994.5 
      1078.0         0.22        913.3 
      1079.0         0.23        874.2 
      1080.0         0.23        852.3 
      1081.0         0.23        833.3 
      1082.0         0.23        809.8 
      1083.0         0.23        786.3 
      1084.0         0.23        767.6 
      1085.0         0.20        750.8 
      1086.0         0.23        734.6 
      1087.0         0.23        722.2 
      1088.0         0.23        716.2 
      1089.0         0.23        711.1 
      1090.0         0.23        711.1 
      1091.0         0.23        706.3 
      1092.0         0.28        705.7 
      1093.0         0.23        702.2 
      1094.0         0.20        695.2 
      1095.0         0.23        687.3 
      1096.0         0.20        679.4 
      1097.0         0.20        672.7 
      1098.0         0.17        666.7 
      1099.0         0.17        669.8 
      1100.0         0.23        673.0 
      1101.0         0.10        669.2 
      1102.0         0.23        665.1 
      1103.0         0.23        645.7 
      1104.0         0.17        670.1 
      1105.0         0.27        753.0 
      1106.0         1.92       1010.1 
      1107.0         0.33        877.7 
      1108.0         0.27        836.8 
      1109.0         0.27        814.6 
      1110.0         0.23        793.6 
      1111.0         0.27        771.7 
      1112.0         0.27        752.0 
      1113.0         0.23        737.4 
      1114.0         0.28        724.7 
      1115.0         0.23        707.9 
      1116.0         0.20        702.8 
      1117.0         0.17        696.2 
      1118.0         0.20        694.6 
      1119.0         0.17        690.8 
      1120.0         0.20        688.6 
      1121.0         0.20        688.6 
      1122.0         0.17        690.1 
      1123.0         0.13        686.3 
      1124.0         0.10        686.3 
      1125.0         0.20        688.2 
      1126.0         0.17        688.2 
      1127.0         0.17        688.2 
      1128.0         0.23        687.6 
      1129.0         0.20        682.2 
      1130.0         0.20        667.9 
      1131.0         0.22        647.6 
      1132.0         0.10        626.7 
      1133.0         0.10        624.1 
      1134.0         0.13        626.3 
      1135.0         0.30        685.4 
      1136.0         1.37       1089.7 
      1137.0         0.27       1085.3 
      1138.0         0.20       1054.2 
      1139.0         0.20       1015.8 
      1140.0         0.20        964.7 
      1141.0         0.20        919.3 
      1142.0         0.32        884.7 
      1143.0         0.37        856.5 
      1144.0         0.40        820.6 
      1145.0         0.17        776.2 
      1146.0         0.17        767.3 
      1147.0         0.27        753.3 
      1148.0         0.23        741.6 
      1149.0         0.20        728.9 
      1150.0         0.23        718.1 
      1151.0         0.23        705.7 
      1152.0         0.20        696.5 
      1153.0         0.23        691.7 
      1154.0         0.27        689.5 
      1155.0         0.25        686.3 
      1156.0         0.23        686.0 
      1157.0         0.33        687.9 
      1158.0         0.27        687.9 
      1159.0         0.27        689.2 
      1160.0         0.27        686.0 
      1161.0         0.27        684.4 
      1162.0         0.27        680.9 
      1163.0         0.33        681.3 
      1164.0         0.33        682.5 
      1165.0         0.27        659.0 
      1166.0         1.98       1074.2 
      1167.0         0.33       1064.7 
      1168.0         0.27       1005.3 
      1169.0         0.27        943.7 
      1170.0         0.30        895.5 
      1171.0         0.37        865.3 
      1172.0         0.32        836.8 
      1173.0         0.30        810.4 
      1174.0         0.33        783.8 
      1175.0         0.23        758.4 
      1176.0         0.13        738.1 
      1177.0         0.17        726.6 
      1178.0         0.13        714.3 
      1179.0         0.20        704.4 
      1180.0         0.23        700.0 
      1181.0         0.20        693.6 
      1182.0         0.17        691.4 
      1183.0         0.20        689.8 
      1184.0         0.20        688.2 
      1185.0         0.20        688.6 
      1186.0         0.17        688.2 
      1187.0         0.17        688.9 
      1188.0         0.20        687.3 
      1189.0         0.25        685.1 
      1190.0         0.20        683.2 
      1191.0         0.23        683.5 
      1192.0         0.20        673.0 
      1193.0         0.17        655.5 
      1194.0         0.17        640.6 
      1195.0         0.23        632.4 
      1196.0         1.63       1140.5 
      1197.0         0.42       1124.6 
      1198.0         0.30       1030.7 
      1199.0         0.20        949.1 
      1200.0         0.27        899.9 
      1201.0         0.20        859.3 
      1202.0         0.23        838.7 
      1203.0         0.23        820.9 
      1204.0         0.30        796.8 
      1205.0         0.23        773.3 
      1206.0         0.23        757.1 
      1207.0         0.20        742.5 
      1208.0         0.23        729.5 
      1209.0         0.20        717.4 
      1210.0         0.23        709.5 
      1211.0         0.17        702.5 
      1212.0         0.15        695.9 
      1213.0         0.20        693.3 
      1214.0         0.17        684.7 
      1215.0         0.23        680.0 
      1216.0         0.20        678.1 
      1217.0         0.17        679.4 
      1218.0         0.10        680.9 
      1219.0         0.13        685.4 
      1220.0         0.17        684.1 
      1221.0         0.23        683.2 
      1222.0         0.23        680.6 
