~Version Information
VERS.                      2.0: CWLS Log ASCII Standard - VERSION 2.0
WRAP.                       NO: One line per depth step
~Well Information Block
STRT.FT               840.0000: 
STOP.FT              1912.0000: 
STEP.FT                 0.1000: 
NULL.                -999.2500: 
COMP.          Petrogulf Corporation: COMPANY
WELL.             Kraft 17-23R: WELL
FLD.           Purgatorie River: FIELD
LOC.           1509' FSL & 1673' FWL: LOCATION
PROV.                 Colorado: PROVINCE
CNTY.               Las Animas: COUNTRY
SRVC.                Patterson: SERVICE COMPANY
DATE.          Wed Oct 12 07:01:14 2005: LOG DATE
UWI.                          : UNIQUE WELL ID
~Curve Information Block
DEPT.FT            0 000 00 00: Depth
DCAL.in                       : CDL Caliper
RHOB.g/cc                     : CDL Bulk Density
RHOC.g/cc                     : CDL Density Correction
DPOR.pu                       : CDL Density Porosity
GR.GAPI                       : Gamma Ray
NPOR.pu                       : Neutron Porosity
~Parameter Information Block
~A  Depth       DCAL        RHOB        RHOC        DPOR         GR         NPOR    
# ...
  1262.4000      8.0660      2.5406      0.1025      6.6310    132.8055     23.6486
  1262.5000      7.9905      2.5714      0.1194      4.7648    138.0433     23.4434
  1262.6000      7.9905      2.5922      0.1055      3.5019    140.1278     22.9482
  1262.7000      7.9905      2.5951      0.0715      3.3291    140.0343     22.7365
  1262.8000      7.9340      2.5847      0.0433      3.9606    139.8927     22.8735
  1262.9000      7.9340      2.5753      0.0656      4.5286    138.7411     22.8926
  1263.0000      7.9083      2.5769      0.0456      4.4294    134.6368     22.7413
  1263.1000      7.9083      2.5838      0.1091      4.0150    129.7567     22.5847
  1263.2000      7.9083      2.5899      0.0536      3.6428    129.4519     22.2656
  1263.3000      7.8796      2.6042      0.0696      2.7761    133.0329     21.7363
  1263.4000      7.8796      2.6241      0.1072      1.5682    135.1384     21.2892
  1263.5000      7.8970      2.6317      0.0986      1.1067    133.4922     21.2333
  1263.6000      7.8970      2.6227      0.0631      1.6516    127.9454     21.3715
  1263.7000      7.8970      2.6107      0.0543      2.3808    121.0066     21.2743
  1263.8000      7.8648      2.6069      0.0459      2.6131    116.4949     21.0391
  1263.9000      7.8648      2.6123      0.1005      2.2839    114.8669     21.0039
  1264.0000      7.8434      2.6208      0.0900      1.7714    111.8557     21.1116
  1264.1000      7.8434      2.6242      0.1064      1.5634    104.8046     21.0226
  1264.2000      7.8434      2.6195      0.0738      1.8505     98.7795     20.5884
  1264.3000      7.8524      2.6184      0.0230      1.9136     97.8722     20.0358
  1264.4000      7.8524      2.6297      0.0601      1.2317     98.2157     19.5748
  1264.5000      7.8447      2.6313      0.0639      1.1310     96.2683     19.3367
  1264.6000      7.8447      2.6076      0.0374      2.5718     95.0160     19.4524
  1264.7000      7.8447      2.5796      0.0530      4.2647     96.9432     19.7008
  1264.8000      7.8195      2.5669      0.0452      5.0393     98.7762     19.7682
  1264.9000      7.8195      2.5646      0.0480      5.1768     97.6513     19.5771
  1265.0000      7.8150      2.5733      0.0073      4.6460     95.4713     19.4597
  1265.1000      7.8150      2.5960      0.0721      3.2726     94.5674     19.5917
  1265.2000      7.8150      2.6131      0.1027      2.2358     95.4052     19.6590
  1265.3000      7.8413      2.6098      0.0485      2.4379     97.3047     19.5586
  1265.4000      7.8413      2.6036      0.0221      2.8139     98.3370     19.3917
  1265.5000      7.8897      2.6103      0.0465      2.4074     96.8194     19.2204
  1265.6000      7.8897      2.6206      0.0965      1.7798     93.3083     19.1870
  1265.7000      7.8897      2.6248      0.0792      1.5296     90.4584     19.3010
  1265.8000      7.8931      2.6249      0.0643      1.5222     90.9490     19.3061
  1265.9000      7.8931      2.6229      0.0693      1.6434     93.1206     18.8823
  1266.0000      7.8621      2.6215      0.0824      1.7270     92.3295     18.1066
  1266.1000      7.8621      2.6206      0.1066      1.7797     88.9063     17.5308
  1266.2000      7.8621      2.6101      0.0793      2.4203     85.2282     17.3718
  1266.3000      7.8385      2.5878      0.0308      3.7686     82.8372     17.1477
  1266.4000      7.8385      2.5652      0.0759      5.1376     83.7395     16.6816
  1266.5000      7.8655      2.5577      0.0337      5.5923     86.7055     16.3849
  1266.6000      7.8655      2.5775      0.0820      4.3919     89.5940     16.4598
  1266.7000      7.8655      2.6111      0.1006      2.3589     92.6592     16.8100
  1266.8000      7.8802      2.6406      0.1212      0.5695     94.1777     17.3625
  1266.9000      7.8802      2.6784      0.0894     -1.7230     93.1162     18.1921
  1267.0000      7.8941      2.7393      0.1369     -5.4124     91.9663     19.2580
  1267.1000      7.8941      2.8033      0.2084     -9.2882     91.3507     20.3039
  1267.2000      7.8941      2.8499      0.1222    -12.1149     89.3596     21.1432
  1267.3000      7.9049      2.9037      0.1569    -15.3766     83.9276     21.7213
  1267.4000      7.9049      2.9901      0.1852    -20.6093     75.9605     22.0903
  1267.5000      7.9016      3.0778      0.2138    -25.9286     70.1876     22.5237
  1267.6000      7.9016      3.1116      0.1811    -27.9747     69.5678     23.1589
  1267.7000      7.9016      3.0794      0.0562    -26.0271     71.4186     23.5413
  1267.8000      7.8742      3.0135      0.0174    -22.0287     72.0379     23.5380
  1267.9000      7.8742      2.9506     -0.1041    -18.2163     71.8078     23.6604
  1268.0000      7.8588      2.9025     -0.0253    -15.3040     73.0071     23.7322
  1268.1000      7.8588      2.8417     -0.0133    -11.6155     77.0123     23.4590
  1268.2000      7.8588      2.7501     -0.0983     -6.0659     84.3022     23.2117
  1268.3000      7.8521      2.6491     -0.1067      0.0543     94.6075     23.2446
  1268.4000      7.8521      2.5633     -0.1518      5.2547    105.7969     23.5637
  1268.5000      7.9284      2.4975     -0.1025      9.2407    116.9759     24.2243
  1268.6000      7.9284      2.4428     -0.0489     12.5578    129.6419     25.1207
  1268.7000      7.9284      2.3978     -0.0021     15.2854    141.1362     25.7143
  1268.8000      8.1908      2.3724     -0.0315     16.8261    146.2178     25.7686
  1268.9000      8.1908      2.3671      0.0483     17.1430    146.3400     25.7545
  1269.0000      8.2883      2.3687      0.0368     17.0482    146.0418     26.1465
  1269.1000      8.2883      2.3666      0.0759     17.1738    144.8215     26.9868
  1269.2000      8.2883      2.3566      0.1029     17.7826    140.9413     27.9325
  1269.3000      8.2153      2.3470      0.0449     18.3654    137.1292     28.6147
  1269.4000      8.2153      2.3538      0.0840     17.9487    136.4621     28.8065
  1269.5000      8.2091      2.3748      0.0928     16.6801    137.9264     28.5720
  1269.6000      8.2091      2.3982      0.0600     15.2632    140.4093     28.3899
  1269.7000      8.2091      2.4174      0.1058     14.0966    145.0366     28.5750
  1269.8000      8.2058      2.4264      0.0505     13.5505    150.3423     28.9799
  1269.9000      8.2058      2.4277      0.1001     13.4709    152.2833     29.3742
  1270.0000      8.0595      2.4311      0.0734     13.2675    150.2005     29.5890
  1270.1000      8.0595      2.4463      0.0429     12.3461    147.4086     29.5577
  1270.2000      8.0595      2.4741      0.0912     10.6606    145.4662     29.3140
  1270.3000      7.9907      2.5001      0.1247      9.0859    144.2082     28.9933
  1270.4000      7.9907      2.5144      0.0714      8.2189    143.1802     28.8697
  1270.5000      7.9886      2.5190      0.1005      7.9388    141.9800     29.0291
  1270.6000      7.9886      2.5128      0.0834      8.3131    142.4662     29.2074
  1270.7000      7.9886      2.5004      0.0750      9.0693    146.7846     29.1383
  1270.8000      8.0206      2.4950      0.0402      9.3963    152.0326     28.9471
  1270.9000      8.0206      2.4990      0.0789      9.1532    154.1625     28.8848
  1271.0000      8.0045      2.4965      0.0815      9.3034    154.1245     28.9355
  1271.1000      8.0045      2.4743      0.0933     10.6492    152.5059     29.0531
  1271.2000      8.0045      2.4345      0.0778     13.0582    148.9482     29.2450
  1271.3000      8.0238      2.3891      0.0580     15.8131    146.5517     29.3403
  1271.4000      8.0238      2.3511      0.0425     18.1153    145.2908     29.3553
  1271.5000      8.0330      2.3270      0.0130     19.5749    142.8795     29.3667
  1271.6000      8.0330      2.3157      0.0238     20.2595    141.9899     29.2708
  1271.7000      8.0330      2.3121      0.0472     20.4783    144.5400     29.1372
  1271.8000      8.0348      2.3137      0.0683     20.3791    147.3927     28.9368
  1271.9000      8.0348      2.3299      0.0534     19.3982    146.4141     28.4769
