~Version Information
VERS.                      2.0: CWLS Log ASCII Standard - VERSION 2.0
WRAP.                       NO: One line per depth step
~Well Information Block
STRT.FT                -6.7500: 
STOP.FT              1544.5000: 
STEP.FT                 0.2500: 
NULL.                -999.2500: 
COMP.          Pioneer Natural Resources: COMPANY
WELL.          Lorencito 10-36-33-67: WELL
FLD.           Purgatorie River: FIELD
LOC.           2130' FSL & 2362' FEL--: LOCATION
STAT.                       CO: State
CNTY.               Las Animas: COUNTY
CTRY. USA : Country
SECT. 36 : Section
TOWN. 33S : Township
RANG. 67W : Range
SRVC.          Patterson Wireline: SERVICE COMPANY
DATE.          Fri Sep 02 09:21:42 2005: LOG DATE
API.           05 071 08501 00: UNIQUE WELL ID
~Curve Information Block
DEPT.FT            0 000 00 00: Depth
CCL.                          : Casing Collar Locator
TT3.usec                      : CBL 3' Travel Time
AMP3.mV                       : CBL 3' Amplitude
GR.GAPI                       : Gamma Ray
~Parameter Information Block
~A  Depth       CCL         TT3         AMP3         GR     
# ...
    93.7500      0.0000    712.6961     12.4032     73.2412
    94.0000      0.0000    706.7496     12.3861     71.7864
    94.2500      0.0000    705.0986     12.3079     71.4864
    94.5000      0.0000    707.1177     12.1929     72.0056
    94.7500      0.0000    712.9833     12.0796     73.0183
    95.0000      0.0000    722.3692     12.0122     74.1803
    95.2500      0.0000    732.5154     12.0237     75.0539
    95.5000      0.0000    738.8496     12.1144     75.4649
    95.7500      0.0000    739.0475     12.2476     75.8246
    96.0000      0.0000    736.2600     12.3782     76.7784
    96.2500      0.0000    736.6964     12.4866     78.4864
    96.5000      0.0000    743.5189     12.5766     80.3717
    96.7500      0.0000    754.2315     12.6501     81.5844
    97.0000      0.0000    764.0278     12.6939     81.6478
    97.2500      0.0000    770.2250     12.6908     80.5895
    97.5000      0.0000    773.0779     12.6403     78.5288
    97.7500      0.0000    773.8615     12.5675     75.4471
    98.0000      0.0000    773.0326     12.5089     71.6885
    98.2500      0.0000    769.5572     12.4851     68.5104
    98.5000      0.0000    761.3821     12.4894     67.6331
    98.7500      0.0000    747.5284     12.5030     69.8658
    99.0000      0.0000    731.0926     12.5118     74.2070
    99.2500      0.0000    719.5197     12.5075     78.4977
    99.5000      0.0000    719.5765     12.4826     81.1081
    99.7500      0.0000    731.2165     12.4312     82.0718
   100.0000      0.0000    747.6172     12.3540     82.6047
   100.2500      0.0000    761.3561     12.2602     83.4731
   100.5000      0.0000    769.4224     12.1684     83.9841
   100.7500      0.0000    772.9024     12.1042     82.7636
   101.0000      0.0000    774.0420     12.0914     79.2831
   101.2500      0.0000    774.3762     12.1384     74.3685
   101.5000      0.0000    774.5379     12.2295     69.5437
   101.7500      0.0000    774.6690     12.3302     66.2111
   102.0000      0.0000    774.7563     12.4052     65.0732
   102.2500      0.0000    774.7880     12.4383     65.8171
   102.5000      0.0000    774.7880     12.4395     67.3208
   102.7500      0.0000    774.7804     12.4323     68.3970
   103.0000      0.0000    774.7469     12.4337     68.5672
   103.2500      0.0000    774.6561     12.4457     68.3442
   103.5000      0.0000    774.5248     12.4635     68.9466
   103.7500      0.0000    774.4173     12.4873     71.5070
   104.0000      0.0000    774.3727     12.5234     76.1714
   104.2500      0.0000    774.3575     12.5763     81.9737
   104.5000      0.0000    774.3069     12.6436     87.6986
   104.7500      0.0000    774.2045     12.7186     92.6335
   105.0000      0.0000    774.1044     12.7947     96.3499
   105.2500      0.0000    774.0759     12.8681     98.3050
   105.5000      0.0000    774.1486     12.9351     98.1977
   105.7500      0.0000    774.3033     12.9909     96.3888
   106.0000      0.0000    774.4969     13.0292     93.5147
   106.2500      0.0000    774.6976     13.0471     89.8411
   106.5000      0.0000    774.9028     13.0510     85.1752
   106.7500      0.0000    775.1105     13.0562     79.3595
   107.0000      0.0000    775.2767     13.0771     72.9515
   107.2500      0.0000    775.3434     13.1189     67.5755
   107.5000      0.0000    775.3193     13.1804     65.2466
   107.7500      0.0000    775.2914     13.2632     66.6998
   108.0000      0.0000    775.3306     13.3747     70.3872
   108.2500      0.0000    775.4200     13.5196     73.6375
   108.5000      0.0000    775.4974     13.6856     74.9473
   108.7500      0.0000    775.5789     13.8358     74.9829
   109.0000      0.0000    775.8629     13.9212     75.4129
   109.2500      0.0000    776.7662     13.9090     77.0307
   109.5000      0.0000    778.7388     13.8059     79.0163
   109.7500      0.0000    781.7235     13.6526     79.8721
   110.0000      0.0000    784.6638     13.4986     78.9268
   110.2500      0.0000    785.9469     13.3822     76.8359
   110.5000      0.0000    784.7729     13.3261     75.0033
   110.7500      0.0000    781.9376     13.3386     75.0160
   111.0000      0.0000    779.0157     13.4095     78.1010
   111.2500      0.0000    777.0247     13.5090     83.8857
   111.5000      0.0000    776.0350     13.5941     89.4807
   111.7500      0.0000    775.6592     13.6230     91.0023
   112.0000      0.0000    775.5395     13.5755     86.9154
   112.2500      0.0000    775.4872     13.4679     79.5208
   112.5000      0.0000    775.4391     13.3501     72.7774
   112.7500      0.0000    775.3889     13.2750     69.0748
   113.0000      0.0000    775.3284     13.2661     68.4047
   113.2500      0.0000    775.2355     13.3151     69.7713
   113.5000      0.0000    775.0968     13.4103     72.1137
   113.7500      0.0000    774.9400     13.5568     74.0272
   114.0000      0.0000    774.8551     13.7633     74.0008
   114.2500      0.0000    775.0096     14.0156     71.6600
   114.5000      0.0000    775.8958     14.2697     68.2361
   114.7500      0.0000    778.9194     14.4736     65.3902
   115.0000      0.0000    787.0551     14.5959     63.9268
   115.2500      0.0000    804.0383     14.6385     63.7851
   115.5000      0.0000    830.5457     14.6264     64.6079
   115.7500      0.0000    859.7080     14.5854     65.8019
   116.0000      0.0000    879.3346     14.5345     66.4788
   116.2500      0.0000    882.5844     14.4970     66.0373
   116.5000      0.0000    875.6507     14.5029     64.7219
   116.7500      0.0000    871.2809     14.5656     63.2670
   117.0000      0.0000    874.9037     14.6592     62.2238
   117.2500      0.0000    879.4164     14.7291     61.7975
   117.5000      0.0000    873.3680     14.7238     62.0591
   117.7500      0.0000    852.8375     14.6199     63.0126
   118.0000      0.0000    824.8906     14.4301     64.2651
   118.2500      0.0000    800.3293     14.1998     64.7429
   118.5000      0.0000    784.9595     13.9884     63.3340
   118.7500      0.0000    777.9240     13.8342     60.1069
   119.0000      0.0000    775.6492     13.7345     56.3679
   119.2500      0.0000    775.2831     13.6569     53.2445
   119.5000      0.0000    775.4493     13.5639     50.7155
   119.7500      0.0000    775.7012     13.4221     48.3220
   120.0000      0.0000    776.1750     13.2035     46.3517
   120.2500      0.0000    777.7891     12.8969     45.7756
   120.5000      0.0000    783.1397     12.5180     46.9563
   120.7500      0.0000    797.1913     12.0843     48.9021
   121.0000      0.0000    825.8594     11.5798     50.2679
   121.2500      0.0000    870.8875     10.9827     50.9091
   121.5000      0.0000    924.4933     10.3401     51.9364
   121.7500      0.0000    971.7035      9.7696     54.3187
   122.0000      0.0000   1001.3597      9.3617     58.0967
   122.2500      0.0000   1013.9459      9.1082     63.1345
   122.5000     -2.0000   1017.0478      8.9394     69.7526
   122.7500      2.0000   1015.3276      8.8084     77.7078
   123.0000      0.0000   1005.9781      8.7401     85.1055
   123.2500      0.0000    981.6821      8.8391     89.6074
   123.5000      0.0000    938.8095      9.2466     90.8310
   123.7500      0.0000    884.8885     10.0239     90.6447
   124.0000      0.0000    835.7564     11.0352     90.9274
   124.2500      0.0000    803.7513     11.9841     91.6955
   124.5000      0.0000    790.9926     12.6088     91.5442
   124.7500      0.0000    793.5035     12.8398     89.4641
   125.0000      0.0000    807.2247     12.7908     86.0816
   125.2500      0.0000    828.3476     12.6434     83.1421
   125.5000      0.0000    850.8436     12.5417     81.7017
   125.7500      0.0000    867.0460     12.5456     81.0209
   126.0000      0.0000    871.6345     12.6380     79.5738
   126.2500      0.0000    864.5165     12.7614     77.0116
   126.5000      0.0000    849.6036     12.8626     74.7312
   126.7500      0.0000    831.4554     12.9179     74.6011
   127.0000      0.0000    813.5577     12.9294     77.3993
