~Version Information
 VERS.                                  2.0 : CWLS LAS VERSION
 WRAP.                                   NO : WRAPING MODE
 SWARE .                 MController 2.5.0N : SOFTWARE VERSION
~Well Information
 WELL.                        Cayenne 23-23 : WELL
 COMP.    Pioneer Natural Resources USA Inc : COMPANY
 FLD.                      Purgatoire River : FIELD
 LOC.                 NE/SW SEC23 T32S R66W : LOCATION
 DATE.                          08/16-17/05 : DATE(S) LOGGED
 SRVC.       Blanco Geological Services LLC : SERVICE COMPANY
 STAT.                             Colorado : STATE
 CNTY.                           Las Animas : COUNTY
 CTRY.                                  USA : COUNTRY
 API.                       05-071-08476-00 : API NUMBER
 STRT.FT                             901.00 : START DEPTH
 STOP.FT                            2365.00 : STOP DEPTH
 STEP.FT                               1.00 : DEPTH INCREMENT
 NULL.                                -9999 : NULL VALUE
~Curve information
 DEPTH.FT                                   :
 ROP.MIN/FT                                 :
 GAS.UNITS                                  :
~ASCII Log data
# ...
      2101.0         0.62        664.3 
      2102.0         0.60        661.1 
      2103.0         0.47        646.0 
      2104.0         0.53        644.4 
      2105.0         0.47        637.3 
      2106.0         0.53        625.0 
      2107.0         0.48        623.4 
      2108.0         0.40        630.8 
      2109.0         0.33        637.3 
      2110.0         0.33        639.9 
      2111.0         0.33        639.2 
      2112.0         0.33        638.2 
      2113.0         0.33        641.1 
      2114.0         0.33        649.5 
      2115.0         0.40        655.0 
      2116.0         0.52        657.6 
      2117.0         0.53        651.5 
      2118.0         0.37        647.6 
      2119.0         0.27        646.0 
      2120.0         0.40        645.7 
      2121.0         0.33        642.1 
      2122.0         0.37        637.9 
      2123.0         0.37        628.3 
      2124.0         0.50        627.6 
      2125.0         0.35        631.8 
      2126.0         7.93       1533.5 
      2127.0         0.67        803.9 
      2128.0         0.40        716.9 
      2129.0         0.37        668.5 
      2130.0         0.42        651.5 
      2131.0         0.33        658.9 
      2132.0         0.40        665.3 
      2133.0         0.33        665.6 
      2134.0         0.33        662.7 
      2135.0         0.33        661.1 
      2136.0         0.30        661.4 
      2137.0         0.30        660.5 
      2138.0         0.23        658.9 
      2139.0         0.33        657.3 
      2140.0         0.42        653.1 
      2141.0         0.43        650.5 
      2142.0         0.27        650.2 
      2143.0         0.23        650.8 
      2144.0         0.30        653.4 
      2145.0         0.33        653.4 
      2146.0         0.23        654.0 
      2147.0         0.23        654.0 
      2148.0         0.17        650.5 
      2149.0         0.27        650.8 
      2150.0         0.30        652.1 
      2151.0         0.27        651.1 
      2152.0         0.32        650.5 
      2153.0         0.33        647.6 
      2154.0         0.40        644.7 
      2155.0         1.47        700.1 
      2156.0         3.72       1512.2 
      2157.0         1.28       1599.6 
      2158.0         0.67       1014.6 
      2159.0         0.47        824.5 
      2160.0         0.17        821.0 
      2161.0         0.40        818.1 
      2162.0         0.50        786.8 
      2163.0         0.43        729.8 
      2164.0         0.22        691.4 
      2165.0         0.33        677.2 
      2166.0         0.30        665.6 
      2167.0         0.23        660.8 
      2168.0         0.17        656.3 
      2169.0         0.17        653.1 
      2170.0         0.27        654.0 
      2171.0         0.30        656.0 
      2172.0         0.30        656.0 
      2173.0         0.30        654.0 
      2174.0         0.33        648.9 
      2175.0         0.30        647.6 
      2176.0         0.25        652.4 
      2177.0         0.23        659.2 
      2178.0         0.30        663.7 
      2179.0         0.30        666.0 
      2180.0         0.23        664.0 
      2181.0         0.13        661.4 
      2182.0         0.17        662.4 
      2183.0         0.20        661.8 
      2184.0         0.23        666.0 
      2185.0         0.30        667.6 
      2186.0         4.15       1100.0 
      2187.0         0.92       1244.7 
      2188.0         0.53       1168.4 
      2189.0         0.57        963.4 
      2190.0         0.43        868.3 
      2191.0         0.37        905.4 
      2192.0         0.37        926.7 
      2193.0         0.33        926.0 
      2194.0         0.35        897.0 
      2195.0         0.33        853.5 
      2196.0         0.33        809.4 
      2197.0         0.37        774.9 
      2198.0         0.43        751.4 
      2199.0         0.43        741.0 
      2200.0         0.50        733.0 
      2201.0         0.47        724.9 
      2202.0         0.48        719.1 
      2203.0         0.50        713.7 
      2204.0         0.47        709.5 
      2205.0         0.33        704.0 
      2206.0         0.30        699.8 
      2207.0         0.27        695.3 
      2208.0         0.23        695.3 
      2209.0         0.13        690.8 
      2210.0         0.27        692.4 
      2211.0         0.40        694.6 
      2212.0         0.22        691.1 
      2213.0         0.17        692.1 
      2214.0         0.17        691.4 
      2215.0         1.23        755.2 
      2216.0         2.68        836.8 
      2217.0         1.03       1277.3 
      2218.0         0.63       1496.1 
      2219.0         0.53       1497.4 
      2220.0         0.55       1440.4 
      2221.0         0.47       1186.1 
      2222.0         0.43       1032.4 
      2223.0         0.37        944.1 
      2224.0         0.37        905.1 
      2225.0         0.37        853.5 
      2226.0         0.33        797.8 
      2227.0         0.33        759.4 
      2228.0         0.35        733.3 
      2229.0         0.37        719.1 
      2230.0         0.33        710.8 
      2231.0         0.33        706.9 
      2232.0         0.37        705.9 
      2233.0         0.27        703.7 
      2234.0         0.57        703.3 
      2235.0         0.27        697.9 
      2236.0         0.27        698.5 
      2237.0         0.37        693.7 
      2238.0         0.42        690.1 
      2239.0         0.40        684.6 
      2240.0         0.33        681.4 
      2241.0         0.30        679.5 
      2242.0         0.27        680.8 
      2243.0         0.13        682.4 
      2244.0         0.10        680.1 
      2245.0         0.30        683.7 
      2246.0         4.70        849.6 
      2247.0         0.63       1059.4 
      2248.0         0.87       1132.6 
      2249.0         0.67       1084.9 
      2250.0         0.50        976.9 
      2251.0         0.42        964.4 
      2252.0         0.40        957.0 
      2253.0         0.37        900.2 
      2254.0         0.37        827.4 
      2255.0         0.33        770.7 
      2256.0         0.37        732.3 
      2257.0         0.33        704.3 
      2258.0         0.37        697.9 
      2259.0         0.30        699.8 
      2260.0         0.30        702.7 
      2261.0         0.32        705.6 
      2262.0         0.30        702.7 
      2263.0         0.37        697.2 
      2264.0         0.50        697.2 
      2265.0         0.43        694.6 
      2266.0         0.37        690.8 
      2267.0         0.37        686.6 
      2268.0         0.33        679.8 
      2269.0         0.37        676.3 
      2270.0         0.38        674.7 
      2271.0         0.37        673.7 
      2272.0         0.37        674.0 
      2273.0         0.33        674.0 
      2274.0         0.37        673.7 
      2275.0         0.37        676.6 
      2276.0         6.73       1372.7 
      2277.0         0.73        908.3 
      2278.0         0.68        791.3 
      2279.0         0.57        844.8 
      2280.0         0.50        846.7 
      2281.0         0.47        823.5 
      2282.0         0.37        777.1 
      2283.0         0.37        741.7 
      2284.0         0.43        716.2 
      2285.0         0.45        690.4 
      2286.0         0.40        687.5 
      2287.0         0.37        698.2 
      2288.0         0.30        703.7 
      2289.0         0.33        707.2 
      2290.0         0.30        707.5 
      2291.0         0.33        707.8 
      2292.0         0.33        705.6 
      2293.0         0.33        703.7 
      2294.0         0.30        701.4 
      2295.0         0.35        699.8 
      2296.0         0.30        695.3 
      2297.0         0.40        694.0 
      2298.0         0.33        689.8 
      2299.0         0.33        686.9 
      2300.0         0.33        683.7 
