~Version Information
 VERS.                                  2.0 : CWLS LAS VERSION
 WRAP.                                   NO : WRAPING MODE
 SWARE .                 MController 2.5.0N : SOFTWARE VERSION
~Well Information
 WELL.                       Blue Sky 44-17 : WELL
 COMP.     Pioneer Natural Resource USA Inc : COMPANY
 FLD.                      Purgatoire River : FIELD
 LOC.                 SE/SE SEC17 T33S R66W : LOCATION
 DATE.                             09/07/05 : DATE(S) LOGGED
 SRVC.       Blanco Geological Services LLC : SERVICE COMPANY
 STAT.                             Colorado : STATE
 CNTY.                           Las Animas : COUNTY
 CTRY.                                  USA : COUNTRY
 API.                       05-071-08511-00 : API NUMBER
 STRT.FT                             434.00 : START DEPTH
 STOP.FT                            1625.00 : STOP DEPTH
 STEP.FT                               1.00 : DEPTH INCREMENT
 NULL.                                -9999 : NULL VALUE
~Curve information
 DEPTH.FT                                   :
 ROP.MIN/FT                                 :
 GAS.UNITS                                  :
~ASCII Log data
# ...
      1434.0         0.17         15.5 
      1435.0         0.20         12.9 
      1436.0         2.88         97.3 
      1437.0         0.30         82.7 
      1438.0         1.25         56.8 
      1439.0         0.37         44.5 
      1440.0         0.47         41.0 
      1441.0         0.37         38.9 
      1442.0         0.33         43.2 
      1443.0         0.40         49.0 
      1444.0         0.43         51.0 
      1445.0         0.50         50.7 
      1446.0         0.58         50.6 
      1447.0         0.63         48.9 
      1448.0         0.60         47.4 
      1449.0         0.63         47.9 
      1450.0         0.57         47.8 
      1451.0         0.58         46.4 
      1452.0         0.57         46.7 
      1453.0         0.57         46.6 
      1454.0         0.53         46.6 
      1455.0         0.67         46.7 
      1456.0         0.67         46.5 
      1457.0         0.72         46.6 
      1458.0         0.73         46.5 
      1459.0         0.70         46.5 
      1460.0         0.77         47.8 
      1461.0         0.67         53.4 
      1462.0         0.58        101.0 
      1463.0         0.33        119.6 
      1464.0         0.20        123.4 
      1465.0         0.17        125.7 
      1466.0         5.05        212.0 
      1467.0         1.62         83.6 
      1468.0         0.43         71.0 
      1469.0         0.53         68.9 
      1470.0         0.37         74.0 
      1471.0         0.33         74.7 
      1472.0         0.37         76.0 
      1473.0         0.42         76.2 
      1474.0         0.47         75.7 
      1475.0         0.50         80.3 
      1476.0         0.43         79.9 
      1477.0         0.23         78.5 
      1478.0         0.47         77.1 
      1479.0         0.43         76.1 
      1480.0         0.47         76.1 
      1481.0         0.55         80.5 
      1482.0         0.53        126.3 
      1483.0         0.27        151.8 
      1484.0         0.17        151.8 
      1485.0         0.23        149.8 
      1486.0         0.13        138.4 
      1487.0         0.37        136.6 
      1488.0         0.53        121.8 
      1489.0         0.50         99.2 
      1490.0         0.55         93.9 
      1491.0         0.57         88.8 
      1492.0         0.60         84.3 
      1493.0         0.67         80.5 
      1494.0         0.67         78.6 
      1495.0         0.68         77.6 
      1496.0         5.68        192.9 
      1497.0         0.70         66.3 
      1498.0         0.52         58.9 
      1499.0         0.57         58.7 
      1500.0         0.53         64.8 
      1501.0         0.43         66.1 
      1502.0         0.63         69.0 
      1503.0         0.73         70.2 
      1504.0         0.85         70.1 
      1505.0         0.70         74.7 
      1506.0         0.93        104.0 
      1507.0         1.38        123.8 
      1508.0         1.87         80.7 
      1509.0         0.87         79.5 
      1510.0         1.15         83.2 
      1511.0         1.07         87.5 
      1512.0         0.50        102.5 
      1513.0         0.30        107.2 
      1514.0         0.48        106.3 
      1515.0         0.77         97.9 
      1516.0         0.53        133.7 
      1517.0         0.20        141.5 
      1518.0         0.37        137.9 
      1519.0         0.53        128.9 
      1520.0         0.63        120.3 
      1521.0         0.65        110.2 
      1522.0         0.63        108.2 
      1523.0         0.63        103.3 
      1524.0         0.77        101.7 
      1525.0         0.87         99.6 
      1526.0         7.98        313.7 
      1527.0         0.43         71.4 
      1528.0         0.43         72.7 
      1529.0         0.43         72.5 
      1530.0         0.50         73.7 
      1531.0         0.52         76.7 
      1532.0         0.57         78.4 
      1533.0         0.53         78.8 
      1534.0         0.60         78.7 
      1535.0         0.57         83.8 
      1536.0         0.57         70.4 
      1537.0         4.37         53.9 
      1538.0         0.47         59.2 
      1539.0         0.50         57.4 
      1540.0         0.33         53.6 
      1541.0         0.30         51.8 
      1542.0         0.30         51.1 
      1543.0         0.33         50.2 
      1544.0         0.37         48.3 
      1545.0         0.35         46.1 
      1546.0         0.33         43.7 
      1547.0         0.30         46.9 
      1548.0         0.30         51.7 
      1549.0         0.30         56.6 
      1550.0         0.33         60.6 
      1551.0         0.33         62.9 
      1552.0         0.40         68.4 
      1553.0         0.43         71.5 
      1554.0         0.52         76.1 
      1555.0         0.63         86.2 
      1556.0         4.75        207.5 
      1557.0         1.18         81.2 
      1558.0         0.37         67.1 
      1559.0         0.50         63.6 
      1560.0         0.40         59.8 
      1561.0         0.37         58.5 
      1562.0         0.43         64.0 
      1563.0         0.40         67.1 
      1564.0         0.37         68.3 
      1565.0         0.40         68.9 
      1566.0         0.52         70.3 
      1567.0         0.67         70.1 
      1568.0         0.60         71.3 
      1569.0         0.57         72.3 
      1570.0         0.70         75.5 
      1571.0         0.78         84.9 
      1572.0         1.37        151.1 
      1573.0         0.87        138.7 
      1574.0         2.95         77.2 
      1575.0         1.12         95.4 
      1576.0         0.70         91.8 
      1577.0         0.73         89.1 
      1578.0         0.67         88.0 
      1579.0         0.70         85.7 
      1580.0         0.75         84.2 
      1581.0         0.77         83.1 
      1582.0         0.77         80.8 
      1583.0         0.83         79.1 
      1584.0         0.78         77.1 
      1585.0         0.80         75.2 
      1586.0        11.72        225.7 
      1587.0         0.47         54.9 
      1588.0         0.48         46.3 
      1589.0         0.50         45.8 
      1590.0         0.40         43.0 
      1591.0         0.43         42.0 
      1592.0         0.40         39.8 
      1593.0         0.27         38.1 
      1594.0         0.30         38.4 
      1595.0         0.30         37.4 
      1596.0         0.30         36.3 
      1597.0         0.30         36.3 
      1598.0         0.32         35.4 
      1599.0         0.30         35.1 
      1600.0         0.30         34.5 
      1601.0         0.30         33.7 
      1602.0         0.27         32.4 
      1603.0         0.27         33.1 
      1604.0         0.37         33.1 
      1605.0         0.33         32.7 
      1606.0         0.27         31.6 
      1607.0         0.30         32.2 
      1608.0         0.33         31.9 
      1609.0         0.32         31.5 
      1610.0         0.27         32.5 
      1611.0         0.30         33.8 
      1612.0         0.30         34.8 
      1613.0         0.30         29.1 
      1614.0         0.33         22.2 
      1615.0         0.27         19.9 
      1616.0        12.70        254.8 
      1617.0         0.67         38.3 
      1618.0         0.53         40.4 
      1619.0         0.57         39.9 
      1620.0         0.45         35.9 
      1621.0         0.67         35.3 
      1622.0         0.57         33.7 
      1623.0         0.57         34.8 
      1624.0         0.53         34.4 
      1625.0         0.37         33.4 
