~Version Information
VERS.                      2.0: CWLS Log ASCII Standard - VERSION 2.0
WRAP.                       NO: One line per depth step
~Well Information Block
STRT.FT                 0.0000: 
STOP.FT               988.7500: 
STEP.FT                 0.2500: 
NULL.                -999.2500: 
COMP.          Pioneer Natural Resources: COMPANY
WELL.             Quartz 13-22: WELL
FLD.           Purgatoire River: FIELD
LOC.           1933' FSL & 675' FWL --------: LOCATION
PROV.                 Colorado: PROVINCE
CNTY.               Las Animas: COUNTRY
SRVC.                         : SERVICE COMPANY
DATE.          Thu Dec 22 09:29:32 2005: LOG DATE
UWI.                          : UNIQUE WELL ID
~Curve Information Block
DEPT.FT            0 000 00 00: Depth
CCL.                          : Casing Collar Locator
TT3.usec                      : CBL 3' Travel Time
AMP3.mV                       : CBL 3' Amplitude
AMP5.mV                       : CBL 5' Amplitude
GR.GAPI                       : Gamma Ray
~Parameter Information Block
~A  Depth       CCL         TT3         AMP3        AMP5         GR     
# ...
   504.0000      0.0000    384.0981     13.0074      2.6482     96.4624
   504.2500      0.0000    383.3723     13.4278      2.7750     98.9251
   504.5000      0.0000    379.1945     13.8609      2.8721    101.8756
   504.7500      0.0000    371.8450     14.2368      2.9442    104.0349
   505.0000      0.0000    363.0061     14.4943      3.0056    105.3231
   505.2500      0.0000    354.9655     14.6248      3.0601    106.7956
   505.5000      0.0000    349.2574     14.6758      3.0953    109.4123
   505.7500      0.0000    346.0300     14.7076      3.1130    113.0872
   506.0000      0.0000    344.5677     14.7490      3.1284    116.8675
   506.2500      0.0000    344.1211     14.7890      3.1286    119.7401
   506.5000      0.0000    344.2574     14.8023      3.0775    121.1667
   506.7500      0.0000    344.7484     14.7759      2.9770    121.0049
   507.0000      0.0000    345.4000     14.7120      2.8828    119.1459
   507.2500      0.0000    346.0226     14.6085      2.8550    115.3141
   507.5000      0.0000    346.4709     14.4532      2.9130    109.1318
   507.7500      0.0000    346.6704     14.2442      3.0194    100.4540
   508.0000      0.0000    346.6622     14.0072      3.0890     89.9531
   508.2500      0.0000    346.7922     13.7790      3.0387     79.4109
   508.5000      0.0000    348.0114     13.5826      2.8578     71.0099
   508.7500      0.0000    352.0491     13.4205      2.6241     65.9000
   509.0000      0.0000    360.8660     13.2822      2.4476     63.4653
   509.2500      0.0000    375.2899     13.1471      2.3971     62.1627
   509.5000      0.0000    394.3076     12.9899      2.4698     60.9925
   509.7500      0.0000    416.8323     12.7958      2.6131     59.8620
   510.0000      0.0000    444.4301     12.5740      2.7581     58.6792
   510.2500      0.0000    479.9860     12.3514      2.8451     56.8932
   510.5000      0.0000    522.0734     12.1521      2.8490     54.3758
   510.7500      0.0000    563.2504     11.9835      2.7846     52.1286
   511.0000      0.0000    597.1185     11.8376      2.6829     51.4440
   511.2500      0.0000    624.9525     11.7071      2.5754     52.6382
   511.5000      0.0000    651.7358     11.6044      2.4905     55.0412
   511.7500      0.0000    677.9061     11.5572      2.4414     57.9088
   512.0000      0.0000    698.9800     11.5786      2.4157     60.8844
   512.2500      0.0000    711.3058     11.6489      2.3885     63.8237
   512.5000      0.0000    714.2096     11.7410      2.3457     66.6962
   512.7500      0.0000    706.8760     11.8577      2.2925     69.6602
   513.0000      0.0000    686.1906     12.0297      2.2459     72.9476
   513.2500      0.0000    650.4831     12.2757      2.2277     76.6433
   513.5000      0.0000    606.5508     12.5761      2.2687     80.7437
   513.7500      0.0000    569.5327     12.8904      2.3961     85.2884
   514.0000      0.0000    549.9369     13.1948      2.6024     90.0484
   514.2500      0.0000    541.1108     13.5026      2.8413     94.0190
   514.5000      0.0000    526.1495     13.8484      3.0556     95.6609
   514.7500      0.0000    498.0807     14.2476      3.2047     94.0313
   515.0000      0.0000    467.9120     14.6625      3.2826     89.6603
   515.2500      0.0000    451.9309     15.0122      3.3207     84.2980
   515.5000      0.0000    454.8708     15.2293      3.3598     79.9527
   515.7500      0.0000    465.8800     15.3175      3.4162     77.9808
   516.0000      0.0000    469.9113     15.3519      3.4799     78.6160
   516.2500      0.0000    462.8869     15.4174      3.5336     81.1270
   516.5000      0.0000    453.5870     15.5499      3.5653     84.3555
   516.7500      0.0000    450.0223     15.7263      3.5703     87.1332
   517.0000      0.0000    449.0465     15.8877      3.5532     88.5171
   517.2500      0.0000    442.0600     15.9655      3.5314     88.0733
   517.5000      0.0000    425.7953     15.9108      3.5242     86.1729
   517.7500      0.0000    403.9792     15.7166      3.5351     83.9710
   518.0000      0.0000    382.2883     15.4078      3.5470     82.7503
   518.2500      0.0000    364.7599     15.0174      3.5390     82.8557
   518.5000      0.0000    353.0092     14.5829      3.5085     83.3792
   518.7500      0.0000    346.4901     14.1602      3.4696     83.1899
   519.0000      0.0000    343.5076     13.8148      3.4295     82.0872
   519.2500      0.0000    342.4157     13.5861      3.3799     80.6535
   519.5000      0.0000    342.2100     13.4643      3.3131     79.2925
   519.7500      0.0000    342.3661     13.4083      3.2326     77.8946
   520.0000      0.0000    342.5708     13.3833      3.1415     76.4304
   520.2500      0.0000    342.5967     13.3779      3.0339     75.5270
   520.5000      0.0000    342.3609     13.3917      2.9095     76.2911
   520.7500      0.0000    341.9553     13.4186      2.7846     79.5847
   521.0000      0.0000    341.5479     13.4499      2.6813     85.3305
   521.2500      0.0000    341.2579     13.4834      2.6109     92.1608
   521.5000      0.0000    341.1238     13.5176      2.5719     97.6193
   521.7500      0.0000    341.1510     13.5398      2.5685     99.1493
   522.0000      0.0000    341.3402     13.5269      2.6184     95.6708
   522.2500      0.0000    341.6544     13.4645      2.7283     88.5920
   522.5000      0.0000    341.9933     13.3705      2.8680     81.0167
   522.7500      0.0000    342.2426     13.3049      2.9801     75.6316
   523.0000      0.0000    342.3568     13.3507      3.0249     73.3568
   523.2500      0.0000    342.4131     13.5633      3.0159     73.9061
   523.5000      0.0000    342.6017     13.9179      3.0004     77.0640
   523.7500      0.0000    343.4528     14.3023      3.0016     82.7499
   524.0000      0.0000    346.3790     14.5785      2.9985     89.8911
   524.2500      0.0000    354.2618     14.6703      2.9687     96.1261
   524.5000      0.0000    370.4614     14.5976      2.9278     99.2621
   524.7500      0.0000    394.8045     14.4265      2.9121     98.6912
   525.0000      0.0000    419.4467     14.2051      2.9353     95.2491
   525.2500      0.0000    431.6600     13.9618      2.9719     90.3610
   525.5000      0.0000    424.2211     13.7444      2.9763     85.4600
   525.7500      0.0000    402.1909     13.6157      2.9221     81.5514
   526.0000      0.0000    377.6797     13.5919      2.8307     79.0287
   526.2500      0.0000    359.7150     13.6057      2.7590     77.9746
   526.5000      0.0000    350.3208     13.5478      2.7534     78.4755
   526.7500      0.0000    347.3197     13.3428      2.8132     80.6542
   527.0000      0.0000    347.7889     12.9954      2.8926     84.6195
   527.2500      0.0000    349.2400     12.5906      2.9259     90.2464
   527.5000      0.0000    349.7688     12.2495      2.8664     96.8186
   527.7500      0.0000    348.5613     12.0552      2.7176    103.2749
   528.0000      0.0000    346.1638     12.0028      2.5267    108.9951
   528.2500      0.0000    343.8511     12.0153      2.3460    113.9092
   528.5000      0.0000    342.6381     11.9991      2.2016    117.7937
   528.7500      0.0000    343.0707     11.8785      2.0834    120.1560
   529.0000      0.0000    345.6080     11.6061      1.9513    121.0882
   529.2500      0.0000    350.6626     11.1763      1.7647    121.5903
   529.5000      0.0000    358.0643     10.6394      1.5274    122.5232
   529.7500      0.0000    366.7762     10.0896      1.3087    123.4705
   530.0000      0.0000    375.8307      9.6339      1.2039    123.0289
   530.2500      0.0000    386.1456      9.3701      1.2578    120.2262
   530.5000      0.0000    401.5375      9.3734      1.4243    115.3661
   530.7500      0.0000    427.3305      9.6689      1.6089    109.5922
   531.0000      0.0000    466.0828     10.1938      1.7569    104.2006
   531.2500      0.0000    513.2779     10.7931      1.8833    100.4809
   531.5000      0.0000    558.8932     11.2804      2.0149     99.5192
   531.7500      0.0000    596.0748     11.5307      2.1367    101.6525
