~Version Information
VERS.                      2.0: CWLS Log ASCII Standard - VERSION 2.0
WRAP.                       NO: One line per depth step
~Well Information Block
STRT.FT               460.0000: 
STOP.FT              1498.0000: 
STEP.FT                 0.1000: 
NULL.                -999.2500: 
COMP.          Pioneer Natural Resources: COMPANY
WELL.           Amore 32-09 Tr: WELL
FLD.           Purgatoire River: FIELD
LOC.           1941' FNL & 2297' FEL: LOCATION
PROV.                 Colorado: PROVINCE
CNTY.               Las Animas: COUNTRY
SRVC.                Patterson: SERVICE COMPANY
DATE.          Mon Nov 14 13:24:57 2005: LOG DATE
UWI.           05 071 08584 00: UNIQUE WELL ID
~Curve Information Block
DEPT.FT            0 000 00 00: Depth
DCAL.in                       : CDL Caliper
RHOB.g/cc                     : CDL Bulk Density
RHOC.g/cc                     : CDL Density Correction
DPOR.pu                       : CDL Density Porosity
GR.GAPI                       : Gamma Ray
NPOR.pu                       : Neutron Porosity
~Parameter Information Block
~A  Depth       DCAL        RHOB        RHOC        DPOR         GR         NPOR    
# ...
  1208.8000      8.0094      2.4654      0.0505     11.1859     56.1938     16.3974
  1208.9000      8.0094      2.4525      0.0828     11.9680     61.1426     16.5417
  1209.0000      8.0090      2.4417      0.0368     12.6223     64.0590     17.5371
  1209.1000      8.0090      2.4337      0.0340     13.1067     63.5587     18.7132
  1209.2000      8.0090      2.4333      0.0271     13.1345     60.2367     18.7424
  1209.3000      8.0087      2.4337      0.0655     13.1065     54.5509     18.0668
  1209.4000      8.0087      2.4302     -0.0024     13.3219     51.4222     17.7235
  1209.5000      8.0086      2.4295      0.0411     13.3653     53.3763     18.3014
  1209.6000      8.0086      2.4349      0.0331     13.0376     55.5193     19.6633
  1209.7000      8.0086      2.4536      0.0127     11.9037     56.8128     20.6950
  1209.8000      8.0089      2.4862      0.0838      9.9297     60.3027     20.3844
  1209.9000      8.0089      2.5101      0.0544      8.4789     63.5797     18.8920
  1210.0000      8.0093      2.5141      0.0698      8.2379     63.4639     17.7323
  1210.1000      8.0093      2.5082      0.0792      8.5936     62.6166     17.7347
  1210.2000      8.0093      2.4999      0.0810      9.0980     63.9883     17.9775
  1210.3000      8.0093      2.4935      0.0363      9.4828     66.2630     18.0711
  1210.4000      8.0093      2.4960      0.0300      9.3325     67.6813     18.5091
  1210.5000      8.0086      2.5041      0.0648      8.8443     67.7242     18.9584
  1210.6000      8.0086      2.5097      0.0326      8.5010     66.9351     18.6234
  1210.7000      8.0086      2.5154      0.0482      8.1588     65.8829     17.8787
  1210.8000      8.0075      2.5278      0.0533      7.4044     65.1893     17.9213
  1210.9000      8.0075      2.5443      0.0760      6.4084     66.0556     18.8892
  1211.0000      8.0066      2.5496      0.0964      6.0840     67.8245     19.5993
  1211.1000      8.0066      2.5383      0.0509      6.7673     69.8308     19.5117
  1211.2000      8.0066      2.5241      0.0852      7.6309     73.0061     19.7673
  1211.3000      8.0066      2.5176      0.0814      8.0222     75.1117     20.6592
  1211.4000      8.0066      2.5197      0.0495      7.8961     75.1582     20.5297
  1211.5000      8.0072      2.5222      0.0839      7.7449     75.1137     18.6012
  1211.6000      8.0072      2.5135      0.0548      8.2719     74.5447     16.6895
  1211.7000      8.0072      2.4974      0.0237      9.2464     71.7802     16.1005
  1211.8000      8.0079      2.4875      0.0353      9.8478     68.9441     16.5907
  1211.9000      8.0079      2.4906     -0.0179      9.6627     67.7539     17.7392
  1212.0000      8.0077      2.5021      0.0737      8.9664     68.3829     18.8337
  1212.1000      8.0077      2.5155      0.0287      8.1530     73.7310     19.2291
  1212.2000      8.0077      2.5319      0.0940      7.1588     82.4650     19.2941
  1212.3000      8.0076      2.5463      0.0787      6.2867     86.6851     19.7941
  1212.4000      8.0076      2.5504      0.0701      6.0364     83.4513     20.6258
  1212.5000      8.0085      2.5406      0.0776      6.6286     78.4500     21.1476
  1212.6000      8.0085      2.5195      0.0508      7.9106     76.5653     20.9269
  1212.7000      8.0085      2.4958      0.0570      9.3465     75.2724     19.7853
  1212.8000      8.0089      2.4807      0.0176     10.2603     69.2190     18.7695
  1212.9000      8.0089      2.4781      0.0235     10.4159     60.3292     19.0192
  1213.0000      8.0089      2.4796      0.0124     10.3245     54.9888     19.9997
  1213.1000      8.0089      2.4841      0.0230     10.0541     55.4069     20.5575
  1213.2000      8.0089      2.5017      0.0239      8.9854     57.9812     20.3834
  1213.3000      8.0089      2.5274      0.0786      7.4290     59.2318     19.6221
  1213.4000      8.0089      2.5359      0.1270      6.9151     59.9135     18.5495
  1213.5000      8.0087      2.5186      0.0699      7.9625     60.9903     17.7559
  1213.6000      8.0087      2.4962      0.0728      9.3186     63.3250     17.6250
  1213.7000      8.0087      2.4840      0.0306     10.0632     66.1169     17.8566
  1213.8000      8.0086      2.4786      0.0660     10.3886     64.9718     17.9778
  1213.9000      8.0086      2.4755      0.0282     10.5784     58.3098     18.1891
  1214.0000      8.0087      2.4772      0.0864     10.4718     52.7276     18.6898
  1214.1000      8.0087      2.4887      0.0251      9.7733     52.3941     18.8926
  1214.2000      8.0087      2.5131      0.0570      8.2959     53.3808     18.3391
  1214.3000      8.0088      2.5422      0.0684      6.5353     54.4789     17.4642
  1214.4000      8.0088      2.5585      0.1098      5.5459     58.1390     17.3708
  1214.5000      8.0094      2.5514      0.0775      5.9786     62.6524     18.4381
  1214.6000      8.0094      2.5268      0.0748      7.4665     64.0577     19.8434
  1214.7000      8.0094      2.5007      0.0392      9.0493     61.0095     20.5179
  1214.8000      8.0101      2.4860      0.0590      9.9388     55.6699     20.4108
  1214.9000      8.0101      2.4858      0.0436      9.9503     52.3147     20.0257
  1215.0000      8.0095      2.4915      0.0529      9.6087     54.4074     19.5133
  1215.1000      8.0095      2.4896      0.0580      9.7192     58.2136     19.1535
  1215.2000      8.0095      2.4813      0.0616     10.2231     57.1995     19.5303
  1215.3000      8.0081      2.4784      0.0671     10.3998     52.7343     20.8543
  1215.4000      8.0081      2.4802      0.0421     10.2891     50.2934     22.2848
  1215.5000      8.0079      2.4773      0.0610     10.4641     50.4383     22.4573
  1215.6000      8.0079      2.4687      0.0478     10.9904     51.6633     20.8500
  1215.7000      8.0079      2.4600      0.0670     11.5160     55.0801     18.3649
  1215.8000      8.0086      2.4516      0.0384     12.0229     60.5006     16.1876
  1215.9000      8.0086      2.4410      0.0237     12.6667     62.9428     15.3676
  1216.0000      8.0092      2.4261      0.0215     13.5721     59.7153     16.0006
  1216.1000      8.0092      2.4126     -0.0022     14.3861     53.4261     16.6693
  1216.2000      8.0092      2.4109      0.0050     14.4920     49.9029     16.6767
  1216.3000      8.0096      2.4124      0.0538     14.4018     53.2571     16.6960
  1216.4000      8.0096      2.4119      0.0102     14.4277     60.1656     16.5823
  1216.5000      8.0098      2.4248      0.0464     13.6471     65.5359     16.1933
  1216.6000      8.0098      2.4518      0.0565     12.0101     69.5986     16.5090
  1216.7000      8.0098      2.4794      0.0467     10.3399     72.9381     17.6580
  1216.8000      8.0103      2.5020      0.0808      8.9684     72.9105     18.7102
  1216.9000      8.0103      2.5212      0.0758      7.8081     67.0799     19.5260
  1217.0000      8.0110      2.5372      0.1066      6.8350     59.6687     20.0492
  1217.1000      8.0110      2.5437      0.0954      6.4401     57.4501     20.0084
  1217.2000      8.0110      2.5359      0.0749      6.9152     61.4195     19.8911
  1217.3000      8.0106      2.5183      0.0534      7.9841     68.5937     19.9303
  1217.4000      8.0106      2.4984      0.0411      9.1891     74.5886     19.8086
  1217.5000      8.0088      2.4820      0.0002     10.1823     75.9114     19.6093
  1217.6000      8.0088      2.4736      0.0012     10.6913     72.5168     19.3457
  1217.7000      8.0088      2.4760     -0.0109     10.5438     69.2564     18.8716
  1217.8000      8.0066      2.4936      0.0373      9.4768     71.7081     18.6913
  1217.9000      8.0066      2.5291      0.0353      7.3243     77.9322     19.0682
  1218.0000      8.0058      2.5687      0.1061      4.9273     83.0254     19.5791
  1218.1000      8.0058      2.5913      0.1056      3.5567     83.9183     20.1425
  1218.2000      8.0058      2.5995      0.0710      3.0581     80.1000     20.8651
  1218.3000      8.0056      2.6029      0.0982      2.8545     76.8280     21.2169
