~Version Information
VERS.                      2.0: CWLS Log ASCII Standard - VERSION 2.0
WRAP.                       NO: One line per depth step
~Well Information Block
STRT.FT               -14.0000: 
STOP.FT               951.0000: 
STEP.FT                 0.2500: 
NULL.                -999.2500: 
COMP.          Pioneer Natural Resources: COMPANY
WELL.             Giggle 21-22: WELL
FLD.           Purgatoire River: FIELD
LOC.           950' FNL & 2094' FWL: LOCATION
CNTY.               Las Animas: COUNTY
SRVC.                         : SERVICE COMPANY
DATE.          Mon Apr 17 17:51:33 2006: LOG DATE
UWI.           05 071 08726 00: UNIQUE WELL ID
STAT.                       CO: STATE
~Curve Information Block
DEPT.FT            0 000 00 00: Depth
CCL.                          : Casing Collar Locator
TT3.usec                      : CBL 3' Travel Time
AMP3.mV                       : CBL 3' Amplitude
GR.GAPI                       : Gamma Ray
~Parameter Information Block
~A  Depth       CCL         TT3         AMP3         GR     
# ...
   924.0000      0.0000    656.2934      7.2585     61.1389
   924.2500      0.0000    656.9231      7.2881     58.9293
   924.5000      0.0000    656.5332      7.2915     55.0343
   924.7500      0.0000    651.2133      7.1428     51.3373
   925.0000      0.0000    639.2588      6.8760     50.0896
   925.2500      0.0000    624.9717      6.7098     52.5647
   925.5000      0.0000    617.1304      6.8706     58.4270
   925.7500      0.0000    621.5209      7.3809     66.0825
   926.0000      0.0000    635.8613      8.0216     73.4034
   926.2500      0.0000    652.9877      8.5022     78.2524
   926.5000      0.0000    667.1866      8.6794     79.1629
   926.7500      0.0000    676.5916      8.6273     76.3633
   927.0000      0.0000    681.8008      8.5091     72.0103
   927.2500      0.0000    684.1613      8.4051     68.7173
   927.5000      0.0000    684.9143      8.2788     67.5344
   927.7500      0.0000    684.8325      8.0876     67.4539
   928.0000      0.0000    684.1172      7.8931     66.8805
   928.2500      0.0000    682.6547      7.8445     65.4332
   928.5000      0.0000    680.5109      8.0443     64.2158
   928.7500      0.0000    678.3553      8.4357     64.4273
   929.0000      0.0000    677.1750      8.8313     66.1576
   929.2500      0.0000    677.1656      9.0523     68.7472
   929.5000      0.0000    676.8085      9.0508     71.8869
   929.7500      0.0000    673.0143      8.9267     75.8500
   930.0000      0.0000    662.7639      8.8397     80.7074
   930.2500      0.0000    646.1187      8.8719     85.6159
   930.5000      0.0000    628.4301      8.9537     88.9802
   930.7500      0.0000    617.4070      8.9397     89.2730
   931.0000      0.0000    615.9280      8.7689     85.8237
   931.2500      0.0000    619.7069      8.5272     79.3052
   931.5000      0.0000    624.0085      8.3412     71.7674
   931.7500      0.0000    629.4363      8.2508     65.6784
   932.0000      0.0000    637.9354      8.2340     62.2103
   932.2500      0.0000    645.6237      8.3073     60.5032
   932.5000      0.0000    643.1097      8.5097     58.8970
   932.7500      0.0000    623.0498      8.7954     56.7253
   933.0000      0.0000    587.4700      9.0298     54.8282
   933.2500      0.0000    549.1158      9.1229     54.5682
   933.5000      0.0000    525.2781      9.1217     56.4458
   933.7500      0.0000    527.6364      9.1440     59.4447
   934.0000      0.0000    555.4174      9.2383     61.6982
   934.2500      0.0000    596.6162      9.3287     61.8292
   934.5000      0.0000    635.9943      9.2971     59.4356
   934.7500      0.0000    663.5383      9.1067     54.3368
   935.0000      0.0000    677.0583      8.8324     46.1242
   935.2500      0.0000    678.4157      8.5783     35.0694
   935.5000      0.0000    668.3975      8.3906     23.0353
   935.7500      0.0000    644.9304      8.2601     12.6994
   936.0000      0.0000    605.8174      8.1743      5.7554
   936.2500      0.0000    553.8972      8.1270      2.1132
   936.5000      0.0000    499.8654      8.0909      0.6223
   936.7500      0.0000    458.8201      8.0309      0.1456
   937.0000      0.0000    442.3697      7.9586      0.0266
   937.2500      0.0000    451.8028      7.9416      0.0034
   937.5000      0.0000    476.0607      8.0365      0.0000
   937.7500      0.0000    496.8381      8.2220   -999.2500
   938.0000      0.0000    501.0483      8.4191   -999.2500
   938.2500      0.0000    491.6270      8.5690   -999.2500
   938.5000      0.0000    484.4592      8.6544   -999.2500
   938.7500      0.0000    494.0620      8.6624   -999.2500
   939.0000      0.0000    523.8369      8.5827   -999.2500
   939.2500      0.0000    567.7727      8.4432   -999.2500
   939.5000      0.0000    615.3591      8.2865   -999.2500
   939.7500      0.0000    653.3248      8.0927   -999.2500
   940.0000      0.0000    666.1094      7.7513   -999.2500
   940.2500      0.0000    637.9748      7.1248   -999.2500
   940.5000      0.0000    558.8170      6.1638   -999.2500
   940.7500      0.0000    434.1476      4.9876   -999.2500
   941.0000      0.0000    290.2351      3.8440   -999.2500
   941.2500      0.0000    162.6659      2.9589   -999.2500
   941.5000      0.0000     74.9039      2.4133   -999.2500
   941.7500      0.0000     27.9171      2.1457   -999.2500
   942.0000      0.0000      8.3309      2.0416   -999.2500
   942.2500      0.0000      1.9726      2.0095   -999.2500
   942.5000      2.1066      0.3651      2.0017   -999.2500
   942.7500     -5.0000      0.0485      2.0002   -999.2500
   943.0000      5.0000   -999.2500   -999.2500   -999.2500
   943.2500      3.5165   -999.2500   -999.2500   -999.2500
   943.5000      0.0000   -999.2500   -999.2500   -999.2500
   943.7500      0.0000   -999.2500   -999.2500   -999.2500
   944.0000      0.0000   -999.2500   -999.2500   -999.2500
   944.2500      0.0000   -999.2500   -999.2500   -999.2500
   944.5000      0.0000   -999.2500   -999.2500   -999.2500
   944.7500      0.0000   -999.2500   -999.2500   -999.2500
   945.0000      0.0000   -999.2500   -999.2500   -999.2500
   945.2500      0.0000   -999.2500   -999.2500   -999.2500
   945.5000      0.0000   -999.2500   -999.2500   -999.2500
   945.7500      0.0000   -999.2500   -999.2500   -999.2500
   946.0000      0.0000   -999.2500   -999.2500   -999.2500
   946.2500      0.0000   -999.2500   -999.2500   -999.2500
   946.5000      0.0000   -999.2500   -999.2500   -999.2500
   946.7500      0.0000   -999.2500   -999.2500   -999.2500
   947.0000      0.0000   -999.2500   -999.2500   -999.2500
   947.2500      0.0000   -999.2500   -999.2500   -999.2500
   947.5000      0.0000   -999.2500   -999.2500   -999.2500
   947.7500      0.0000   -999.2500   -999.2500   -999.2500
   948.0000      0.0000   -999.2500   -999.2500   -999.2500
   948.2500      0.0000   -999.2500   -999.2500   -999.2500
   948.5000   -999.2500   -999.2500   -999.2500   -999.2500
   948.7500   -999.2500   -999.2500   -999.2500   -999.2500
   949.0000   -999.2500   -999.2500   -999.2500   -999.2500
   949.2500   -999.2500   -999.2500   -999.2500   -999.2500
   949.5000   -999.2500   -999.2500   -999.2500   -999.2500
   949.7500   -999.2500   -999.2500   -999.2500   -999.2500
   950.0000   -999.2500   -999.2500   -999.2500   -999.2500
   950.2500   -999.2500   -999.2500   -999.2500   -999.2500
   950.5000   -999.2500   -999.2500   -999.2500   -999.2500
   950.7500   -999.2500   -999.2500   -999.2500   -999.2500
   951.0000   -999.2500   -999.2500   -999.2500   -999.2500
