~Version Information
VERS.                      2.0: CWLS Log ASCII Standard - VERSION 2.0
WRAP.                       NO: One line per depth step
~Well Information Block
STRT.FT                -4.2500: 
STOP.FT               745.0000: 
STEP.FT                 0.2500: 
NULL.                -999.2500: 
COMP.          Pioneer Natural Resources: COMPANY
WELL.                Zed 11-23: WELL
FLD.           Purgatoire River: FIELD
LOC.           641' FNL & 952' FWL: LOCATION
CNTY.               Las Animas: COUNTY
SRVC.                         : SERVICE COMPANY
DATE.          Fri Mar 03 16:43:06 2006: LOG DATE
UWI.           05 071 08702 00: UNIQUE WELL ID
STAT.                       CO: STATE
~Curve Information Block
DEPT.FT            0 000 00 00: Depth
GR.GAPI                       : Gamma Ray
CCL.                          : Casing Collar Locator
TT3.usec                      : CBL 3' Travel Time
AMP3.mV                       : CBL 3' Amplitude
~Parameter Information Block
~A  Depth        GR         CCL         TT3         AMP3    
# ...
   598.7500     86.2103      0.0000    554.2720     12.4480
   599.0000     86.1856      0.0000    593.0732     12.1385
   599.2500     84.4100      0.0000    635.4029     11.7513
   599.5000     81.5467      0.0000    667.3516     11.4969
   599.7500     77.5751      0.0000    683.0995     11.5811
   600.0000     72.0731      0.0000    681.4357     12.0895
   600.2500     65.3012      0.0000    663.0470     12.9406
   600.5000     58.8376      0.0000    631.1892     13.9380
   600.7500     54.9973      0.0000    593.1813     14.8758
   601.0000     55.2963      0.0000    560.9620     15.6222
   601.2500     59.3715      0.0000    548.6146     16.1495
   601.5000     65.6303      0.0000    563.9904     16.5204
   601.7500     72.7488      0.0000    599.2459     16.8348
   602.0000     80.0137      0.0000    633.6135     17.1621
   602.2500     86.5675      0.0000    650.4407     17.4995
   602.5000     91.4333      0.0000    651.1110     17.7835
   602.7500     94.3752      0.0000    650.4810     17.9351
   603.0000     95.7987      0.0000    660.1823     17.9036
   603.2500     95.8670      0.0000    678.8974     17.6768
   603.5000     94.6470      0.0000    697.6984     17.2686
   603.7500     92.8221      0.0000    710.2193     16.7215
   604.0000     91.2193      0.0000    716.0638     16.1122
   604.2500     89.8466      0.0000    717.4503     15.5142
   604.5000     88.2830      0.0000    715.1827     14.9532
   604.7500     86.8843      0.0000    706.7387     14.4314
   605.0000     86.8402      0.0000    686.6594     13.9805
   605.2500     88.9504      0.0000    650.1935     13.6513
   605.5000     92.7907      0.0000    599.4421     13.4574
   605.7500     97.0954      0.0000    545.7994     13.3612
   606.0000    100.6892      0.0000    503.6445     13.3190
   606.2500    103.2377      0.0000    480.6438     13.3193
   606.5000    105.3053      0.0000    475.7537     13.3652
   606.7500    107.3334      0.0000    486.0074     13.4265
   607.0000    108.5026      0.0000    511.4453     13.4274
   607.2500    107.2086      0.0000    550.8870     13.3009
   607.5000    102.8359      0.0000    594.3147     13.0543
   607.7500     96.5899      0.0000    623.4908     12.7719
   608.0000     90.5064      0.0000    623.4883     12.5528
   608.2500     85.9231      0.0000    595.6038     12.4566
   608.5000     82.7696      0.0000    559.8489     12.4922
   608.7500     79.9782      0.0000    542.8760     12.6282
   609.0000     76.5653      0.0000    559.2528     12.7975
   609.2500     72.6092      0.0000    601.8574     12.9170
   609.5000     69.4407      0.0000    650.0767     12.9321
   609.7500     68.7906      0.0000    686.2711     12.8513
   610.0000     71.4280      0.0000    703.9927     12.7332
   610.2500     76.5915      0.0000    703.5195     12.6405
   610.5000     82.9887      0.0000    684.2778     12.6043
   610.7500     90.4241      0.0000    643.9883     12.6248
   611.0000    100.5769      0.0000    585.0487     12.6943
   611.2500    116.3110      0.0000    519.9394     12.8087
   611.5000    139.4716      0.0000    467.9559     12.9487
   611.7500    167.8046      0.0000    445.6312     13.0567
   612.0000    193.6548      0.0000    459.1979     13.0592
   612.2500    207.4493      0.0000    502.7159     12.9293
   612.5000    204.3851      0.0000    560.6766     12.7229
   612.7500    188.2767      0.0000    614.8721     12.5413
   613.0000    168.8745      0.0000    652.8506     12.4616
   613.2500    155.3651      0.0000    671.5602     12.4985
   613.5000    151.3915      0.0000    674.5372     12.6046
   613.7500    154.8711      0.0000    667.7825     12.6982
   614.0000    161.7725      0.0000    657.6550     12.7072
   614.2500    169.6637      0.0000    649.2525     12.6070
   614.5000    177.9031      0.0000    644.7277     12.4319
   614.7500    185.8007      0.0000    643.3112     12.2569
   615.0000    192.2737      0.0000    643.1530     12.1549
   615.2500    197.8423      0.0000    642.8865     12.1511
   615.5000    206.5512      0.0000    641.6591     12.2119
   615.7500    224.8707      0.0000    638.2260     12.2767
   616.0000    257.0841      0.0000    629.9509     12.2994
   616.2500    300.1744      0.0000    612.5167     12.2706
   616.5000    342.7618      0.0000    581.6199     12.2166
   616.7500    369.9542      0.0000    537.1248     12.1769
   617.0000    371.2174      0.0000    486.3337     12.1755
   617.2500    345.9562      0.0000    441.4344     12.2120
   617.5000    303.1041      0.0000    412.3469     12.2740
   617.7500    255.5088      0.0000    402.3579     12.3515
   618.0000    213.3407      0.0000    409.9070     12.4472
   618.2500    180.9094      0.0000    432.0478     12.5772
   618.5000    158.1267      0.0000    465.3988     12.7472
   618.7500    143.7713      0.0000    505.3360     12.9208
   619.0000    136.7214      0.0000    545.4113     13.0380
   619.2500    134.7919      0.0000    576.9866     13.0873
   619.5000    134.2361      0.0000    589.5555     13.1426
   619.7500    131.6462      0.0000    574.4462     13.2963
   620.0000    126.2370      0.0000    531.9018     13.5662
   620.2500    119.6163      0.0000    474.6272     13.8825
   620.5000    113.5432      0.0000    421.1222     14.1567
   620.7500    108.5333      0.0000    383.6872     14.3497
   621.0000    104.3164      0.0000    363.1429     14.4831
   621.2500    100.6949      0.0000    353.7295     14.6001
   621.5000     97.7929      0.0000    350.2881     14.7254
   621.7500     95.8858      0.0000    350.4528     14.8578
   622.0000     94.9658      0.0000    352.6759     14.9880
   622.2500     94.2810      0.0000    354.6270     15.1109
   622.5000     92.6198      0.0000    354.0883     15.2237
   622.7500     89.6037      0.0000    350.6093     15.3232
   623.0000     86.6771      0.0000    345.4372     15.4143
   623.2500     86.4682      0.0000    339.7579     15.5208
   623.5000     90.9637      0.0000    333.6136     15.6850
   623.7500    100.0065      0.0000    326.6437     15.9415
   624.0000    110.9879      0.0000    319.2968     16.2794
   624.2500    119.8117      0.0000    312.8234     16.6400
   624.5000    122.8140      0.0000    308.2420     16.9665
   624.7500    118.6631      0.0000    305.6802     17.2424
   625.0000    108.9653      0.0000    304.7125     17.4681
   625.2500     97.1188      0.0000    305.0764     17.6249
   625.5000     86.3206      0.0000    306.9408     17.6891
   625.7500     78.1835      0.0000    310.4339     17.6549
   626.0000     72.7898      0.0000    314.8651     17.5145
   626.2500     69.6931      0.0000    318.7048     17.2316
   626.5000     68.7222      0.0000    320.8716     16.7677
   626.7500     69.8522      0.0000    322.3919     16.1326
   627.0000     72.3147      0.0000    326.7954     15.3771
   627.2500     74.2255      0.0000    339.0056     14.5439
   627.5000     73.8094      0.0000    362.7014     13.6815
   627.7500     71.0563      0.0000    395.9312     12.9104
   628.0000     67.5771      0.0000    428.2942     12.3805
   628.2500     64.8504      0.0000    445.8887     12.1264
   628.5000     63.1057      0.0000    442.4826     12.0359
   628.7500     61.7053      0.0000    424.7477     11.9768
   629.0000     60.0401      0.0000    405.1083     11.8986
   629.2500     58.1388      2.0000    391.3910     11.8183
   629.5000     56.7679      1.7856    384.3355     11.7735
   629.7500     56.9833      0.0000    382.1197     11.7964
   630.0000     59.4036      0.0000    384.7920     11.9227
   630.2500     63.6036      0.0000    394.2282     12.2265
   630.5000     68.0185      0.0000    409.9694     12.8064
   630.7500     70.7405      0.0000    425.7979     13.6534
   631.0000     70.8583      0.0000    433.0612     14.5357
   631.2500     69.1174      0.0000    429.5626     15.1162
   631.5000     67.2088      0.0000    423.6203     15.2162
   631.7500     66.4695      0.0000    427.3660     14.9234
   632.0000     67.1987      0.0000    446.4649     14.4592
