~Version Information
VERS.                      2.0: CWLS Log ASCII Standard - VERSION 2.0
WRAP.                       NO: One line per depth step
~Well Information Block
STRT.FT               295.7500: 
STOP.FT              1461.0000: 
STEP.FT                 0.2500: 
NULL.                -999.2500: 
COMP.          Pioneer Natural Resources: COMPANY
WELL.              Lucky 21-36: WELL
FLD.           Purgatoire River: FIELD
LOC.           799' FNL & 1578' FWL--: LOCATION
CDN. :
PROV. :
UWI. :
STAT. :
CNTY. :
CTRY. :
API. :
COMP. :
WELL. :
FLD. :
LOC. :
DATE. :
SRVC. :
CNTY.               Las Animas: COUNTY
SRVC.          Superior Well Services: SERVICE COMPANY
DATE.          Mon Jul 07 19-13-01 2008: LOG DATE
UWI.           05 071 08456 00: UNIQUE WELL ID
STAT.                 Colorado: STATE
~Curve Information Block
DEPT.FT            0 000 00 00: Depth
SN.Ohm-m                      : IEL Short Normal
SP.mV                         : IEL Spontaneous Potential
DIR.Ohm-m                     : IEL Induction Resistivity
GR.GAPI                       : Gamma Ray
~Parameter Information Block
~A  Depth        SN          SP         DIR          GR     
# ...
   630.7500   2000.0000   1980.0000      5.2509     85.2166
   631.0000   2000.0000   1980.0000      4.6465     88.6986
   631.2500   2000.0000   1980.0000      4.7356     94.5392
   631.5000   2000.0000   1980.0000      5.9008     98.1522
   631.7500   2000.0000   1980.0000     10.7248    102.2870
   632.0000   2000.0000   1980.0000 100000.0000    103.9604
   632.2500   2000.0000   1980.0000 100000.0000    104.5771
   632.5000   2000.0000   1980.0000 100000.0000    103.4081
   632.7500   2000.0000   1980.0000 100000.0000     98.6901
   633.0000   2000.0000   1980.0000 100000.0000     93.6620
   633.2500   2000.0000   1980.0000 100000.0000     84.7680
   633.5000   2000.0000   1980.0000      7.5254     79.2365
   633.7500   2000.0000   1980.0000      3.6349     73.1403
   634.0000   2000.0000   1980.0000      2.8702     70.6424
   634.2500   2000.0000   1980.0000      3.1413     68.3781
   634.5000   2000.0000   1980.0000      4.9758     67.3499
   634.7500   2000.0000   1980.0000     19.4660     66.3000
   635.0000   2000.0000   1980.0000 100000.0000     65.9936
   635.2500   2000.0000   1980.0000 100000.0000     65.9788
   635.5000   2000.0000   1980.0000 100000.0000     66.0023
   635.7500   2000.0000   1980.0000 100000.0000     65.6862
   636.0000   2000.0000   1980.0000 100000.0000     65.1591
   636.2500   2000.0000   1980.0000     56.1411     64.0673
   636.5000   2000.0000   1980.0000     11.2111     63.4163
   636.7500   2000.0000   1980.0000      7.2513     63.0799
   637.0000   2000.0000   1980.0000      6.3700     63.3814
   637.2500   2000.0000   1980.0000      6.6651     64.2867
   637.5000   2000.0000   1980.0000      7.8601     64.8908
   637.7500   2000.0000   1980.0000      9.9751     65.5701
   638.0000   2000.0000   1980.0000     12.7973     65.9270
   638.2500   2000.0000   1980.0000     15.2877     66.4471
   638.5000   2000.0000   1980.0000     16.0431     66.8278
   638.7500   2000.0000   1980.0000     15.0842     67.5827
   639.0000   2000.0000   1980.0000     13.6352     68.3234
   639.2500   2000.0000   1980.0000     12.5569     69.9049
   639.5000   2000.0000   1980.0000     12.0758     71.2025
   639.7500   2000.0000   1980.0000     12.0886     73.0221
   640.0000   2000.0000   1980.0000     12.2908     73.7172
   640.2500   2000.0000   1980.0000     12.2224     73.5299
   640.5000   2000.0000   1980.0000     11.5112     72.7564
   640.7500   2000.0000   1980.0000     10.2215     71.5662
   641.0000   2000.0000   1980.0000      8.7738     71.3019
   641.2500   2000.0000   1980.0000      7.5352     71.7912
   641.5000   2000.0000   1980.0000      6.6474     72.1701
   641.7500   2000.0000   1980.0000      6.1029     71.7362
   642.0000   2000.0000   1980.0000      5.8420     70.6450
   642.2500   2000.0000   1980.0000      5.7968     68.5345
   642.5000   2000.0000   1980.0000      5.9012     67.3141
   642.7500   2000.0000   1980.0000      6.0899     65.9202
   643.0000   2000.0000   1980.0000      6.2965     64.9849
   643.2500   2000.0000   1980.0000      6.4547     63.1521
   643.5000   2000.0000   1980.0000      6.5071     61.8061
   643.7500   2000.0000   1980.0000      6.4218     60.4585
   644.0000   2000.0000   1980.0000      6.2041     60.4129
   644.2500   2000.0000   1980.0000      5.8937     61.4336
   644.5000   2000.0000   1980.0000      5.5453     62.3167
   644.7500   2000.0000   1980.0000      5.2089     63.4491
   645.0000   2000.0000   1980.0000      4.9176     64.5131
   645.2500   2000.0000   1980.0000      4.6866     68.2077
   645.5000   2000.0000   1980.0000      4.5158     72.8514
   645.7500   2000.0000   1980.0000      4.3960     83.1563
   646.0000   2000.0000   1980.0000      4.3139     91.4173
   646.2500   2000.0000   1980.0000      4.2580    103.3675
   646.5000   2000.0000   1980.0000      4.2238    109.5274
   646.7500   2000.0000   1980.0000      4.2154    114.8629
   647.0000   2000.0000   1980.0000      4.2441    116.2594
   647.2500   2000.0000   1980.0000      4.3236    116.9530
   647.5000   2000.0000   1980.0000      4.4641    117.4303
   647.7500   2000.0000   1980.0000      4.6679    118.9662
   648.0000   2000.0000   1980.0000      4.9262    120.5788
   648.2500   2000.0000   1980.0000      5.2180    123.4233
   648.5000   2000.0000   1980.0000      5.5152    125.2307
   648.7500   2000.0000   1980.0000      5.7894    127.6557
   649.0000   2000.0000   1980.0000      6.0227    129.3553
   649.2500   2000.0000   1980.0000      6.2123    132.2998
   649.5000   2000.0000   1980.0000      6.3706    134.1495
   649.7500   2000.0000   1980.0000      6.5199    135.5676
   650.0000   2000.0000   1980.0000      6.6844    135.1713
   650.2500   2000.0000   1980.0000      6.8837    132.6852
   650.5000   2000.0000   1980.0000      7.1272    130.1224
   650.7500   2000.0000   1980.0000      7.4139    125.5855
   651.0000   2000.0000   1980.0000      7.7351    122.5564
   651.2500   2000.0000   1980.0000      8.0807    119.0006
   651.5000   2000.0000   1980.0000      8.4443    117.8188
   651.7500   2000.0000   1980.0000      8.8241    118.1950
   652.0000   2000.0000   1980.0000      9.2191    119.7043
   652.2500   2000.0000   1980.0000      9.6230    123.0093
   652.5000   2000.0000   1980.0000     10.0212    125.1891
   652.7500   2000.0000   1980.0000     10.3933    127.1654
   653.0000   2000.0000   1980.0000     10.7199    127.1638
   653.2500   2000.0000   1980.0000     10.9903    125.2661
   653.5000   2000.0000   1980.0000     11.2058    123.2933
   653.7500   2000.0000   1980.0000     11.3807    120.7177
   654.0000   2000.0000   1980.0000     11.5399    119.9464
   654.2500   2000.0000   1980.0000     11.7176    120.1525
   654.5000   2000.0000   1980.0000     11.9540    120.3571
   654.7500   2000.0000   1980.0000     12.2918    119.0830
   655.0000   2000.0000   1980.0000     12.7705    116.8277
   655.2500   2000.0000   1980.0000     13.4197    111.9501
   655.5000   2000.0000   1980.0000     14.2509    108.1158
   655.7500   2000.0000   1980.0000     15.2485    101.3807
   656.0000   2000.0000   1980.0000     16.3615     96.0068
   656.2500   2000.0000   1980.0000     17.5043     87.3209
   656.5000   2000.0000   1980.0000     18.5746     82.3728
   656.7500   2000.0000   1980.0000     19.4874     78.4825
   657.0000   2000.0000   1980.0000     20.2045     78.6431
   657.2500   2000.0000   1980.0000     20.7389     81.8754
   657.5000   2000.0000   1980.0000     21.1347     85.1307
   657.7500   2000.0000   1980.0000     21.4422     91.0270
   658.0000   2000.0000   1980.0000     21.7010     95.5147
   658.2500   2000.0000   1980.0000     21.9361    102.0669
   658.5000   2000.0000   1980.0000     22.1650    105.2204
   658.7500   2000.0000   1980.0000     22.4086    106.6640
   659.0000   2000.0000   1980.0000     22.6974    105.3557
   659.2500   2000.0000   1980.0000     23.0679    100.9709
   659.5000   2000.0000   1980.0000     23.5537     97.2858
   659.7500   2000.0000   1980.0000     24.1794     92.1750
   660.0000   2000.0000   1980.0000     24.9590     89.8186
   660.2500   2000.0000   1980.0000     25.8909     88.3496
   660.5000   2000.0000   1980.0000     26.9426     88.3550
   660.7500   2000.0000   1980.0000     28.0299     88.5049
   661.0000   2000.0000   1980.0000     29.0140     88.1220
   661.2500   2000.0000   1980.0000     29.7368     86.9859
   661.5000   2000.0000   1980.0000     30.0931     86.5459
   661.7500   2000.0000   1980.0000     30.0869     87.5847
   662.0000   2000.0000   1980.0000     29.8261     89.5869
   662.2500   2000.0000   1980.0000     29.4610     93.6120
   662.5000   2000.0000   1980.0000     29.1197     95.8789
   662.7500   2000.0000   1980.0000     28.8778     96.5160
   663.0000   2000.0000   1980.0000     28.7618     94.2415
   663.2500   2000.0000   1980.0000     28.7715     86.9536
   663.5000   2000.0000   1980.0000     28.9034     80.5746
   663.7500   2000.0000   1980.0000     29.1651     71.0208
   664.0000   2000.0000   1980.0000     29.5761     65.6249
