~Version Information
VERS.                      2.0: CWLS Log ASCII Standard - VERSION 2.0
WRAP.                       NO: One line per depth step
~Well Information Block
STRT.FT                -9.5000: 
STOP.FT              2305.7500: 
STEP.FT                 0.2500: 
NULL.                -999.2500: 
COMP.          Pioneer Natural Resources: COMPANY
WELL.          Fittipaldi 21-12: WELL
FLD.           Purgatorie River: FIELD
LOC.           207' FNL & 2110' FWL--: LOCATION
CNTY.               Las Animas: COUNTY
SRVC.          Patterson Wireline: SERVICE COMPANY
DATE.          Wed Apr 12 10:38:25 2006: LOG DATE
UWI.           05 071 08492 00: UNIQUE WELL ID
STAT.                       CO: STATE
~Curve Information Block
DEPT.FT            0 000 00 00: Depth
CCL.                          : Casing Collar Locator
TT3.usec                      : CBL 3' Travel Time
AMP3.mV                       : CBL 3' Amplitude
GR.GAPI                       : Gamma Ray
~Parameter Information Block
~A  Depth       CCL         TT3         AMP3         GR     
# ...
  1967.0000      0.0000    401.0289      3.9699    120.3231
  1967.2500      0.0000    397.7652      4.0006    126.0453
  1967.5000      0.0000    396.2367      3.9708    132.4646
  1967.7500      0.0000    395.0235      3.8914    138.1686
  1968.0000      0.0000    393.5493      3.7810    140.5930
  1968.2500      0.0000    391.9760      3.6678    138.1771
  1968.5000      0.0000    390.9880      3.5800    131.7775
  1968.7500      0.0000    391.2473      3.5303    123.3797
  1969.0000      0.0000    392.5644      3.5113    113.9191
  1969.2500      0.0000    393.4212      3.5067    103.1048
  1969.5000      0.0000    391.6863      3.5051     91.1628
  1969.7500      0.0000    386.2920      3.5020     79.9096
  1970.0000      0.0000    378.2844      3.4964     71.6961
  1970.2500      0.0000    370.0851      3.4867     67.8108
  1970.5000      0.0000    363.7545      3.4699     68.3471
  1970.7500      0.0000    359.9979      3.4438     72.9387
  1971.0000      0.0000    358.4987      3.4105     80.6622
  1971.2500      0.0000    358.7688      3.3759     89.3863
  1971.5000      0.0000    360.5437      3.3445     96.0641
  1971.7500      0.0000    363.4438      3.3166     98.0595
  1972.0000      0.0000    366.4391      3.2917     94.2892
  1972.2500      0.0000    368.0527      3.2728     85.5662
  1972.5000      0.0000    367.4340      3.2669     74.3071
  1972.7500      0.0000    365.1050      3.2800     63.6186
  1973.0000      0.0000    362.4124      3.3096     55.8130
  1973.2500      0.0000    360.4010      3.3428     51.3078
  1973.5000      0.0000    359.3411      3.3640     48.8571
  1973.7500      0.0000    359.0711      3.3654     46.8068
  1974.0000      0.0000    359.5306      3.3513     44.2680
  1974.2500      0.0000    361.0781      3.3336     41.5301
  1974.5000      0.0000    364.4597      3.3251     39.6689
  1974.7500      0.0000    370.3227      3.3340     39.8227
  1975.0000      0.0000    378.4356      3.3618     42.7276
  1975.2500      0.0000    387.3598      3.4040     48.5802
  1975.5000      0.0000    395.1753      3.4551     56.9339
  1975.7500      0.0000    400.7149      3.5133     66.6255
  1976.0000      0.0000    404.0730      3.5794     75.9392
  1976.2500      0.0000    406.0599      3.6468     83.0428
  1976.5000      0.0000    407.4006      3.6965     86.5854
  1976.7500      0.0000    408.3894      3.7064     86.1959
  1977.0000      0.0000    408.9985      3.6677     82.5442
  1977.2500      0.0000    409.1169      3.5896     76.9160
  1977.5000      0.0000    408.7040      3.4897     70.5979
  1977.7500      0.0000    407.7974      3.3847     64.5489
  1978.0000      0.0000    406.3904      3.2862     59.5140
  1978.2500      0.0000    404.2255      3.2007     56.0969
  1978.5000      0.0000    400.6739      3.1289     54.4713
  1978.7500      0.0000    395.0310      3.0683     54.3531
  1979.0000      0.0000    387.2542      3.0154     55.5905
  1979.2500      0.0000    378.4594      2.9656     58.4801
  1979.5000      0.0000    370.4292      2.9145     63.3187
  1979.7500      0.0000    364.4693      2.8627     69.9890
  1980.0000      0.0000    360.7950      2.8199     77.9881
  1980.2500      0.0000    358.9581      2.8009     86.3379
  1980.5000      0.0000    358.6978      2.8166     93.5285
  1980.7500      0.0000    360.3769      2.8674     98.2257
  1981.0000      0.0000    364.6432      2.9415    100.1616
  1981.2500      0.0000    371.5449      3.0188     99.9636
  1981.5000      0.0000    379.9340      3.0826     98.3628
  1981.7500      0.0000    387.9485      3.1289     96.0133
  1982.0000      0.0000    394.1884      3.1682     93.5635
  1982.2500      0.0000    398.3109      3.2165     91.1316
  1982.5000      0.0000    400.5564      3.2829     87.9821
  1982.7500      0.0000    400.9977      3.3609     83.4676
  1983.0000      0.0000    399.6838      3.4296     78.2443
  1983.2500      0.0000    397.7994      3.4675     74.1259
  1983.5000      0.0000    398.7603      3.4660     72.9786
  1983.7500      0.0000    407.1957      3.4322     76.0758
  1984.0000      0.0000    424.8693      3.3827     83.8339
  1984.2500      0.0000    446.6331      3.3381     95.1923
  1984.5000      0.0000    462.3949      3.3183    107.4491
  1984.7500      0.0000    465.5420      3.3362    117.7337
  1985.0000      0.0000    458.9520      3.3901    125.0927
  1985.2500      0.0000    451.8058      3.4653    130.7049
  1985.5000      0.0000    452.5966      3.5423    135.8127
  1985.7500      0.0000    466.3600      3.6017    140.0573
  1986.0000      0.0000    495.0867      3.6267    142.3452
  1986.2500      0.0000    536.5333      3.6076    142.6952
  1986.5000      0.0000    582.8256      3.5473    142.2662
  1986.7500      0.0000    623.5322      3.4604    141.8565
  1987.0000      0.0000    651.9897      3.3673    141.3078
  1987.2500      0.0000    668.3270      3.2907    140.2725
  1987.5000      0.0000    676.7745      3.2508    138.7867
  1987.7500      0.0000    681.0345      3.2563    137.0459
  1988.0000      0.0000    681.7554      3.2978    135.1883
  1988.2500      0.0000    676.3380      3.3529    133.5020
  1988.5000      0.0000    660.0381      3.3977    132.7004
  1988.7500      0.0000    628.6752      3.4162    133.7610
  1989.0000      0.0000    582.7520      3.4005    136.9107
  1989.2500      0.0000    529.5278      3.3530    140.4414
  1989.5000      0.0000    479.7151      3.2874    141.2503
  1989.7500      0.0000    441.3912      3.2263    137.3759
  1990.0000      0.0000    417.3273      3.1906    129.6372
  1990.2500      0.0000    407.0267      3.1900    120.1175
  1990.5000      0.0000    409.3379      3.2206    109.5776
  1990.7500      0.0000    422.7898      3.2711     97.3651
  1991.0000      0.0000    445.0651      3.3303     83.5066
  1991.2500      0.0000    473.2599      3.3909     69.7113
  1991.5000      0.0000    503.9483      3.4469     58.1556
  1991.7500      0.0000    531.6843      3.4927     49.9422
  1992.0000      0.0000    548.0875      3.5241     44.9208
  1992.2500      0.0000    545.0037      3.5396     42.7575
  1992.5000      0.0000    520.7513      3.5407     44.1658
  1992.7500      0.0000    483.4742      3.5308     50.9567
  1993.0000      0.0000    447.1973      3.5138     64.4254
  1993.2500      0.0000    423.3449      3.4913     83.3571
  1993.5000      0.0000    415.1168      3.4622    103.8825
  1993.7500      0.0000    418.6764      3.4248    121.7438
  1994.0000      0.0000    428.2025      3.3830    134.8166
  1994.2500      0.0000    439.4618      3.3499    143.3448
  1994.5000      0.0000    449.9535      3.3398    148.1944
  1994.7500      0.0000    457.5913      3.3573    149.5796
  1995.0000      0.0000    460.4704      3.3929    147.4542
  1995.2500      0.0000    457.6586      3.4303    142.5558
  1995.5000      0.0000    449.6600      3.4551    136.7182
  1995.7500      0.0000    438.3149      3.4607    131.9290
  1996.0000      0.0000    426.8238      3.4492    128.8288
  1996.2500      0.0000    419.3909      3.4266    126.2008
  1996.5000      0.0000    419.8040      3.3996    122.1979
  1996.7500      0.0000    429.3807      3.3748    116.0176
  1997.0000      0.0000    445.2816      3.3575    108.2661
  1997.2500      0.0000    460.4520      3.3475     99.9908
  1997.5000      0.0000    466.9426      3.3368     91.8223
  1997.7500      0.0000    461.6757      3.3144     84.0231
  1998.0000      0.0000    448.9543      3.2734     76.9382
  1998.2500      0.0000    436.2704      3.2154     71.0416
  1998.5000      0.0000    428.2908      3.1486     66.5937
  1998.7500      0.0000    425.1988      3.0808     63.3768
  1999.0000      0.0000    424.9770      3.0139     60.8502
  1999.2500      0.0000    425.6968      2.9462     58.5809
  1999.5000      0.0000    426.2003      2.8803     56.4140
  1999.7500      0.0000    425.8840      2.8258     54.2856
  2000.0000      0.0000    424.4753      2.7931     52.2054
  2000.2500      0.0000    422.1239      2.7854     50.4058
