~Version Information
VERS.                      2.0: CWLS Log ASCII Standard - VERSION 2.0
WRAP.                       NO: One line per depth step
~Well Information Block
STRT.FT               460.0000: 
STOP.FT              3058.5000: 
STEP.FT                 0.1000: 
NULL.                -999.2500: 
COMP.          Pioneer Natural Resources: COMPANY
WELL.            Cleaver 24-12: WELL
FLD.           Purgatoire River: FIELD
LOC.           204' FSL & 2351' FWL: LOCATION
PROV.                 Colorado: PROVINCE
CNTY.               Las Animas: COUNTRY
SRVC.                Patterson: SERVICE COMPANY
DATE.          Mon Jan 09 13:49:27 2006: LOG DATE
UWI.           05 071 08634 00: UNIQUE WELL ID
~Curve Information Block
DEPT.FT            0 000 00 00: Depth
DCAL.in                       : CDL Caliper
RHOB.g/cc                     : CDL Bulk Density
RHOC.g/cc                     : CDL Density Correction
DPOR.pu                       : CDL Density Porosity
GR.GAPI                       : Gamma Ray
NPOR.pu                       : Neutron Porosity
~Parameter Information Block
~A  Depth       DCAL        RHOB        RHOC        DPOR         GR         NPOR    
# ...
  2351.2000      7.9138      2.6233      0.0359      1.6168    151.8659     27.1193
  2351.3000      7.9133      2.6061     -0.0302      2.6622    154.4730     27.2642
  2351.4000      7.9133      2.5904     -0.0100      3.6124    151.1020     27.4912
  2351.5000      7.9165      2.5923     -0.0265      3.4947    145.6453     27.9717
  2351.6000      7.9165      2.5993     -0.0023      3.0719    141.1160     28.9582
  2351.7000      7.9165      2.5915     -0.0035      3.5443    140.4775     29.9136
  2351.8000      7.9218      2.5717     -0.0019      4.7442    147.1952     30.0765
  2351.9000      7.9218      2.5566      0.0025      5.6635    156.4036     29.4605
  2352.0000      7.9205      2.5485      0.0237      6.1508    158.7669     28.9684
  2352.1000      7.9205      2.5517     -0.0298      5.9579    152.9069     28.9425
  2352.2000      7.9205      2.5764      0.0200      4.4635    148.7774     29.0247
  2352.3000      7.9244      2.5987      0.1043      3.1064    156.0555     29.2370
  2352.4000      7.9244      2.5837      0.0603      4.0169    174.1861     29.6478
  2352.5000      7.9212      2.5421     -0.0216      6.5398    194.4231     29.3420
  2352.6000      7.9212      2.5088      0.0009      8.5553    203.3371     27.7771
  2352.7000      7.9212      2.5033     -0.0826      8.8897    193.9729     26.7630
  2352.8000      7.9245      2.5249     -0.0291      7.5808    176.9052     27.7401
  2352.9000      7.9245      2.5487      0.0825      6.1380    166.2877     29.4999
  2353.0000      7.9249      2.5570      0.0079      5.6387    164.2755     30.3972
  2353.1000      7.9249      2.5637      0.0159      5.2318    165.4925     30.1083
  2353.2000      7.9249      2.5787      0.0110      4.3215    166.9833     29.3673
  2353.3000      7.9263      2.5968      0.0168      3.2239    168.4042     29.4454
  2353.4000      7.9263      2.6105      0.0622      2.3964    168.3134     30.2531
  2353.5000      7.9239      2.6113      0.0451      2.3446    169.4262     30.3102
  2353.6000      7.9239      2.5964      0.0390      3.2461    174.9417     29.7717
  2353.7000      7.9239      2.5716     -0.0025      4.7501    181.6895     29.6103
  2353.8000      7.9207      2.5469      0.0034      6.2482    182.9186     29.3255
  2353.9000      7.9207      2.5330     -0.0839      7.0883    173.9379     28.3242
  2354.0000      7.9223      2.5372     -0.0431      6.8394    161.9886     27.3297
  2354.1000      7.9223      2.5483      0.0169      6.1643    159.6697     27.5114
  2354.2000      7.9223      2.5497     -0.0046      6.0793    164.5858     28.9311
  2354.3000      7.9269      2.5426      0.0410      6.5103    165.7582     30.4174
  2354.4000      7.9269      2.5400      0.0009      6.6668    165.4214     30.7620
  2354.5000      7.9247      2.5495      0.0059      6.0933    171.2732     29.8452
  2354.6000      7.9247      2.5611      0.0537      5.3907    180.0073     28.6725
  2354.7000      7.9247      2.5716     -0.0068      4.7525    182.6347     28.3529
  2354.8000      7.9468      2.5943      0.0727      3.3752    179.9166     28.5436
  2354.9000      7.9468      2.6226      0.1766      1.6622    178.4387     28.1306
  2355.0000      7.9543      2.6364      0.2043      0.8249    178.2065     27.2992
  2355.1000      7.9543      2.6344      0.1428      0.9475    176.7577     26.9463
  2355.2000      7.9543      2.6273      0.1849      1.3766    174.1454     27.1695
  2355.3000      8.0086      2.6207      0.1593      1.7771    171.0412     27.8008
  2355.4000      8.0086      2.6169      0.1501      2.0040    168.6601     28.8318
  2355.5000      8.0378      2.6125      0.0936      2.2704    169.0284     30.0416
  2355.6000      8.0378      2.5956      0.1362      3.2968    172.5586     31.3147
  2355.7000      8.0378      2.5640      0.0539      5.2111    177.0903     31.7521
  2355.8000      8.0656      2.5379      0.0519      6.7941    178.5081     30.6333
  2355.9000      8.0656      2.5324      0.0767      7.1274    174.5856     29.0593
  2356.0000      8.1184      2.5431      0.0606      6.4801    169.1454     28.3829
  2356.1000      8.1184      2.5673      0.0620      5.0097    168.3849     28.6062
  2356.2000      8.1184      2.5895      0.1415      3.6681    170.8764     29.0129
  2356.3000      8.0847      2.5814      0.0921      4.1576    170.5212     29.0813
  2356.4000      8.0847      2.5498      0.0905      6.0710    169.0961     28.9530
  2356.5000      8.0537      2.5214      0.0881      7.7926    176.6375     29.0786
  2356.6000      8.0537      2.5054      0.0888      8.7665    192.2727     29.2060
  2356.7000      8.0537      2.4938      0.0653      9.4658    197.8285     28.8746
  2356.8000      8.0625      2.4790      0.0147     10.3609    185.3751     28.6403
  2356.9000      8.0625      2.4675     -0.0199     11.0582    170.8852     29.1370
  2357.0000      8.0606      2.4759      0.0111     10.5541    166.8275     30.1239
  2357.1000      8.0606      2.5097      0.0336      8.5019    172.1778     31.2064
  2357.2000      8.0606      2.5518      0.0984      5.9512    182.2833     32.0386
  2357.3000      8.0549      2.5845      0.0355      3.9719    188.3622     32.1519
  2357.4000      8.0549      2.6141      0.0143      2.1782    185.9122     31.3198
  2357.5000      8.1284      2.6375      0.1488      0.7568    178.6090     30.0041
  2357.6000      8.1284      2.6342      0.1013      0.9598    167.8465     29.0051
  2357.7000      8.1284      2.6045      0.0801      2.7550    157.8892     28.7410
  2357.8000      8.0502      2.5674      0.0188      5.0044    158.5133     29.0401
  2357.9000      8.0502      2.5406     -0.0374      6.6320    169.5299     29.0788
  2358.0000      7.9410      2.5279      0.0203      7.3986    181.0771     28.6281
  2358.1000      7.9410      2.5271     -0.0380      7.4482    186.0716     28.3782
  2358.2000      7.9410      2.5357      0.0110      6.9298    185.4881     28.4301
  2358.3000      7.9263      2.5401      0.0429      6.6597    181.8553     28.6472
  2358.4000      7.9263      2.5358      0.0287      6.9188    172.3775     29.0909
  2358.5000      7.9368      2.5324      0.0920      7.1249    158.5659     29.1110
  2358.6000      7.9368      2.5310      0.0365      7.2139    153.5178     28.4932
  2358.7000      7.9368      2.5319      0.0426      7.1547    162.3295     28.5220
  2358.8000      7.9450      2.5411      0.0176      6.6004    172.7153     29.5979
  2358.9000      7.9450      2.5527      0.0483      5.8962    179.3057     30.5526
  2359.0000      7.9592      2.5463      0.0608      6.2878    185.9807     30.8375
  2359.1000      7.9592      2.5184      0.0052      7.9741    189.1109     30.3109
  2359.2000      7.9592      2.4948     -0.0406      9.4035    184.0509     29.1809
  2359.3000      8.0074      2.4936     -0.0122      9.4810    175.5708     28.2172
  2359.4000      8.0074      2.5022      0.0368      8.9554    170.2783     27.9432
  2359.5000      8.0274      2.5031      0.0043      8.9014    171.5634     28.4166
  2359.6000      8.0274      2.4971      0.0179      9.2680    176.8325     29.1254
  2359.7000      8.0274      2.5006     -0.0956      9.0561    180.2238     29.3186
  2359.8000      7.9599      2.5231      0.0084      7.6910    180.5395     28.9679
  2359.9000      7.9599      2.5457      0.0406      6.3216    178.3262     28.8875
  2360.0000      7.9546      2.5504      0.0567      6.0354    174.3582     29.4699
  2360.1000      7.9546      2.5432      0.0194      6.4713    172.3427     29.8076
  2360.2000      7.9546      2.5381      0.0076      6.7846    171.9485     28.9368
  2360.3000      7.9355      2.5374      0.0292      6.8221    171.5253     27.6792
  2360.4000      7.9355      2.5352      0.0456      6.9547    177.1764     27.5264
  2360.5000      7.9247      2.5330      0.0406      7.0939    191.1576     28.7344
  2360.6000      7.9247      2.5311      0.0684      7.2052    199.6721     30.5103
  2360.7000      7.9247      2.5234      0.0312      7.6755    190.8757     31.5658
