~Version Information
VERS.                      2.0: CWLS Log ASCII Standard - VERSION 2.0
WRAP.                       NO: One line per depth step
~Well Information Block
STRT.FT               310.0000: 
STOP.FT               815.0000: 
STEP.FT                 0.2500: 
NULL.                -999.2500: 
COMP.          Pioneer Natural Resources: COMPANY
WELL.           Weissach 32-32: WELL
FLD.           Purgatorie River: FIELD
LOC.           2193' FNL & 2256' FEL: LOCATION
STAT.                 Colorado: State
CNTY.               Las Animas: COUNTY
CTRY. USA : Country
SECT. 32 : Section
TOWN. 33S : Township
RANG. 65W : Range
SRVC.                Patterson: SERVICE COMPANY
DATE.          Mon Sep 26 09:20:51 2005: LOG DATE
API. 05-071-08523                         : UNIQUE WELL ID
~Curve Information Block
DEPT.FT            0 000 00 00: Depth
SN.Ohm-m                      : IEL Short Normal
SP.mV                         : IEL Spontaneous Potential
DIR.Ohm-m                     : IEL Induction Resistivity
GR.GAPI                       : Gamma Ray
~Parameter Information Block
~A  Depth        SN          SP         DIR          GR     
# ...
   578.0000     29.7751    162.5739     21.5370     82.0366
   578.2500     32.6733    162.4027     22.9949     78.0522
   578.5000     33.7674    162.6490     21.1778     55.4310
   578.7500     33.0926    163.0904     21.1313     49.1324
   579.0000     32.0977    163.7431     22.1764     23.9717
   579.2500     30.8445    164.2976     22.8124     25.2427
   579.5000     30.0488    164.5260     23.1730     35.1975
   579.7500     29.2925    163.6612     24.9510     38.3153
   580.0000     29.3271    163.4502     29.3810     47.1877
   580.2500     28.9717    163.7677     23.7359     59.4407
   580.5000     29.1990    162.8910     23.8952     66.6250
   580.7500     30.0986    162.4611     23.7544     67.2462
   581.0000     30.6790    162.0882     22.8031     67.4235
   581.2500     32.1393    161.6575     25.3583     70.8207
   581.5000     32.2493    161.3497     33.4325     64.5794
   581.7500     33.6368    161.4283     24.4361     58.3215
   582.0000     33.6230    161.7420     24.2106     67.7379
   582.2500     34.1823    161.4472     23.5989     62.1447
   582.5000     35.5532    161.7712     24.6638     59.3524
   582.7500     35.8231    162.8408     25.4893     60.5007
   583.0000     35.5264    162.8008     28.2742     49.9696
   583.2500     36.2754    163.0391     28.1422     55.3953
   583.5000     36.6085    164.1283     35.0813     37.5592
   583.7500     35.6109    164.6734     42.3915     45.8817
   584.0000     35.2542    165.7700     27.9997     38.9014
   584.2500     34.8386    165.8112     25.9969     49.5915
   584.5000     34.5544    165.7913     27.0725     72.7210
   584.7500     33.9940    165.6722     29.0000     66.1894
   585.0000     33.4854    165.6234     42.2718     68.6811
   585.2500     32.8335    165.6723     27.2389     48.6933
   585.5000     32.1625    165.8236     29.0492     41.5352
   585.7500     31.0210    165.9708     24.7174     45.1379
   586.0000     29.8026    165.2371     24.5374     45.9948
   586.2500     28.7146    164.8427     21.2775     57.1280
   586.5000     25.8095    164.5113     21.8623     54.0831
   586.7500     23.2506    164.2797     27.4050     50.0221
   587.0000     21.0337    164.2951     18.4362     59.2619
   587.2500     18.7960    164.2775     16.6359     46.2035
   587.5000     17.4003    164.4053     15.9548     43.7655
   587.7500     17.2619    164.6317     15.5350     42.6107
   588.0000     15.6592    164.7762     14.9282     65.4356
   588.2500     15.0080    165.1417     14.5287     54.5500
   588.5000     14.6416    165.6864     14.3489     75.2016
   588.7500     14.1341    166.3384     13.5832     87.7112
   589.0000     13.8014    166.4447     13.2334     78.9461
   589.2500     13.6972    167.0610     12.9043     99.4964
   589.5000     13.4795    166.1686     13.6271    108.7868
   589.7500     13.8285    165.3004     13.2306    112.8032
   590.0000     14.4645    164.5904     12.1800     78.7142
   590.2500     13.6245    164.0049     11.7470     81.9287
   590.5000     13.3761    164.0710     11.6458     83.9447
   590.7500     13.1967    164.1525     11.7709     92.3209
   591.0000     13.3338    163.8906     11.8436     99.6102
   591.2500     14.2993    163.4395     12.4537    102.7763
   591.5000     13.8025    162.7271     14.0031     97.8519
   591.7500     14.0786    162.7284     12.7788    102.0824
   592.0000     13.2963    162.1872     11.5725     98.5153
   592.2500     13.1566    162.2476     11.7045    102.7141
   592.5000     12.4547    162.5925     11.8220     88.2714
   592.7500     12.1051    162.2648     11.9931     97.6497
   593.0000     12.1246    162.1497     11.5705    105.3003
   593.2500     11.1069    161.9105     11.3539     73.1847
   593.5000     11.1056    161.4848     11.5673     73.9798
   593.7500     11.4806    160.6520     11.6706     64.1749
   594.0000     12.0040    159.6593     11.7999     79.5254
   594.2500     12.4289    158.7661     11.6616     93.4014
   594.5000     12.7226    157.9151     12.1851     82.5972
   594.7500     13.0027    157.2124     12.4762     75.2496
   595.0000     13.2949    156.7352     13.0867     80.4350
   595.2500     13.5444    156.5552     15.7489     95.8268
   595.5000     13.7377    156.0215     14.8177     92.7349
   595.7500     14.3108    155.8264     21.1466     90.9118
   596.0000     15.7095    155.7829     16.8154    100.6811
   596.2500     14.7760    155.6582     14.5019     92.1683
   596.5000     15.0730    155.7122     14.9584     87.4273
   596.7500     15.5760    156.2689     18.4451     75.8176
   597.0000     15.9941    157.1973     22.1953     68.1744
   597.2500     16.2508    158.1847     15.9996     76.8389
   597.5000     16.4930    159.5015     16.1853     82.2684
   597.7500     17.4805    160.4172     15.3833     89.7000
   598.0000     16.7472    161.6434     15.5348     83.7857
   598.2500     16.3132    162.7521     19.3909     80.1146
   598.5000     16.0964    163.3314     18.4643     71.4222
   598.7500     15.6935    163.5943     16.2747     69.7738
   599.0000     14.9565    163.8795     14.1815     78.8529
   599.2500     14.1203    164.1502     14.2531     73.7858
   599.5000     13.3468    164.2396     17.2240     97.1456
   599.7500     12.6388    164.1698     18.6257     99.9275
   600.0000     12.1399    164.0495     12.7020     92.2510
   600.2500     11.9621    163.8150     11.6902     88.9239
   600.5000     12.0573    163.4549     11.9685    102.3025
   600.7500     12.2825    163.1242     13.4559    100.1299
   601.0000     12.2604    162.9142     11.1765     75.7643
   601.2500     12.1486    162.2556     10.9049     71.4466
   601.5000     12.2458    162.0098     10.9807     88.0295
   601.7500     11.7411    161.3947     11.3283    100.3190
   602.0000     12.3170    160.3264     11.2324    112.9810
   602.2500     11.4007    160.0198     10.3489    115.2365
   602.5000     10.6393    160.4431     10.3011    107.1351
   602.7500     10.3705    159.1871     10.2943    110.0195
   603.0000     10.5849    158.0809     10.1432     94.2202
   603.2500     10.6044    157.4548     10.4742    111.5934
   603.5000     10.0688    156.2556     11.7923     83.3173
   603.7500     10.3679    155.8173     10.5710     82.2310
   604.0000     10.9665    156.0807     10.8387     94.8193
   604.2500     12.0767    155.2404     13.4581     97.0894
   604.5000     13.4556    154.5253     14.4670     87.4772
   604.7500     13.2277    153.8890     11.9748     93.6290
   605.0000     13.0953    153.8180     13.4090    101.1282
   605.2500     14.2617    154.2045     12.3902     87.6225
   605.5000     13.2342    153.7018     12.9478     91.6484
   605.7500     13.7726    153.0867     13.2856    101.9984
   606.0000     14.7445    153.1328     13.7620     91.8721
   606.2500     14.7735    153.7435     14.2645     92.0833
   606.5000     15.8903    154.8088     15.2232     81.1449
   606.7500     17.1413    155.1752     15.6294     85.4375
   607.0000     18.9343    155.8047     16.0969     96.7330
   607.2500     20.5449    156.6435     17.1716     90.0487
   607.5000     22.7905    157.5813     18.5870     88.3395
   607.7500     25.2948    157.6302     20.0878     82.3826
   608.0000     27.6927    157.4089     26.6270     58.5911
   608.2500     30.4605    157.3706     23.3420     53.5258
   608.5000     30.8024    157.6064     32.4775     49.4570
   608.7500     31.4126    157.8625     24.6045     38.7904
   609.0000     31.5551    157.9884     25.4182     31.4316
   609.2500     31.1102    158.2945     31.0667     44.3112
   609.5000     30.7393    157.9912     26.0859     36.9569
   609.7500     30.5232    158.5580     25.8010     32.5609
   610.0000     29.8032    159.7786     26.7936     41.1331
   610.2500     29.4684    159.2070     40.0307     50.5752
   610.5000     29.5957    159.6246     47.2082     62.5066
   610.7500     29.2988    160.6944     35.2509     57.7995
   611.0000     27.9906    161.2900     29.4915     65.6324
   611.2500     27.5273    162.3307     23.6979     66.4541
