~Version Information
VERS.                      2.0: CWLS Log ASCII Standard - VERSION 2.0
WRAP.                       NO: One line per depth step
~Well Information Block
STRT.FT                -7.0000: 
STOP.FT              1239.2500: 
STEP.FT                 0.2500: 
NULL.                -999.2500: 
COMP.          Pioneer Natural Resources: COMPANY
WELL.              Julie 11-30: WELL
FLD.           Purgatorie River: FIELD
LOC.           672' FNL & 1052' FWL--: LOCATION
CNTY.               Las Animas: COUNTY
SRVC.          Patterson Wireline: SERVICE COMPANY
DATE.          Tue Apr 18 11:12:35 2006: LOG DATE
UWI.           05 071 08724 00: UNIQUE WELL ID
STAT.                       CO: STATE
~Curve Information Block
DEPT.FT            0 000 00 00: Depth
CCL.                          : Casing Collar Locator
TT3.usec                      : CBL 3' Travel Time
AMP3.mV                       : CBL 3' Amplitude
GR.GAPI                       : Gamma Ray
~Parameter Information Block
~A  Depth       CCL         TT3         AMP3         GR     
# ...
   462.0000      0.0000    338.6036     15.8137     99.5472
   462.2500      0.0000    337.8437     16.2755     94.8217
   462.5000      0.0000    336.5183     16.7747     89.2597
   462.7500      0.0000    334.0876     17.2974     84.9106
   463.0000      0.0000    330.3094     17.7886     82.8818
   463.2500      0.0000    325.9576     18.1760     82.8138
   463.5000      0.0000    322.8886     18.4124     83.7911
   463.7500      0.0000    322.7933     18.4981     85.3485
   464.0000      0.0000    325.6630     18.4733     87.3821
   464.2500      0.0000    329.7809     18.3984     89.4062
   464.5000      0.0000    333.2557     18.3348     90.4881
   464.7500      0.0000    335.2924     18.3288     90.2705
   465.0000      0.0000    336.1419     18.3983     89.8294
   465.2500      0.0000    336.3767     18.5243     91.0334
   465.5000      0.0000    336.4062     18.6548     95.0274
   465.7500      0.0000    336.4063     18.7290    101.5522
   466.0000      0.0000    336.4115     18.7138    109.4984
   466.2500      0.0000    336.4052     18.6273    117.6712
   466.5000      0.0000    336.3687     18.5266    125.1385
   466.7500      0.0000    336.3014     18.4691    131.1834
   467.0000      0.0000    336.2212     18.4808    135.1018
   467.2500      0.0000    336.1501     18.5540    136.1376
   467.5000      0.0000    336.0998     18.6630    133.8453
   467.7500      0.0000    336.0634     18.7769    128.7993
   468.0000      0.0000    335.9857     18.8699    122.9515
   468.2500      0.0000    335.6818     18.9342    118.7767
   468.5000      0.0000    334.7099     18.9889    117.5181
   468.7500      0.0000    332.3428     19.0693    118.1878
   469.0000      0.0000    327.9002     19.2015    118.4948
   469.2500      0.0000    321.4348     19.3813    116.8320
   469.5000      0.0000    314.1630     19.5722    113.5021
   469.7500      0.0000    308.0029     19.7179    110.2753
   470.0000      0.0000    304.5898     19.7607    108.8384
   470.2500      0.0000    304.7378     19.6642    109.6180
   470.5000      0.0000    308.4738     19.4291    111.9486
   470.7500      0.0000    315.0120     19.0936    114.8416
   471.0000      0.0000    322.6909     18.7152    117.2106
   471.2500      0.0000    329.5332     18.3480    117.7397
   471.5000      0.0000    334.2830     18.0223    115.3746
   471.7500      0.0000    336.9006     17.7320    110.3594
   472.0000      0.0000    338.1138     17.4432    104.4853
   472.2500      0.0000    338.6826     17.1266     99.7277
   472.5000      0.0000    339.0337     16.7899     96.5448
   472.7500      0.0000    339.2990     16.4774     93.9433
   473.0000      0.0000    339.4777     16.2386     91.3611
   473.2500      0.0000    339.5480     16.0960     89.9823
   473.5000      0.0000    339.5131     16.0346     91.8733
   473.7500      0.0000    339.4106     16.0127     98.0742
   474.0000      0.0000    339.3004     15.9838    107.7131
   474.2500      0.0000    339.2264     15.9222    118.6532
   474.5000      0.0000    339.1863     15.8385    128.5808
   474.7500      0.0000    339.1425     15.7723    135.5588
   475.0000      0.0000    339.0626     15.7653    138.4812
   475.2500      0.0000    338.9482     15.8356    137.8226
   475.5000      0.0000    338.8306     15.9718    135.5146
   475.7500      0.0000    338.7490     16.1396    133.2434
   476.0000      0.0000    338.7346     16.2906    130.9759
   476.2500      0.0000    338.8069     16.3759    127.6068
   476.5000      0.0000    338.9697     16.3677    122.8682
   476.7500      0.0000    339.2381     16.2718    118.0992
   477.0000      0.0000    339.7224     16.1184    114.9919
   477.2500      0.0000    341.0573     15.9423    113.8160
   477.5000      0.0000    345.4798     15.7697    113.2484
   477.7500      0.0000    358.5104     15.6100    111.9788
   478.0000      0.0000    389.3920     15.4475    109.8481
   478.2500      0.0000    446.8723     15.2442    107.1137
   478.5000      0.0000    530.4149     14.9672    103.5048
   478.7500      0.0000    625.0851     14.6223     98.9990
   479.0000      0.0000    708.7113     14.2590     95.0961
   479.2500      0.0000    766.3023     13.9429     94.0667
   479.5000      0.0000    797.1662     13.7158     96.5624
   479.7500      0.0000    809.5256     13.5755    100.5871
   480.0000      0.0000    810.9814     13.4885    103.2422
   480.2500      0.0000    803.0923     13.4255    103.0838
   480.5000      0.0000    781.3911     13.3889    100.4830
   480.7500      0.0000    739.7371     13.4098     96.3810
   481.0000      0.0000    677.0715     13.5224     91.6118
   481.2500      0.0000    601.2684     13.7470     87.1585
   481.5000      0.0000    525.3856     14.0867     84.0310
   481.7500      0.0000    460.1058     14.5320     82.5459
   482.0000      0.0000    410.1536     15.0635     82.1014
   482.2500      0.0000    375.6894     15.6553     81.8265
   482.5000      0.0000    354.1284     16.2846     81.1756
   482.7500      0.0000    340.9939     16.9479     79.9945
   483.0000      0.0000    331.4587     17.6699     78.5504
   483.2500      0.0000    322.4530     18.4824     77.4696
   483.5000      0.0000    313.5637     19.3796     77.0720
   483.7500      0.0000    306.0065     20.2915     76.8687
   484.0000      0.0000    300.8549     21.1081     76.2823
   484.2500      0.0000    298.0977     21.7409     75.7140
   484.5000      0.0000    296.9572     22.1699     76.3257
   484.7500      0.0000    296.6176     22.4405     78.8031
   485.0000      0.0000    296.5758     22.6246     82.7725
   485.2500      0.0000    296.6050     22.7934     87.3327
   485.5000      0.0000    296.6192     23.0158     91.6223
   485.7500      0.0000    296.5920     23.3517     94.7174
   486.0000      0.0000    296.5250     23.8289     95.6337
   486.2500      0.0000    296.4348     24.4304     94.2055
   486.5000      0.0000    296.3371     25.1109     91.6831
   486.7500      0.0000    296.2388     25.8260     89.6274
   487.0000      0.0000    296.1422     26.5517     88.2883
   487.2500      0.0000    296.0529     27.2874     86.7713
   487.5000      0.0000    295.9815     28.0378     84.6793
   487.7500      0.0000    295.9358     28.7863     82.8587
   488.0000      0.0000    295.9166     29.4864     82.3558
   488.2500      0.0000    295.9195     30.0784     83.0118
   488.5000      0.0000    295.9360     30.5148     83.3345
   488.7500      0.0000    295.9545     30.7813     81.8608
   489.0000      0.0000    295.9615     30.9104     78.7121
   489.2500      0.0000    295.9552     30.9778     75.5756
   489.5000      0.0000    295.9711     31.0603     73.8910
   489.7500      0.0000    296.1841     31.1617     73.3286
   490.0000      0.0000    297.1110     31.1426     72.4916
   490.2500      0.0000    299.8026     30.7259     70.8735
   490.5000      0.0000    305.5404     29.6303     69.5609
   490.7500      0.0000    314.5506     27.7751     69.9986
   491.0000      0.0000    324.5425     25.3864     72.4172
   491.2500      0.0000    331.3471     22.8972     75.5816
   491.5000      0.0000    332.3602     20.7224     77.8786
   491.7500      0.0000    329.4146     19.0662     78.4302
   492.0000      0.0000    327.6377     17.8685     77.2284
   492.2500      0.0000    332.0564     16.9108     74.8581
   492.5000     -2.0000    346.6518     15.9881     72.5964
   492.7500      2.0000    376.3398     15.0187     72.1185
   493.0000      0.0000    426.8081     14.0628     74.1232
   493.2500      0.0000    498.9580     13.2784     77.3543
   493.5000      0.0000    583.1231     12.8121     79.6233
   493.7500      0.0000    661.8242     12.6733     79.8601
   494.0000      0.0000    720.7857     12.7165     78.8381
   494.2500      0.0000    757.5682     12.7630     78.0114
   494.5000      0.0000    779.7066     12.7185     78.1672
   494.7500      0.0000    795.8098     12.5820     79.1434
   495.0000      0.0000    809.1490     12.3947     80.1465
   495.2500      0.0000    818.5058     12.2029     80.0540
