~Version Information
VERS.                      2.0: CWLS Log ASCII Standard - VERSION 2.0
WRAP.                       NO: One line per depth step
~Well Information Block
STRT.FT                -7.5000: 
STOP.FT              1572.0000: 
STEP.FT                 0.2500: 
NULL.                -999.2500: 
COMP.          Pioneer Natural Resources: COMPANY
WELL.          Galloway 32-13 Tr: WELL
FLD.           Purgatoire River: FIELD
LOC.           --1910' FNL & 2002' FEL----: LOCATION
PROV.                       CO: PROVINCE
CNTY.               Las Animas: COUNTRY
SRVC.          Patterson Wireline: SERVICE COMPANY
DATE.          Thu Nov 17 12:46:45 2005: LOG DATE
UWI.           05 071 08608 00: UNIQUE WELL ID
~Curve Information Block
DEPT.FT            0 000 00 00: Depth
CCL.                          : Casing Collar Locator
TT3.usec                      : CBL 3' Travel Time
AMP3.mV                       : CBL 3' Amplitude
GR.GAPI                       : Gamma Ray
~Parameter Information Block
~A  Depth       CCL         TT3         AMP3         GR     
# ...
  1433.0000      0.0000    323.3197     22.0830     70.3609
  1433.2500      0.0000    323.4778     21.7408     71.6785
  1433.5000      0.0000    323.8756     21.3672     76.9494
  1433.7500      0.0000    325.1800     20.9533     86.4644
  1434.0000      0.0000    329.5785     20.4716     99.8071
  1434.2500      0.0000    342.4040     19.9123    115.4661
  1434.5000      0.0000    372.6407     19.3045    130.8843
  1434.7500      0.0000    429.0497     18.7045    143.3267
  1435.0000      0.0000    511.7975     18.1695    151.1765
  1435.2500      0.0000    607.1000     17.7405    154.7649
  1435.5000      0.0000    693.1282     17.4342    156.0341
  1435.7500      0.0000    753.1307     17.2432    156.8766
  1436.0000      0.0000    782.8965     17.1508    157.3332
  1436.2500      0.0000    787.2635     17.1470    155.8096
  1436.5000      0.0000    772.6583     17.2231    151.4893
  1436.7500      0.0000    743.4669     17.3543    145.9280
  1437.0000      0.0000    703.2509     17.4972    141.5879
  1437.2500      0.0000    657.9971     17.6087    139.3046
  1437.5000      0.0000    618.9005     17.6647    137.8564
  1437.7500      0.0000    601.4580     17.6606    135.5428
  1438.0000      0.0000    617.1197     17.6027    131.5973
  1438.2500      0.0000    662.4760     17.5024    126.4823
  1438.5000      0.0000    719.3066     17.3680    121.3897
  1438.7500      0.0000    767.9146     17.1972    117.2586
  1439.0000      0.0000    799.2576     16.9819    114.1134
  1439.2500      0.0000    815.2416     16.7236    111.7369
  1439.5000      0.0000    821.9138     16.4400    110.7408
  1439.7500      0.0000    824.2400     16.1523    111.9105
  1440.0000      0.0000    824.8906     15.8681    114.5245
  1440.2500      0.0000    824.8821     15.5790    116.5488
  1440.5000      0.0000    824.3844     15.2781    116.8378
  1440.7500      0.0000    823.1811     14.9818    116.2719
  1441.0000      0.0000    821.0412     14.7287    116.3427
  1441.2500      0.0000    818.3223     14.5519    117.3087
  1441.5000      0.0000    816.5314     14.4532    118.1383
  1441.7500      0.0000    818.1486     14.4083    117.7035
  1442.0000      0.0000    825.2256     14.3955    115.5368
  1442.2500      0.0000    837.5593     14.4137    111.8039
  1442.5000      0.0000    852.3306     14.4736    107.0817
  1442.7500      0.0000    866.2555     14.5756    102.1765
  1443.0000      0.0000    877.9999     14.7052     97.8342
  1443.2500      0.0000    887.2232     14.8517     94.5608
  1443.5000      0.0000    891.6981     15.0245     92.8317
  1443.7500      0.0000    888.4651     15.2391     93.1913
  1444.0000      0.0000    878.5536     15.4891     95.7542
  1444.2500      0.0000    867.3642     15.7405     99.7408
  1444.5000      0.0000    858.9948     15.9547    103.8024
  1444.7500      0.0000    852.5952     16.1123    106.7567
  1445.0000      0.0000    845.3582     16.2129    108.0591
  1445.2500      0.0000    836.7462     16.2627    107.9670
  1445.5000      0.0000    828.2494     16.2691    107.5345
  1445.7500      0.0000    820.5800     16.2425    108.1459
  1446.0000      0.0000    812.8073     16.1910    110.3724
  1446.2500      0.0000    803.9913     16.1114    113.0928
  1446.5000      0.0000    794.6885     15.9885    114.1342
  1446.7500      0.0000    786.5891     15.8081    112.0959
  1447.0000      0.0000    781.0151     15.5745    107.2997
  1447.2500      0.0000    778.0973     15.3176    100.9315
  1447.5000      0.0000    777.2460     15.0794     93.9702
  1447.7500      0.0000    778.1203     14.8918     87.3797
  1448.0000      0.0000    781.0630     14.7656     82.5933
  1448.2500      0.0000    786.6640     14.6940     80.8173
  1448.5000      0.0000    794.7870     14.6562     81.7461
  1448.7500      0.0000    804.0093     14.6206     83.4805
  1449.0000      0.0000    812.2536     14.5532     84.0261
  1449.2500      0.0000    818.0982     14.4308     82.6947
  1449.5000      0.0000    821.4175     14.2487     79.9755
  1449.7500      0.0000    822.9288     14.0191     76.6061
  1450.0000      0.0000    823.4215     13.7659     73.3483
  1450.2500      0.0000    823.3532     13.5210     71.2432
  1450.5000      0.0000    822.7779     13.3199     71.1809
  1450.7500      0.0000    821.3276     13.1874     73.0643
  1451.0000      0.0000    818.2545     13.1227     75.8292
  1451.2500      0.0000    812.8334     13.0972     78.4282
  1451.5000      0.0000    805.1498     13.0727     80.5591
  1451.7500      0.0000    796.5588     13.0252     82.3337
  1452.0000      0.0000    789.0416     12.9561     83.4740
  1452.2500      0.0000    783.9097     12.8857     83.1733
  1452.5000      0.0000    781.1659     12.8354     80.9092
  1452.7500      0.0000    779.9794     12.8142     77.2371
  1453.0000      0.0000    779.5060     12.8229     73.4597
  1453.2500      0.0000    779.2967     12.8657     70.5198
  1453.5000      0.0000    779.2922     12.9502     68.5601
  1453.7500      0.0000    779.7379     13.0761     67.5482
  1454.0000      0.0000    781.1853     13.2364     67.8689
  1454.2500      0.0000    784.4281     13.4298     70.1680
  1454.5000      0.0000    790.0593     13.6677     74.8119
  1454.7500      0.0000    797.6814     13.9695     81.3366
  1455.0000      0.0000    805.5121     14.3530     88.1444
  1455.2500      0.0000    811.1522     14.8242     93.1213
  1455.5000      0.0000    813.0941     15.3735     95.1146
  1455.7500      0.0000    811.1323     15.9829     94.7117
  1456.0000      0.0000    804.4304     16.6375     93.3405
  1456.2500      0.0000    788.3636     17.3227     91.7840
  1456.5000      0.0000    753.8737     18.0144     89.6883
  1456.7500      0.0000    692.7286     18.6853     86.3244
  1457.0000      0.0000    606.6420     19.3258     81.6402
  1457.2500      0.0000    511.4028     19.9447     76.4807
  1457.5000      0.0000    429.3322     20.5359     71.8266
  1457.7500      0.0000    376.4344     21.0417     68.0197
  1458.0000      0.0000    357.8141     21.3381     64.8573
  1458.2500      0.0000    373.9081     21.2460     62.2686
  1458.5000      0.0000    425.9366     20.5803     60.6107
  1458.7500      0.0000    511.9900     19.2631     60.3294
  1459.0000      0.0000    619.9269     17.4610     61.7418
  1459.2500      0.0000    728.6040     15.5966     65.4008
  1459.5000      0.0000    817.5906     14.1408     72.1775
  1459.7500      0.0000    875.7881     13.3257     82.4690
  1460.0000      0.0000    903.4882     13.0454     95.4677
  1460.2500      0.0000    908.7324     13.0091    109.5747
  1460.5000      0.0000    899.9828     12.9575    123.5187
  1460.7500      2.0000    880.4555     12.7764    136.8693
  1461.0000      0.0000    849.2659     12.5283    149.4503
  1461.2500      0.0000    806.4282     12.4546    160.4724
  1461.5000      0.0000    756.6464     12.8571    168.2908
  1461.7500      0.0000    711.2640     13.8261    171.1076
  1462.0000      0.0000    685.1626     15.0683    168.4575
  1462.2500      0.0000    686.1764     16.1033    162.3313
  1462.5000      0.0000    707.3932     16.6415    156.3614
  1462.7500      0.0000    733.4877     16.7165    153.3296
  1463.0000      0.0000    753.5490     16.5133    153.4638
  1463.2500      0.0000    765.6820     16.1863    155.1453
  1463.5000      0.0000    772.4193     15.8251    156.7808
  1463.7500      0.0000    775.8754     15.4862    157.6444
  1464.0000      0.0000    776.4409     15.2022    157.4505
  1464.2500      0.0000    773.1478     14.9789    156.1684
  1464.5000      0.0000    764.1750     14.8079    154.4188
  1464.7500      0.0000    748.3724     14.6834    153.1921
  1465.0000      0.0000    728.0605     14.6092    152.7021
  1465.2500      0.0000    710.6825     14.5859    151.7849
  1465.5000      0.0000    705.4150     14.5988    148.6473
  1465.7500      0.0000    715.7582     14.6242    142.3475
  1466.0000      0.0000    735.8494     14.6502    133.7786
  1466.2500      0.0000    755.3026     14.6901    125.2285
