~Version Information
VERS.                      2.0: CWLS Log ASCII Standard - VERSION 2.0
WRAP.                       NO: One line per depth step
~Well Information Block
STRT.FT                -6.5000: 
STOP.FT              1636.7500: 
STEP.FT                 0.2500: 
NULL.                -999.2500: 
COMP.          Pioneer Natural Resources: COMPANY
WELL.          Stock Canyon 34-33: WELL
FLD.           Purgatorie River: FIELD
LOC.           980' FSL & 2191' FEL--: LOCATION
PROV.                       CO: PROVINCE
CNTY.               Las Animas: COUNTRY
SRVC.          Patterson Wireline: SERVICE COMPANY
DATE.          Mon Dec 12 09:29:49 2005: LOG DATE
UWI.           05 071 08601 00: UNIQUE WELL ID
~Curve Information Block
DEPT.FT            0 000 00 00: Depth
CCL.                          : Casing Collar Locator
TT3.usec                      : CBL 3' Travel Time
AMP3.mV                       : CBL 3' Amplitude
GR.GAPI                       : Gamma Ray
~Parameter Information Block
~A  Depth       CCL         TT3         AMP3         GR     
# ...
   864.5000      0.0000    270.7337     72.6024    154.5667
   864.7500      0.0000    263.4021     76.5879    162.3248
   865.0000      0.0000    257.8121     79.4048    170.0123
   865.2500      0.0000    254.3257     81.0437    174.7818
   865.5000      0.0000    252.5437     81.8852    174.9986
   865.7500      0.0000    251.8019     82.2777    171.6475
   866.0000      0.0000    251.5483     82.4377    167.1235
   866.2500      0.0000    251.4671     82.4882    163.0975
   866.5000      0.0000    251.4308     82.4939    160.0000
   866.7500      0.0000    251.4069     82.4864    157.9814
   867.0000      0.0000    251.3988     82.4780    157.1709
   867.2500      0.0000    251.4075     82.4737    157.1590
   867.5000      0.0000    251.4240     82.4758    157.3557
   867.7500      0.0000    251.4343     82.4834    157.7818
   868.0000      0.0000    251.4313     82.4915    158.7545
   868.2500      0.0000    251.4223     82.4904    159.9623
   868.5000      0.0000    251.4222     82.4720    160.4463
   868.7500      0.0000    251.4406     82.4378    159.5394
   869.0000      0.0000    251.4730     82.4006    157.5754
   869.2500      0.0000    251.5070     82.3734    155.5242
   869.5000      0.0000    251.5328     82.3587    154.2350
   869.7500      0.0000    251.5486     82.3486    154.3942
   870.0000      0.0000    251.5579     82.3354    156.6265
   870.2500      0.0000    251.5648     82.3189    160.7140
   870.5000      0.0000    251.5717     82.3028    165.1899
   870.7500      0.0000    251.5814     82.2899    168.6047
   871.0000      0.0000    251.5960     82.2808    170.8680
   871.2500      0.0000    251.6130     82.2774    172.7445
   871.5000      0.0000    251.6256     82.2832    174.4943
   871.7500      0.0000    251.6279     82.3004    175.5600
   872.0000      0.0000    251.6193     82.3284    175.3109
   872.2500      0.0000    251.6040     82.3633    173.7299
   872.5000      0.0000    251.5909     82.3979    171.5849
   872.7500      0.0000    251.5917     82.4220    170.1473
   873.0000      0.0000    251.6135     82.4274    170.3917
   873.2500      0.0000    251.6526     82.4131    172.0792
   873.5000      0.0000    251.6964     82.3854    173.7741
   873.7500      0.0000    251.7325     82.3555    174.1207
   874.0000      0.0000    251.7530     82.3365    173.0773
   874.2500      0.0000    251.7552     82.3363    171.7066
   874.5000      0.0000    251.7403     82.3495    170.8474
   874.7500      0.0000    251.7135     82.3601    170.2749
   875.0000      0.0000    251.6837     82.3557    169.2156
   875.2500      0.0000    251.6611     82.3387    167.2699
   875.5000      0.0000    251.6514     82.3238    164.6047
   875.7500      0.0000    251.6524     82.3242    161.5745
   876.0000      0.0000    251.6570     82.3421    158.4031
   876.2500      0.0000    251.6607     82.3697    155.0697
   876.5000      0.0000    251.6670     82.3956    151.5401
   876.7500      0.0000    251.6867     82.4106    148.1732
   877.0000      0.0000    251.7556     82.4101    145.6119
   877.2500      0.0000    251.9753     82.3948    144.0691
   877.5000      0.0000    252.5744     82.3701    142.7734
   877.7500      0.0000    253.9005     82.3434    140.3140
   878.0000      0.0000    256.2440     82.3208    135.8311
   878.2500      0.0000    259.5929     82.3052    130.1289
   878.5000      0.0000    263.5813     82.2955    125.4851
   878.7500      0.0000    267.6545     82.2886    123.9846
   879.0000      0.0000    271.1596     82.2841    125.8289
   879.2500      0.0000    273.3910     82.2843    129.3659
   879.5000      0.0000    273.9499     82.2891    132.7327
   879.7500      0.0000    273.1603     82.2938    135.1343
   880.0000      0.0000    271.8535     82.2936    136.5488
   880.2500      0.0000    270.6410     82.2885    136.9198
   880.5000      0.0000    269.6531     82.2808    136.1647
   880.7500      0.0000    269.0169     82.2714    134.6679
   881.0000      0.0000    269.1856     82.2593    133.3747
   881.2500      0.0000    270.5525     82.2439    133.4934
   881.5000      0.0000    272.8867     82.2261    136.2047
   881.7500      0.0000    275.3122     82.2079    142.1889
   882.0000      0.0000    276.8228     82.1904    150.7443
   882.2500      0.0000    276.8040     82.1720    159.2978
   882.5000      0.0000    275.2327     82.1500    164.3249
   882.7500      0.0000    272.6564     82.1242    163.3898
   883.0000      0.0000    269.9801     82.0973    156.9823
   883.2500      0.0000    268.0557     82.0713    148.8490
   883.5000      0.0000    267.3692     82.0460    144.0727
   883.7500      0.0000    268.0534     82.0211    145.6438
   884.0000      0.0000    269.9832     81.9995    152.2409
   884.2500      0.0000    272.7036     81.9848    159.5715
   884.5000      0.0000    275.4611     81.9767    163.9968
   884.7500      0.0000    277.5745     81.9680    164.8096
   885.0000      0.0000    278.8119     81.9483    163.7350
   885.2500      0.0000    279.3669     81.9117    163.1229
   885.5000      0.0000    279.5563     81.8632    164.2682
   885.7500      0.0000    279.6018     81.8172    166.6540
   886.0000      0.0000    279.5969     81.7872    168.8157
   886.2500      0.0000    279.5434     81.7770    170.1132
   886.5000      0.0000    279.3505     81.7834    171.3090
   886.7500      0.0000    278.7980     81.8047    173.3989
   887.0000      0.0000    277.5705     81.8410    176.3162
   887.2500      0.0000    275.4950     81.8879    178.9258
   887.5000      0.0000    272.8639     81.9347    180.0871
   887.7500      0.0000    270.4581     81.9670    179.5675
   888.0000      0.0000    269.0603     81.9709    178.0374
   888.2500      0.0000    268.8826     81.9358    176.6094
   888.5000      0.0000    269.5384     81.8577    176.3470
   888.7500      0.0000    270.5992     81.7444    177.4810
   889.0000      0.0000    272.0254     81.6152    178.8585
   889.2500      0.0000    273.9077     81.4950    178.6739
   889.5000      0.0000    275.9860     81.4049    176.0749
   889.7500      0.0000    277.7316     81.3536    172.0669
   890.0000      0.0000    278.8251     81.3316    168.7371
   890.2500      0.0000    279.3366     81.3195    167.3701
   890.5000      0.0000    279.5159     81.3039    167.2841
   890.7500      0.0000    279.5613     81.2840    166.6720
   891.0000      0.0000    279.5677     81.2592    164.3853
   891.2500      0.0000    279.5656     81.2179    160.7477
   891.5000      0.0000    279.5616     81.1463    157.1548
   891.7500      0.0000    279.5575     81.0495    155.3874
   892.0000      0.0000    279.5530     80.9571    156.7200
   892.2500      0.0000    279.5481     80.9073    160.8988
   892.5000      0.0000    279.5428     80.9217    166.2153
   892.7500      0.0000    279.5378     80.9938    171.0062
   893.0000      0.0000    279.5348     81.0956    174.8111
   893.2500      0.0000    279.5358     81.1944    178.0488
   893.5000      0.0000    279.5424     81.2672    181.2504
   893.7500      0.0000    279.5542     81.3066    184.8199
   894.0000      0.0000    279.5664     81.3174    188.7951
   894.2500      0.0000    279.5686     81.3083    192.5470
   894.5000      0.0000    279.5268     81.2860    195.0744
   894.7500      0.0000    279.3463     81.2537    195.5954
   895.0000      0.0000    278.8362     81.2151    193.6907
   895.2500      0.0000    277.7804     81.1778    189.3300
   895.5000      0.0000    276.2086     81.1547    183.1673
   895.7500      0.0000    274.6610     81.1580    176.4397
   896.0000      0.0000    273.9536     81.1914    170.2039
   896.2500      0.0000    274.4183     81.2464    164.8395
   896.5000      0.0000    275.4341     81.3058    160.4116
   896.7500      0.0000    275.8992     81.3528    157.1564
   897.0000      0.0000    275.1635     81.3787    155.2315
   897.2500      0.0000    273.4190     81.3830    154.2262
   897.5000      0.0000    271.2108     81.3728    153.5444
   897.7500      0.0000    268.7319     81.3624    153.3466
