~Version Information
VERS.                      2.0: CWLS Log ASCII Standard - VERSION 2.0
WRAP.                       NO: One line per depth step
~Well Information Block
STRT.FT               428.8000: 
STOP.FT               951.7000: 
STEP.FT                 0.1000: 
NULL.                -999.2500: 
COMP.          Pioneer Natural Resources: COMPANY
WELL.          Sculpin 32-30 Tr: WELL
FLD.           Purgatoire River: FIELD
LOC.           1600' FNL & 1857' FEL--: LOCATION
CNTY.               Las Animas: COUNTY
SRVC.                Patterson: SERVICE COMPANY
DATE.          Wed Jul 19 09:12:32 2006: LOG DATE
UWI.           05 071 08706 00: UNIQUE WELL ID
STAT.                 Colorado: STATE
~Curve Information Block
DEPT.FT            0 000 00 00: Depth
DCAL.in                       : CDL Caliper
RHOB.g/cc                     : CDL Bulk Density
RHOC.g/cc                     : CDL Density Correction
DPOR.pu                       : CDL Density Porosity
GR.GAPI                       : Gamma Ray
~Parameter Information Block
~A  Depth       DCAL        RHOB        RHOC        DPOR         GR     
# ...
   440.0000      8.0635      2.0767     -0.3975     34.7444     61.5880
   440.1000      8.0635      2.0626     -0.3431     35.5971     61.6602
   440.2000      8.0635      2.0284     -0.4272     37.6699     60.3682
   440.3000      8.0636      2.0083     -0.4882     38.8927     58.7445
   440.4000      8.0636      2.0411     -0.4069     36.9042     58.4462
   440.5000      8.0635      2.1110     -0.3012     32.6678     61.4589
   440.6000      8.0635      2.1783     -0.3228     28.5886     66.3780
   440.7000      8.0635      2.2272     -0.3047     25.6266     69.4051
   440.8000      8.0624      2.2628     -0.3026     23.4660     71.5721
   440.9000      8.0624      2.3013     -0.3008     21.1337     74.5497
   441.0000      8.0611      2.3500     -0.2590     18.1846     74.8611
   441.1000      8.0611      2.3984     -0.2743     15.2467     71.0078
   441.2000      8.0611      2.4454     -0.2386     12.3975     65.4075
   441.3000      8.0614      2.5073     -0.2648      8.6511     60.2380
   441.4000      8.0614      2.5809     -0.1751      4.1904     57.5920
   441.5000      8.0629      2.6294     -0.2073      1.2491     58.6055
   441.6000      8.0629      2.6223     -0.1785      1.6809     61.5607
   441.7000      8.0629      2.5649     -0.2283      5.1583     62.0341
   441.8000      8.0631      2.4999     -0.2713      9.0991     58.6616
   441.9000      8.0631      2.4739     -0.3322     10.6704     54.8848
   442.0000      8.0620      2.4914     -0.2589      9.6137     52.1484
   442.1000      8.0620      2.5171     -0.2073      8.0526     48.8009
   442.2000      8.0620      2.5290     -0.2742      7.3337     45.0090
   442.3000      8.0610      2.5246     -0.2045      7.6019     42.4764
   442.4000      8.0610      2.5106     -0.2621      8.4455     42.1558
   442.5000      8.0605      2.5133     -0.2374      8.2829     43.2277
   442.6000      8.0605      2.5405     -0.1584      6.6339     43.6766
   442.7000      8.0605      2.5730     -0.2209      4.6654     43.3368
   442.8000      8.0599      2.6029     -0.1743      2.8551     43.8340
   442.9000      8.0599      2.6419     -0.2308      0.4934     45.9469
   443.0000      8.0592      2.7009     -0.2086     -3.0834     47.7231
   443.1000      8.0592      2.7610     -0.1037     -6.7286     47.6710
   443.2000      8.0592      2.7974     -0.1193     -8.9334     47.9988
   443.3000      8.0569      2.8095     -0.1156     -9.6661     48.7692
   443.4000      8.0569      2.8043     -0.0797     -9.3516     48.6316
   443.5000      8.0543      2.8008     -0.1256     -9.1408     50.6057
   443.6000      8.0543      2.8407     -0.1896    -11.5571     56.2043
   443.7000      8.0543      2.9409     -0.1364    -17.6319     59.9178
   443.8000      8.0556      3.0515     -0.1500    -24.3342     57.7751
   443.9000      8.0556      3.1021     -0.1295    -27.4021     53.4917
   444.0000      8.0602      3.0634     -0.1462    -25.0572     51.4397
   444.1000      8.0602      2.9398     -0.1886    -17.5624     52.5662
   444.2000      8.0602      2.7533     -0.2691     -6.2589     55.2275
   444.3000      8.0630      2.5746     -0.4685      4.5700     58.1395
   444.4000      8.0630      2.4821     -0.5531     10.1733     59.9201
   444.5000      8.0657      2.4474     -0.3988     12.2788     59.8771
   444.6000      8.0657      2.3814     -0.5939     16.2816     60.5491
   444.7000      8.0657      2.2960     -1.0703     21.4534     60.4277
   444.8000      8.0698      2.2774     -0.9637     22.5827     56.2115
   444.9000      8.0698      2.3485     -0.7994     18.2727     51.4132
   445.0000      8.0696      2.4564     -0.7421     11.7308     50.3310
   445.1000      8.0696      2.5308     -0.5652      7.2262     52.2747
   445.2000      8.0696      2.5538     -0.5700      5.8307     54.0760
   445.3000      8.0648      2.5588     -0.4032      5.5274     54.6165
   445.4000      8.0648      2.5425     -0.2806      6.5177     55.1688
   445.5000      8.0616      2.4989     -0.3325      9.1547     57.6714
   445.6000      8.0616      2.4708     -0.2958     10.8577     62.9025
   445.7000      8.0616      2.4689     -0.2745     10.9731     66.2376
   445.8000      8.0618      2.4609     -0.2519     11.4628     64.7639
   445.9000      8.0618      2.4427     -0.2887     12.5658     63.4599
   446.0000      8.0616      2.4375     -0.2561     12.8816     66.9957
   446.1000      8.0616      2.4480     -0.2161     12.2404     71.3076
   446.2000      8.0616      2.4532     -0.1923     11.9298     69.7468
   446.3000      8.0616      2.4428     -0.2078     12.5592     64.8363
   446.4000      8.0616      2.4294     -0.2154     13.3690     64.0168
   446.5000      8.0634      2.4242     -0.2225     13.6863     69.3782
   446.6000      8.0634      2.4271     -0.2290     13.5063     76.0890
   446.7000      8.0634      2.4222     -0.2075     13.8079     78.9620
   446.8000      8.0633      2.3892     -0.2142     15.8070     77.8210
   446.9000      8.0633      2.3404     -0.2581     18.7660     75.9148
   447.0000      8.0614      2.3067     -0.3117     20.8081     74.1498
   447.1000      8.0614      2.3028     -0.3186     21.0411     71.5763
   447.2000      8.0614      2.3261     -0.2946     19.6292     70.9692
   447.3000      8.0611      2.3592     -0.2287     17.6213     74.5900
   447.4000      8.0611      2.3787     -0.2159     16.4436     78.0699
   447.5000      8.0609      2.3801     -0.2067     16.3548     75.8827
   447.6000      8.0609      2.3798     -0.2425     16.3737     70.6207
   447.7000      8.0609      2.3905     -0.1950     15.7252     66.4731
   447.8000      8.0597      2.4124     -0.2413     14.4018     63.5025
   447.9000      8.0597      2.4383     -0.1699     12.8321     64.0668
   448.0000      8.0585      2.4500     -0.1863     12.1233     69.7826
   448.1000      8.0585      2.4405     -0.2079     12.6997     74.6665
   448.2000      8.0585      2.4231     -0.2046     13.7502     72.9770
   448.3000      8.0590      2.4158     -0.2547     14.1951     68.6210
   448.4000      8.0590      2.4351     -0.2288     13.0248     66.9828
   448.5000      8.0606      2.4689     -0.1887     10.9769     67.4531
   448.6000      8.0606      2.4879     -0.1745      9.8226     70.1679
   448.7000      8.0606      2.4976     -0.2275      9.2337     75.2289
   448.8000      8.0609      2.5170     -0.1453      8.0604     80.9631
   448.9000      8.0609      2.5338     -0.1232      7.0419     85.3090
   449.0000      8.0596      2.5362     -0.1635      6.8944     83.7490
   449.1000      8.0596      2.5362     -0.2020      6.8962     77.3608
   449.2000      8.0596      2.5415     -0.1275      6.5734     74.3389
   449.3000      8.0590      2.5514     -0.1722      5.9785     76.3293
   449.4000      8.0590      2.5682     -0.1510      4.9550     77.8495
   449.5000      8.0596      2.5868     -0.1796      3.8322     78.1090
   449.6000      8.0596      2.6058     -0.1802      2.6762     79.6379
   449.7000      8.0596      2.6341     -0.1788      0.9633     80.4490
   449.8000      8.0617      2.6574     -0.1120     -0.4467     77.6669
   449.9000      8.0617      2.6424     -0.1446      0.4618     72.9371
   450.0000      8.0633      2.5962     -0.2109      3.2611     68.3295
   450.1000      8.0633      2.5630     -0.2086      5.2698     64.4492
   450.2000      8.0633      2.5556     -0.1803      5.7201     63.1458
   450.3000      8.0634      2.5517     -0.1654      5.9593     65.9121
   450.4000      8.0634      2.5389     -0.1687      6.7325     70.1258
   450.5000      8.0641      2.5182     -0.1593      7.9855     71.0386
   450.6000      8.0641      2.4929     -0.2099      9.5205     69.6889
   450.7000      8.0641      2.4667     -0.2070     11.1070     71.6991
   450.8000      8.0657      2.4387     -0.2108     12.8075     77.0898
   450.9000      8.0657      2.4159     -0.2758     14.1907     80.9049
   451.0000      8.0661      2.4212     -0.3009     13.8645     81.0961
   451.1000      8.0661      2.4593     -0.2462     11.5566     79.0657
