~Version Information
VERS.                      2.0: CWLS Log ASCII Standard - VERSION 2.0
WRAP.                       NO: One line per depth step
~Well Information Block
STRT.FT                -8.7500: 
STOP.FT              1860.5000: 
STEP.FT                 0.2500: 
NULL.                -999.2500: 
COMP.          Pioneer Natural Resources: COMPANY
WELL.          Cortina 23-25 Tr: WELL
FLD.           Purgatorie River: FIELD
LOC.           --2521' FSL & 2345' FWL------: LOCATION
STAT.                       CO: PROVINCE
CNTY.               Las Animas: COUNTY
CTRY. USA : country
SECT. 25 : Section
TOWN. 32S : Township
RANG. 67W : Range
SRVC.          Patterson Wireline: SERVICE COMPANY
DATE.          Thu Sep 29 11:30:45 2005: LOG DATE
API.           05 071 08534 00: UNIQUE WELL ID
~Curve Information Block
DEPT.FT            0 000 00 00: Depth
CCL.                          : Casing Collar Locator
TT3.usec                      : CBL 3' Travel Time
AMP3.mV                       : CBL 3' Amplitude
GR.GAPI                       : Gamma Ray
~Parameter Information Block
~A  Depth       CCL         TT3         AMP3         GR     
# ...
  1833.7500      0.0000    364.3311     13.4131     97.0948
  1834.0000      0.0000    365.3460     13.5492     94.1951
  1834.2500      0.0000    368.6772     13.7106     90.7099
  1834.5000      0.0000    376.7188     13.8629     86.9047
  1834.7500      0.0000    391.3894     13.9880     82.9303
  1835.0000      0.0000    411.7499     14.0801     79.3767
  1835.2500      0.0000    433.1090     14.1293     76.6745
  1835.5000      0.0000    449.9667     14.1145     74.6242
  1835.7500      0.0000    460.7982     14.0172     72.9812
  1836.0000      0.0000    469.6833     13.8434     72.0054
  1836.2500      0.0000    482.8722     13.6392     72.1223
  1836.5000      0.0000    502.6522     13.4800     73.5756
  1836.7500      0.0000    522.6602     13.4320     76.9672
  1837.0000      0.0000    529.5862     13.5194     83.6829
  1837.2500      0.0000    513.0921     13.7352     94.7549
  1837.5000      0.0000    476.0786     14.0792    108.9952
  1837.7500      0.0000    433.5420     14.5688    122.9961
  1838.0000      0.0000    400.7249     15.1978    133.5505
  1838.2500      0.0000    383.7867     15.8946    139.9366
  1838.5000      0.0000    380.2988     16.5392    143.6224
  1838.7500      0.0000    384.2105     17.0468    146.0250
  1839.0000      0.0000    388.9596     17.4444    146.9953
  1839.2500      0.0000    388.9188     17.8630    145.5720
  1839.5000      0.0000    381.2297     18.4381    141.5907
  1839.7500      0.0000    367.1942     19.2112    135.9093
  1840.0000      0.0000    351.2494     20.1206    129.3620
  1840.2500      0.0000    337.9204     21.0605    122.4087
  1840.5000      0.0000    329.3041     21.9172    115.8048
  1840.7500      0.0000    324.9443     22.5643    110.7894
  1841.0000      0.0000    323.3640     22.8728    108.2706
  1841.2500      0.0000    323.5175     22.7591    108.3114
  1841.5000      0.0000    325.4374     22.2306    110.7086
  1841.7500      0.0000    330.3008     21.3942    115.6535
  1842.0000      0.0000    340.1325     20.4156    123.1867
  1842.2500      0.0000    357.1643     19.4430    132.2333
  1842.5000      0.0000    383.3822     18.5429    140.9372
  1842.7500      0.0000    420.3096     17.7063    147.9474
  1843.0000      0.0000    467.4372     16.9165    152.6952
  1843.2500      0.0000    518.3171     16.2075    154.6716
  1843.5000      0.0000    558.5063     15.6588    153.5944
  1843.7500      0.0000    571.5518     15.3459    150.4557
  1844.0000      0.0000    550.8406     15.2910    147.2436
  1844.2500      0.0000    505.7803     15.4410    144.9274
  1844.5000      0.0000    455.2601     15.6829    142.2231
  1844.7500      0.0000    415.4366     15.8930    137.1971
  1845.0000      0.0000    393.8089     15.9909    129.9905
  1845.2500      0.0000    392.4595     15.9592    122.9751
  1845.5000      0.0000    413.0619     15.8254    117.8383
  1845.7500      0.0000    455.7280     15.6422    113.1139
  1846.0000      0.0000    511.7658     15.4782    104.9025
  1846.2500      0.0000    560.0253     15.3926     89.9769
  1846.5000      0.0000    576.4805     15.3912     68.6360
  1846.7500      0.0000    552.0044     15.4169     45.0974
  1847.0000      0.0000    500.6286     15.4005     24.8836
  1847.2500      0.0000    449.3302     15.3154     11.3067
  1847.5000      0.0000    420.8380     15.1696      4.1684
  1847.7500      0.0000    424.7509     14.9666      1.2331
  1848.0000      0.0000    457.4745     14.6981      0.2898
  1848.2500      0.0000    503.8662     14.3714      0.0532
  1848.5000      0.0000    541.9886     14.0248      0.0070
  1848.7500      0.0000    555.3946     13.7134      0.0000
  1849.0000      0.0000    544.8998     13.4848   -999.2500
  1849.2500      0.0000    525.5751     13.3649   -999.2500
  1849.5000      0.0000    510.6313     13.3530   -999.2500
  1849.7500      0.0000    500.4487     13.4266   -999.2500
  1850.0000      0.0000    488.5173     13.5504   -999.2500
  1850.2500      0.0000    474.6583     13.6825   -999.2500
  1850.5000      0.0000    467.5758     13.7769   -999.2500
  1850.7500      0.0000    473.5958     13.7840   -999.2500
  1851.0000      0.0000    486.4239     13.6346   -999.2500
  1851.2500      0.0000    489.0069     13.1957   -999.2500
  1851.5000      0.0000    463.1772     12.2494   -999.2500
  1851.7500      0.0000    399.5009     10.5945   -999.2500
  1852.0000      0.0000    304.2996      8.2713   -999.2500
  1852.2500      0.0000    199.1727      5.6906   -999.2500
  1852.5000      0.0000    109.4700      3.4397   -999.2500
  1852.7500      0.0000     49.5951      1.9042   -999.2500
  1853.0000      0.0000     18.2560      1.0865   -999.2500
  1853.2500      0.0000      5.3969      0.7468   -999.2500
  1853.5000      0.0000      1.2709      0.6369   -999.2500
  1853.7500      0.0000      0.2323      0.6091   -999.2500
  1854.0000      0.0000      0.0309      0.6037   -999.2500
  1854.2500      0.0000   -999.2500   -999.2500   -999.2500
  1854.5000      0.0000   -999.2500   -999.2500   -999.2500
  1854.7500      0.0000   -999.2500   -999.2500   -999.2500
  1855.0000      0.0000   -999.2500   -999.2500   -999.2500
  1855.2500      0.0000   -999.2500   -999.2500   -999.2500
  1855.5000      0.0000   -999.2500   -999.2500   -999.2500
  1855.7500      0.0000   -999.2500   -999.2500   -999.2500
  1856.0000      0.0000   -999.2500   -999.2500   -999.2500
  1856.2500      0.0000   -999.2500   -999.2500   -999.2500
  1856.5000      0.0000   -999.2500   -999.2500   -999.2500
  1856.7500      0.0000   -999.2500   -999.2500   -999.2500
  1857.0000      0.0000   -999.2500   -999.2500   -999.2500
  1857.2500      0.0000   -999.2500   -999.2500   -999.2500
  1857.5000      0.0000   -999.2500   -999.2500   -999.2500
  1857.7500      0.0000   -999.2500   -999.2500   -999.2500
  1858.0000      0.0000   -999.2500   -999.2500   -999.2500
  1858.2500      0.0000   -999.2500   -999.2500   -999.2500
  1858.5000      0.0000   -999.2500   -999.2500   -999.2500
  1858.7500      0.0000   -999.2500   -999.2500   -999.2500
  1859.0000      0.0000   -999.2500   -999.2500   -999.2500
  1859.2500      0.0000   -999.2500   -999.2500   -999.2500
  1859.5000      0.0000   -999.2500   -999.2500   -999.2500
  1859.7500   -999.2500   -999.2500   -999.2500   -999.2500
  1860.0000   -999.2500   -999.2500   -999.2500   -999.2500
  1860.2500   -999.2500   -999.2500   -999.2500   -999.2500
  1860.5000   -999.2500   -999.2500   -999.2500   -999.2500
