~Version Information
VERS.                      2.0: CWLS Log ASCII Standard - VERSION 2.0
WRAP.                       NO: One line per depth step
~Well Information Block
STRT.FT               538.0000: 
STOP.FT              1769.0000: 
STEP.FT                 0.1000: 
NULL.                -999.2500: 
COMP.          Pioneer Natural Resources: COMPANY
WELL.            Dude 43-34 Tr: WELL
FLD.           Purgatoire River: FIELD
LOC.           2083' FSL & 1042' FEL: LOCATION
PROV.                 Colorado: PROVINCE
CNTY.               Las Animas: COUNTRY
SRVC.                Patterson: SERVICE COMPANY
DATE.          Thu Jan 26 07:02:09 2006: LOG DATE
UWI.           05 071 08676 00: UNIQUE WELL ID
~Curve Information Block
DEPT.FT            0 000 00 00: Depth
DCAL.in                       : CDL Caliper
RHOB.g/cc                     : CDL Bulk Density
RHOC.g/cc                     : CDL Density Correction
DPOR.pu                       : CDL Density Porosity
GR.GAPI                       : Gamma Ray
~Parameter Information Block
~A  Depth       DCAL        RHOB        RHOC        DPOR         GR     
# ...
   627.6000      7.9654      2.5560      0.0106      5.6961    104.0975
   627.7000      7.9654      2.5637     -0.0049      5.2288    103.3287
   627.8000      7.9880      2.5916      0.0647      3.5388    102.5445
   627.9000      7.9880      2.6254      0.0678      1.4899    107.2144
   628.0000      8.0030      2.6492      0.1217      0.0504    115.5522
   628.1000      8.0030      2.6547      0.1035     -0.2839    117.7821
   628.2000      8.0030      2.6395      0.1327      0.6334    110.7204
   628.3000      7.9840      2.6152      0.0450      2.1065    102.1358
   628.4000      7.9840      2.6039      0.0970      2.7930    101.0606
   628.5000      7.9580      2.6092      0.1095      2.4707    108.5256
   628.6000      7.9580      2.6174      0.0570      1.9778    115.8055
   628.7000      7.9580      2.6143      0.0976      2.1649    114.6208
   628.8000      7.9628      2.5901      0.0949      3.6276    107.7753
   628.9000      7.9628      2.5561      0.0252      5.6911    104.0516
   629.0000      7.9599      2.5420      0.0137      6.5467    106.0467
   629.1000      7.9599      2.5569      0.0728      5.6440    106.9001
   629.2000      7.9599      2.5805      0.0817      4.2113    100.9595
   629.3000      7.9635      2.5920      0.1247      3.5154     94.3755
   629.4000      7.9635      2.5881      0.0736      3.7508     93.8412
   629.5000      7.9635      2.5810      0.1055      4.1817     95.7844
   629.6000      7.9635      2.5787      0.1055      4.3237     98.4048
   629.7000      7.9635      2.5826      0.0726      4.0848    104.6730
   629.8000      8.0077      2.5915      0.1193      3.5454    112.3039
   629.9000      8.0077      2.5984      0.1089      3.1269    118.2683
   630.0000      7.9802      2.5966      0.1308      3.2368    125.8074
   630.1000      7.9802      2.5827      0.1040      4.0791    134.8498
   630.2000      7.9802      2.5646      0.0507      5.1746    138.1357
   630.3000      7.9852      2.5594      0.0411      5.4913    137.8057
   630.4000      7.9852      2.5662      0.0551      5.0777    142.4029
   630.5000      8.0009      2.5658      0.0837      5.1019    150.2340
   630.6000      8.0009      2.5494      0.0734      6.0981    155.4161
   630.7000      8.0009      2.5203      0.0041      7.8633    156.7159
   630.8000      8.0295      2.4834      0.0549     10.0948    152.2075
   630.9000      8.0295      2.4550     -0.0096     11.8169    141.0046
   631.0000      8.0173      2.4525      0.0446     11.9680    131.9984
   631.1000      8.0173      2.4658      0.1251     11.1652    132.8400
   631.2000      8.0173      2.4801      0.0998     10.2972    138.6523
   631.3000      7.9807      2.5108      0.1095      8.4356    139.6376
   631.4000      7.9807      2.5743      0.1060      4.5889    132.1928
   631.5000      7.9392      2.6478      0.2281      0.1319    122.7012
   631.6000      7.9392      2.6986      0.2243     -2.9442    117.0688
   631.7000      7.9392      2.7244      0.2663     -4.5096    113.9767
   631.8000      7.9233      2.7287      0.2563     -4.7671    111.6897
   631.9000      7.9233      2.7061      0.2138     -3.3995    110.6719
   632.0000      7.9017      2.6677      0.1281     -1.0716    111.3629
   632.1000      7.9017      2.6395      0.0723      0.6348    112.2362
   632.2000      7.9017      2.6325      0.0914      1.0633    109.6846
   632.3000      7.8955      2.6296      0.0872      1.2380    104.6435
   632.4000      7.8955      2.6183      0.0504      1.9202     99.3697
   632.5000      7.9503      2.6003      0.0826      3.0105     95.6034
   632.6000      7.9503      2.5744      0.0913      4.5848     96.6105
   632.7000      7.9503      2.5468      0.0610      6.2539    102.6300
   632.8000      8.0163      2.5294      0.0620      7.3079    112.6878
   632.9000      8.0163      2.5256      0.0284      7.5390    125.1401
   633.0000      8.0041      2.5329      0.0488      7.0942    134.8666
   633.1000      8.0041      2.5507      0.0412      6.0177    140.4734
   633.2000      8.0041      2.5804      0.0758      4.2153    144.0709
   633.3000      8.0076      2.6102      0.0963      2.4123    144.6161
   633.4000      8.0076      2.6189      0.1209      1.8878    143.1584
   633.5000      8.0252      2.5960      0.1362      3.2721    144.4006
   633.6000      8.0252      2.5594      0.0910      5.4933    147.4126
   633.7000      8.0252      2.5485      0.0787      6.1493    148.2534
   633.8000      8.0395      2.5737      0.1314      4.6231    148.4119
   633.9000      8.0395      2.6068      0.1178      2.6171    151.0903
   634.0000      7.9798      2.6228      0.1391      1.6455    151.9039
   634.1000      7.9798      2.6139      0.1160      2.1884    144.6558
   634.2000      7.9798      2.5932      0.0531      3.4430    134.0305
   634.3000      7.9684      2.5865      0.0478      3.8506    128.4800
   634.4000      7.9684      2.5979      0.1078      3.1590    129.4963
   634.5000      7.9771      2.6042      0.1264      2.7767    132.2053
   634.6000      7.9771      2.5971      0.0589      3.2083    135.4996
   634.7000      7.9771      2.5907      0.1271      3.5968    141.8813
   634.8000      7.9992      2.5896      0.0767      3.6606    145.4180
   634.9000      7.9992      2.5903      0.0541      3.6194    141.5845
   635.0000      8.0147      2.5931      0.0382      3.4513    135.0342
   635.1000      8.0147      2.6033      0.0676      2.8308    130.2287
   635.2000      8.0147      2.6225      0.0938      1.6687    125.2307
   635.3000      8.0145      2.6374      0.1006      0.7666    118.8479
   635.4000      8.0145      2.6375      0.1324      0.7576    115.8163
   635.5000      7.9912      2.6327      0.1033      1.0501    117.5212
   635.6000      7.9912      2.6376      0.0761      0.7532    120.5566
   635.7000      7.9912      2.6432      0.1442      0.4147    121.9806
   635.8000      7.9482      2.6323      0.1092      1.0721    120.3688
   635.9000      7.9482      2.6146      0.0472      2.1460    116.2200
   636.0000      7.9541      2.6038      0.0597      2.8003    112.7483
   636.1000      7.9541      2.5916      0.0478      3.5393    115.7475
   636.2000      7.9541      2.5770     -0.0025      4.4261    125.5863
   636.3000      7.9660      2.5765      0.0316      4.4570    132.7194
   636.4000      7.9660      2.5821      0.0306      4.1160    131.8647
   636.5000      7.9953      2.5765      0.0214      4.4533    128.6690
   636.6000      7.9953      2.5747      0.0555      4.5622    126.7103
   636.7000      7.9953      2.5913      0.0430      3.5569    122.6474
   636.8000      8.0224      2.6071      0.0741      2.6018    116.3020
   636.9000      8.0224      2.6016      0.0787      2.9352    113.2910
   637.0000      8.0341      2.5904      0.0373      3.6134    112.8040
   637.1000      8.0341      2.5992      0.0197      3.0801    112.5045
   637.2000      8.0341      2.6132      0.0746      2.2327    115.8003
   637.3000      8.0354      2.6025      0.0509      2.8806    122.7470
   637.4000      8.0354      2.5819      0.0535      4.1250    127.3518
   637.5000      8.0489      2.5848      0.0328      3.9487    125.5459
   637.6000      8.0489      2.6088      0.0921      2.4946    125.2076
   637.7000      8.0489      2.6238      0.0736      1.5860    132.1070
   637.8000      8.0557      2.6190      0.0498      1.8817    135.1037
   637.9000      8.0557      2.6052      0.1105      2.7182    129.0408
   638.0000      8.0644      2.5954     -0.0064      3.3078    123.0646
   638.1000      8.0644      2.6088      0.0111      2.4948    124.9955
   638.2000      8.0644      2.6404      0.1179      0.5794    134.9758
   638.3000      8.0413      2.6622      0.0969     -0.7395    144.8219
   638.4000      8.0413      2.6743      0.0387     -1.4715    146.2338
   638.5000      8.0165      2.6923      0.0880     -2.5614    141.6940
   638.6000      8.0165      2.7077      0.1062     -3.4956    136.1731
   638.7000      8.0165      2.7069      0.0448     -3.4486    130.1564
