~Version Information
VERS.                      2.0: CWLS Log ASCII Standard - VERSION 2.0
WRAP.                       NO: One line per depth step
~Well Information Block
STRT.FT               520.0000: 
STOP.FT              2555.2000: 
STEP.FT                 0.1000: 
NULL.                -999.2500: 
COMP.          Pioneer Natural Resources: COMPANY
WELL.          Horsefeathers 24-34: WELL
FLD.           Purgatoire River: FIELD
LOC.           183' FSL & 1570' FWL--: LOCATION
CNTY.               Las Animas: COUNTY
SRVC.                Patterson: SERVICE COMPANY
DATE.          Mon Feb 06 08:03:40 2006: LOG DATE
UWI.           05 071 08675 00: UNIQUE WELL ID
STAT.                 Colorado: STATE
~Curve Information Block
DEPT.FT            0 000 00 00: Depth
DCAL.in                       : CDL Caliper
RHOB.g/cc                     : CDL Bulk Density
RHOC.g/cc                     : CDL Density Correction
DPOR.pu                       : CDL Density Porosity
NPOR.pu                       : Neutron Porosity
GR.GAPI                       : Gamma Ray
~Parameter Information Block
~A  Depth       DCAL        RHOB        RHOC        DPOR        NPOR         GR     
# ...
  2257.6000      7.9068      2.5674      0.0573      5.0033     20.7635    123.4219
  2257.7000      7.9068      2.5627      0.0972      5.2890     21.1644    126.2520
  2257.8000      7.9073      2.5366      0.0654      6.8732     21.4775    130.1615
  2257.9000      7.9073      2.5075      0.0472      8.6384     21.3965    129.5534
  2258.0000      7.9076      2.4980      0.0307      9.2124     21.0329    124.8162
  2258.1000      7.9076      2.5146      0.0447      8.2089     20.5239    123.3484
  2258.2000      7.9076      2.5455      0.0617      6.3361     20.0685    126.9882
  2258.3000      7.9074      2.5717      0.0558      4.7479     19.8111    132.4569
  2258.4000      7.9074      2.5808      0.0942      4.1912     19.6490    135.0697
  2258.5000      7.9093      2.5740      0.0834      4.6085     19.4821    130.7793
  2258.6000      7.9093      2.5608      0.0551      5.4036     19.5940    121.2329
  2258.7000      7.9093      2.5506      0.0500      6.0267     20.1368    113.4152
  2258.8000      7.9133      2.5486      0.0352      6.1440     20.7907    112.4441
  2258.9000      7.9133      2.5573      0.0229      5.6170     21.2969    113.5300
  2259.0000      7.9168      2.5707      0.0388      4.8059     21.4310    111.3303
  2259.1000      7.9168      2.5692      0.0879      4.8952     21.0312    113.0005
  2259.2000      7.9168      2.5414      0.0323      6.5801     20.6508    120.2437
  2259.3000      7.9180      2.5073     -0.0318      8.6475     21.1139    122.3686
  2259.4000      7.9180      2.4822      0.0202     10.1687     22.2875    121.5818
  2259.5000      7.9167      2.4616     -0.0246     11.4169     23.2861    128.0167
  2259.6000      7.9167      2.4513      0.0034     12.0398     23.6880    137.0130
  2259.7000      7.9167      2.4576      0.0201     11.6627     23.9444    138.0869
  2259.8000      7.9121      2.4764      0.0136     10.5217     24.4358    135.0836
  2259.9000      7.9121      2.5030      0.0415      8.9069     24.9492    135.9673
  2260.0000      7.9048      2.5325      0.0575      7.1238     25.2245    135.6940
  2260.1000      7.9048      2.5581      0.0763      5.5677     25.1742    129.4157
  2260.2000      7.9048      2.5685      0.0946      4.9379     24.6345    122.6899
  2260.3000      7.9019      2.5639      0.0857      5.2211     23.9435    120.1810
  2260.4000      7.9019      2.5613      0.0979      5.3770     23.6614    119.3891
  2260.5000      7.9028      2.5676      0.1007      4.9926     23.7002    119.5744
  2260.6000      7.9028      2.5793      0.0857      4.2863     23.6655    124.3083
  2260.7000      7.9028      2.5939      0.0938      3.3972     23.4873    129.9305
  2260.8000      7.9031      2.6078      0.1145      2.5549     22.8822    128.8372
  2260.9000      7.9031      2.6207      0.0971      1.7751     21.4221    122.8875
  2261.0000      7.9028      2.6318      0.0957      1.1007     19.6546    117.6615
  2261.1000      7.9028      2.6287      0.0889      1.2890     18.7776    112.1313
  2261.2000      7.9028      2.6058      0.0516      2.6817     19.4162    101.4590
  2261.3000      7.9035      2.5839      0.0279      4.0056     20.9883     87.4688
  2261.4000      7.9035      2.5833      0.0509      4.0449     22.6031     75.4539
  2261.5000      7.9043      2.5873      0.0990      3.7978     23.9967     68.4583
  2261.6000      7.9043      2.5744      0.0421      4.5809     24.4355     71.3740
  2261.7000      7.9043      2.5539      0.0528      5.8214     23.4861     84.3706
  2261.8000      7.9014      2.5341      0.0393      7.0266     22.3405    102.4094
  2261.9000      7.9014      2.5089      0.0197      8.5531     21.9417    118.2593
  2262.0000      7.8987      2.4903     -0.0273      9.6795     22.0673    122.6405
  2262.1000      7.8987      2.4951      0.0337      9.3877     22.5103    119.0964
  2262.2000      7.8987      2.5123      0.0373      8.3485     23.1444    120.0656
  2262.3000      7.8981      2.5205      0.1033      7.8462     23.1599    127.7949
  2262.4000      7.8981      2.5132      0.0449      8.2937     22.4754    134.8047
  2262.5000      7.8973      2.4993      0.0415      9.1341     22.3220    133.0327
  2262.6000      7.8973      2.4899      0.0434      9.7023     22.8680    124.4627
  2262.7000      7.8973      2.4877      0.0401      9.8361     23.0900    122.0475
  2262.8000      7.8975      2.4857      0.0411      9.9587     22.7852    130.5314
  2262.9000      7.8975      2.4814      0.0311     10.2160     22.5559    140.4175
  2263.0000      7.8979      2.4833      0.0599     10.1011     22.5721    144.1286
  2263.1000      7.8979      2.4919      0.0345      9.5834     22.5496    140.3780
  2263.2000      7.8979      2.4990      0.0326      9.1499     22.2910    134.0121
  2263.3000      7.8983      2.4973      0.0548      9.2533     21.9832    132.2908
  2263.4000      7.8983      2.4817      0.0454     10.1991     21.9592    138.8502
  2263.5000      7.8977      2.4520      0.0356     12.0002     22.1485    147.5320
  2263.6000      7.8977      2.4109      0.0036     14.4889     22.3810    149.9869
  2263.7000      7.8977      2.3630      0.0061     17.3932     22.8658    144.3261
  2263.8000      7.8963      2.3119      0.0217     20.4903     23.2537    131.4634
  2263.9000      7.8963      2.2590      0.0060     23.7000     22.9389    116.9029
  2264.0000      7.8952      2.2130     -0.0418     26.4876     22.1213    106.2369
  2264.1000      7.8952      2.1851     -0.0171     28.1740     21.1916     99.8141
  2264.2000      7.8952      2.1760     -0.0072     28.7286     20.2783     93.1521
  2264.3000      7.8932      2.1835      0.0073     28.2737     19.4312     81.6965
  2264.4000      7.8932      2.2102      0.0346     26.6530     18.5502     68.9495
  2264.5000      7.8919      2.2568      0.1014     23.8280     17.4588     61.1627
  2264.6000      7.8919      2.3187      0.1611     20.0776     16.2014     59.6188
  2264.7000      7.8919      2.4004      0.1521     15.1277     15.0034     62.4127
  2264.8000      7.8931      2.5129      0.1894      8.3080     14.0304     65.3607
  2264.9000      7.8931      2.6347      0.2534      0.9283     13.2250     64.5527
  2265.0000      7.8978      2.7162      0.2237     -4.0105     12.3759     61.8922
  2265.1000      7.8978      2.7461      0.0990     -5.8235     11.6897     61.0130
  2265.2000      7.8978      2.7593      0.0690     -6.6258     11.3408     62.5208
  2265.3000      7.9020      2.7762      0.0961     -7.6479     11.2719     65.6559
  2265.4000      7.9020      2.7785      0.1125     -7.7850     11.3838     66.3943
  2265.5000      7.8995      2.7497      0.0452     -6.0403     11.3913     62.6778
  2265.6000      7.8995      2.7162     -0.0078     -4.0120     11.2187     58.9543
  2265.7000      7.8995      2.7097      0.0222     -3.6162     11.1177     58.9973
  2265.8000      7.8968      2.7217      0.0529     -4.3457     11.3703     64.1071
  2265.9000      7.8968      2.7307      0.0405     -4.8925     11.9408     71.7114
  2266.0000      7.8992      2.7229      0.0428     -4.4157     12.6262     76.3985
  2266.1000      7.8992      2.6875      0.0315     -2.2716     13.4930     76.3588
  2266.2000      7.8992      2.6290     -0.0101      1.2709     14.6091     74.3313
  2266.3000      7.9053      2.5692     -0.0456      4.8970     15.9327     75.3231
  2266.4000      7.9053      2.5288     -0.0433      7.3481     17.2104     79.3653
  2266.5000      7.9097      2.5069     -0.0274      8.6705     17.9515     78.3581
  2266.6000      7.9097      2.4866     -0.0281      9.9027     18.1408     69.4970
  2266.7000      7.9097      2.4599     -0.0152     11.5241     18.3748     61.9002
  2266.8000      7.9137      2.4396     -0.0552     12.7535     19.0730     64.1837
  2266.9000      7.9137      2.4400      0.0334     12.7267     19.9311     75.4428
  2267.0000      7.9193      2.4519      0.0254     12.0031     20.4061     85.7834
  2267.1000      7.9193      2.4640      0.0428     11.2747     20.3513     90.1657
