~Version Information
VERS.                      2.0: CWLS Log ASCII Standard - VERSION 2.0
WRAP.                       NO: One line per depth step
~Well Information Block
STRT.FT               335.0000: 
STOP.FT              1154.7000: 
STEP.FT                 0.1000: 
NULL.                -999.2500: 
COMP.          Pioneer Natural Resources: COMPANY
WELL.             Croc 42-9 Tr: WELL
FLD.           Purgatoire River: FIELD
LOC.           2429' FNL & 315' FEL--: LOCATION
STAT.                 Colorado: State
CNTY.               Las Animas: COUNTY
CTRY. USA : Country
SECT. 9 : Section
TOWN. 32S : Township
RANG. 66W : Range
SRVC.                Patterson: SERVICE COMPANY
DATE.          Fri Oct 14 07:56:23 2005: LOG DATE
API.           05 071 08550 00: UNIQUE WELL ID
~Curve Information Block
DEPT.FT            0 000 00 00: Depth
DCAL.in                       : CDL Caliper
RHOB.g/cc                     : CDL Bulk Density
RHOC.g/cc                     : CDL Density Correction
DPOR.pu                       : CDL Density Porosity
NPOR.pu                       : Neutron Porosity
GR.GAPI                       : Gamma Ray
~Parameter Information Block
~A  Depth       DCAL        RHOB        RHOC        DPOR        NPOR         GR     
   335.0000      1.2632      2.0421      0.1275     36.8428     37.9606    120.4980
   335.1000      1.2632      2.0602      0.1292     35.7466     41.6017    114.5051
   335.2000      1.2632      2.0714      0.1477     35.0650     43.8891    111.5576
   335.3000      1.2621      2.0694      0.1696     35.1884     44.7628    115.2604
   335.4000      1.2621      2.0514      0.1147     36.2781     45.0511    116.8605
   335.5000      1.2637      2.0326      0.0886     37.4204     45.3999    114.5547
   335.6000      1.2637      2.0237      0.0993     37.9596     45.7691    112.1779
   335.7000      1.2637      2.0200      0.0660     38.1791     45.9820    109.7677
   335.8000      1.2662      2.0173      0.0684     38.3446     46.0806    111.2727
   335.9000      1.2662      2.0154      0.0610     38.4581     45.9701    119.5036
   336.0000      1.2665      2.0126      0.0661     38.6279     45.6166    126.8879
   336.1000      1.2665      2.0038      0.0947     39.1646     45.1838    126.6619
   336.2000      1.2665      1.9896      0.0650     40.0222     44.7151    121.8940
   336.3000      1.2649      1.9800      0.0777     40.6051     44.4094    118.7159
   336.4000      1.2649      1.9791      0.0827     40.6577     44.6507    118.1924
   336.5000      1.2643      1.9800      0.0808     40.6046     45.2189    118.4898
   336.6000      1.2643      1.9751      0.0776     40.9018     45.3555    121.6271
   336.7000      1.2643      1.9666      0.0741     41.4168     45.0971    129.7063
   336.8000      1.2667      1.9630      0.0654     41.6378     45.0028    139.7657
   336.9000      1.2667      1.9659      0.0660     41.4611     45.0977    145.3181
   337.0000      1.2700      1.9675      0.0917     41.3659     45.0010    142.5811
   337.1000      1.2700      1.9634      0.0709     41.6131     44.3132    133.8439
   337.2000      1.2700      1.9581      0.0876     41.9343     43.3322    124.7868
   337.3000      1.2678      1.9573      0.0938     41.9813     42.9226    119.1341
   337.4000      1.2678      1.9645      0.0945     41.5434     43.2076    114.7987
   337.5000      1.2627      1.9801      0.1172     40.6009     43.6236    109.5488
   337.6000      1.2627      1.9992      0.1498     39.4431     43.7725    106.1556
   337.7000      1.2627      2.0146      0.1571     38.5101     43.6221    104.1301
   337.8000      1.2610      2.0238      0.1495     37.9507     43.3219     99.0133
   337.9000      1.2610      2.0262      0.1502     37.8085     43.1812     95.6117
   338.0000      1.2623      2.0225      0.1330     38.0309     43.2549    101.3457
   338.1000      1.2623      2.0162      0.1380     38.4103     43.1113    110.6791
   338.2000      1.2623      2.0047      0.1522     39.1073     42.7672    114.2572
   338.3000      1.2625      1.9875      0.1352     40.1524     42.6540    112.0832
   338.4000      1.2625      1.9750      0.1228     40.9094     42.5198    108.3693
   338.5000      1.2627      1.9740      0.1317     40.9724     42.0307    104.6950
   338.6000      1.2627      1.9804      0.1171     40.5824     41.4950    102.0374
   338.7000      1.2627      1.9878      0.1343     40.1362     41.1386    101.4386
   338.8000      1.2645      1.9921      0.1384     39.8720     40.8925    101.5968
   338.9000      1.2645      1.9934      0.1471     39.7923     40.6685     99.5978
   339.0000      1.2647      1.9921      0.1484     39.8758     40.2615     93.5959
   339.1000      1.2647      1.9851      0.1403     40.2998     39.7126     87.0023
   339.2000      1.2647      1.9742      0.1000     40.9598     39.4985     84.7255
   339.3000      1.2626      1.9707      0.1244     41.1674     39.7008     85.9477
   339.4000      1.2626      1.9789      0.1317     40.6743     39.7865     89.5282
   339.5000      1.2577      1.9888      0.1495     40.0714     39.4635     95.1268
   339.6000      1.2577      1.9955      0.1236     39.6654     39.2009     97.7254
   339.7000      1.2577      2.0064      0.1442     39.0041     39.2854     95.7552
   339.8000      1.2046      2.0256      0.1524     37.8444     39.4236     91.7448
   339.9000      1.2046      2.0487      0.1392     36.4432     39.7104     87.3252
   340.0000      1.0103      2.0613      0.2060     35.6772     40.2833     86.4496
   340.1000      1.0103      2.0498      0.1708     36.3732     40.8179     89.8653
   340.2000      1.0103      2.0280      0.1476     37.6945     41.1062     93.3630
   340.3000      0.8689      2.0169      0.1516     38.3680     41.1876     96.3030
   340.4000      0.8689      2.0171      0.1643     38.3599     41.2318    101.6422
   340.5000      1.0642      2.0204      0.1393     38.1568     41.4388    105.8095
   340.6000      1.0642      2.0218      0.1577     38.0739     41.8878    104.0243
   340.7000      1.0642      2.0203      0.1281     38.1631     42.4739    100.4907
   340.8000      1.2666      2.0199      0.1394     38.1875     42.8113     97.9234
   340.9000      1.2666      2.0201      0.1669     38.1784     42.8031     94.2400
   341.0000      1.3049      2.0226      0.1356     38.0239     42.8980     92.6590
   341.1000      1.3049      2.0333      0.1646     37.3743     43.1966     98.9031
   341.2000      1.3049      2.0439      0.1693     36.7309     43.4016    110.7551
   341.3000      1.3194      2.0426      0.1720     36.8097     43.4811    122.2188
   341.4000      1.3194      2.0327      0.1574     37.4092     43.3594    132.4322
   341.5000      1.3875      2.0251      0.1574     37.8717     42.9180    139.6561
   341.6000      1.3875      2.0223      0.1648     38.0419     42.3680    138.7158
   341.7000      1.3875      2.0168      0.1636     38.3764     42.0086    131.6250
   341.8000      1.4204      2.0075      0.1422     38.9411     41.9136    126.7563
   341.9000      1.4204      2.0087      0.1143     38.8661     41.9260    126.6195
   342.0000      1.2337      2.0278      0.1675     37.7114     41.8705    126.7041
   342.1000      1.2337      2.0465      0.1995     36.5738     41.8590    123.7635
   342.2000      1.2337      2.0424      0.2002     36.8267     41.9603    119.9768
   342.3000      0.7805      2.0069      0.1623     38.9734     42.0338    119.6604
   342.4000      0.7805      1.9499      0.1298     42.4297     42.1289    123.9378
   342.5000      0.7469      1.9014      0.1146     45.3688     42.3058    129.3600
   342.6000      0.7469      1.8950      0.0880     45.7556     42.4093    131.4879
   342.7000      0.7469      1.9369      0.1351     43.2193     42.2107    129.3900
   342.8000      2.1277      2.0083      0.1708     38.8882     41.7336    129.1967
   342.9000      2.1277      2.0919      0.2889     33.8219     41.4605    133.9754
   343.0000      3.0976      2.1685      0.3624     29.1841     41.6440    137.5797
   343.1000      3.0976      2.2081      0.4603     26.7829     41.8609    137.1884
   343.2000      3.0976      2.1847      0.4639     28.1991     41.8169    136.4382
   343.3000      1.7968      2.1135      0.2701     32.5141     41.6938    135.3550
   343.4000      1.7968      2.0466      0.1925     36.5674     41.6848    134.8708
   343.5000      0.4369      2.0110      0.1807     38.7262     41.8225    141.2792
   343.6000      0.4369      1.9946      0.1826     39.7192     42.1546    154.3808
   343.7000      0.4369      1.9823      0.1882     40.4659     42.5042    166.1207
   343.8000      0.0836      1.9685      0.1898     41.3029     42.5920    171.9224
   343.9000      0.0836      1.9561      0.1759     42.0535     42.3611    174.9313
   344.0000      0.0505      1.9576      0.1359     41.9661     41.8807    180.0922
   344.1000      0.0505      1.9745      0.1981     40.9388     41.2142    186.6373
   344.2000      0.0505      1.9855      0.2001     40.2748     40.5050    190.1568
   344.3000      0.0504      1.9709      0.2169     41.1581     39.7767    193.2270
   344.4000      0.0504      1.9314      0.1720     43.5502     38.6193    197.1446
   344.5000      0.0869      1.8756      0.1751     46.9332     36.7527    196.5985
