~Version Information
 VERS.                                  2.0 : CWLS LAS VERSION
 WRAP.                                   NO : WRAPING MODE
 SWARE .                 MController 2.5.0J : SOFTWARE VERSION
~Well Information
 WELL.                         State 16-44R : WELL
 COMP.                Petrogulf Corporation : COMPANY
 FLD.                      Purgatoire River : FIELD
 LOC.                SE/SE Sec 16 T33S R67W : LOCATION
 DATE.                          10/20-21/05 : DATE(S) LOGGED
 SRVC.       BLANCO Geological Services LLC : SERVICE COMPANY
 STAT.                                   CO : STATE
 CNTY.                           Las Animas : COUNTY
 CTRY.                                  USA : COUNTRY
 API.                       05-071-08457-00 : API NUMBER
 STRT.FT                               1.00 : START DEPTH
 STOP.FT                            1629.00 : STOP DEPTH
 STEP.FT                               1.00 : DEPTH INCREMENT
 NULL.                                -9999 : NULL VALUE
~Curve information
 DEPTH.FT                                   :
 ROP.MIN/FT                                 :
 GAS.UNITS                                  :
~ASCII Log data
# ...
       801.0         0.10         60.1 
       802.0         0.13         59.6 
       803.0         0.23         57.2 
       804.0         0.27         50.2 
       805.0         0.23         56.2 
       806.0         1.32        288.8 
       807.0         0.47        251.5 
       808.0         0.53        168.8 
       809.0         0.57        104.4 
       810.0         0.43         71.6 
       811.0         0.25         59.8 
       812.0         0.20         56.2 
       813.0         0.20         55.0 
       814.0         0.23         55.0 
       815.0         0.17         55.5 
       816.0         0.27         56.1 
       817.0         0.33         55.9 
       818.0         0.30         55.0 
       819.0         0.20         51.6 
       820.0         0.20         50.2 
       821.0         0.20         59.4 
       822.0         0.17         67.8 
       823.0         0.17         72.7 
       824.0         0.13         73.5 
       825.0         0.13         73.0 
       826.0         0.13         71.2 
       827.0         0.18         69.5 
       828.0         0.23         68.6 
       829.0         0.17         68.6 
       830.0         0.17         67.6 
       831.0         0.13         65.8 
       832.0         0.33         65.9 
       833.0         0.23         60.6 
       834.0         0.17         48.7 
       835.0         0.33         46.1 
       836.0         1.40        448.3 
       837.0         0.18        369.6 
       838.0         0.23        292.9 
       839.0         0.13        218.1 
       840.0         0.20        184.7 
       841.0         0.27        147.3 
       842.0         0.23        115.1 
       843.0         0.23         99.1 
       844.0         0.20         89.8 
       845.0         0.20         83.6 
       846.0         0.33         78.3 
       847.0         0.27         73.7 
       848.0         0.17         70.3 
       849.0         0.30         68.7 
       850.0         0.20         64.8 
       851.0         0.30         62.7 
       852.0         0.25         59.8 
       853.0         0.23         57.6 
       854.0         0.20         56.3 
       855.0         0.20         56.0 
       856.0         0.20         56.1 
       857.0         0.23         56.2 
       858.0         0.17         55.6 
       859.0         0.20         55.2 
       860.0         0.23         54.8 
       861.0         0.20         56.6 
       862.0         0.20         58.0 
       863.0         0.23         57.0 
       864.0         0.20         48.4 
       865.0         0.33         59.1 
       866.0         2.72       1391.9 
       867.0         0.40        560.3 
       868.0         0.30        530.2 
       869.0         0.38        503.2 
       870.0         0.37        484.5 
       871.0         0.27        471.8 
       872.0         0.23        449.9 
       873.0         0.33        500.7 
       874.0         0.30        536.5 
       875.0         0.17        561.6 
       876.0         0.20        604.8 
       877.0         0.17        615.6 
       878.0         0.13        613.7 
       879.0         0.13        605.1 
       880.0         0.17        596.8 
       881.0         0.13        595.6 
       882.0         0.13        591.8 
       883.0         0.13        584.5 
       884.0         0.17        581.6 
       885.0         0.18        578.4 
       886.0         0.17        572.7 
       887.0         0.17        564.8 
       888.0         0.17        556.8 
       889.0         0.17        545.4 
       890.0         0.33        534.3 
       891.0         0.27        491.8 
       892.0         0.20        457.2 
       893.0         0.23        507.3 
       894.0         0.20        626.7 
       895.0         0.20        791.4 
       896.0         1.25       1181.1 
       897.0         0.33        677.1 
       898.0         0.17        607.0 
       899.0         0.20        591.8 
       900.0         4.62        669.2 
       901.0         0.13        654.3 
       902.0         0.10        646.0 
       903.0         0.10        637.8 
       904.0         0.20        631.1 
       905.0         0.23        614.3 
       906.0         0.27        585.4 
       907.0         0.23        555.9 
       908.0         0.28        530.2 
       909.0         0.20        516.9 
       910.0         0.23        512.1 
       911.0         0.17        509.2 
       912.0         0.20        510.5 
       913.0         0.20        513.4 
       914.0         0.17        512.7 
       915.0         0.17        516.2 
       916.0         0.30        527.3 
       917.0         0.27        528.9 
       918.0         0.23        523.2 
       919.0         0.33        514.0 
       920.0         0.37        527.3 
       921.0         0.28        530.5 
       922.0         0.23        467.3 
       923.0         0.33        440.0 
       924.0         0.30         67.5 
       925.0         0.23         70.8 
       926.0         4.65       1444.9 
       927.0         0.33        637.1 
       928.0         0.23        639.4 
       929.0         0.27        620.6 
       930.0         0.22        576.2 
       931.0         0.37        532.4 
       932.0         0.27        489.2 
       933.0         0.23        466.7 
       934.0         0.20        446.4 
       935.0         0.17        456.9 
       936.0         0.20        463.2 
       937.0         0.23        488.0 
       938.0         0.17        492.7 
       939.0         0.13        502.9 
       940.0         0.13        519.4 
       941.0         0.13        564.5 
       942.0         0.13        634.6 
       943.0         0.13        675.5 
       944.0         0.13        679.0 
       945.0         0.13        673.6 
       946.0         0.10        646.0 
       947.0         0.13        631.7 
       948.0         0.13        606.0 
       949.0         0.15        584.8 
       950.0         0.17        565.7 
       951.0         0.27        561.6 
       952.0         0.40        556.2 
       953.0         0.33        453.1 
       954.0         0.47        440.0 
       955.0         0.33        154.3 
       956.0         2.08        431.1 
       957.0         0.60        172.5 
       958.0         0.37        166.8 
       959.0         0.60        143.2 
       960.0         0.50         96.0 
       961.0         0.40         82.8 
       962.0         0.42         82.7 
       963.0         0.27         75.4 
       964.0         0.40         98.9 
       965.0         0.20        111.5 
       966.0         0.20        112.4 
       967.0         0.20        110.3 
       968.0         0.17        103.9 
       969.0         0.13         98.7 
       970.0         0.17         94.2 
       971.0         0.23         96.7 
       972.0         0.23        105.2 
       973.0         0.10        104.9 
       974.0         0.20        101.9 
       975.0         0.10        103.6 
       976.0         0.10        103.9 
       977.0         0.10        101.0 
       978.0         0.13         93.8 
       979.0         0.18         82.3 
       980.0         0.10         69.7 
       981.0         0.13         74.8 
       982.0         0.10         92.0 
       983.0         0.10        119.9 
       984.0         0.13        171.3 
       985.0         0.17        254.5 
       986.0         1.60       1443.9 
       987.0         0.17        687.0 
       988.0         0.20        642.2 
       989.0         0.20        647.9 
       990.0         0.17        690.1 
       991.0         0.20        698.1 
       992.0         0.22        676.8 
       993.0         0.23        656.2 
       994.0         0.27        622.2 
       995.0         0.27        559.4 
       996.0         0.20        527.3 
       997.0         0.33        506.7 
       998.0         0.17        497.2 
       999.0         0.37        509.2 
      1000.0         0.43        509.2 
