~Version Information
VERS.                      2.0: CWLS Log ASCII Standard - VERSION 2.0
WRAP.                       NO: One line per depth step
~Well Information Block
STRT.FT               390.0000: 
STOP.FT               825.0000: 
STEP.FT                 0.1000: 
NULL.                -999.2500: 
COMP.          Pioneer Natural Resources: COMPANY
WELL.             Veedol 34-28: WELL
FLD.           Purgatoire River: FIELD
LOC.           357' FSL & 2520' FEL: LOCATION
PROV.                 Colorado: PROVINCE
CNTY.               Las Animas: COUNTRY
SRVC.                Patterson: SERVICE COMPANY
DATE.          Thu Dec 22 14:38:20 2005: LOG DATE
UWI.           05 071 08628 00: UNIQUE WELL ID
~Curve Information Block
DEPT.FT            0 000 00 00: Depth
DCAL.in                       : CDL Caliper
RHOB.g/cc                     : CDL Bulk Density
RHOC.g/cc                     : CDL Density Correction
DPOR.pu                       : CDL Density Porosity
GR.GAPI                       : Gamma Ray
NPOR.pu                       : Neutron Porosity
~Parameter Information Block
~A  Depth       DCAL        RHOB        RHOC        DPOR         GR         NPOR    
# ...
   754.8000      7.8523      2.3741      0.0302     16.7201    105.0890     19.2455
   754.9000      7.8523      2.3881     -0.0088     15.8740    109.4497     19.1435
   755.0000      7.8523      2.4013      0.0299     15.0719    110.9324     19.1919
   755.1000      7.8523      2.4098      0.0599     14.5600    106.2838     19.2330
   755.2000      7.8523      2.4098      0.0038     14.5557    102.4386     19.3603
   755.3000      7.8520      2.4115      0.0117     14.4524    102.7393     19.7061
   755.4000      7.8520      2.4240      0.0334     13.6940    103.8532     20.0035
   755.5000      7.8517      2.4363      0.0920     12.9508    102.6095     19.9478
   755.6000      7.8517      2.4294      0.0326     13.3682     98.4745     19.7713
   755.7000      7.8517      2.4067      0.0488     14.7431     95.5842     19.9345
   755.8000      7.8518      2.3844      0.0587     16.0944     97.4454     20.4317
   755.9000      7.8518      2.3718      0.0278     16.8613     98.6364     20.8046
   756.0000      7.8514      2.3679      0.0182     17.0963     96.3274     20.8269
   756.1000      7.8514      2.3662      0.0019     17.1971     95.0392     20.6523
   756.2000      7.8514      2.3643      0.0099     17.3123     96.3983     20.2586
   756.3000      7.8506      2.3671     -0.0188     17.1484     97.6299     19.6544
   756.4000      7.8506      2.3781      0.0229     16.4816     98.4434     19.6446
   756.5000      7.8511      2.3903      0.0182     15.7392    101.9894     20.5840
   756.6000      7.8511      2.3942      0.0269     15.5009    106.0393     21.5889
   756.7000      7.8511      2.3897      0.0163     15.7771    106.4996     21.8840
   756.8000      7.8521      2.3862      0.0007     15.9861    105.0427     21.3641
   756.9000      7.8521      2.3888      0.0266     15.8294    101.0956     20.4569
   757.0000      7.8523      2.3938     -0.0073     15.5299     94.1018     19.6686
   757.1000      7.8523      2.4054      0.0070     14.8264     88.4201     19.2006
   757.2000      7.8523      2.4259      0.0111     13.5795     87.0035     19.2220
   757.3000      7.8521      2.4450      0.0177     12.4214     91.5713     19.3815
   757.4000      7.8521      2.4537      0.0588     11.8997     97.3014     19.3381
   757.5000      7.8520      2.4548      0.0363     11.8310     95.5799     19.6138
   757.6000      7.8520      2.4578      0.0349     11.6458     88.9424     20.2032
   757.7000      7.8520      2.4673      0.0442     11.0710     87.3829     20.4595
   757.8000      7.8519      2.4816      0.0592     10.2079     93.3435     20.4962
   757.9000      7.8519      2.4973      0.0290      9.2535     99.6076     20.6997
   758.0000      7.8508      2.5103      0.0426      8.4667    103.4205     20.9529
   758.1000      7.8508      2.5068      0.0603      8.6812    108.8984     20.9286
   758.2000      7.8508      2.4872     -0.0004      9.8681    113.4643     20.4354
   758.3000      7.8502      2.4763     -0.0132     10.5258    111.1040     19.6439
   758.4000      7.8502      2.4788      0.0538     10.3732    104.4579     19.2907
   758.5000      7.8504      2.4786      0.0208     10.3879     98.4789     19.8899
   758.6000      7.8504      2.4777      0.0039     10.4453     94.0305     21.0289
   758.7000      7.8504      2.4820      0.0407     10.1798     90.8311     21.9024
   758.8000      7.8506      2.4803      0.0432     10.2860     89.1006     22.0345
   758.9000      7.8506      2.4706     -0.0017     10.8719     88.0026     21.6347
   759.0000      7.8512      2.4684      0.0151     11.0085     85.1517     21.2304
   759.1000      7.8512      2.4745      0.0045     10.6385     82.8371     21.2684
   759.2000      7.8512      2.4785      0.0082     10.3909     85.5969     21.5584
   759.3000      7.8519      2.4775      0.0044     10.4568     92.5277     21.4275
   759.4000      7.8519      2.4750     -0.0037     10.6079     99.5712     21.1489
   759.5000      7.8518      2.4752     -0.0084     10.5949    102.2160     21.1457
   759.6000      7.8518      2.4784      0.0020     10.4004    101.8080     21.1249
   759.7000      7.8518      2.4819      0.0057     10.1902    105.3392     20.9859
   759.8000      7.8517      2.4793      0.0085     10.3445    112.8213     20.8019
   759.9000      7.8517      2.4692     -0.0047     10.9555    118.1439     20.7401
   760.0000      7.8518      2.4579     -0.0009     11.6454    118.7533     20.9050
   760.1000      7.8518      2.4510     -0.0229     12.0579    114.7867     21.0981
   760.2000      7.8518      2.4486      0.0187     12.2062    106.1572     21.2711
   760.3000      7.8516      2.4454     -0.0055     12.3992     98.3494     21.6091
   760.4000      7.8516      2.4450     -0.0062     12.4257     97.0428     21.8477
   760.5000      7.8517      2.4542      0.0172     11.8680     99.8774     21.5811
   760.6000      7.8517      2.4684      0.0020     11.0067    102.9018     21.2095
   760.7000      7.8517      2.4781      0.0515     10.4170    103.5504     21.2597
   760.8000      7.8517      2.4773      0.0347     10.4658     99.7584     21.3866
   760.9000      7.8517      2.4669      0.0278     11.0984     92.6400     21.1300
   761.0000      7.8511      2.4549      0.0008     11.8258     86.7989     20.7877
   761.1000      7.8511      2.4488     -0.0027     12.1942     88.3729     20.7583
   761.2000      7.8511      2.4486      0.0016     12.2091     96.3751     21.0504
   761.3000      7.8510      2.4530     -0.0190     11.9421    102.3463     21.4719
   761.4000      7.8510      2.4607      0.0188     11.4736    100.8022     21.8731
   761.5000      7.8508      2.4668      0.0122     11.1002     94.6269     22.0431
   761.6000      7.8508      2.4706      0.0348     10.8727     89.2041     21.4615
   761.7000      7.8508      2.4742      0.0027     10.6538     85.5538     20.3314
   761.8000      7.8499      2.4773      0.0315     10.4644     83.3824     19.7765
   761.9000      7.8499      2.4750      0.0258     10.6073     81.5757     20.1193
   762.0000      7.8498      2.4632      0.0144     11.3215     81.5680     20.6868
   762.1000      7.8498      2.4536     -0.0161     11.9042     85.9469     21.1207
   762.2000      7.8498      2.4657      0.0122     11.1680     91.4689     21.6318
   762.3000      7.8501      2.4897      0.0348      9.7157     95.0941     21.9043
   762.4000      7.8501      2.4993      0.0178      9.1329     97.6897     21.5677
   762.5000      7.8505      2.4975     -0.0032      9.2405    101.6615     21.0941
   762.6000      7.8505      2.5019      0.0249      8.9767    106.1116     20.6663
   762.7000      7.8505      2.5117      0.0025      8.3842    107.6963     20.3219
   762.8000      7.8511      2.5168      0.0290      8.0736    104.3269     20.2523
   762.9000      7.8511      2.5148      0.0154      8.1962     98.2393     20.4593
   763.0000      7.8516      2.5135      0.0354      8.2702     95.2296     20.9982
   763.1000      7.8516      2.5202      0.0176      7.8679     96.0690     21.4750
   763.2000      7.8516      2.5272      0.0486      7.4418     97.8029     21.5499
   763.3000      7.8518      2.5204      0.0538      7.8537    101.0322     21.4875
   763.4000      7.8518      2.5026      0.0259      8.9321    104.3395     21.3625
   763.5000      7.8519      2.4874      0.0122      9.8547    103.2512     20.8256
   763.6000      7.8519      2.4795      0.0180     10.3326     97.2115     20.0290
   763.7000      7.8519      2.4771      0.0145     10.4805     87.7473     19.9167
   763.8000      7.8516      2.4773      0.0338     10.4648     78.6301     20.7048
   763.9000      7.8516      2.4758      0.0229     10.5558     74.1160     21.5453
   764.0000      7.8514      2.4700      0.0244     10.9066     73.9683     21.6186
   764.1000      7.8514      2.4640      0.0235     11.2757     76.7410     21.0085
   764.2000      7.8514      2.4670     -0.0031     11.0882     81.2779     20.5823
   764.3000      7.8521      2.4782      0.0380     10.4121     85.8157     20.8229
