~Version Information
VERS.                      2.0: CWLS Log ASCII Standard - VERSION 2.0
WRAP.                       NO: One line per depth step
~Well Information Block
STRT.FT               264.2500: 
STOP.FT              1134.7500: 
STEP.FT                 0.2500: 
NULL.                -999.2500: 
COMP.          Pioneer Natural Resources: COMPANY
WELL.          Black Cat 13-32 Tr: WELL
FLD.           Purgatoire River: FIELD
LOC.           1679' FSL & 1150' FWL--: LOCATION
CNTY.               Las Animas: COUNTY
SRVC.                Patterson: SERVICE COMPANY
DATE.          Tue Mar 07 10:58:06 2006: LOG DATE
UWI.           05 071 08721 00: UNIQUE WELL ID
STAT.                 Colorado: STATE
~Curve Information Block
DEPT.FT            0 000 00 00: Depth
SN.Ohm-m                      : IEL Short Normal
SP.mV                         : IEL Spontaneous Potential
DIR.Ohm-m                     : IEL Induction Resistivity
GR.GAPI                       : Gamma Ray
~Parameter Information Block
~A  Depth        SN          SP         DIR          GR     
# ...
   632.7500    499.4708   -419.4675     42.5236     95.7070
   633.0000    549.8671   -409.1797     43.1148     95.8980
   633.2500    577.5757   -392.8766     43.7309     95.6776
   633.5000    589.3752   -372.7314     44.3643     94.6939
   633.7500    591.1240   -351.3425     45.0079     93.6688
   634.0000    583.6190   -331.5674     45.6594     92.0011
   634.2500    561.6920   -316.2726     46.2948     91.0058
   634.5000    517.1849   -307.9809     46.8353     89.6203
   634.7500    446.1202   -308.4614     47.1602     88.5971
   635.0000    356.4809   -318.3659     47.1807     86.9435
   635.2500    269.3396   -337.0376     46.9137     86.1439
   635.5000    210.4803   -362.5826     46.4808     86.3956
   635.7500    198.2973   -392.2148     46.0340     87.8648
   636.0000    235.7788   -422.7945     45.6840     91.4250
   636.2500    309.6678   -451.4097     45.4802     93.7465
   636.5000    396.6978   -475.8511     45.4317     95.6295
   636.7500    474.5986   -494.8716     45.5299     95.5743
   637.0000    531.2501   -508.1978     45.7587     94.0382
   637.2500    565.8912   -516.3452     46.0986     92.3701
   637.5000    584.0297   -520.3226     46.5349     89.1553
   637.7500    592.1594   -521.3307     47.0646     86.7366
   638.0000    595.2252   -520.5166     47.6910     83.4062
   638.2500    596.1742   -518.8218     48.4096     81.8769
   638.5000    596.4103   -516.9199     49.2015     81.1712
   638.7500    596.4536   -515.2230     50.0330     81.7289
   639.0000    596.4615   -513.9283     50.8601     83.2856
   639.2500    596.4615   -513.0801     51.6417     83.9822
   639.5000    596.4615   -512.6319     52.3646     83.0850
   639.7500    596.4615   -512.4960     53.0690     80.6813
   640.0000    596.4615   -512.5777     53.8515     74.4861
   640.2500    596.4615   -512.7982     54.8277     69.2846
   640.5000    596.4615   -513.0987     56.0714     61.4056
   640.7500    596.4615   -513.4467     57.5564     56.7905
   641.0000    596.4615   -513.8297     59.1370     51.3880
   641.2500    596.4615   -514.2485     60.5921     48.9266
   641.5000    596.4615   -514.7049     61.7233     46.9837
   641.7500    596.4615   -515.1869     62.4459     46.6953
   642.0000    596.4615   -515.6492     62.8060     47.0745
   642.2500    596.4615   -515.9964     62.9145     47.3315
   642.5000    596.4615   -516.0674     62.8687     47.0872
   642.7500    596.4615   -515.6372     62.7219     46.4849
   643.0000    596.4615   -514.4322     62.5178     45.3316
   643.2500    596.4615   -512.1692     62.3350     44.6999
   643.5000    596.4615   -508.6189     62.2837     44.4163
   643.7500    596.4615   -503.6842     62.4414     44.7883
   644.0000    596.4517   -497.4792     62.7908     45.8006
   644.2500    596.3735   -490.3844     63.2260     46.2837
   644.5000    595.9526   -483.0496     63.6302     46.2298
   644.7500    594.1838   -476.3290     63.9562     45.9258
   645.0000    588.3289   -471.1471     64.2308     46.0476
   645.2500    573.0688   -468.3199     64.4838     46.9151
   645.5000    541.9582   -468.3791     64.6758     49.2358
   645.7500    493.0592   -471.4520     64.6887     50.9083
   646.0000    436.0241   -477.2388     64.3888     52.3782
   646.2500    392.2877   -485.0937     63.7063     52.1941
   646.5000    383.1669   -494.1850     62.6725     50.2877
   646.7500    413.8091   -503.6783     61.3879     48.4751
   647.0000    468.6947   -512.8880     59.9690     46.0934
   647.2500    523.8208   -521.3549     58.5154     45.1521
   647.5000    563.0887   -528.8470     57.1034     44.6193
   647.7500    584.1451   -535.2987     55.7902     44.4581
   648.0000    592.8304   -540.7273     54.6181     43.9687
   648.2500    595.6116   -545.1589     53.6196     43.4782
   648.5000    596.3066   -548.5845     52.8165     42.8317
   648.7500    596.4154   -550.9486     52.2009     42.6860
   649.0000    596.2618   -552.1621     51.7010     43.2427
   649.2500    595.3945   -552.1282     51.1560     44.2293
   649.5000    591.9912   -550.7646     50.3319     46.4881
   649.7500    581.6586   -548.0176     49.0008     48.4121
   650.0000    557.4715   -543.8646     47.0537     52.2095
   650.2500    514.1760   -538.3052     44.5667     55.7544
   650.5000    455.9736   -531.3361     41.7602     63.1218
   650.7500    399.9131   -522.9302     38.8842     69.4133
   651.0000    367.5438   -513.0075     36.1222     80.5663
   651.2500    370.7723   -501.4358     33.5672     88.7895
   651.5000    405.6419   -488.0597     31.2535    101.1923
   651.7500    457.5095   -472.7740     29.1998    108.5921
   652.0000    509.8567   -455.6381     27.4319    117.2068
   652.2500    550.7761   -437.0103     25.9801    121.2480
   652.5000    575.6783   -417.6594     24.8639    125.5111
   652.7500    585.4136   -398.8010     24.0828    127.5424
   653.0000    580.9540   -382.0164     23.6155    129.3472
   653.2500    559.3837   -369.0360     23.4274    129.4068
   653.5000    516.2002   -361.4224     23.4778    127.3658
   653.7500    453.8598   -360.2246     23.7247    124.6988
   654.0000    388.7953   -365.7075     24.1274    119.6260
   654.2500    346.4163   -377.2447     24.6467    116.2481
   654.5000    344.4684   -393.4202     25.2441    112.0996
   654.7500    380.1598   -412.3140     25.8753    110.0545
   655.0000    434.5544   -431.8885     26.4811    107.9770
   655.2500    488.2423   -450.3629     26.9826    107.5225
   655.5000    531.2556   -466.4789     27.2960    109.1915
   655.7500    561.5793   -479.6023     27.3688    112.0606
   656.0000    580.4293   -489.6726     27.2094    117.9936
   656.2500    590.3460   -497.0457     26.8792    122.1143
   656.5000    594.5759   -502.3018     26.4494    127.4741
   656.7500    596.0012   -506.0758     25.9652    130.1521
   657.0000    596.3735   -508.9431     25.4435    132.1616
   657.2500    596.4480   -511.3656     24.8980    131.9034
   657.5000    596.4615   -513.6830     24.3569    129.6552
   657.7500    596.4615   -516.1297     23.8572    127.7038
   658.0000    596.4615   -518.8574     23.4249    125.1623
   658.2500    596.4615   -521.9515     23.0603    123.8829
   658.5000    596.4615   -525.4392     22.7398    122.5888
   658.7500    596.4615   -529.2939     22.4286    122.3025
   659.0000    596.4615   -533.4313     22.0951    123.0183
   659.2500    596.4615   -537.7187     21.7177    124.1360
   659.5000    596.4615   -541.9777     21.2843    126.1922
   659.7500    596.4415   -546.0022     20.7925    127.5927
   660.0000    596.3052   -549.5752     20.2515    129.8435
   660.2500    595.6308   -552.4850     19.6863    131.5960
   660.5000    592.9871   -554.5386     19.1338    134.4904
   660.7500    585.0000   -555.5701     18.6327    136.2291
   661.0000    566.5995   -555.4453     18.2123    137.8189
   661.2500    534.8209   -554.0667     17.8880    138.0432
   661.5000    495.0700   -551.3809     17.6637    137.4072
   661.7500    461.9551   -547.3926     17.5338    136.5486
   662.0000    448.6779   -542.1801     17.4852    134.7318
   662.2500    454.7349   -535.9093     17.4979    133.1376
   662.5000    468.4188   -528.8384     17.5490    129.9692
   662.7500    481.2914   -521.3050     17.6206    127.1005
   663.0000    494.7415   -513.6954     17.7064    121.5262
   663.2500    512.6424   -506.4000     17.8113    117.3934
   663.5000    534.0955   -499.7651     17.9466    112.0545
   663.7500    554.9098   -494.0519     18.1191    109.9172
   664.0000    571.8347   -489.4146     18.3219    109.6049
   664.2500    583.7249   -485.8991     18.5307    111.3318
   664.5000    590.8716   -483.4621     18.7098    116.1738
   664.7500    594.4359   -482.0011     18.8255    120.1792
   665.0000    595.8688   -481.3874     18.8578    125.8804
   665.2500    596.3241   -481.4924     18.8027    128.8855
   665.5000    596.4358   -482.2040     18.6677    132.1782
   665.7500    596.4583   -483.4323     18.4666    133.9879
   666.0000    596.4615   -485.1031     18.2187    136.7905
