~Version Information
VERS.                      2.0: CWLS Log ASCII Standard - VERSION 2.0
WRAP.                       NO: One line per depth step
~Well Information Block
STRT.FT               615.0000: 
STOP.FT              2815.0000: 
STEP.FT                 0.2500: 
NULL.                -999.2500: 
COMP.          Pioneer Natural Resources: COMPANY
WELL.              Loews 41-32: WELL
FLD.           Purgatoire River: FIELD
LOC.           751' FNL & 128' FEL: LOCATION
CNTY.               Las Animas: COUNTY
SRVC.                Patterson: SERVICE COMPANY
DATE.          Sun Feb 12 02:27:11 2006: LOG DATE
UWI.           05 071 08693 00: UNIQUE WELL ID
STAT.                 Colorado: STATE
~Curve Information Block
DEPT.FT            0 000 00 00: Depth
SN.Ohm-m                      : IEL Short Normal
SP.mV                         : IEL Spontaneous Potential
DIR.Ohm-m                     : IEL Induction Resistivity
GR.GAPI                       : Gamma Ray
~Parameter Information Block
~A  Depth        SN          SP         DIR          GR     
# ...
  2055.5000      8.9010     31.0554      8.8196    130.2496
  2055.7500      8.8798     30.8297      8.9250    127.7283
  2056.0000      8.7556     30.6470      9.0405    125.0934
  2056.2500      8.6911     30.5177      9.1712    124.3151
  2056.5000      8.7551     30.4306      9.3237    124.3112
  2056.7500      8.9368     30.3615      9.5027    124.8304
  2057.0000      9.1997     30.2873      9.7093    125.8503
  2057.2500      9.4573     30.1953      9.9426    126.1801
  2057.5000      9.6287     30.0889     10.1991    125.2520
  2057.7500      9.7611     29.9878     10.4731    123.6465
  2058.0000      9.9602     29.9219     10.7564    120.8811
  2058.2500     10.2311     29.9181     11.0405    119.5927
  2058.5000     10.5023     29.9859     11.3192    118.8001
  2058.7500     10.7703     30.1138     11.5886    118.7007
  2059.0000     11.1170     30.2762     11.8456    118.7689
  2059.2500     11.5584     30.4454     12.0852    118.8558
  2059.5000     11.9841     30.6008     12.3007    118.5925
  2059.7500     12.3048     30.7334     12.4883    117.8561
  2060.0000     12.5625     30.8459     12.6523    116.0328
  2060.2500     12.8064     30.9490     12.8063    114.7331
  2060.5000     12.9655     31.0576     12.9681    113.2365
  2060.7500     12.9718     31.1867     13.1526    112.6832
  2061.0000     12.8809     31.3464     13.3634    112.7521
  2061.2500     12.7704     31.5380     13.5873    113.6054
  2061.5000     12.6619     31.7532     13.7948    116.0984
  2061.7500     12.6053     31.9785     13.9476    118.0215
  2062.0000     12.7015     32.1985     14.0117    119.6016
  2062.2500     12.9745     32.3974     13.9648    118.9054
  2062.5000     13.2832     32.5607     13.7965    114.9416
  2062.7500     13.4346     32.6798     13.5081    111.0170
  2063.0000     13.3597     32.7570     13.1150    105.3573
  2063.2500     13.0769     32.8089     12.6475    103.2509
  2063.5000     12.6071     32.8642     12.1433    105.0423
  2063.7500     12.0329     32.9546     11.6381    110.4283
  2064.0000     11.4715     33.1017     11.1596    124.2938
  2064.2500     10.9648     33.3065     10.7262    135.6971
  2064.5000     10.4843     33.5483     10.3460    151.9482
  2064.7500      9.9735     33.7942     10.0164    160.2993
  2065.0000      9.4003     34.0143      9.7247    167.8829
  2065.2500      8.8481     34.1912      9.4537    169.9814
  2065.5000      8.4923     34.3223      9.1880    170.0510
  2065.7500      8.4040     34.4149      8.9223    168.8329
  2066.0000      8.4335     34.4838      8.6638    166.2005
  2066.2500      8.3769     34.5516      8.4291    164.4437
  2066.5000      8.1879     34.6451      8.2364    162.3770
  2066.7500      7.9262     34.7851      8.0986    161.3343
  2067.0000      7.6518     34.9735      8.0204    159.6509
  2067.2500      7.4687     35.1907      8.0001    158.1522
  2067.5000      7.4932     35.4030      8.0326    155.5341
  2067.7500      7.7636     35.5759      8.1125    153.9148
  2068.0000      8.2248     35.6858      8.2328    151.8594
  2068.2500      8.7208     35.7287      8.3835    150.3273
  2068.5000      9.0729     35.7232      8.5508    146.7107
  2068.7500      9.2360     35.7012      8.7197    143.0904
  2069.0000      9.2834     35.6902      8.8788    136.2451
  2069.2500      9.2448     35.7003      9.0224    131.3024
  2069.5000      9.1461     35.7264      9.1488    124.2537
  2069.7500      9.1293     35.7588      9.2593    120.3538
  2070.0000      9.2944     35.7918      9.3586    116.8852
  2070.2500      9.5558     35.8245      9.4573    116.6677
  2070.5000      9.7941     35.8568      9.5715    119.0518
  2070.7500      9.9396     35.8848      9.7179    121.4497
  2071.0000      9.9316     35.8989      9.9090    124.7393
  2071.2500      9.8191     35.8872     10.1484    126.6499
  2071.5000      9.7441     35.8427     10.4294    129.8490
  2071.7500      9.7707     35.7662     10.7370    132.3840
  2072.0000      9.9107     35.6665     11.0522    136.1814
  2072.2500     10.1668     35.5624     11.3577    138.0814
  2072.5000     10.4512     35.4806     11.6428    138.7587
  2072.7500     10.6740     35.4418     11.9036    137.1745
  2073.0000     10.8908     35.4474     12.1400    131.8444
  2073.2500     11.1950     35.4811     12.3504    127.2430
  2073.5000     11.5853     35.5241     12.5295    120.9418
  2073.7500     12.0155     35.5659     12.6719    118.0207
  2074.0000     12.4444     35.6060     12.7806    115.7564
  2074.2500     12.8699     35.6520     12.8712    115.1830
  2074.5000     13.2973     35.7166     12.9638    114.8508
  2074.7500     13.5983     35.8118     13.0626    114.9334
  2075.0000     13.6010     35.9403     13.1391    116.1941
  2075.2500     13.3049     36.0921     13.1378    117.9916
  2075.5000     12.8337     36.2480     13.0094    121.0744
  2075.7500     12.2995     36.3842     12.7472    122.2618
  2076.0000     11.7745     36.4794     12.3900    121.7563
  2076.2500     11.3021     36.5252     11.9892    120.4518
  2076.5000     10.9013     36.5341     11.5769    119.1661
  2076.7500     10.5702     36.5342     11.1607    119.8184
  2077.0000     10.2938     36.5504     10.7391    123.7796
  2077.2500     10.0596     36.5860     10.3157    128.2056
  2077.5000      9.8748     36.6193      9.9026    136.2564
  2077.7500      9.7654     36.6152      9.5142    141.4215
  2078.0000      9.7044     36.5428      9.1596    147.0144
  2078.2500      9.5462     36.3912      8.8414    148.9076
  2078.5000      9.1631     36.1777      8.5583    149.9908
  2078.7500      8.6102     35.9388      8.3093    150.7171
  2079.0000      8.0579     35.7075      8.0940    153.4531
  2079.2500      7.6473     35.4970      7.9102    156.6635
  2079.5000      7.4543     35.3039      7.7526    163.1629
  2079.7500      7.4435     35.1212      7.6118    168.1279
  2080.0000      7.4293     34.9449      7.4779    175.1679
  2080.2500      7.2703     34.7730      7.3433    178.4598
  2080.5000      7.0665     34.6068      7.2053    179.5744
  2080.7500      6.9940     34.4534      7.0666    177.6097
  2081.0000      7.0276     34.3207      6.9330    172.1932
  2081.2500      7.0336     34.2117      6.8102    168.3785
  2081.5000      7.0623     34.1229      6.7028    164.2182
  2081.7500      7.2153     34.0516      6.6136    162.8741
  2082.0000      7.3366     34.0021      6.5446    162.6881
  2082.2500      7.2054     33.9828      6.4962    163.2988
  2082.5000      6.9117     33.9999      6.4677    164.5058
  2082.7500      6.7819     34.0535      6.4557    165.2377
  2083.0000      6.9529     34.1400      6.4543    166.0790
  2083.2500      7.1845     34.2547      6.4555    166.4223
  2083.5000      7.1788     34.3915      6.4529    166.5710
  2083.7500      6.9144     34.5395      6.4457    166.4473
  2084.0000      6.6053     34.6800      6.4400    165.9342
  2084.2500      6.4928     34.7909      6.4458    165.3275
  2084.5000      6.6328     34.8547      6.4699    164.0554
  2084.7500      6.8591     34.8668      6.5112    163.1256
  2085.0000      7.0003     34.8376      6.5614    161.8087
  2085.2500      7.0515     34.7880      6.6105    160.7471
  2085.5000      7.0716     34.7426      6.6518    157.6778
  2085.7500      7.0611     34.7208      6.6847    153.9838
  2086.0000      7.0181     34.7315      6.7132    146.6268
  2086.2500      6.9680     34.7722      6.7411    142.2786
  2086.5000      6.9193     34.8338      6.7683    140.1196
  2086.7500      6.8510     34.9046      6.7888    142.4160
  2087.0000      6.7270     34.9739      6.7937    149.9547
  2087.2500      6.5532     35.0291      6.7749    156.0046
  2087.5000      6.4026     35.0529      6.7294    164.2076
  2087.7500      6.3140     35.0252      6.6583    168.3340
  2088.0000      6.2707     34.9331      6.5649    171.9728
  2088.2500      6.3165     34.7804      6.4536    172.6972
  2088.5000      6.5058     34.5892      6.3303    171.7966
  2088.7500      6.7787     34.3916      6.2026    170.4303
