~Version Information
VERS.                      2.0: CWLS Log ASCII Standard - VERSION 2.0
WRAP.                       NO: One line per depth step
~Well Information Block
STRT.FT                -6.2500: 
STOP.FT              2245.0000: 
STEP.FT                 0.0500: 
NULL.                -999.2500: 
COMP.          Pioneer Natural Resources: COMPANY
WELL.          Roadster 41-33 Kv: WELL
FLD.           Purgatoire River: FIELD
LOC.           903' FNL & 248' FEL--: LOCATION
PROV.                 Colorado: PROVINCE
CNTY.               Las Animas: COUNTRY
SRVC.                Patterson: SERVICE COMPANY
DATE.          Tue Jan 17 11:20:00 2006: LOG DATE
UWI.           05 071 08615 00: UNIQUE WELL ID
~Curve Information Block
DEPT.FT            0 000 00 00: Depth
CCL.                          : Casing Collar Locator
TT3.usec                      : CBL 3' Travel Time
AMP3.mV                       : CBL 3' Amplitude
GR.GAPI                       : Gamma Ray
~Parameter Information Block
~A  Depth       CCL         TT3         AMP3         GR     
# ...
  1635.2500      0.0000    750.2686      4.8024    189.8944
  1635.3000      0.0000    750.2686      4.8024    189.8944
  1635.3500      0.0000    750.2686      4.8024    189.8944
  1635.4000      0.0000    750.2686      4.8024    189.8944
  1635.4500      0.0000    750.2686      4.8024    189.8944
  1635.5000      0.0000    759.2104      4.7783    183.5660
  1635.5500      0.0000    759.2104      4.7783    183.5660
  1635.6000      0.0000    759.2104      4.7783    183.5660
  1635.6500      0.0000    759.2104      4.7783    183.5660
  1635.7000      0.0000    759.2104      4.7783    183.5660
  1635.7500      0.0000    764.2988      4.7669    176.9730
  1635.8000      0.0000    764.2988      4.7669    176.9730
  1635.8500      0.0000    764.2988      4.7669    176.9730
  1635.9000      2.0000    764.2988      4.7669    176.9730
  1635.9500      2.0000    764.2988      4.7669    176.9730
  1636.0000      2.0000    763.7040      4.7928    173.5385
  1636.0500      0.0000    763.7040      4.7928    173.5385
  1636.1000     -2.0000    763.7040      4.7928    173.5385
  1636.1500     -2.0000    763.7040      4.7928    173.5385
  1636.2000     -2.0000    763.7040      4.7928    173.5385
  1636.2500      2.0000    755.9557      4.8654    173.9570
  1636.3000      2.0000    755.9557      4.8654    173.9570
  1636.3500      2.0000    755.9557      4.8654    173.9570
  1636.4000     -2.0000    755.9557      4.8654    173.9570
  1636.4500     -2.0000    755.9557      4.8654    173.9570
  1636.5000     -2.0000    740.4163      4.9713    176.9576
  1636.5500     -2.0000    740.4163      4.9713    176.9576
  1636.6000      2.0000    740.4163      4.9713    176.9576
  1636.6500      2.0000    740.4163      4.9713    176.9576
  1636.7000      2.0000    740.4163      4.9713    176.9576
  1636.7500      0.0000    718.1991      5.0850    180.8061
  1636.8000     -2.0000    718.1991      5.0850    180.8061
  1636.8500     -2.0000    718.1991      5.0850    180.8061
  1636.9000      0.0000    718.1991      5.0850    180.8061
  1636.9500      0.0000    718.1991      5.0850    180.8061
  1637.0000      0.0000    693.1417      5.1934    183.5813
  1637.0500      0.0000    693.1417      5.1934    183.5813
  1637.1000      0.0000    693.1417      5.1934    183.5813
  1637.1500      0.0000    693.1417      5.1934    183.5813
  1637.2000      0.0000    693.1417      5.1934    183.5813
  1637.2500      0.0000    671.6996      5.3090    183.2783
  1637.3000      0.0000    671.6996      5.3090    183.2783
  1637.3500      0.0000    671.6996      5.3090    183.2783
  1637.4000      0.0000    671.6996      5.3090    183.2783
  1637.4500      0.0000    671.6996      5.3090    183.2783
  1637.5000      0.0000    660.4796      5.4496    178.9833
  1637.5500      0.0000    660.4796      5.4496    178.9833
  1637.6000      0.0000    660.4796      5.4496    178.9833
  1637.6500      0.0000    660.4796      5.4496    178.9833
  1637.7000      0.0000    660.4796      5.4496    178.9833
  1637.7500      0.0000    662.0786      5.6062    171.7687
  1637.8000      0.0000    662.0786      5.6062    171.7687
  1637.8500      0.0000    662.0786      5.6062    171.7687
  1637.9000      0.0000    662.0786      5.6062    171.7687
  1637.9500      0.0000    662.0786      5.6062    171.7687
  1638.0000      0.0000    673.0018      5.7487    163.7937
  1638.0500      0.0000    673.0018      5.7487    163.7937
  1638.1000      0.0000    673.0018      5.7487    163.7937
  1638.1500      0.0000    673.0018      5.7487    163.7937
  1638.2000      0.0000    673.0018      5.7487    163.7937
  1638.2500      0.0000    686.4078      5.8553    156.7673
  1638.3000      0.0000    686.4078      5.8553    156.7673
  1638.3500      0.0000    686.4078      5.8553    156.7673
  1638.4000      0.0000    686.4078      5.8553    156.7673
  1638.4500      0.0000    686.4078      5.8553    156.7673
  1638.5000      0.0000    697.0989      5.9197    151.5987
  1638.5500      0.0000    697.0989      5.9197    151.5987
  1638.6000      0.0000    697.0989      5.9197    151.5987
  1638.6500      0.0000    697.0989      5.9197    151.5987
  1638.7000      0.0000    697.0989      5.9197    151.5987
  1638.7500      0.0000    704.0167      5.9402    148.6235
  1638.8000      0.0000    704.0167      5.9402    148.6235
  1638.8500      0.0000    704.0167      5.9402    148.6235
  1638.9000      0.0000    704.0167      5.9402    148.6235
  1638.9500      0.0000    704.0167      5.9402    148.6235
  1639.0000      0.0000    708.9329      5.9218    147.2520
  1639.0500      0.0000    708.9329      5.9218    147.2520
  1639.1000      0.0000    708.9329      5.9218    147.2520
  1639.1500      0.0000    708.9329      5.9218    147.2520
  1639.2000      0.0000    708.9329      5.9218    147.2520
  1639.2500      0.0000    713.7043      5.8818    146.1528
  1639.3000      0.0000    713.7043      5.8818    146.1528
  1639.3500      0.0000    713.7043      5.8818    146.1528
  1639.4000      0.0000    713.7043      5.8818    146.1528
  1639.4500      0.0000    713.7043      5.8818    146.1528
  1639.5000      0.0000    718.4186      5.8416    144.8551
  1639.5500      0.0000    718.4186      5.8416    144.8551
  1639.6000      0.0000    718.4186      5.8416    144.8551
  1639.6500      0.0000    718.4186      5.8416    144.8551
  1639.7000      0.0000    718.4186      5.8416    144.8551
  1639.7500      0.0000    721.4142      5.8116    144.5893
  1639.8000      0.0000    721.4142      5.8116    144.5893
  1639.8500      0.0000    721.4142      5.8116    144.5893
  1639.9000      0.0000    721.4142      5.8116    144.5893
  1639.9500      0.0000    721.4142      5.8116    144.5893
  1640.0000      0.0000    721.0231      5.7862    146.5566
  1640.0500      0.0000    721.0231      5.7862    146.5566
  1640.1000      0.0000    721.0231      5.7862    146.5566
  1640.1500      0.0000    721.0231      5.7862    146.5566
  1640.2000      0.0000    721.0231      5.7862    146.5566
  1640.2500      0.0000    717.4075      5.7512    149.8611
  1640.3000      0.0000    717.4075      5.7512    149.8611
  1640.3500      0.0000    717.4075      5.7512    149.8611
  1640.4000      0.0000    717.4075      5.7512    149.8611
  1640.4500      0.0000    717.4075      5.7512    149.8611
  1640.5000      0.0000    712.5483      5.6932    152.2666
  1640.5500      0.0000    712.5483      5.6932    152.2666
  1640.6000      0.0000    712.5483      5.6932    152.2666
  1640.6500      0.0000    712.5483      5.6932    152.2666
  1640.7000      0.0000    712.5483      5.6932    152.2666
  1640.7500      0.0000    708.5178      5.6081    152.8050
  1640.8000      0.0000    708.5178      5.6081    152.8050
  1640.8500      0.0000    708.5178      5.6081    152.8050
  1640.9000      0.0000    708.5178      5.6081    152.8050
  1640.9500      0.0000    708.5178      5.6081    152.8050
  1641.0000      0.0000    706.1222      5.5077    152.5003
  1641.0500      0.0000    706.1222      5.5077    152.5003
  1641.1000      0.0000    706.1222      5.5077    152.5003
  1641.1500      0.0000    706.1222      5.5077    152.5003
  1641.2000      0.0000    706.1222      5.5077    152.5003
  1641.2500      0.0000    705.0386      5.4118    152.1668
  1641.3000      0.0000    705.0386      5.4118    152.1668
  1641.3500      0.0000    705.0386      5.4118    152.1668
  1641.4000      0.0000    705.0386      5.4118    152.1668
  1641.4500      0.0000    705.0386      5.4118    152.1668
  1641.5000      0.0000    704.6497      5.3281    150.8229
  1641.5500      0.0000    704.6497      5.3281    150.8229
  1641.6000      0.0000    704.6497      5.3281    150.8229
  1641.6500      0.0000    704.6497      5.3281    150.8229
  1641.7000      0.0000    704.6497      5.3281    150.8229
  1641.7500      0.0000    704.5374      5.2441    147.5839
  1641.8000      0.0000    704.5374      5.2441    147.5839
  1641.8500      0.0000    704.5374      5.2441    147.5839
  1641.9000      0.0000    704.5374      5.2441    147.5839
