~Version Information
VERS.                      2.0: CWLS Log ASCII Standard - VERSION 2.0
WRAP.                       NO: One line per depth step
~Well Information Block
STRT.FT               330.0000: 
STOP.FT              1876.2000: 
STEP.FT                 0.1000: 
NULL.                -999.2500: 
COMP.          Pioneer Natural Resources: COMPANY
WELL.          Cooper 11-13 Tr: WELL
FLD.           Purgatoire River: FIELD
LOC.           476' FNL & 738' FWL: LOCATION
STAT.                 Colorado: State
CNTY.               Las Animas: COUNTY
CTRY. USA : Country
SECT. 13 : Section
TOWN. 32S : Township
RANG. 67W : Range 
SRVC.                Patterson: SERVICE COMPANY
DATE.          Mon Sep 26 10:28:17 2005: LOG DATE
API.           05 071 08525 00: UNIQUE WELL ID
~Curve Information Block
DEPT.FT            0 000 00 00: Depth
DCAL.in                       : CDL Caliper
RHOB.g/cc                     : CDL Bulk Density
RHOC.g/cc                     : CDL Density Correction
DPOR.pu                       : CDL Density Porosity
NPOR.pu                       : Neutron Porosity
GR.GAPI                       : Gamma Ray
~Parameter Information Block
~A  Depth       DCAL        RHOB        RHOC        DPOR        NPOR         GR     
# ...
  1242.0000      7.8913      2.6884      0.0705     -2.3272     29.8453    103.4607
  1242.1000      7.8913      2.6569      0.0337     -0.4155     29.0629     98.8927
  1242.2000      7.8913      2.6310      0.0276      1.1528     28.6515     93.8335
  1242.3000      7.8967      2.6201      0.0278      1.8128     28.7785     89.9818
  1242.4000      7.8967      2.6196     -0.0117      1.8425     29.1618     88.9415
  1242.5000      7.9050      2.6127      0.0401      2.2593     29.9157     92.0897
  1242.6000      7.9050      2.5879      0.0387      3.7630     31.0194     96.9980
  1242.7000      7.9050      2.5585      0.0083      5.5436     31.6007     96.8631
  1242.8000      7.9031      2.5478      0.0208      6.1954     31.1546     92.8718
  1242.9000      7.9031      2.5567      0.0111      5.6518     30.4014     92.1551
  1243.0000      7.8925      2.5736      0.0228      4.6330     30.2113     94.8162
  1243.1000      7.8925      2.5921      0.0315      3.5069     30.5551     99.1807
  1243.2000      7.8925      2.6051      0.0575      2.7196     30.9649    103.4067
  1243.3000      7.8859      2.5991      0.0283      3.0871     31.0957    103.2307
  1243.4000      7.8859      2.5705      0.0502      4.8207     31.0055     99.8289
  1243.5000      7.8844      2.5386     -0.0173      6.7499     30.9710     96.4498
  1243.6000      7.8844      2.5343     -0.0030      7.0107     30.9826     94.5695
  1243.7000      7.8844      2.5583      0.0943      5.5579     30.9986     95.3995
  1243.8000      7.8861      2.5852      0.0588      3.9246     31.0227     96.7430
  1243.9000      7.8861      2.6040      0.0710      2.7902     30.9225     95.8397
  1244.0000      7.8887      2.6193      0.0548      1.8623     30.8598     94.0035
  1244.1000      7.8887      2.6375      0.0755      0.7564     30.9220     94.7472
  1244.2000      7.8887      2.6587      0.0590     -0.5267     31.0424     98.5247
  1244.3000      7.8895      2.6724      0.0937     -1.3595     31.5644    101.4556
  1244.4000      7.8895      2.6656      0.1061     -0.9431     32.2107     99.6782
  1244.5000      7.8890      2.6452      0.0495      0.2929     32.2731     95.3763
  1244.6000      7.8890      2.6376      0.0360      0.7525     32.2687     95.8741
  1244.7000      7.8890      2.6447      0.0569      0.3220     32.8303    102.2003
  1244.8000      7.8923      2.6369      0.0372      0.7958     33.4749    108.5445
  1244.9000      7.8923      2.6077     -0.0198      2.5651     33.7687    112.3889
  1245.0000      7.9024      2.5860     -0.0188      3.8811     33.7115    114.1220
  1245.1000      7.9024      2.5844     -0.0019      3.9738     33.3176    112.3643
  1245.2000      7.9024      2.5850      0.0308      3.9413     32.9160    108.4115
  1245.3000      7.9129      2.5779      0.0044      4.3673     32.9474    107.5232
  1245.4000      7.9129      2.5761      0.0487      4.4815     33.2313    110.5351
  1245.5000      7.9223      2.5866      0.0792      3.8401     33.3562    114.7243
  1245.6000      7.9223      2.6054      0.0703      2.7045     33.4622    119.3460
  1245.7000      7.9223      2.6231      0.1117      1.6285     33.8298    123.1243
  1245.8000      7.9326      2.6257      0.1108      1.4736     34.3633    125.5624
  1245.9000      7.9326      2.6120      0.1139      2.3014     34.8202    126.1004
  1246.0000      7.9397      2.6017      0.0928      2.9263     35.0876    122.7426
  1246.1000      7.9397      2.6013      0.1338      2.9508     34.9643    117.8197
  1246.2000      7.9397      2.5929      0.0872      3.4603     34.4003    113.7408
  1246.3000      7.9411      2.5798      0.0408      4.2522     33.7460    111.8210
  1246.4000      7.9411      2.5868      0.0382      3.8296     33.3731    113.7419
  1246.5000      7.9379      2.6086      0.0847      2.5112     33.3694    118.0215
  1246.6000      7.9379      2.6146      0.0521      2.1460     33.4100    119.8718
  1246.7000      7.9379      2.5945      0.0255      3.3654     32.9791    116.6295
  1246.8000      7.9321      2.5650      0.0549      5.1534     32.2463    111.4790
  1246.9000      7.9321      2.5532      0.0373      5.8646     31.9433    106.7798
  1247.0000      7.9181      2.5767      0.0900      4.4446     31.9908    101.7364
  1247.1000      7.9181      2.6178      0.0783      1.9502     31.8526     99.7218
  1247.2000      7.9181      2.6432      0.0617      0.4139     31.6318    102.7892
  1247.3000      7.8952      2.6444      0.0704      0.3394     31.8170    103.4558
  1247.4000      7.8952      2.6292      0.0752      1.2581     32.5375     98.3116
  1247.5000      7.8808      2.5975      0.0721      3.1822     33.3891     93.8589
  1247.6000      7.8808      2.5537      0.0311      5.8370     33.7201     92.5445
  1247.7000      7.8808      2.5161     -0.0137      8.1146     33.3712     92.1383
  1247.8000      7.8826      2.4936      0.0537      9.4817     32.8412     92.9598
  1247.9000      7.8826      2.4726      0.0471     10.7545     32.5909     97.4611
  1248.0000      7.8943      2.4429      0.0274     12.5485     32.6278    104.1709
  1248.1000      7.8943      2.4164     -0.0395     14.1558     32.6020    107.0370
  1248.2000      7.8943      2.4066     -0.0044     14.7499     32.3991    103.7366
  1248.3000      7.9068      2.4114      0.0039     14.4619     32.0328     98.4592
  1248.4000      7.9068      2.4260      0.0479     13.5781     31.5202     96.8633
  1248.5000      7.9117      2.4524      0.0341     11.9769     31.0559     99.0997
  1248.6000      7.9117      2.4938      0.0999      9.4693     30.7678    100.7833
  1248.7000      7.9117      2.5417      0.1827      6.5632     30.6267     99.2918
  1248.8000      7.9125      2.5823      0.2097      4.1009     30.6668     95.5699
  1248.9000      7.9125      2.6132      0.1941      2.2300     31.0652     92.7884
  1249.0000      7.9154      2.6397      0.1897      0.6252     31.5040     94.3124
  1249.1000      7.9154      2.6623      0.1874     -0.7444     31.6504    100.4912
  1249.2000      7.9154      2.6750      0.1874     -1.5154     31.7389    107.4745
  1249.3000      7.9163      2.6719      0.1161     -1.3298     31.8298    110.2998
  1249.4000      7.9163      2.6572      0.0833     -0.4365     31.7171    107.6613
  1249.5000      7.9150      2.6403      0.0479      0.5862     31.5664    102.7587
  1249.6000      7.9150      2.6297      0.1120      1.2285     31.5741     97.8677
  1249.7000      7.9150      2.6340      0.0430      0.9724     31.6544     95.7703
  1249.8000      7.9141      2.6437      0.1392      0.3815     31.8215     99.9296
  1249.9000      7.9141      2.6371      0.0611      0.7806     31.9465    106.7007
  1250.0000      7.9139      2.6235      0.0693      1.6070     31.9050    110.1295
  1250.1000      7.9139      2.6181      0.0783      1.9345     31.9159    110.6348
  1250.2000      7.9139      2.6144      0.1034      2.1606     31.9903    111.3232
  1250.3000      7.9148      2.6059      0.0978      2.6738     32.2288    113.7942
  1250.4000      7.9148      2.5911      0.1085      3.5725     32.7861    115.8457
  1250.5000      7.9169      2.5729      0.0534      4.6757     33.1855    114.5116
  1250.6000      7.9169      2.5669      0.0326      5.0385     33.2459    110.7007
  1250.7000      7.9169      2.5813      0.0619      4.1639     33.2682    107.3506
  1250.8000      7.9189      2.6029      0.0328      2.8568     32.9756    106.3443
  1250.9000      7.9189      2.6105      0.0554      2.3960     32.1327    107.7302
  1251.0000      7.9190      2.5919      0.0457      3.5214     31.5090    109.8414
  1251.1000      7.9190      2.5633     -0.0125      5.2516     31.7685    110.7272
  1251.2000      7.9190      2.5532      0.0235      5.8665     32.3470    109.7605
  1251.3000      7.9158      2.5659      0.0232      5.0970     32.5247    107.3106
  1251.4000      7.9158      2.5852      0.0772      3.9273     32.3648    104.9125
  1251.5000      7.9117      2.5969      0.0426      3.2170     32.0399    104.7742
