~Version Information
VERS.                      2.0: CWLS Log ASCII Standard - VERSION 2.0
WRAP.                       NO: One line per depth step
~Well Information Block
STRT.FT                 0.0000: 
STOP.FT              1528.0000: 
STEP.FT                 0.1000: 
NULL.                -999.2500: 
COMP.          Pioneer Natural Resources: COMPANY
WELL.             Andrew 23-15: WELL
FLD.           Purgatorie River: FIELD
LOC.           2137' FSL & 2292' FWL: LOCATION
PROV.                 Colorado: PROVINCE
CNTY.               Las Animas: COUNTRY
SRVC.                Patterson: SERVICE COMPANY
DATE.          Sat Aug 13 12:06:57 2005: LOG DATE
UWI.                          : UNIQUE WELL ID
~Curve Information Block
DEPT.FT            0 000 00 00: Depth
DCAL.in                       : CDL Caliper
RHOB.g/cc                     : CDL Bulk Density
RHOC.g/cc                     : CDL Density Correction
DPOR.pu                       : CDL Density Porosity
GR.GAPI                       : Gamma Ray
NPOR.pu                       : Neutron Porosity
~Parameter Information Block
~A  Depth       DCAL        RHOB        RHOC        DPOR         GR         NPOR    
# ...
  1209.6000      8.0510      2.6246      0.1929      1.5394    151.1813     25.0717
  1209.7000      8.0510      2.6222      0.1717      1.6835    153.0771     25.0788
  1209.8000      8.0584      2.6342      0.1652      0.9557    152.6694     25.2831
  1209.9000      8.0584      2.6547      0.2005     -0.2820    152.2441     25.5339
  1210.0000      8.0393      2.6551      0.2021     -0.3097    153.6338     25.5778
  1210.1000      8.0393      2.6245      0.1490      1.5458    156.0532     25.5505
  1210.2000      8.0393      2.5841      0.0888      3.9961    158.1654     25.7274
  1210.3000      7.9987      2.5600      0.0486      5.4565    158.9729     26.0261
  1210.4000      7.9987      2.5580      0.0572      5.5767    157.9382     26.2238
  1210.5000      8.0337      2.5648      0.1000      5.1631    154.9134     26.3737
  1210.6000      8.0337      2.5687      0.0870      4.9287    151.1001     26.5695
  1210.7000      8.0337      2.5699      0.0876      4.8566    147.6516     26.6927
  1210.8000      8.0381      2.5738      0.0736      4.6202    144.5159     26.6148
  1210.9000      8.0381      2.5786      0.1266      4.3246    143.5190     26.4318
  1211.0000      8.0798      2.5769      0.0575      4.4298    146.1122     26.3664
  1211.1000      8.0798      2.5739      0.0561      4.6125    149.5242     26.5383
  1211.2000      8.0798      2.5763      0.0916      4.4691    151.7125     26.6189
  1211.3000      8.1100      2.5780      0.0938      4.3664    153.7488     26.4416
  1211.4000      8.1100      2.5775      0.0767      4.3936    156.8419     26.4197
  1211.5000      8.1289      2.5762      0.1061      4.4735    158.8596     26.6531
  1211.6000      8.1289      2.5639      0.0559      5.2187    156.0009     26.8105
  1211.7000      8.1289      2.5424      0.0415      6.5200    150.6439     26.8553
  1211.8000      8.1725      2.5323      0.0102      7.1348    147.8329     26.9638
  1211.9000      8.1725      2.5364      0.0660      6.8819    148.9240     27.0959
  1212.0000      8.1344      2.5380      0.0248      6.7866    152.9027     27.1859
  1212.1000      8.1344      2.5385      0.0430      6.7603    156.3418     27.2015
  1212.2000      8.1344      2.5536      0.0111      5.8413    155.9173     26.9931
  1212.3000      8.1351      2.5821      0.1003      4.1165    152.8129     26.6240
  1212.4000      8.1351      2.6036      0.0832      2.8093    149.6797     26.4876
  1212.5000      8.1173      2.6058      0.0878      2.6799    146.6837     26.7926
  1212.6000      8.1173      2.5919      0.0788      3.5192    144.8310     27.1996
  1212.7000      8.1173      2.5737      0.0426      4.6223    146.3614     27.2981
  1212.8000      8.1025      2.5636      0.0276      5.2344    149.0827     27.1498
  1212.9000      8.1025      2.5676      0.0434      4.9911    150.1561     27.0544
  1213.0000      8.1207      2.5808      0.0595      4.1923    150.5599     27.1000
  1213.1000      8.1207      2.5838      0.1080      4.0109    151.2520     27.2493
  1213.2000      8.1207      2.5682      0.0658      4.9565    150.6825     27.5193
  1213.3000      8.1623      2.5554      0.0258      5.7318    149.3273     27.8775
  1213.4000      8.1623      2.5626      0.0357      5.2983    150.0293     28.1257
  1213.5000      8.1487      2.5799      0.0773      4.2469    152.6257     28.1519
  1213.6000      8.1487      2.5939      0.0536      3.4006    152.4452     27.9872
  1213.7000      8.1487      2.6053      0.0561      2.7076    147.2196     27.6777
  1213.8000      8.1144      2.6170      0.0698      2.0021    142.1312     27.3080
  1213.9000      8.1144      2.6240      0.0675      1.5777    143.3222     26.8733
  1214.0000      7.9854      2.6262      0.0801      1.4436    148.1903     26.4251
  1214.1000      7.9854      2.6298      0.0482      1.2243    149.9374     26.1755
  1214.2000      7.9854      2.6336      0.0595      0.9918    148.6443     26.3062
  1214.3000      7.9212      2.6314      0.0462      1.1268    147.0462     26.7616
  1214.4000      7.9212      2.6195      0.0891      1.8486    144.9443     27.2073
  1214.5000      7.9000      2.5991      0.0488      3.0866    143.8232     27.2708
  1214.6000      7.9000      2.5783      0.0283      4.3435    144.7286     26.9948
  1214.7000      7.9000      2.5662      0.0373      5.0768    145.6255     26.6992
  1214.8000      7.8912      2.5699      0.0255      4.8528    145.4842     26.4349
  1214.9000      7.8912      2.5820      0.0859      4.1221    144.1791     26.0613
  1215.0000      7.8690      2.5841      0.0593      3.9959    142.0911     25.5973
  1215.1000      7.8690      2.5732      0.0780      4.6561    141.2195     25.4326
  1215.2000      7.8690      2.5564      0.0591      5.6735    143.6395     25.7103
  1215.3000      7.8647      2.5448      0.0348      6.3767    146.4567     26.0607
  1215.4000      7.8647      2.5524      0.0338      5.9149    147.3602     26.3352
  1215.5000      7.8933      2.5701      0.0642      4.8433    148.2602     26.5455
  1215.6000      7.8933      2.5728      0.0476      4.6801    149.3817     26.6208
  1215.7000      7.8933      2.5627      0.0317      5.2927    149.6430     26.5330
  1215.8000      7.9117      2.5603      0.0234      5.4342    149.5172     26.3279
  1215.9000      7.9117      2.5671      0.0907      5.0269    148.1338     26.2004
  1216.0000      7.9285      2.5711      0.0474      4.7807    145.4846     26.2783
  1216.1000      7.9285      2.5713      0.0341      4.7718    144.9165     26.4856
  1216.2000      7.9285      2.5695      0.0724      4.8798    147.0912     26.7360
  1216.3000      7.9551      2.5639      0.0449      5.2186    148.3395     26.9638
  1216.4000      7.9551      2.5571      0.0486      5.6327    144.6899     27.0076
  1216.5000      7.9622      2.5569      0.0098      5.6454    136.5583     26.6514
  1216.6000      7.9622      2.5639      0.0668      5.2171    130.2962     26.1147
  1216.7000      7.9622      2.5705      0.0548      4.8175    129.9567     25.9611
  1216.8000      7.9157      2.5798      0.0270      4.2571    134.0901     26.2859
  1216.9000      7.9157      2.5935      0.0825      3.4234    140.6127     26.6503
  1217.0000      7.9152      2.5986      0.0779      3.1128    147.1996     26.7770
  1217.1000      7.9152      2.5882      0.0743      3.7462    151.7228     26.7193
  1217.2000      7.9152      2.5648      0.0477      5.1658    152.5266     26.5952
  1217.3000      7.9282      2.5326      0.0171      7.1167    149.8786     26.4149
  1217.4000      7.9282      2.5009     -0.0114      9.0362    147.8386     26.2400
  1217.5000      7.9124      2.4808      0.0185     10.2551    149.4774     26.2923
  1217.6000      7.9124      2.4784     -0.0071     10.4007    152.4346     26.4532
  1217.7000      7.9124      2.4986     -0.0136      9.1742    152.2161     26.3562
  1217.8000      7.9501      2.5331      0.0415      7.0825    149.1076     26.1281
  1217.9000      7.9501      2.5594      0.0532      5.4918    148.1778     26.1944
  1218.0000      7.9455      2.5714      0.0471      4.7655    151.9363     26.5520
  1218.1000      7.9455      2.5730      0.1012      4.6696    155.8673     26.7651
  1218.2000      7.9455      2.5597      0.0630      5.4746    155.5412     26.5444
  1218.3000      7.9260      2.5426      0.0114      6.5072    151.8293     26.1781
  1218.4000      7.9260      2.5433      0.0389      6.4660    146.7925     26.1086
  1218.5000      7.9204      2.5567      0.0717      5.6551    141.0710     26.2648
  1218.6000      7.9204      2.5586      0.0623      5.5401    135.0607     26.2891
  1218.7000      7.9204      2.5406      0.0471      6.6278    130.5045     26.0555
  1218.8000      7.8989      2.5196     -0.0074      7.9015    129.6021     25.6656
  1218.9000      7.8989      2.5157      0.0085      8.1384    132.2161     25.3123
  1219.0000      7.9164      2.5243      0.0450      7.6201    135.9666     25.1674
  1219.1000      7.9164      2.5339      0.0185      7.0333    138.8919     25.3425
