~Version Information
VERS.                      2.0: CWLS Log ASCII Standard - VERSION 2.0
WRAP.                       NO: One line per depth step
~Well Information Block
STRT.FT                -3.2500: 
STOP.FT               989.2500: 
STEP.FT                 0.2500: 
NULL.                -999.2500: 
COMP.          Pioneer Natural Resources: COMPANY
WELL.                Doc 34-30: WELL
FLD.           Purgatoire River: FIELD
LOC.           454' FSL & 1386' FEL: LOCATION
CNTY.               Las Animas: COUNTY
SRVC.                         : SERVICE COMPANY
DATE.          Wed Mar 08 14:28:55 2006: LOG DATE
UWI.           05 071 08694 00: UNIQUE WELL ID
STAT.                       CO: STATE
~Curve Information Block
DEPT.FT            0 000 00 00: Depth
GR.GAPI                       : Gamma Ray
CCL.                          : Casing Collar Locator
TT3.usec                      : CBL 3' Travel Time
AMP3.mV                       : CBL 3' Amplitude
~Parameter Information Block
~A  Depth        GR         CCL         TT3         AMP3    
# ...
   633.2500     82.1795      0.0000    659.8444      4.9317
   633.5000     83.0269      0.0000    651.5626      4.8736
   633.7500     81.9096      0.0000    646.2125      4.8336
   634.0000     78.5608      0.0000    645.8797      4.8215
   634.2500     74.0559      0.0000    650.3240      4.8387
   634.5000     70.2316      0.0000    657.1882      4.8749
   634.7500     68.0566      0.0000    663.3526      4.9140
   635.0000     66.9388      0.0000    666.6940      4.9415
   635.2500     65.6847      0.0000    667.2188      4.9505
   635.5000     63.6236      0.0000    666.9667      4.9437
   635.7500     60.7116      0.0000    668.6982      4.9300
   636.0000     57.3916      0.0000    673.8000      4.9175
   636.2500     54.9336      0.0000    680.7175      4.9084
   636.5000     55.2940      0.0000    684.9642      4.9029
   636.7500     59.6282      0.0000    680.8654      4.9027
   637.0000     66.7843      0.0000    664.3926      4.9089
   637.2500     73.8398      0.0000    635.6650      4.9186
   637.5000     78.5180      0.0000    599.2260      4.9288
   637.7500     80.9473      0.0000    561.8550      4.9412
   638.0000     82.9615      0.0000    530.2289      4.9643
   638.2500     85.9850      0.0000    509.2079      5.0083
   638.5000     89.7755      0.0000    499.7019      5.0777
   638.7500     93.0146      0.0000    497.8766      5.1635
   639.0000     94.8400      0.0000    499.2451      5.2444
   639.2500     95.7076      0.0000    505.0099      5.2963
   639.5000     96.8073      0.0000    522.0444      5.3050
   639.7500     98.6735      0.0000    554.3409      5.2729
   640.0000    100.6443      0.0000    595.9476      5.2191
   640.2500    101.8880      0.0000    634.4296      5.1735
   640.5000    102.6631      0.0000    660.4185      5.1625
   640.7500    104.0809      0.0000    672.8825      5.1942
   641.0000    106.7055      0.0000    676.7902      5.2545
   641.2500    109.7812      0.0000    677.8553      5.3193
   641.5000    111.8321      0.0000    679.2419      5.3714
   641.7500    111.7745      0.0000    681.2493      5.4059
   642.0000    109.6087      0.0000    682.6714      5.4221
   642.2500    106.3257      0.0000    681.9324      5.4160
   642.5000    103.1562      0.0000    676.6407      5.3871
   642.7500    100.7722      0.0000    662.3911      5.3478
   643.0000     98.9409      0.0000    634.1887      5.3202
   643.2500     96.6731      0.0000    591.6247      5.3236
   643.5000     92.9660      0.0000    542.8189      5.3651
   643.7500     87.9862      0.0000    501.5198      5.4350
   644.0000     83.4777      0.0000    479.5782      5.5066
   644.2500     81.3463      0.0000    481.5845      5.5452
   644.5000     81.7711      0.0000    503.8478      5.5286
   644.7500     83.2343      0.0000    536.0392      5.4612
   645.0000     84.3554      0.0000    565.6299      5.3700
   645.2500     84.9843      0.0000    584.4105      5.2860
   645.5000     85.3351      0.0000    592.1228      5.2284
   645.7500     84.8334      0.0000    594.0651      5.1994
   646.0000     82.5208      0.0000    596.0361      5.1888
   646.2500     78.4421      0.0000    601.3438      5.1848
   646.5000     74.1113      0.0000    610.6451      5.1812
   646.7500     71.4003      0.0000    623.1655      5.1799
   647.0000     71.0629      0.0000    637.8727      5.1868
   647.2500     72.4249      0.0000    653.4608      5.2054
   647.5000     74.3600      0.0000    667.4108      5.2341
   647.7500     76.3238      0.0000    675.9724      5.2690
   648.0000     78.4170      0.0000    675.7638      5.3114
   648.2500     80.7247      0.0000    665.4131      5.3684
   648.5000     82.7788      0.0000    645.8824      5.4435
   648.7500     83.6163      0.0000    620.1533      5.5276
   649.0000     82.3019      0.0000    593.1855      5.6031
   649.2500     78.5866      0.0000    571.5533      5.6568
   649.5000     73.3336      0.0000    561.3929      5.6879
   649.7500     68.1992      0.0000    565.1901      5.7032
   650.0000     64.5124      0.0000    580.1872      5.7037
   650.2500     62.3440      0.0000    600.4916      5.6751
   650.5000     60.8350      0.0000    620.8667      5.5914
   650.7500     59.3581      0.0000    638.1432      5.4337
   651.0000     58.1142      0.0000    650.2426      5.2117
   651.2500     57.7109      0.0000    656.4393      4.9779
   651.5000     58.4799      0.0000    659.1003      4.8195
   651.7500     60.1975      0.0000    663.0137      4.8158
   652.0000     62.2139      0.0000    671.4136      4.9822
   652.2500     63.8788      0.0000    683.1577      5.2534
   652.5000     65.0540      0.0000    694.3836      5.5279
   652.7500     66.2678      0.0000    702.2211      5.7287
   653.0000     68.2264      0.0000    706.3210      5.8218
   653.2500     71.1042      0.0000    707.7120      5.7935
   653.5000     74.3786      0.0000    707.1721      5.6347
   653.7500     77.3283      0.0000    704.7535      5.3605
   654.0000     79.6457      0.0000    700.3174      5.0354
   654.2500     81.6471      0.0000    694.1983      4.7623
   654.5000     84.0166      0.0000    686.8944      4.6308
   654.7500     87.2994      0.0000    678.0387      4.6690
   655.0000     91.4219      0.0000    666.6947      4.8349
   655.2500     95.5550      0.0000    653.3667      5.0488
   655.5000     98.5627      0.0000    640.0620      5.2392
   655.7500     99.6897      0.0000    626.7553      5.3725
   656.0000     98.6831      0.0000    609.8090      5.4535
   656.2500     95.5008      0.0000    586.6969      5.5041
   656.5000     90.6115      0.0000    561.2506      5.5396
   656.7500     85.6221      0.0000    541.6601      5.5645
   657.0000     82.6811      0.0000    533.5664      5.5845
   657.2500     82.7882      0.0000    536.8116      5.6147
   657.5000     85.1877      0.0000    547.6892      5.6694
   657.7500     88.6334      0.0000    561.3901      5.7464
   658.0000     92.6543      0.0000    573.1271      5.8254
   658.2500     97.3394      0.0000    581.1021      5.8842
   658.5000    102.4628      0.0000    588.6745      5.9176
   658.7500    107.3955      0.0000    600.0699      5.9415
   659.0000    111.8799      0.0000    613.9791      5.9783
   659.2500    116.4349      0.0000    624.5975      6.0395
   659.5000    121.5024      0.0000    628.4260      6.1179
   659.7500    126.4059      0.0000    627.2138      6.1903
   660.0000    129.7311      0.0000    624.9249      6.2302
   660.2500    130.7332      0.0000    624.1761      6.2236
   660.5000    130.0077      0.0000    625.2363      6.1772
   660.7500    128.8629      0.0000    627.0541      6.1107
   661.0000    128.2423      0.0000    629.4764      6.0416
   661.2500    128.0599      0.0000    634.3178      5.9777
   661.5000    127.3616      0.0000    643.0538      5.9243
   661.7500    125.1742      0.0000    653.9734      5.8928
   662.0000    121.2383      0.0000    662.9533      5.8956
   662.2500    116.0809      0.0000    666.3695      5.9289
   662.5000    110.7811      0.0000    662.4766      5.9692
   662.7500    106.7600      0.0000    651.3665      5.9889
   663.0000    105.1028      0.0000    634.9427      5.9739
   663.2500    105.4977      0.0000    616.1643      5.9266
   663.5000    106.1681      0.0000    597.4352      5.8609
   663.7500    105.3629      0.0000    580.4511      5.7964
   664.0000    102.7774      0.0000    567.0623      5.7523
   664.2500     99.4508      0.0000    557.7320      5.7385
   664.5000     96.6615      0.0000    549.0561      5.7537
   664.7500     95.1036      0.0000    536.3979      5.7899
   665.0000     94.9234      0.0000    520.5007      5.8365
   665.2500     96.2347      0.0000    508.3942      5.8778
   665.5000     99.2002      0.0000    506.3112      5.8910
   665.7500    103.4119      0.0000    514.8508      5.8491
   666.0000    107.6373      0.0000    532.0732      5.7307
   666.2500    110.6449      0.0000    556.4347      5.5437
   666.5000    112.1316      0.0000    584.2267      5.3442
