~Version Information
VERS.                      2.0: CWLS Log ASCII Standard - VERSION 2.0
WRAP.                       NO: One line per depth step
~Well Information Block
STRT.FT                 0.0000: 
STOP.FT               968.2500: 
STEP.FT                 0.2500: 
NULL.                -999.2500: 
COMP.          Pioneer Natural Resources: COMPANY
WELL.              Atlas 32-18: WELL
FLD.           Purgatorie River: FIELD
LOC.           1892' FNL & 1456' FEL: LOCATION
PROV.                 Colorado: PROVINCE
CNTY.               Las Animas: COUNTRY
SRVC.                Patterson: SERVICE COMPANY
DATE.          Fri Dec 02 11:37:22 2005: LOG DATE
UWI.                          : UNIQUE WELL ID
~Curve Information Block
DEPT.FT            0 000 00 00: Depth
CCL.                          : Casing Collar Locator
TT3.usec                      : CBL 3' Travel Time
AMP3.mV                       : CBL 3' Amplitude
GR.GAPI                       : Gamma Ray
~Parameter Information Block
~A  Depth       CCL         TT3         AMP3         GR     
# ...
   737.0000      0.0000    738.4277     10.3022     80.1509
   737.2500      0.0000    742.6766     10.1228     75.4916
   737.5000      0.0000    748.9581      9.9427     70.3089
   737.7500      0.0000    759.5845      9.7664     66.9319
   738.0000      0.0000    767.3589      9.6038     66.5665
   738.2500      0.0000    766.4189      9.4959     68.9530
   738.5000      0.0000    760.6953      9.4939     72.7311
   738.7500      0.0000    756.4681      9.5840     76.5531
   739.0000      0.0000    753.9081      9.6797     80.1586
   739.2500      0.0000    748.2645      9.7253     84.0242
   739.5000      0.0000    738.5029      9.7512     87.9360
   739.7500      0.0000    729.2510      9.8073     90.6859
   740.0000      0.0000    723.0604      9.8876     91.4998
   740.2500      0.0000    717.7549      9.9540     91.0504
   740.5000      0.0000    712.1538      9.9996     90.5914
   740.7500      0.0000    709.2985     10.0346     90.5818
   741.0000      0.0000    711.5998     10.0618     90.5763
   741.2500      0.0000    716.4241     10.1057     89.9924
   741.5000      0.0000    719.8691     10.2008     88.5045
   741.7500      0.0000    721.0822     10.3596     86.0705
   742.0000      0.0000    721.2197     10.5868     83.1856
   742.2500      0.0000    721.3055     10.8872     80.9514
   742.5000      0.0000    721.6411     11.2638     80.3539
   742.7500      0.0000    722.0392     11.7104     81.4862
   743.0000      0.0000    722.2806     12.1813     83.8105
   743.2500      0.0000    722.3759     12.5995     86.9089
   743.5000      0.0000    722.4316     12.8977     90.2144
   743.7500      0.0000    722.4512     13.0261     92.1940
   744.0000      0.0000    722.3718     12.9572     91.0624
   744.2500      0.0000    722.1723     12.7128     86.7585
   744.5000      0.0000    721.8597     12.3682     81.3720
   744.7500      0.0000    721.4391     12.0062     77.2677
   745.0000      0.0000    720.9589     11.6790     75.3570
   745.2500      0.0000    720.5664     11.4394     75.1449
   745.5000      0.0000    720.4982     11.3608     75.6200
   745.7500      0.0000    721.0322     11.4659     75.8444
   746.0000      0.0000    722.6741     11.6838     75.2760
   746.2500      0.0000    726.2052     11.9196     73.9700
   746.5000      0.0000    730.9655     12.1360     72.5838
   746.7500      0.0000    733.6017     12.3744     72.1792
   747.0000      0.0000    732.4451     12.7232     73.7611
   747.2500      0.0000    731.1721     13.2564     77.5391
   747.5000      0.0000    732.5582     13.9983     82.4723
   747.7500      0.0000    731.7860     14.9214     86.7528
   748.0000      0.0000    719.6044     15.9328     88.9845
   748.2500      0.0000    689.8858     16.8760     89.0119
   748.5000      0.0000    651.1401     17.5587     87.7771
   748.7500      0.0000    631.7219     17.8018     86.6444
   749.0000      0.0000    649.5856     17.5543     86.7396
   749.2500      0.0000    685.0673     16.9568     88.3898
   749.5000      0.0000    710.2209     16.2045     90.9840
   749.7500      0.0000    719.9451     15.4054     93.5960
   750.0000      0.0000    722.1266     14.6213     95.7942
   750.2500      0.0000    722.3241     13.9318     97.6676
   750.5000      0.0000    722.1716     13.3925     99.2237
   750.7500      0.0000    721.7072     12.9878    100.0347
   751.0000      0.0000    720.2481     12.6461     99.3134
   751.2500      0.0000    716.8748     12.2957     96.2850
   751.5000      0.0000    712.3030     11.9295     90.9809
   751.7500      0.0000    709.9404     11.6007     84.7181
   752.0000      0.0000    712.0172     11.3508     79.3130
   752.2500      0.0000    716.2151     11.1678     75.7785
   752.5000      0.0000    719.3165     11.0056     74.0548
   752.7500      0.0000    720.7725     10.8349     73.7259
   753.0000      0.0000    721.3599     10.6633     74.4510
   753.2500      0.0000    721.4143     10.5059     75.6511
   753.5000      0.0000    720.4225     10.3735     76.2425
   753.7500      0.0000    717.3857     10.2759     75.2677
   754.0000      0.0000    712.8903     10.1986     73.0540
   754.2500      0.0000    710.4880     10.1047     71.4394
   754.5000      0.0000    712.7501      9.9850     72.3582
   754.7500      0.0000    717.3580      9.8658     76.0149
   755.0000      0.0000    720.6643      9.7630     80.4595
   755.2500      0.0000    721.9200      9.6758     83.0052
   755.5000      0.0000    722.1664      9.6257     82.3150
   755.7500      0.0000    722.1270      9.6598     79.3867
   756.0000      0.0000    721.9984      9.7968     76.4687
   756.2500      0.0000    721.8475      9.9904     74.9692
   756.5000      0.0000    721.7066     10.1800     74.6204
   756.7500      0.0000    721.6077     10.3626     74.6068
   757.0000      0.0000    721.6483     10.5562     74.8867
   757.2500      0.0000    721.8738     10.7264     76.0900
   757.5000      0.0000    722.1086     10.8336     78.5711
   757.7500      0.0000    722.1343     10.9081     82.0459
   758.0000      0.0000    722.0254     10.9990     85.8475
   758.2500      0.0000    721.9766     11.0973     89.0981
   758.5000      0.0000    721.9522     11.1558     90.8365
   758.7500      0.0000    721.9154     11.1358     90.4498
   759.0000      0.0000    722.3699     11.0224     88.0476
   759.2500      0.0000    724.7167     10.8482     84.2634
   759.5000      0.0000    730.5952     10.6823     79.7317
   759.7500      0.0000    738.5933     10.5557     74.9351
   760.0000      0.0000    742.5018     10.4497     70.4963
   760.2500      0.0000    738.3097     10.3591     67.2244
   760.5000      0.0000    730.2264     10.2963     65.5667
   760.7500      0.0000    724.0450     10.2495     65.0714
   761.0000      0.0000    720.2422     10.1845     64.6157
   761.2500      0.0000    716.3596     10.0791     63.2971
   761.5000      0.0000    711.9724      9.9418     61.0841
   761.7500      0.0000    710.1627      9.7966     58.6777
   762.0000      0.0000    713.2452      9.6676     56.9439
   762.2500      0.0000    719.0390      9.5754     56.5445
   762.5000      0.0000    724.8129      9.5206     57.7137
   762.7500      0.0000    731.4470      9.4905     60.0416
   763.0000      0.0000    740.2893      9.4858     62.5804
   763.2500      0.0000    748.0511      9.5034     64.4301
   763.5000      0.0000    749.5451      9.5155     65.2221
   763.7500      0.0000    746.0209      9.4943     64.9917
   764.0000      0.0000    743.7021      9.4381     63.7488
   764.2500      0.0000    743.2524      9.3614     61.4678
   764.5000      0.0000    737.0702      9.2830     58.4604
   764.7500      0.0000    716.4827      9.2375     55.3578
   765.0000      0.0000    685.2188      9.2558     52.5188
   765.2500      0.0000    665.7922      9.3235     49.6429
   765.5000      0.0000    674.2338      9.4023     46.2195
   765.7500      0.0000    697.0333      9.4604     42.2596
   766.0000      0.0000    712.8146      9.4605     38.3705
   766.2500      0.0000    716.3899      9.3882     35.1947
   766.5000      0.0000    713.4208      9.2812     33.0058
   766.7500      0.0000    709.1210      9.1909     31.8332
   767.0000      0.0000    700.7502      9.1723     31.7007
   767.2500      0.0000    676.6950      9.3062     32.6544
   767.5000      0.0000    635.9014      9.5834     34.7503
   767.7500      0.0000    606.3004      9.7534     38.1750
   768.0000      0.0000    616.8052      9.4428     43.2425
   768.2500      0.0000    657.7899      8.5401     50.0689
   768.5000      0.0000    698.1956      7.4623     58.1167
   768.7500      0.0000    721.8875      6.7913     66.0544
   769.0000      0.0000    731.8299      6.6461     72.2876
   769.2500     -2.0000    735.0893      6.7407     76.0042
   769.5000     -2.0000    728.2213      6.8471     77.7255
   769.7500      2.0000    703.5175      6.9114     78.5060
   770.0000      0.0000    670.9030      6.9408     78.7287
   770.2500      0.0000    657.2407      7.0719     78.1879
