~Version Information
VERS.                      2.0: CWLS Log ASCII Standard - VERSION 2.0
WRAP.                       NO: One line per depth step
~Well Information Block
STRT.FT               650.0000: 
STOP.FT              2053.7000: 
STEP.FT                 0.1000: 
NULL.                -999.2500: 
COMP.          Pioneer Natural Resources: COMPANY
WELL.           Alabaster 11-8: WELL
FLD.           Purgatoire River: FIELD
LOC.           1249' FNL & 215' FWL--: LOCATION
PROV.                 Colorado: PROVINCE
CNTY.               Las Animas: COUNTRY
SRVC.                Patterson: SERVICE COMPANY
DATE.          Thu Jan 19 09:16:54 2006: LOG DATE
UWI.           05 071 08642 00: UNIQUE WELL ID
~Curve Information Block
DEPT.FT            0 000 00 00: Depth
DCAL.in                       : CDL Caliper
RHOB.g/cc                     : CDL Bulk Density
RHOC.g/cc                     : CDL Density Correction
DPOR.pu                       : CDL Density Porosity
NPOR.pu                       : Neutron Porosity
GR.GAPI                       : Gamma Ray
~Parameter Information Block
~A  Depth       DCAL        RHOB        RHOC        DPOR        NPOR         GR     
# ...
  1379.6000      8.0221      2.5327      0.0025      7.1098     25.6328    116.2480
  1379.7000      8.0221      2.5554      0.0693      5.7356     25.1535    120.4715
  1379.8000      8.0211      2.5671      0.0883      5.0256     24.7594    123.9669
  1379.9000      8.0211      2.5540      0.0668      5.8184     24.6877    128.5045
  1380.0000      8.0222      2.5349      0.0461      6.9741     24.7614    130.9453
  1380.1000      8.0222      2.5326      0.0460      7.1135     24.7868    128.5306
  1380.2000      8.0222      2.5463      0.0735      6.2820     24.8808    125.3990
  1380.3000      8.0232      2.5596      0.0685      5.4762     25.0840    126.7196
  1380.4000      8.0232      2.5556      0.1269      5.7229     25.0458    131.1801
  1380.5000      8.0236      2.5310      0.0636      7.2131     24.5908    132.4515
  1380.6000      8.0236      2.5066      0.0513      8.6931     24.1170    126.1460
  1380.7000      8.0236      2.4994      0.0091      9.1276     23.7474    115.8665
  1380.8000      8.0247      2.5072      0.0755      8.6534     23.0991    110.1526
  1380.9000      8.0247      2.5186      0.0475      7.9653     22.0179    108.3837
  1381.0000      8.0243      2.5219      0.0816      7.7637     20.9076    102.5674
  1381.1000      8.0243      2.5139      0.0597      8.2463     20.2222     92.8561
  1381.2000      8.0243      2.5026      0.0813      8.9304     20.0208     85.5997
  1381.3000      8.0229      2.4945      0.0325      9.4224     19.9407     83.3488
  1381.4000      8.0229      2.4914      0.0713      9.6118     19.5398     83.1578
  1381.5000      8.0221      2.4905      0.0511      9.6684     18.9976     81.5558
  1381.6000      8.0221      2.4895      0.0511      9.7274     18.5661     78.3287
  1381.7000      8.0221      2.4888      0.0377      9.7669     18.1599     76.5918
  1381.8000      8.0207      2.4862      0.0348      9.9262     17.9468     77.6221
  1381.9000      8.0207      2.4786      0.0659     10.3863     18.0133     77.7608
  1382.0000      8.0206      2.4691      0.0544     10.9615     18.1128     74.6641
  1382.1000      8.0206      2.4650      0.0370     11.2118     18.0350     70.9026
  1382.2000      8.0206      2.4674      0.0090     11.0694     17.6120     69.7078
  1382.3000      8.0224      2.4671      0.0694     11.0855     16.9931     71.3547
  1382.4000      8.0224      2.4564      0.0218     11.7355     16.6801     73.8889
  1382.5000      8.0238      2.4418      0.0377     12.6191     16.8583     75.3860
  1382.6000      8.0238      2.4306      0.0679     13.2949     17.1410     75.1199
  1382.7000      8.0238      2.4289      0.0147     13.3984     17.3437     73.0145
  1382.8000      8.0242      2.4401      0.0345     12.7238     17.7385     70.8592
  1382.9000      8.0242      2.4486      0.0438     12.2076     18.2105     70.8204
  1383.0000      8.0233      2.4486     -0.0050     12.2075     18.3484     72.8453
  1383.1000      8.0233      2.4569      0.0117     11.7045     18.2013     76.8014
  1383.2000      8.0233      2.4744      0.0445     10.6401     17.8970     82.1163
  1383.3000      8.0212      2.4876      0.0358      9.8439     17.4305     83.9218
  1383.4000      8.0212      2.4936      0.0289      9.4781     16.9822     79.9970
  1383.5000      8.0201      2.4913      0.1006      9.6152     16.6395     74.9699
  1383.6000      8.0201      2.4792      0.0304     10.3486     16.3359     72.1510
  1383.7000      8.0201      2.4706      0.0452     10.8728     16.1998     70.3054
  1383.8000      8.0197      2.4755      0.0538     10.5743     16.3628     68.9961
  1383.9000      8.0197      2.4867      0.0513      9.8981     16.7308     70.1206
  1384.0000      8.0205      2.4872      0.0846      9.8685     16.9642     73.1243
  1384.1000      8.0205      2.4723      0.0203     10.7686     16.8546     74.3794
  1384.2000      8.0205      2.4593      0.0294     11.5595     16.6401     73.3122
  1384.3000      8.0230      2.4574      0.0257     11.6721     16.4270     72.9712
  1384.4000      8.0230      2.4545      0.0756     11.8476     16.1991     74.7570
  1384.5000      8.0246      2.4459      0.0106     12.3674     16.1354     75.4544
  1384.6000      8.0246      2.4494     -0.0005     12.1585     16.2149     73.7017
  1384.7000      8.0246      2.4675      0.0523     11.0591     16.2074     73.3584
  1384.8000      8.0242      2.4814      0.0639     10.2161     15.9905     75.0386
  1384.9000      8.0242      2.4822      0.0583     10.1676     15.8752     75.3778
  1385.0000      8.0224      2.4760      0.0441     10.5435     16.0883     73.1134
  1385.1000      8.0224      2.4753     -0.0088     10.5895     16.2514     70.2345
  1385.2000      8.0224      2.4842      0.0557     10.0486     16.1436     70.1112
  1385.3000      8.0213      2.4906      0.0539      9.6632     16.0859     75.2007
  1385.4000      8.0213      2.4908      0.0142      9.6458     16.3060     83.2527
  1385.5000      8.0217      2.4933      0.0370      9.4947     16.6641     86.5767
  1385.6000      8.0217      2.5033      0.0117      8.8920     17.0480     81.4164
  1385.7000      8.0217      2.5212      0.0431      7.8035     17.3054     73.9557
  1385.8000      8.0212      2.5269      0.0919      7.4603     17.0771     71.4433
  1385.9000      8.0212      2.5065     -0.0098      8.6963     16.5214     72.5300
  1386.0000      8.0213      2.4854     -0.0236      9.9782     16.3853     72.2159
  1386.1000      8.0213      2.4779      0.0266     10.4290     16.9339     69.3591
  1386.2000      8.0213      2.4707      0.0263     10.8694     17.5480     65.0185
  1386.3000      8.0219      2.4602      0.0317     11.5003     17.5289     61.6585
  1386.4000      8.0219      2.4556      0.0229     11.7791     16.9726     61.3507
  1386.5000      8.0210      2.4619      0.0355     11.3999     16.4650     62.4141
  1386.6000      8.0210      2.4739      0.0573     10.6706     16.2447     63.3525
  1386.7000      8.0210      2.4792      0.0555     10.3534     16.2258     65.4155
  1386.8000      8.0224      2.4758     -0.0085     10.5594     16.3183     68.6365
  1386.9000      8.0224      2.4744      0.0455     10.6415     16.3162     70.6002
  1387.0000      8.0244      2.4760      0.0485     10.5467     16.1429     69.8380
  1387.1000      8.0244      2.4821      0.0168     10.1733     16.1415     66.5043
  1387.2000      8.0244      2.4978      0.0633      9.2266     16.5892     61.5288
  1387.3000      8.0254      2.5117      0.0714      8.3817     17.2010     56.8484
  1387.4000      8.0254      2.5090      0.0826      8.5436     17.4847     55.2226
  1387.5000      8.0267      2.4924      0.0209      9.5489     17.5243     58.0143
  1387.6000      8.0267      2.4758      0.0245     10.5557     17.6932     62.2616
  1387.7000      8.0267      2.4724     -0.0183     10.7648     17.9159     64.5213
  1387.8000      8.0266      2.4920     -0.0216      9.5774     18.0658     66.5302
  1387.9000      8.0266      2.5167      0.0397      8.0770     18.1946     69.6213
  1388.0000      8.0245      2.5138      0.0649      8.2537     18.3911     70.1833
  1388.1000      8.0245      2.4938      0.0010      9.4667     18.7530     68.0269
  1388.2000      8.0245      2.4872      0.0522      9.8646     19.2357     67.2867
  1388.3000      8.0218      2.4890      0.0386      9.7572     19.7282     68.0737
  1388.4000      8.0218      2.4835      0.0225     10.0937     20.1746     67.8281
  1388.5000      8.0202      2.4715     -0.0168     10.8170     20.4931     67.7427
  1388.6000      8.0202      2.4500     -0.0020     12.1238     20.7973     72.5290
  1388.7000      8.0202      2.4032      0.0086     14.9567     21.1094     83.0473
  1388.8000      8.0193      2.3326     -0.0712     19.2379     21.0721     94.3307
  1388.9000      8.0193      2.2545     -0.0390     23.9670     20.7299    101.2332
  1389.0000      8.0182      2.1616     -0.0527     29.6017     20.5205    105.7178
  1389.1000      8.0182      2.0408     -0.1092     36.9189     20.2898    112.6659
