~Version Information
VERS.                      2.0: CWLS Log ASCII Standard - VERSION 2.0
WRAP.                       NO: One line per depth step
~Well Information Block
STRT.FT               460.0000: 
STOP.FT              2811.5000: 
STEP.FT                 0.1000: 
NULL.                -999.2500: 
COMP.          Pioneer Natural Resources: COMPANY
WELL.           Dolzanie 34-12: WELL
FLD.           Purgatoire River: FIELD
LOC.           1001' FSL & 1750' FEL--: LOCATION
PROV.                 Colorado: PROVINCE
CNTY.               Las Animas: COUNTRY
SRVC.                Patterson: SERVICE COMPANY
DATE.          Wed Jul 20 07:56:24 2005: LOG DATE
UWI.           05 071 08439 00: UNIQUE WELL ID
~Curve Information Block
DEPT.FT            0 000 00 00: Depth
DCAL.in                       : CDL Caliper
DPOR.pu                       : CDL Density Porosity
NPOR.pu                       : Neutron Porosity
RHOB.g/cc                     : CDL Bulk Density
RHOC.g/cc                     : CDL Density Correction
GR.GAPI                       : Gamma Ray
~Parameter Information Block
~A  Depth       DCAL        DPOR        NPOR        RHOB        RHOC         GR     
# ...
  2485.6000      7.9050      6.3002     18.6271      2.5460      0.0801     95.2584
  2485.7000      7.9050      7.8791     18.5271      2.5200      0.0129     90.3334
  2485.8000      7.9058      8.2222     18.7730      2.5143      0.0081     81.4068
  2485.9000      7.9058      7.4716     18.9222      2.5267      0.0597     71.7902
  2486.0000      7.9059      6.4227     18.6930      2.5440      0.0350     66.3468
  2486.1000      7.9059      5.4916     18.2736      2.5594      0.0639     67.7567
  2486.2000      7.9059      4.8310     17.9755      2.5703      0.0675     73.8081
  2486.3000      7.9047      4.3204     18.0310      2.5787      0.0751     79.6957
  2486.4000      7.9047      3.8125     18.2531      2.5871      0.0569     82.2657
  2486.5000      7.9060      3.5839     18.0438      2.5909      0.0962     81.5441
  2486.6000      7.9060      4.1018     17.4996      2.5823      0.0550     80.3682
  2486.7000      7.9060      4.8730     17.4423      2.5696     -0.0019     80.5254
  2486.8000      7.9090      5.0430     17.9576      2.5668      0.0341     80.5161
  2486.9000      7.9090      4.7051     18.3074      2.5724      0.0777     80.2223
  2487.0000      7.9098      4.1264     17.9246      2.5819      0.0622     81.8069
  2487.1000      7.9098      3.6809     17.2710      2.5893      0.0884     84.6991
  2487.2000      7.9098      3.9438     17.0748      2.5849      0.0271     85.6044
  2487.3000      7.9084      4.5490     17.3901      2.5749      0.0469     85.0625
  2487.4000      7.9084      4.7027     18.0354      2.5724      0.0517     84.1625
  2487.5000      7.9066      4.2160     18.6362      2.5804      0.0645     82.1500
  2487.6000      7.9066      3.5689     18.5657      2.5911      0.0810     83.0352
  2487.7000      7.9066      3.1376     17.7403      2.5982      0.0668     87.5710
  2487.8000      7.9048      2.6131     16.8659      2.6069      0.0253     89.8828
  2487.9000      7.9048      1.8607     16.7310      2.6193      0.0838     88.6418
  2488.0000      7.9043      1.5199     17.2071      2.6249      0.0701     87.3417
  2488.1000      7.9043      1.7640     17.4827      2.6209      0.0603     86.9896
  2488.2000      7.9043      1.8629     17.4372      2.6193      0.0537     87.1750
  2488.3000      7.9068      1.3349     17.8047      2.6280      0.0663     87.8430
  2488.4000      7.9068      0.4228     18.7877      2.6430      0.0712     86.4961
  2488.5000      7.9093     -0.2771     19.4573      2.6546      0.0801     81.2540
  2488.6000      7.9093     -0.0689     19.2114      2.6511      0.1086     74.3606
  2488.7000      7.9093      1.0689     18.4103      2.6324      0.0461     69.1971
  2488.8000      7.9087      2.7762     17.8918      2.6042      0.0944     65.0706
  2488.9000      7.9087      4.8417     18.0390      2.5701      0.0579     61.2859
  2489.0000      7.9077      6.0279     18.3895      2.5505      0.0004     60.0312
  2489.1000      7.9077      5.4423     18.4380      2.5602      0.0389     64.8776
  2489.2000      7.9077      3.8110     18.2067      2.5871      0.0579     72.8564
  2489.3000      7.9084      1.9934     18.1192      2.6171      0.0579     77.0133
  2489.4000      7.9084      1.1091     18.5473      2.6317      0.1004     77.5755
  2489.5000      7.9088      2.2506     19.2542      2.6129      0.0740     77.6675
  2489.6000      7.9088      4.3161     19.7372      2.5788     -0.0036     76.0432
  2489.7000      7.9088      5.2218     20.2283      2.5638      0.0440     73.5779
  2489.8000      7.9106      4.8866     20.8940      2.5694      0.0459     74.3626
  2489.9000      7.9106      4.3696     21.0879      2.5779      0.0756     78.2475
  2490.0000      7.9152      3.8711     20.7016      2.5861      0.0313     83.4199
  2490.1000      7.9152      3.0236     20.3552      2.6001      0.0783     88.7788
  2490.2000      7.9152      2.2990     20.4418      2.6121      0.0756     92.3197
  2490.3000      7.9183      2.4735     21.0289      2.6092      0.0775     92.2899
  2490.4000      7.9183      3.5796     21.4914      2.5909      0.0604     88.3223
  2490.5000      7.9198      4.5943     21.1700      2.5742      0.0283     84.5687
  2490.6000      7.9198      4.2802     20.4442      2.5794      0.0345     84.1501
  2490.7000      7.9198      2.8774     20.0599      2.6025      0.0813     84.4900
  2490.8000      7.9240      1.8342     20.1872      2.6197      0.0926     81.9084
  2490.9000      7.9240      1.7849     20.4098      2.6205      0.0841     77.8548
  2491.0000      7.9306      2.3891     20.4599      2.6106      0.0739     78.0240
  2491.1000      7.9306      3.7270     20.3478      2.5885      0.0749     83.9857
  2491.2000      7.9306      5.5457     20.1608      2.5585      0.0507     94.3632
  2491.3000      7.9349      6.5339     20.1108      2.5422      0.0274    105.2317
  2491.4000      7.9349      6.3301     20.1002      2.5456      0.0501    108.4431
  2491.5000      7.9318      5.9839     19.9153      2.5513      0.0499    103.9122
  2491.6000      7.9318      6.0563     19.4750      2.5501      0.0625     98.1818
  2491.7000      7.9318      6.0269     19.0757      2.5506      0.0339     92.9341
  2491.8000      7.9227      5.3486     18.8650      2.5617      0.0570     88.0692
  2491.9000      7.9227      4.4782     18.2758      2.5761      0.0625     86.2481
  2492.0000      7.9151      4.0904     17.2915      2.5825      0.0764     84.7429
  2492.1000      7.9151      3.6162     16.8412      2.5903      0.0508     79.7199
  2492.2000      7.9151      2.0603     17.1620      2.6160      0.0527     73.3572
  2492.3000      7.9118      0.1763     17.5710      2.6471      0.1232     67.2372
  2492.4000      7.9118     -0.0989     17.5797      2.6516      0.1261     64.0304
  2492.5000      7.9097      1.4565     17.1998      2.6260      0.0414     65.1810
  2492.6000      7.9097      3.2786     16.7937      2.5959      0.0426     68.7707
  2492.7000      7.9097      4.6626     16.6801      2.5731      0.0428     74.6015
  2492.8000      7.9075      5.3746     16.7884      2.5613      0.0338     79.4496
  2492.9000      7.9075      4.8823     17.1378      2.5694      0.0356     78.2215
  2493.0000      7.9069      4.2125     17.9421      2.5805      0.0911     72.9929
  2493.1000      7.9069      4.7040     19.1447      2.5724      0.0246     71.9054
  2493.2000      7.9069      5.5132     20.1784      2.5590      0.0409     78.0807
  2493.3000      7.9083      5.7116     20.5797      2.5558      0.0520     87.6927
  2493.4000      7.9083      5.9130     20.6620      2.5524      0.0552     98.1344
  2493.5000      7.9086      6.6208     20.8347      2.5408      0.0080    106.0123
  2493.6000      7.9086      7.5416     21.2455      2.5256      0.0496    107.8673
  2493.7000      7.9086      8.1515     21.5147      2.5155      0.0265    108.1288
  2493.8000      7.9071      7.9201     21.1362      2.5193      0.0375    111.1450
  2493.9000      7.9071      7.0678     20.7102      2.5334      0.0478    111.4732
  2494.0000      7.9067      6.3602     20.7418      2.5451      0.0529    105.0036
  2494.1000      7.9067      6.0618     20.4952      2.5500      0.0947     98.7628
  2494.2000      7.9067      5.7964     19.3939      2.5544      0.0659     99.7863
  2494.3000      7.9080      5.1530     18.0214      2.5650      0.0697    104.8194
  2494.4000      7.9080      4.5936     17.2683      2.5742      0.0787    106.1876
  2494.5000      7.9080      4.6758     17.4244      2.5728      0.0597    102.7965
  2494.6000      7.9080      4.8744     17.9237      2.5696      0.0629     97.3504
  2494.7000      7.9080      4.6192     18.1626      2.5738      0.0794     89.9121
  2494.8000      7.9069      3.9840     18.1846      2.5843      0.0681     81.7618
  2494.9000      7.9069      3.2516     18.1933      2.5963      0.0939     74.1569
  2495.0000      7.9074      2.7293     18.2879      2.6050      0.0497     69.8222
  2495.1000      7.9074      2.7027     18.3499      2.6054      0.0935     72.9071
