~Version Information
VERS.                      2.0: CWLS Log ASCII Standard - VERSION 2.0
WRAP.                       NO: One line per depth step
~Well Information Block
STRT.FT                 0.0000: 
STOP.FT               878.0000: 
STEP.FT                 0.2500: 
NULL.                -999.2500: 
COMP.          Pioneer Natural Resources: COMPANY
WELL.           Hartford 31-18: WELL
FLD.           Purgatorie River: FIELD
LOC.           375' FNL & 1660' FEL: LOCATION
PROV.                 Colorado: PROVINCE
CNTY.               Las Animas: COUNTRY
SRVC.                Patterson: SERVICE COMPANY
DATE.          Mon Nov 28 12:10:49 2005: LOG DATE
UWI.             05-071-08555             : UNIQUE WELL ID
~Curve Information Block
DEPT.FT            0 000 00 00: Depth
CCL.                          : Casing Collar Locator
TT3.usec                      : CBL 3' Travel Time
AMP3.mV                       : CBL 3' Amplitude
GR.GAPI                       : Gamma Ray
~Parameter Information Block
~A  Depth       CCL         TT3         AMP3         GR     
     0.0000   -999.2500   1197.0000      0.0179     77.5464
     0.2500   -999.2500   1197.0000     -0.0622     71.0363
     0.5000   -999.2500   1197.0000     -0.1164     65.1755
     0.7500   -999.2500   1197.0000     -0.1322     59.6645
     1.0000   -999.2500   1197.0000     -0.0948     56.5577
     1.2500   -999.2500   1197.0000     -0.0379     56.1969
     1.5000   -999.2500   1197.0000      0.0082     57.2342
     1.7500   -999.2500   1197.0000      0.0261     57.6751
     2.0000   -999.2500   1197.0000      0.0076     55.9604
     2.2500   -999.2500   1197.0000     -0.0309     51.6681
     2.5000   -999.2500   1197.0000     -0.0593     45.6472
     2.7500   -999.2500   1197.0000     -0.0597     39.6321
     3.0000   -999.2500   1197.0000     -0.0426     35.6009
     3.2500   -999.2500   1197.0000     -0.0282     34.9065
     3.5000   -999.2500   1197.0000     -0.0210     37.4273
     3.7500   -999.2500   1197.0000     -0.0157     41.6462
     4.0000   -999.2500   1197.0000     -0.0119     46.0078
     4.2500      2.0000   1197.0000     -0.0253     50.2133
     4.5000      0.0000   1197.0000     -0.0663     54.9062
     4.7500      0.0000   1197.0000     -0.1119     60.1790
     5.0000      0.0000   1197.0000     -0.1289     64.7891
     5.2500      0.0000   1197.0000     -0.1071     67.0464
     5.5000      0.0000   1197.0000     -0.0588     66.4126
     5.7500      0.0000   1197.0000     -0.0064     64.2261
     6.0000      0.0000   1197.0000      0.0292     62.9442
     6.2500      0.0000   1197.0000      0.0324     64.5784
     6.5000      0.0000   1197.0000     -0.0001     69.4349
     6.7500      0.0000   1196.9165     -0.0340     75.9357
     7.0000      0.0000   1195.9537      0.0487     81.6852
     7.2500      0.0000   1188.8400      0.7297     85.1390
     7.5000      0.0000   1155.1372      3.6654     86.5002
     7.7500      0.0000   1052.7568     12.1273     86.9107
     8.0000      0.0000    853.3469     28.1228     86.8911
     8.2500      0.0000    604.3196     47.3978     85.9890
     8.5000      0.0000    404.9583     61.3829     83.8689
     8.7500      0.0000    302.7898     65.8135     81.1030
     9.0000      0.0000    269.8001     63.0118     78.6327
     9.2500      0.0000    264.8048     56.8626     76.9535
     9.5000      0.0000    269.0540     49.6414     76.2165
     9.7500      0.0000    278.7412     42.3210     76.6955
    10.0000      0.0000    293.1564     35.4146     78.4105
    10.2500      0.0000    312.6644     29.2739     80.3985
    10.5000      0.0000    338.1672     24.0836     81.1813
    10.7500      0.0000    364.8920     19.8717     80.3623
    11.0000      0.0000    382.3185     16.5420     79.2990
    11.2500      0.0000    385.0360     13.8953     79.6613
    11.5000      0.0000    377.8201     11.7299     81.4340
    11.7500      0.0000    369.0083     10.0014     82.8771
    12.0000      0.0000    363.2108      8.8003     82.5811
    12.2500      0.0000    360.5049      8.1287     81.0788
    12.5000      0.0000    359.4030      7.8170     80.1322
    12.7500      0.0000    358.8471      7.6717     80.8463
    13.0000      0.0000    358.4235      7.5900     82.8037
    13.2500      0.0000    358.0309      7.5325     84.6352
    13.5000      0.0000    357.6695      7.4969     84.9902
    13.7500      0.0000    357.3729      7.5296     83.3662
    14.0000      0.0000    357.1826      7.6625     80.5592
    14.2500      0.0000    357.2819      7.8366     78.2034
    14.5000      0.0000    358.7798      7.9390     77.6202
    14.7500      0.0000    365.5544      7.8629     79.1027
    15.0000      0.0000    384.8283      7.5382     81.9329
    15.2500      0.0000    421.6906      7.0672     84.6218
    15.5000      0.0000    475.3965      6.7474     85.4553
    15.7500      0.0000    544.4910      6.7090     83.4481
    16.0000      0.0000    615.7233      6.8332     78.9265
    16.2500      0.0000    648.9331      7.1120     73.2813
    16.5000      0.0000    613.6846      7.6028     68.2297
    16.7500     -2.0000    537.5729      8.2313     64.9489
    17.0000      0.0000    475.8302      8.8926     63.5203
    17.2500      2.0000    443.7152      9.5293     63.2185
    17.5000      0.0000    428.2567     10.1386     63.3669
    17.7500      0.0000    437.1411     10.8614     63.8479
    18.0000      0.0000    471.5343     12.0576     64.9873
    18.2500      0.0000    488.2402     13.8944     67.2511
    18.5000      0.0000    457.6934     15.6305     70.9226
    18.7500      0.0000    417.2069     16.2040     75.6602
    19.0000      0.0000    408.7414     15.5532     80.3154
    19.2500      0.0000    420.6805     14.3483     83.5445
    19.5000      0.0000    423.9641     13.1038     84.8205
    19.7500      0.0000    413.4149     12.0629     84.7351
    20.0000      0.0000    398.2691     11.2865     84.2815
    20.2500      0.0000    384.7963     10.7183     84.0109
    20.5000      0.0000    375.5129     10.3235     83.8772
    20.7500      0.0000    370.8036     10.1111     83.6751
    21.0000      0.0000    369.0937     10.0406     83.3673
    21.2500      0.0000    368.5847     10.0233     82.8287
    21.5000      0.0000    368.5424     10.0013     81.5287
    21.7500      0.0000    369.5114      9.9556     79.0741
    22.0000      0.0000    373.1716      9.8879     76.2032
    22.2500      0.0000    380.8979      9.8195     74.7776
    22.5000      0.0000    391.0307      9.7683     76.4106
    22.7500      0.0000    398.9783      9.7394     81.0146
    23.0000      0.0000    400.8652      9.7480     86.6115
    23.2500      0.0000    396.0226      9.8014     90.5023
    23.5000      0.0000    387.3507      9.8678     90.8386
    23.7500      0.0000    379.4409      9.9163     87.6474
    24.0000      0.0000    374.7943      9.9488     82.8701
    24.2500      0.0000    372.7762      9.9774     79.2509
    24.5000      0.0000    371.8535     10.0140     78.6064
    24.7500      0.0000    371.1203     10.0570     80.8594
    25.0000      0.0000    370.1622     10.0801     84.6286
    25.2500      0.0000    368.7468     10.0769     88.4284
    25.5000      0.0000    366.9697     10.0823     91.1604
    25.7500      0.0000    365.3516     10.1104     92.0164
    26.0000      0.0000    364.3900     10.1321     90.6397
    26.2500      0.0000    364.0764     10.1321     87.4669
    26.5000      0.0000    364.0663     10.1342     83.5989
    26.7500      0.0000    364.1023     10.1603     80.3409
    27.0000      0.0000    364.1125     10.2050     78.9488
    27.2500      0.0000    364.0764     10.2540     80.3904
    27.5000      0.0000    363.9457     10.2961     84.6939
    27.7500      0.0000    363.7041     10.3052     90.2909
    28.0000      0.0000    363.4337     10.2468     94.2787
    28.2500      0.0000    363.2635     10.1186     93.8558
    28.5000      0.0000    363.2759      9.9668     88.1218
    28.7500      0.0000    363.4948      9.8536     78.8610
    29.0000      0.0000    363.9010      9.7900     69.4266
    29.2500      0.0000    364.4114      9.7353     62.5389
    29.5000      0.0000    364.8936      9.6815     59.0579
    29.7500      0.0000    365.2387      9.6558     58.5457
    30.0000      0.0000    365.4251      9.6634     60.3399
    30.2500      0.0000    365.5048      9.6900     63.8076
    30.5000      0.0000    365.5293      9.7148     67.9697
    30.7500      0.0000    365.5074      9.7218     71.4861
    31.0000      0.0000    365.4095      9.7218     73.3114
    31.2500      0.0000    365.1873      9.7428     73.3990
    31.5000      0.0000    364.8315      9.8157     72.7458
    31.7500      0.0000    364.4576      9.9538     72.5937
    32.0000      0.0000    364.2907     10.1180     73.4927
    32.2500      0.0000    364.5167     10.2563     75.1972
    32.5000      0.0000    365.1773     10.3605     77.3251
    32.7500      0.0000    366.1753     10.4324     79.7392
    33.0000      0.0000    367.3492     10.4584     82.2785
    33.2500      0.0000    368.7441     10.4414     84.6119
