~Version Information
VERS.                      2.0: CWLS Log ASCII Standard - VERSION 2.0
WRAP.                       NO: One line per depth step
~Well Information Block
STRT.FT                -7.5000: 
STOP.FT              2228.7500: 
STEP.FT                 0.2500: 
NULL.                -999.2500: 
COMP.          Pioneer Natural Resources: COMPANY
WELL.          McDonald 33-31 R: WELL
FLD.           Purgatorie River: FIELD
LOC.           1386' FSL & 1926' FEL: LOCATION
STAT.                       CO: State
CNTY.               Las Animas: COUNTY
CTRY.                      USA: Country
SECT.                       31: Section
TOWN.                      32S: Township
RANG.                      66W: Range
SRVC.          Patterson Wireline: SERVICE COMPANY
DATE.          Wed Sep 28 13:29:18 2005: LOG DATE
API.           05 071 08533 00: API#
~Curve Information Block
DEPT.FT            0 000 00 00: Depth
CCL.                          : Casing Collar Locator
TT3.usec                      : CBL 3' Travel Time
AMP3.mV                       : CBL 3' Amplitude
GR.GAPI                       : Gamma Ray
~Parameter Information Block
~A  Depth       CCL         TT3         AMP3         GR     
# ...
  1902.0000      0.0000    503.6952      7.4374     65.8364
  1902.2500      0.0000    528.4843      7.3777     64.5774
  1902.5000      0.0000    531.3636      7.3826     63.1085
  1902.7500      0.0000    515.8194      7.4813     62.1251
  1903.0000      0.0000    501.6584      7.6679     62.2989
  1903.2500      0.0000    509.8214      7.8985     63.1106
  1903.5000      0.0000    546.4116      8.1075     63.2519
  1903.7500      0.0000    599.8103      8.2323     62.0710
  1904.0000      0.0000    651.1481      8.2360     60.0015
  1904.2500      0.0000    687.4968      8.1232     57.6334
  1904.5000      0.0000    707.0148      7.9384     55.1669
  1904.7500      0.0000    714.8517      7.7437     53.0219
  1905.0000      0.0000    716.5571      7.5861     52.1609
  1905.2500      0.0000    714.3669      7.4776     53.2369
  1905.5000      0.0000    706.3948      7.3986     55.7957
  1905.7500      0.0000    687.5905      7.3186     58.6037
  1906.0000      0.0000    653.3328      7.2151     60.4910
  1906.2500      0.0000    605.0015      7.0829     60.8492
  1906.5000      0.0000    551.9914      6.9307     59.8180
  1906.7500      0.0000    505.8748      6.7708     58.1652
  1907.0000      0.0000    472.2289      6.6127     56.7600
  1907.2500      0.0000    449.7208      6.4651     56.0477
  1907.5000      0.0000    435.8354      6.3422     56.0458
  1907.7500      0.0000    430.8363      6.2662     56.5828
  1908.0000      0.0000    436.1707      6.2606     57.2931
  1908.2500      0.0000    450.0792      6.3373     57.5248
  1908.5000      0.0000    464.8078      6.4846     56.6038
  1908.7500      0.0000    469.7494      6.6666     54.4093
  1909.0000      0.0000    459.8793      6.8392     51.6898
  1909.2500      0.0000    440.5883      6.9694     49.6095
  1909.5000      0.0000    422.3667      7.0480     48.8493
  1909.7500      0.0000    411.6401      7.0876     49.2275
  1910.0000      0.0000    407.7431      7.1090     50.3142
  1910.2500      0.0000    406.6471      7.1300     52.2232
  1910.5000      0.0000    405.4057      7.1612     55.4459
  1910.7500      0.0000    403.5810      7.2051     59.8405
  1911.0000      0.0000    402.0703      7.2537     64.0845
  1911.2500      0.0000    401.3330      7.2912     66.3723
  1911.5000      0.0000    400.7998      7.3016     65.7207
  1911.7500      0.0000    399.8049      7.2756     62.6685
  1912.0000      0.0000    398.5479      7.2181     58.7760
  1912.2500      0.0000    398.2351      7.1530     55.3885
  1912.5000      0.0000    401.2375      7.1153     52.8638
  1912.7500      0.0000    410.7592      7.1268     51.0333
  1913.0000      0.0000    427.8176      7.1722     50.1633
  1913.2500      0.0000    447.5400      7.2024     51.0367
  1913.5000      0.0000    461.5888      7.1676     54.1272
  1913.7500      0.0000    467.6157      7.0600     59.1941
  1914.0000      0.0000    474.9868      6.9278     65.8252
  1914.2500      0.0000    497.7787      6.8441     73.6975
  1914.5000      0.0000    541.2499      6.8553     81.9039
  1914.7500      0.0000    595.9221      6.9526     88.7199
  1915.0000      0.0000    644.6115      7.0838     92.9549
  1915.2500      0.0000    674.2085      7.1853     95.4037
  1915.5000      0.0000    680.8688      7.2094     98.1100
  1915.7500      0.0000    666.7339      7.1393    101.9087
  1916.0000      0.0000    635.4777      6.9893    105.3200
  1916.2500      0.0000    592.1321      6.7924    106.2399
  1916.5000      0.0000    544.9087      6.5838    104.0462
  1916.7500      0.0000    503.9626      6.3876     99.5368
  1917.0000      0.0000    477.3720      6.2042     93.5877
  1917.2500      0.0000    468.7898      6.0027     86.8715
  1917.5000      0.0000    478.0680      5.7344     80.6004
  1917.7500      0.0000    501.9275      5.3730     76.5618
  1918.0000      0.0000    533.4710      4.9460     75.9558
  1918.2500      0.0000    562.7349      4.5157     78.2925
  1918.5000      0.0000    579.2188      4.1360     81.6131
  1918.7500      0.0000    575.1388      3.8535     83.8398
  1919.0000      0.0000    548.9256      3.7349     84.0086
  1919.2500      0.0000    507.6311      3.8320     82.5243
  1919.5000      0.0000    464.4297      4.1031     80.5983
  1919.7500      0.0000    431.2657      4.4065     79.4906
  1920.0000      0.0000    413.4920      4.5913     80.0327
  1920.2500      0.0000    411.3554      4.5746     82.5003
  1920.5000      0.0000    424.4328      4.3531     86.6270
  1920.7500      0.0000    452.5337      3.9941     91.6620
  1921.0000      0.0000    492.3458      3.6154     96.5334
  1921.2500      0.0000    534.1686      3.3259    100.1765
  1921.5000      0.0000    563.1428      3.1684    101.9229
  1921.7500      0.0000    566.0219      3.1296    101.8127
  1922.0000      0.0000    539.8915      3.1886    100.5880
  1922.2500      0.0000    495.5347      3.3304     99.1887
  1922.5000      0.0000    451.0140      3.5257     98.1108
  1922.7500      0.0000    420.8175      3.7349     97.2155
  1923.0000      0.0000    411.0887      3.9366     96.0768
  1923.2500      0.0000    423.0483      4.1360     94.4725
  1923.5000      0.0000    456.4419      4.3377     92.5789
  1923.7500      0.0000    507.0876      4.5191     90.8104
  1924.0000      0.0000    563.0964      4.6368     89.5821
  1924.2500      0.0000    607.3237      4.6568     89.1386
  1924.5000      0.0000    625.2476      4.5786     89.3759
  1924.7500      0.0000    611.3582      4.4328     89.8422
  1925.0000      0.0000    570.9909      4.2633     90.1416
  1925.2500      0.0000    518.2825      4.1100     90.2851
  1925.5000      0.0000    469.8515      4.0015     90.3806
  1925.7500      0.0000    436.1783      3.9525     90.1108
  1926.0000      0.0000    417.4848      3.9622     88.9979
  1926.2500      0.0000    407.6072      4.0159     87.2608
  1926.5000      0.0000    400.8462      4.0910     85.9160
  1926.7500      0.0000    395.0932      4.1635     85.6741
  1927.0000      0.0000    390.5250      4.2113     85.9273
  1927.2500      0.0000    387.4119      4.2173     85.0679
  1927.5000      0.0000    385.4275      4.1765     81.7957
  1927.7500      0.0000    384.0551      4.1006     76.2555
  1928.0000      0.0000    382.9954      4.0119     70.0936
  1928.2500      0.0000    382.1645      3.9294     65.2754
  1928.5000      0.0000    381.5087      3.8620     62.7870
  1928.7500      0.0000    380.8969      3.8106     62.5016
  1929.0000      0.0000    380.1793      3.7756     63.7952
  1929.2500      0.0000    379.2984      3.7571     65.8206
  1929.5000      0.0000    378.3006      3.7521     67.6451
  1929.7500      0.0000    377.2682      3.7561     68.6743
  1930.0000      0.0000    376.2874      3.7689     68.7861
  1930.2500      0.0000    375.4604      3.7959     67.8561
  1930.5000      0.0000    374.9339      3.8420     65.4656
  1930.7500      0.0000    374.9348      3.9074     61.4513
  1931.0000      0.0000    376.0460      3.9941     56.6196
  1931.2500      0.0000    379.6444      4.1151     52.5509
  1931.5000      0.0000    388.2747      4.2879     50.5170
  1931.7500      0.0000    405.0835      4.5087     50.6394
  1932.0000      0.0000    431.7019      4.7318     51.9809
  1932.2500      0.0000    465.6202      4.8825     53.2534
  1932.5000      0.0000    500.0871      4.9012     53.6180
  1932.7500      0.0000    527.9058      4.7867     53.1741
  1933.0000      0.0000    546.1248      4.6081     52.7587
  1933.2500      0.0000    557.4058      4.4844     53.1453
  1933.5000      0.0000    566.7664      4.5369     54.3637
  1933.7500      0.0000    575.5834      4.8349     55.6234
  1934.0000      0.0000    577.8164      5.3658     55.7521
  1934.2500      0.0000    564.0020      6.0436     53.9346
  1934.5000      0.0000    531.6774      6.7408     50.4011
  1934.7500      0.0000    492.3617      7.3286     46.4166
  1935.0000      0.0000    466.2585      7.7119     43.3804
  1935.2500      2.0000    468.3433      7.8470     41.9089
