~Version Information
VERS.                      2.0: CWLS Log ASCII Standard - VERSION 2.0
WRAP.                       NO: One line per depth step
~Well Information Block
STRT.FT               545.0000: 
STOP.FT              1452.5000: 
STEP.FT                 0.1000: 
NULL.                -999.2500: 
COMP.          Pioneer Natural Resources: COMPANY
WELL.          Parklane 43-34 Tr: WELL
FLD.           Purgatoire River: FIELD
LOC.           1643' FSL & 966' FEL: LOCATION
PROV.                 Colorado: PROVINCE
CNTY.               Las Animas: COUNTRY
SRVC.                Patterson: SERVICE COMPANY
DATE.          Fri Jul 29 07:27:28 2005: LOG DATE
UWI.           05 071 08452 00: UNIQUE WELL ID
~Curve Information Block
DEPT.FT            0 000 00 00: Depth
DCAL.in                       : CDL Caliper
RHOB.g/cc                     : CDL Bulk Density
RHOC.g/cc                     : CDL Density Correction
DPOR.pu                       : CDL Density Porosity
GR.GAPI                       : Gamma Ray
NPOR.pu                       : Neutron Porosity
~Parameter Information Block
~A  Depth       DCAL        RHOB        RHOC        DPOR         GR         NPOR    
# ...
  1025.0000      7.9966      2.3075      0.0673     20.7587    131.0073     22.9103
  1025.1000      7.9966      2.2855      0.1314     22.0890    131.9007     23.0108
  1025.2000      7.9966      2.2503      0.1145     24.2245    137.9425     22.9262
  1025.3000      7.9945      2.2273      0.1118     25.6177    143.9425     22.6758
  1025.4000      7.9945      2.2397      0.1051     24.8648    143.9479     22.4564
  1025.5000      7.9863      2.2789      0.1884     22.4884    139.6030     22.3672
  1025.6000      7.9863      2.3195      0.1807     20.0293    136.2799     22.2467
  1025.7000      7.9863      2.3522      0.1732     18.0511    136.5485     22.0526
  1025.8000      7.9889      2.3749      0.1714     16.6712    139.7556     21.8441
  1025.9000      7.9889      2.3897      0.1490     15.7769    144.5190     21.3724
  1026.0000      8.0303      2.4090      0.1685     14.6080    151.1375     20.7292
  1026.1000      8.0303      2.4278      0.2288     13.4652    158.1944     20.5431
  1026.2000      8.0303      2.4235      0.2012     13.7248    161.4371     20.7436
  1026.3000      8.0925      2.3900      0.1418     15.7605    158.5564     20.7343
  1026.4000      8.0925      2.3413      0.1017     18.7077    152.9169     20.7092
  1026.5000      8.0816      2.2987      0.0328     21.2906    149.0125     21.1773
  1026.6000      8.0816      2.2789      0.0563     22.4917    148.1584     22.2146
  1026.7000      8.0816      2.2784      0.0164     22.5186    149.0533     23.6261
  1026.8000      8.1100      2.2845      0.0478     22.1532    147.7125     24.9972
  1026.9000      8.1100      2.2994      0.0246     21.2496    144.9662     26.0431
  1027.0000      8.0712      2.3433      0.0176     18.5895    142.4118     26.7047
  1027.1000      8.0712      2.4154      0.1505     14.2180    139.0927     26.7915
  1027.2000      8.0712      2.4797      0.1884     10.3206    137.7244     26.4075
  1027.3000      8.1135      2.5121      0.1433      8.3568    137.7659     26.0466
  1027.4000      8.1135      2.5202      0.1610      7.8680    137.9229     25.8375
  1027.5000      8.1184      2.5183      0.0707      7.9829    137.5629     25.7072
  1027.6000      8.1184      2.5149      0.0717      8.1876    131.8718     25.6445
  1027.7000      8.1184      2.5125      0.0469      8.3334    121.7579     25.5541
  1027.8000      8.1291      2.5054      0.1371      8.7632    114.8853     25.6192
  1027.9000      8.1291      2.4868      0.1034      9.8920    114.0138     25.9800
  1028.0000      8.0459      2.4652      0.0768     11.2003    116.4470     26.0984
  1028.1000      8.0459      2.4624      0.0645     11.3722    119.5336     25.5994
  1028.2000      8.0459      2.4934      0.1261      9.4899    120.7128     24.8753
  1028.3000      7.9554      2.5485      0.1574      6.1521    119.9408     24.0085
  1028.4000      7.9554      2.6070      0.2289      2.6038    117.5504     22.7551
  1028.5000      7.9290      2.6564      0.2828     -0.3906    111.6861     21.6623
  1028.6000      7.9290      2.6831      0.3274     -2.0065    103.9053     21.1308
  1028.7000      7.9290      2.6748      0.3042     -1.5039     99.1093     20.4839
  1028.8000      7.9461      2.6423      0.2088      0.4658     97.9900     19.5251
  1028.9000      7.9461      2.6046      0.1752      2.7524     95.4740     18.9131
  1029.0000      7.9602      2.5655      0.1012      5.1200     88.1892     18.7818
  1029.1000      7.9602      2.5312      0.0532      7.1995     78.0135     18.8351
  1029.2000      7.9602      2.5171      0.0403      8.0537     70.7420     18.7878
  1029.3000      8.0048      2.5279      0.0296      7.4017     68.1029     18.5235
  1029.4000      8.0048      2.5511      0.0474      5.9946     65.6175     18.1969
  1029.5000      8.0095      2.5713      0.1232      4.7687     61.9074     17.7592
  1029.6000      8.0095      2.5742      0.1322      4.5963     59.3139     16.9785
  1029.7000      8.0095      2.5593      0.0774      5.4969     57.3129     16.2666
  1029.8000      8.0159      2.5432      0.0966      6.4757     53.8305     16.0422
  1029.9000      8.0159      2.5281      0.0652      7.3851     50.0847     16.1446
  1030.0000      8.0095      2.5071      0.0503      8.6602     48.8577     16.2600
  1030.1000      8.0095      2.4877      0.0173      9.8373     51.5448     16.1371
  1030.2000      8.0095      2.4856      0.0186      9.9640     56.8310     16.0422
  1030.3000      8.0195      2.4940      0.0883      9.4547     60.6943     16.3619
  1030.4000      8.0195      2.4834      0.1090     10.0972     62.2748     16.9261
  1030.5000      8.0224      2.4541      0.0147     11.8749     64.3437     17.2269
  1030.6000      8.0224      2.4439      0.0253     12.4904     65.6786     17.0353
  1030.7000      8.0224      2.4664      0.0672     11.1259     63.7258     16.6586
  1030.8000      7.9815      2.5046      0.0893      8.8125     59.6031     16.4471
  1030.9000      7.9815      2.5495      0.1030      6.0919     54.0715     16.4455
  1031.0000      7.9407      2.5943      0.1501      3.3756     48.4059     16.7222
  1031.1000      7.9407      2.6217      0.2026      1.7125     45.4272     17.3879
  1031.2000      7.9407      2.6244      0.1903      1.5542     45.5596     18.0944
  1031.3000      7.9312      2.6093      0.1614      2.4673     46.7307     18.3756
  1031.4000      7.9312      2.5731      0.1376      4.6609     45.7197     18.4750
  1031.5000      7.9366      2.5172      0.0510      8.0486     42.4283     18.8308
  1031.6000      7.9366      2.4702      0.0140     10.8968     41.0693     19.4609
  1031.7000      7.9366      2.4569     -0.0443     11.7055     43.1828     20.1866
  1031.8000      7.9887      2.4714     -0.0359     10.8228     45.9091     20.8173
  1031.9000      7.9887      2.4893      0.0221      9.7374     49.0167     21.2935
  1032.0000      8.0542      2.4961      0.0044      9.3289     55.8988     21.4922
  1032.1000      8.0542      2.4965      0.0058      9.3053     65.4236     21.1276
  1032.2000      8.0542      2.4997      0.0336      9.1065     72.1659     20.2486
  1032.3000      8.0630      2.5036      0.0678      8.8726     74.1167     19.4580
  1032.4000      8.0630      2.5013      0.0231      9.0110     72.5896     19.0502
  1032.5000      8.0312      2.4985      0.0445      9.1845     70.3518     18.8150
  1032.6000      8.0312      2.5121      0.0226      8.3570     70.8823     18.8711
  1032.7000      8.0312      2.5483      0.0848      6.1644     71.5201     19.1671
  1032.8000      7.9504      2.5893      0.1235      3.6805     68.7412     19.2758
  1032.9000      7.9504      2.6162      0.1456      2.0480     64.4959     19.0093
  1033.0000      7.9270      2.6138      0.2062      2.1955     59.5149     18.4386
  1033.1000      7.9270      2.5769      0.1194      4.4324     53.4469     17.7323
  1033.2000      7.9270      2.5301      0.0288      7.2637     46.7667     17.1467
  1033.3000      7.9346      2.5026      0.0174      8.9304     40.8612     16.9158
  1033.4000      7.9346      2.4960      0.0558      9.3339     38.5852     17.1165
  1033.5000      7.9791      2.4951      0.0450      9.3867     39.1698     17.6231
  1033.6000      7.9791      2.4847      0.0180     10.0186     40.3093     18.1260
  1033.7000      7.9791      2.4628     -0.0196     11.3434     42.0448     18.2393
  1033.8000      7.9925      2.4533     -0.0314     11.9237     41.9512     17.8606
  1033.9000      7.9925      2.4752      0.0423     10.5920     38.7066     17.4416
  1034.0000      7.9829      2.5136      0.0780      8.2675     36.8712     17.5746
  1034.1000      7.9829      2.5444      0.1044      6.4010     39.0780     18.1516
  1034.2000      7.9829      2.5653      0.1212      5.1317     43.1084     18.5245
  1034.3000      7.9661      2.5865      0.1033      3.8484     46.6640     18.8712
  1034.4000      7.9661      2.6091      0.1060      2.4782     48.0341     19.6730
  1034.5000      7.9505      2.6226      0.1357      1.6616     47.5169     20.3204
