~Version Information
VERS.                      2.0: CWLS Log ASCII Standard - VERSION 2.0
WRAP.                       NO: One line per depth step
~Well Information Block
STRT.FT               505.0000: 
STOP.FT               770.5000: 
STEP.FT                 0.1000: 
NULL.                -999.2500: 
COMP.          Pioneer Natural Resources: COMPANY
WELL.                Zed 11-23: WELL
FLD.           Purgatoire River: FIELD
LOC.           641' FNL & 952' FWL: LOCATION
CNTY.               Las Animas: COUNTY
SRVC.                Patterson: SERVICE COMPANY
DATE.          Mon Feb 27 07:12:43 2006: LOG DATE
UWI.           05 071 08702 00: UNIQUE WELL ID
STAT.                 Colorado: STATE
~Curve Information Block
DEPT.FT            0 000 00 00: Depth
DCAL.in                       : CDL Caliper
RHOB.g/cc                     : CDL Bulk Density
RHOC.g/cc                     : CDL Density Correction
DPOR.pu                       : CDL Density Porosity
GR.GAPI                       : Gamma Ray
NPOR.pu                       : Neutron Porosity
~Parameter Information Block
~A  Depth       DCAL        RHOB        RHOC        DPOR         GR         NPOR    
   505.0000      8.2024      2.2098     -0.3925     26.6781     90.3806     26.6695
   505.1000      8.2024      2.1961     -0.4512     27.5099     88.6534     24.9500
   505.2000      8.2024      2.1726     -0.4673     28.9342     87.4782     23.3988
   505.3000      8.2022      2.1551     -0.4970     29.9962     89.2698     26.0018
   505.4000      8.2022      2.1419     -0.5315     30.7937     92.5267     30.7539
   505.5000      8.2057      2.1409     -0.5549     30.8564     91.8461     32.0652
   505.6000      8.2057      2.1654     -0.5461     29.3702     86.6381     30.1904
   505.7000      8.2057      2.2092     -0.4832     26.7135     80.2752     28.7958
   505.8000      8.1963      2.2498     -0.4431     24.2572     77.0936     26.8985
   505.9000      8.1963      2.2644     -0.4039     23.3690     77.8298     23.0412
   506.0000      8.2061      2.2542     -0.4456     23.9881     77.8210     20.6305
   506.1000      8.2061      2.2403     -0.4288     24.8319     75.8112     22.4845
   506.2000      8.2061      2.2216     -0.3628     25.9666     72.5819     27.3595
   506.3000      8.1930      2.1894     -0.4709     27.9169     70.6416     30.2356
   506.4000      8.1930      2.1659     -0.5370     29.3364     72.9689     27.7448
   506.5000      8.1881      2.1616     -0.4445     29.6002     74.9145     24.3439
   506.6000      8.1881      2.1555     -0.4454     29.9677     75.2165     24.4949
   506.7000      8.1881      2.1426     -0.4691     30.7501     76.4910     26.8046
   506.8000      8.2014      2.1398     -0.5238     30.9201     75.3587     26.6623
   506.9000      8.2014      2.1466     -0.4389     30.5099     74.6911     23.9382
   507.0000      8.2065      2.1364     -0.4630     31.1251     78.7976     22.8846
   507.1000      8.2065      2.0990     -0.4932     33.3967     80.6329     24.9819
   507.2000      8.2065      2.0618     -0.6488     35.6513     78.4439     27.0230
   507.3000      8.1997      2.0561     -0.5646     35.9962     79.5023     26.7383
   507.4000      8.1997      2.0748     -0.4951     34.8603     83.0048     26.9354
   507.5000      8.1973      2.0996     -0.5009     33.3595     81.6022     28.0483
   507.6000      8.1973      2.1309     -0.4660     31.4576     77.5856     27.9030
   507.7000      8.1973      2.1590     -0.4343     29.7590     78.4754     27.9685
   507.8000      8.2001      2.1618     -0.4260     29.5908     82.0592     30.1017
   507.9000      8.2001      2.1419     -0.5038     30.7961     82.4205     31.1369
   508.0000      8.1997      2.1215     -0.4954     32.0285     79.0548     28.9461
   508.1000      8.1997      2.1189     -0.5282     32.1875     75.7381     26.8670
   508.2000      8.1997      2.1461     -0.5233     30.5401     73.6653     26.3897
   508.3000      8.2057      2.1922     -0.4368     27.7470     72.6914     27.1995
   508.4000      8.2057      2.2274     -0.4217     25.6107     77.0585     28.9764
   508.5000      8.1971      2.2399     -0.4654     24.8528     88.3988     28.0881
   508.6000      8.1971      2.2313     -0.4285     25.3781     97.4587     23.2559
   508.7000      8.1971      2.2009     -0.4707     27.2207     96.7195     19.7859
   508.8000      8.1983      2.1687     -0.5552     29.1711     94.2496     20.8499
   508.9000      8.1983      2.1605     -0.5145     29.6672     95.1516     23.9307
   509.0000      8.1966      2.1720     -0.4943     28.9705     92.9009     23.5290
   509.1000      8.1966      2.1930     -0.5505     27.6983     87.0590     21.3631
   509.2000      8.1966      2.2266     -0.4749     25.6630     82.1689     22.6419
   509.3000      8.1943      2.2599     -0.4203     23.6419     82.7605     27.0035
   509.4000      8.1943      2.2698     -0.4051     23.0429     88.8399     29.8838
   509.5000      8.1900      2.2581     -0.4755     23.7515     90.8649     30.4869
   509.6000      8.1900      2.2441     -0.4356     24.5996     85.3667     31.8592
   509.7000      8.1900      2.2324     -0.4479     25.3082     80.6186     32.8151
   509.8000      8.1941      2.2115     -0.4294     26.5748     80.5336     30.8141
   509.9000      8.1941      2.1814     -0.5161     28.4008     82.1688     27.8302
   510.0000      8.1904      2.1642     -0.5221     29.4433     83.0653     27.1561
   510.1000      8.1904      2.1692     -0.5177     29.1399     83.0097     29.2219
   510.2000      8.1904      2.1830     -0.4489     28.3051     81.0135     30.3847
   510.3000      8.1905      2.1929     -0.4741     27.7048     75.5134     27.4351
   510.4000      8.1905      2.1943     -0.4183     27.6176     69.8450     24.8419
   510.5000      8.1981      2.1816     -0.4412     28.3878     67.3010     26.2294
   510.6000      8.1981      2.1589     -0.4599     29.7664     66.2908     28.0936
   510.7000      8.1981      2.1423     -0.4864     30.7699     67.0727     26.5789
   510.8000      8.1959      2.1369     -0.4853     31.0952     72.3720     26.0287
   510.9000      8.1959      2.1331     -0.4843     31.3300     78.4883     29.9647
   511.0000      8.1922      2.1222     -0.4867     31.9887     79.4894     34.6730
   511.1000      8.1922      2.1077     -0.5281     32.8648     76.8375     33.8020
   511.2000      8.1922      2.0992     -0.4886     33.3798     78.2795     28.6331
   511.3000      8.1921      2.0883     -0.4867     34.0444     86.0632     25.2977
   511.4000      8.1921      2.0596     -0.4922     35.7846     91.4890     26.3542
   511.5000      8.1945      2.0222     -0.5460     38.0488     89.1891     30.4321
   511.6000      8.1945      1.9983     -0.5831     39.4960     84.6989     32.7891
   511.7000      8.1945      1.9855     -0.5090     40.2734     83.6091     30.5649
   511.8000      8.1921      1.9605     -0.5027     41.7871     83.5277     27.6551
   511.9000      8.1921      1.9194     -0.5802     44.2785     81.2418     27.9849
   512.0000      8.1956      1.8863     -0.5753     46.2862     78.7846     30.2197
   512.1000      8.1956      1.8860     -0.6144     46.3053     79.5354     30.5855
   512.2000      8.1956      1.9206     -0.5561     44.2033     82.0303     30.0317
   512.3000      8.1974      1.9720     -0.5696     41.0909     80.6828     30.5897
   512.4000      8.1974      2.0251     -0.5137     37.8701     75.1561     28.3862
   512.5000      8.1962      2.0731     -0.5349     34.9658     72.5781     23.0037
   512.6000      8.1962      2.1044     -0.4467     33.0694     78.1924     20.9081
   512.7000      8.1962      2.1028     -0.4262     33.1640     82.5241     24.6197
   512.8000      8.1959      2.0833     -0.5899     34.3430     77.9147     30.1483
   512.9000      8.1959      2.0779     -0.4244     34.6733     74.4137     29.4148
   513.0000      8.1903      2.0872     -0.5375     34.1067     77.1649     24.5988
   513.1000      8.1903      2.1087     -0.5181     32.8078     80.4154     23.1497
   513.2000      8.1903      2.1369     -0.4437     31.0986     82.4911     26.4571
   513.3000      8.1803      2.1505     -0.5125     30.2702     85.2903     31.5073
   513.4000      8.1803      2.1423     -0.4469     30.7678     87.8136     34.3331
   513.5000      8.1792      2.1296     -0.5058     31.5417     86.9436     34.2318
   513.6000      8.1792      2.1349     -0.4790     31.2172     83.1735     32.9415
   513.7000      8.1792      2.1548     -0.4074     30.0105     80.1215     32.4819
   513.8000      8.1515      2.1686     -0.4172     29.1770     79.8994     33.1622
   513.9000      8.1515      2.1772     -0.4968     28.6545     79.8583     33.6141
   514.0000      8.1569      2.1832     -0.4441     28.2929     77.2890     32.8734
   514.1000      8.1569      2.1606     -0.4137     29.6636     76.1170     31.6939
   514.2000      8.1569      2.1102     -0.5419     32.7148     82.8830     31.5645
   514.3000      8.1353      2.0725     -0.5079     34.9993     96.5729     32.1335
   514.4000      8.1353      2.0584     -0.4903     35.8520    104.6315     30.8739
   514.5000      8.1358      2.0605     -0.5998     35.7257     98.5467     28.5379
