~Version Information
VERS.                      2.0: CWLS Log ASCII Standard - VERSION 2.0
WRAP.                       NO: One line per depth step
~Well Information Block
STRT.FT               380.0000: 
STOP.FT              1887.5000: 
STEP.FT                 0.1000: 
NULL.                -999.2500: 
COMP.          Pioneer Natural Resources: COMPANY
WELL.          Cortina 23-25 Tr: WELL
FLD.           Purgatoire River: FIELD
LOC.           2521' FSL & 2345' FWL: LOCATION
STAT.                 Colorado: State
CNTY.               Las Animas: COUNTY
CTRY. USA : Country
SECT. 25 : Section
TOWN. 32S : Township
RANG. 67W : Range
SRVC.                Patterson: SERVICE COMPANY
DATE.          Mon Sep 26 06:09:01 2005: LOG DATE
API.           05 071 08534 00: UNIQUE WELL ID
~Curve Information Block
DEPT.FT            0 000 00 00: Depth
DCAL.in                       : CDL Caliper
RHOB.g/cc                     : CDL Bulk Density
RHOC.g/cc                     : CDL Density Correction
DPOR.pu                       : CDL Density Porosity
GR.GAPI                       : Gamma Ray
NPOR.pu                       : Neutron Porosity
~Parameter Information Block
~A  Depth       DCAL        RHOB        RHOC        DPOR         GR         NPOR    
# ...
   975.2000      7.9756      2.5204      0.0960      7.8547    116.5320     26.6349
   975.3000      7.9921      2.5156      0.0769      8.1428    115.9085     26.2661
   975.4000      8.0101      2.5084      0.0686      8.5824    109.9442     25.8060
   975.5000      8.0287      2.5025      0.0505      8.9408    101.6271     25.5123
   975.6000      8.0472      2.4978      0.0699      9.2231     97.2922     25.1746
   975.7000      8.0643      2.4988      0.1248      9.1619     98.2421     24.7079
   975.8000      8.0792      2.5125      0.1896      8.3347    105.2677     24.2899
   975.9000      8.0910      2.5374      0.2119      6.8232    115.2712     24.0667
   976.0000      8.0990      2.5639      0.2960      5.2190    119.0927     24.0048
   976.1000      8.1029      2.5791      0.2640      4.2945    114.3802     24.1986
   976.2000      8.1027      2.5757      0.2447      4.5036    110.4547     24.8027
   976.3000      8.0987      2.5593      0.1630      5.4997    115.9307     25.4364
   976.4000      8.0915      2.5410      0.1803      6.6042    128.1320     25.5654
   976.5000      8.0820      2.5238      0.1303      7.6511    137.3732     25.1531
   976.6000      8.0710      2.5099      0.0891      8.4936    137.3344     24.5683
   976.7000      8.0594      2.5017      0.1178      8.9849    133.2585     24.3290
   976.8000      8.0478      2.4994      0.0593      9.1302    131.0934     24.7212
   976.9000      8.0366      2.5061      0.0817      8.7200    128.8779     25.5183
   977.0000      8.0260      2.5182      0.1360      7.9852    125.4701     26.1269
   977.1000      8.0158      2.5265      0.1239      7.4858    122.5198     26.0786
   977.2000      8.0060      2.5350      0.0974      6.9697    123.1711     25.4492
   977.3000      7.9961      2.5520      0.1137      5.9414    130.9718     24.8249
   977.4000      7.9863      2.5660      0.1296      5.0910    140.9409     24.4446
   977.5000      7.9766      2.5515      0.1338      5.9701    144.3895     24.2038
   977.6000      7.9674      2.5011      0.0878      9.0222    140.8920     24.5211
   977.7000      7.9596      2.4446      0.0246     12.4503    134.0643     25.3423
   977.8000      7.9540      2.4153      0.0247     14.2257    126.7330     25.6156
   977.9000      7.9520      2.4075      0.0471     14.6975    122.0919     24.9407
   978.0000      7.9547      2.3961      0.0275     15.3903    124.2223     23.9250
   978.1000      7.9632      2.3717      0.0210     16.8677    131.2888     23.0774
   978.2000      7.9784      2.3322      0.0360     19.2606    134.4175     22.6038
   978.3000      8.0003      2.2767      0.0295     22.6229    132.8448     22.5660
   978.4000      8.0285      2.2148      0.0261     26.3771    135.3156     22.7549
   978.5000      8.0618      2.1573      0.0631     29.8622    141.5657     23.0935
   978.6000      8.0983      2.1182      0.0363     32.2304    144.5221     23.6469
   978.7000      8.1357      2.1243      0.0278     31.8591    142.9210     24.1470
   978.8000      8.1712      2.1940      0.1145     27.6335    140.7727     24.5298
   978.9000      8.2024      2.3218      0.1967     19.8899    139.2321     25.0478
   979.0000      8.2269      2.4835      0.3423     10.0885    138.7931     25.5473
   979.1000      8.2426      2.6268      0.5790      1.4046    140.5408     25.7065
   979.2000      8.2484      2.6940      0.6043     -2.6669    139.0334     25.7264
   979.3000      8.2434      2.6776      0.4812     -1.6755    132.4856     26.0181
   979.4000      8.2278      2.6170      0.3392      2.0008    126.5683     26.5298
   979.5000      8.2023      2.5608      0.1402      5.4031    124.4005     26.9432
   979.6000      8.1683      2.5390      0.1208      6.7264    125.1419     27.1818
   979.7000      8.1277      2.5426      0.0705      6.5080    128.6514     27.1762
   979.8000      8.0830      2.5504      0.0564      6.0339    133.0238     26.8278
   979.9000      8.0371      2.5560      0.0332      5.6989    137.4916     26.2727
   980.0000      7.9927      2.5549      0.0446      5.7664    142.6975     25.5942
   980.1000      7.9528      2.5315      0.0725      7.1799    143.6555     24.7073
   980.2000      7.9200      2.4710      0.0449     10.8492    139.8911     23.6230
   980.3000      7.8963      2.3781     -0.0371     16.4773    138.6554     22.5679
   980.4000      7.8832      2.2758     -0.0388     22.6809    143.0783     21.7255
   980.5000      7.8811      2.1802     -0.0847     28.4741    150.5768     20.9559
   980.6000      7.8897      2.1002     -0.1313     33.3235    156.7733     20.0385
   980.7000      7.9076      2.0521     -0.1238     36.2361    158.0749     19.1194
   980.8000      7.9330      2.0472     -0.1235     36.5320    155.3610     18.6695
   980.9000      7.9635      2.0768     -0.0524     34.7394    152.6055     18.8919
   981.0000      7.9966      2.1214      0.0795     32.0371    149.1582     19.2764
   981.1000      8.0298      2.1678      0.0816     29.2248    143.2262     19.3080
   981.2000      8.0613      2.2040      0.2748     27.0328    137.7715     19.1992
   981.3000      8.0894      2.2077      0.3355     26.8043    135.4477     19.5234
   981.4000      8.1134      2.1746      0.3020     28.8111    135.2861     20.6723
   981.5000      8.1327      2.1308      0.2545     31.4696    135.3982     22.4491
   981.6000      8.1473      2.1079      0.1448     32.8560    133.9758     24.1268
   981.7000      8.1574      2.1249      0.1532     31.8241    130.5298     25.3178
   981.8000      8.1633      2.1787      0.1575     28.5609    126.5998     26.1721
   981.9000      8.1655      2.2553      0.2249     23.9191    124.9482     26.8292
   982.0000      8.1641      2.3488      0.2388     18.2566    127.4621     27.3023
   982.1000      8.1594      2.4543      0.2885     11.8576    131.6535     27.6397
   982.2000      8.1514      2.5517      0.3174      5.9548    132.7395     27.8848
   982.3000      8.1400      2.6222      0.2707      1.6855    128.5370     28.0551
   982.4000      8.1255      2.6599      0.2412     -0.6013    122.1382     28.1094
   982.5000      8.1081      2.6622      0.1955     -0.7402    119.7499     27.9697
   982.6000      8.0881      2.6368      0.1663      0.7974    122.1089     27.6653
   982.7000      8.0664      2.5991      0.1469      3.0833    123.9071     27.4936
   982.8000      8.0437      2.5615      0.1050      5.3609    124.4703     27.6849
   982.9000      8.0211      2.5379      0.0245      6.7928    125.9732     27.9855
   983.0000      7.9994      2.5408     -0.0289      6.6170    126.8069     27.9072
   983.1000      7.9795      2.5703      0.0080      4.8328    126.0310     27.3026
   983.2000      7.9618      2.6047      0.0811      2.7456    125.4935     26.6584
   983.3000      7.9466      2.6173      0.0935      1.9848    126.3940     26.5905
   983.4000      7.9338      2.6038      0.0733      2.8011    127.3021     26.9577
   983.5000      7.9235      2.5801      0.0352      4.2370    124.2304     27.2768
   983.6000      7.9153      2.5680     -0.0107      4.9680    118.3309     27.5833
   983.7000      7.9093      2.5789      0.0335      4.3101    115.1848     27.6887
   983.8000      7.9053      2.5905      0.0909      3.6070    115.6445     27.0282
   983.9000      7.9031      2.5749      0.0136      4.5505    118.8711     25.9298
   984.0000      7.9028      2.5495     -0.0469      6.0929    124.0566     25.2273
   984.1000      7.9040      2.5451     -0.0276      6.3570    127.9694     25.1351
   984.2000      7.9067      2.5640     -0.0040      5.2146    127.4730     25.3841
   984.3000      7.9103      2.5937      0.0447      3.4112    123.9906     25.6784
   984.4000      7.9144      2.6222      0.0546      1.6826    121.6848     25.9702
   984.5000      7.9184      2.6386      0.1036      0.6936    119.1863     26.2723
   984.6000      7.9219      2.6351      0.0846      0.9035    117.3768     26.5240
   984.7000      7.9245      2.6218      0.0534      1.7120    119.3832     26.7926
