~Version Information
VERS.                      2.0: CWLS Log ASCII Standard - VERSION 2.0
WRAP.                       NO: One line per depth step
~Well Information Block
STRT.FT                -6.2500: 
STOP.FT              1327.5000: 
STEP.FT                 0.2500: 
NULL.                -999.2500: 
COMP.          Pioneer Natural Resources: COMPANY
WELL.            Avant 14-3 Tr: WELL
FLD.           Purgatorie River: FIELD
LOC.           170' FSL & 1174' FWL--: LOCATION
STAT.                       CO: State
CNTY.               Las Animas: COUNTY
CTRY. USA : Country
SECT. 3 : Section
TOWN. 33S : Township
RANG. 67W : Range
SRVC.          Patterson Wireline: SERVICE COMPANY
DATE.          Tue Aug 23 16:44:25 2005: LOG DATE
API.           05 071 08463 00: UNIQUE WELL ID
~Curve Information Block
DEPT.FT            0 000 00 00: Depth
CCL.                          : Casing Collar Locator
TT3.usec                      : CBL 3' Travel Time
AMP3.mV                       : CBL 3' Amplitude
GR.GAPI                       : Gamma Ray
~Parameter Information Block
~A  Depth       CCL         TT3         AMP3         GR     
# ...
   328.7500      0.0000    674.9941     13.9753    107.2808
   329.0000      0.0000    617.5008     13.9775    109.0746
   329.2500      0.0000    563.9465     13.9992    109.4399
   329.5000      0.0000    532.8077     14.0214    108.1089
   329.7500      0.0000    532.4998     14.0317    104.9586
   330.0000      0.0000    563.2285     14.0310    100.4743
   330.2500      0.0000    617.8915     14.0304     95.6222
   330.5000      0.0000    682.0654     14.0394     91.2678
   330.7500      0.0000    739.1368     14.0569     87.7875
   331.0000      0.0000    779.1151     14.0719     85.1999
   331.2500      0.0000    802.0236     14.0752     83.4808
   331.5000      0.0000    813.3084     14.0701     82.6382
   331.7500      0.0000    817.9581     14.0726     82.5428
   332.0000      0.0000    818.5097     14.0987     82.7620
   332.2500      0.0000    816.1779     14.1493     82.7022
   332.5000      0.0000    812.4344     14.2082     82.0903
   332.7500      0.0000    809.3921     14.2575     81.2878
   333.0000      0.0000    808.5475     14.2989     80.9650
   333.2500      0.0000    809.1923     14.3580     81.6454
   333.5000      0.0000    808.7905     14.4616     83.6528
   333.7500      0.0000    805.3683     14.6094     86.9054
   334.0000      0.0000    799.3958     14.7711     90.3219
   334.2500      0.0000    793.3465     14.9111     91.8901
   334.5000      0.0000    790.0227     15.0155     90.1087
   334.7500      0.0000    791.4572     15.0960     85.4133
   335.0000      0.0000    798.4538     15.1729     79.7334
   335.2500      0.0000    809.8693     15.2568     74.7405
   335.5000      0.0000    822.2140     15.3465     70.9828
   335.7500      0.0000    831.0362     15.4443     68.3989
   336.0000      0.0000    833.4424     15.5636     66.7413
   336.2500      0.0000    828.4709     15.7147     65.4636
   336.5000      0.0000    814.3936     15.8839     64.1006
   336.7500      0.0000    788.7958     16.0338     63.1218
   337.0000      0.0000    755.6968     16.1283     63.8419
   337.2500      0.0000    730.4403     16.1568     67.1749
   337.5000      0.0000    729.8892     16.1369     72.5877
   337.7500      0.0000    755.9514     16.0982     78.2331
   338.0000      0.0000    793.5366     16.0618     81.9613
   338.2500      0.0000    825.0997     16.0336     82.3620
   338.5000      0.0000    843.3031     16.0090     79.3421
   338.7500      0.0000    850.9262     15.9826     74.0764
   339.0000      0.0000    854.1211     15.9528     68.3991
   339.2500      0.0000    857.4595     15.9216     63.9690
   339.5000      0.0000    862.7603     15.8931     61.6424
   339.7500      0.0000    869.8432     15.8709     61.2181
   340.0000      0.0000    877.1745     15.8546     61.6608
   340.2500      0.0000    882.3238     15.8388     61.9031
   340.5000      0.0000    883.6124     15.8187     61.5739
   340.7500      0.0000    882.3661     15.7999     60.7901
   341.0000      0.0000    882.4852     15.7996     59.6494
   341.2500      0.0000    886.7181     15.8317     58.4945
   341.5000      0.0000    893.9654     15.8920     58.2912
   341.7500      0.0000    900.9050     15.9610     60.0247
   342.0000      0.0000    905.3390     16.0236     63.7266
   342.2500      0.0000    907.3063     16.0816     68.3734
   342.5000      0.0000    907.9135     16.1430     72.5740
   342.7500      0.0000    908.0880     16.2056     75.3069
   343.0000      0.0000    908.2158     16.2535     76.4293
   343.2500      0.0000    908.3148     16.2702     76.6612
   343.5000      0.0000    908.2907     16.2505     76.9580
   343.7500      0.0000    908.1201     16.2020     77.9045
   344.0000      0.0000    907.7824     16.1401     79.6002
   344.2500      0.0000    906.9930     16.0811     81.7536
   344.5000      0.0000    904.8688     16.0358     83.7294
   344.7500      0.0000    899.8497     16.0044     84.7301
   345.0000      0.0000    890.2108     15.9773     84.3145
   345.2500      0.0000    875.1426     15.9419     82.8452
   345.5000      0.0000    855.6855     15.8918     81.2524
   345.7500      0.0000    834.7822     15.8315     80.3296
   346.0000      0.0000    816.4717     15.7744     80.4276
   346.2500      0.0000    804.5288     15.7357     81.6458
   346.5000      0.0000    800.7578     15.7253     83.7486
   346.7500      0.0000    803.7467     15.7453     85.8389
   347.0000      0.0000    809.5532     15.7930     86.8707
   347.2500      0.0000    814.3914     15.8637     86.9146
   347.5000      0.0000    816.7286     15.9535     87.3622
   347.7500      0.0000    816.4430     16.0589     89.3721
   348.0000      0.0000    812.9940     16.1715     92.2937
   348.2500      0.0000    806.0264     16.2748     93.9743
   348.5000      0.0000    797.1238     16.3482     92.6701
   348.7500      0.0000    789.1896     16.3783     88.5624
   349.0000      0.0000    784.0844     16.3661     83.4069
   349.2500      0.0000    781.7057     16.3218     79.0121
   349.5000      0.0000    780.9658     16.2541     76.3497
   349.7500      0.0000    780.8950     16.1650     75.8137
   350.0000      0.0000    780.9751     16.0527     77.5733
   350.2500      0.0000    781.0309     15.9164     81.4036
   350.5000      0.0000    781.1616     15.7634     86.5005
   350.7500      0.0000    781.7920     15.6138     91.6756
   351.0000      0.0000    783.7960     15.4961     95.6075
   351.2500      0.0000    787.9102     15.4376     96.9824
   351.5000      0.0000    792.9890     15.4567     95.0486
   351.7500      0.0000    794.4144     15.5430     90.4918
   352.0000      0.0000    786.5909     15.6106     85.4254
   352.2500      0.0000    771.2936     15.4827     82.0253
   352.5000      0.0000    764.4073     15.0022     81.0708
   352.7500      0.0000    788.5540     14.2288     81.7731
   353.0000      0.0000    852.5978     13.4920     82.6583
   353.2500      0.0000    938.8490     13.1729     82.5592
   353.5000      0.0000   1014.1356     13.4226     81.1896
   353.7500      0.0000   1051.6844     14.0974     79.0566
   354.0000      0.0000   1041.3171     14.9169     76.9305
   354.2500     -2.0000    986.5518     15.6394     75.5996
   354.5000      2.0000    901.9685     16.1282     75.8656
   354.7500      0.0000    810.8099     16.3475     78.0836
   355.0000      0.0000    733.5042     16.4026     81.5891
   355.2500      0.0000    674.2020     16.5969     85.0856
   355.5000      0.0000    624.7867     17.2993     87.6216
   355.7500      0.0000    584.2021     18.5824     88.8807
   356.0000      0.0000    565.4099     20.0340     88.9227
   356.2500      0.0000    578.1796     21.0837     88.3669
   356.5000      0.0000    614.0010     21.4882     88.4542
   356.7500      0.0000    656.7552     21.4124     89.9098
   357.0000      0.0000    701.1463     21.1512     91.8208
   357.2500      0.0000    750.7373     20.9026     92.5855
   357.5000      0.0000    803.3640     20.7362     92.1104
   357.7500      0.0000    848.6701     20.6496     92.3114
   358.0000      0.0000    878.6068     20.6184     94.9930
   358.2500      0.0000    893.5256     20.6236     99.4807
   358.5000      0.0000    898.7111     20.6580    102.7191
   358.7500      0.0000    898.9896     20.7163    101.7371
   359.0000      0.0000    897.1605     20.7864     96.1538
   359.2500      0.0000    894.9778     20.8463     88.7622
   359.5000      0.0000    893.7354     20.8731     83.8397
   359.7500      0.0000    893.5904     20.8548     84.3019
   360.0000      0.0000    893.0364     20.7979     89.7615
   360.2500      0.0000    889.9819     20.7249     97.1078
   360.5000      0.0000    883.6277     20.6621    103.0330
   360.7500      0.0000    875.2152     20.6242    106.1640
   361.0000      0.0000    866.8783     20.6116    107.1823
   361.2500      0.0000    859.8827     20.6196    107.5911
   361.5000      0.0000    854.0172     20.6460    108.4719
   361.7500      0.0000    848.3600     20.6901    109.7401
   362.0000      0.0000    842.1059     20.7477    110.3486
