~Version Information
VERS.                      2.0: CWLS Log ASCII Standard - VERSION 2.0
WRAP.                       NO: One line per depth step
~Well Information Block
STRT.FT               350.0000: 
STOP.FT              2808.2500: 
STEP.FT                 0.2500: 
NULL.                -999.2500: 
COMP.          Pioneer Natural Resources: COMPANY
WELL.          Grey Goose 33-30: WELL
FLD.           Purgatoire River: FIELD
LOC.           2136' FSL & 2065' FEL--: LOCATION
STAT.                 Colorado: State
CNTY.               Las Animas: COUNTY
CTRY. USA : Country
SECT. 30 : Section
TOWN. 32S : Township
RANG. 67W : Range
SRVC.                Patterson: SERVICE COMPANY
DATE.          Fri Nov 04 09:00:45 2005: LOG DATE
API.           05 071 08546 00: UNIQUE WELL ID
~Curve Information Block
DEPT.FT            0 000 00 00: Depth
DIR.Ohm-m                     : IEL Induction Resistivity
SN.Ohm-m                      : IEL Short Normal
SP.mV                         : IEL Spontaneous Potential
GR.GAPI                       : Gamma Ray
~Parameter Information Block
~A  Depth       DIR          SN          SP          GR     
# ...
  1321.5000     24.8011     35.2833   -124.0374    125.4121
  1321.7500     26.3641     37.6925   -124.8424    120.1313
  1322.0000     28.2705     40.3764   -125.7319    111.1540
  1322.2500     30.5306     43.3542   -126.6958    104.3247
  1322.5000     33.1274     46.6162   -127.7143     92.6988
  1322.7500     36.0084     50.0931   -128.7585     84.6639
  1323.0000     39.0842     53.6666   -129.7921     74.1397
  1323.2500     42.2287     57.2112   -130.7761     68.9370
  1323.5000     45.2771     60.6218   -131.6760     63.7009
  1323.7500     48.0376     63.8021   -132.4676     61.3661
  1324.0000     50.3221     66.6494   -133.1432     59.1698
  1324.2500     51.9793     69.0706   -133.7138     58.7828
  1324.5000     52.9119     71.0185   -134.2088     60.0525
  1324.7500     53.0959     72.5052   -134.6712     61.7942
  1325.0000     52.6160     73.5848   -135.1508     64.5196
  1325.2500     51.6755     74.3247   -135.6952     65.6618
  1325.5000     50.5475     74.7846   -136.3402     65.6924
  1325.7500     49.4888     75.0045   -137.1020     64.8462
  1326.0000     48.6787     74.9948   -137.9700     63.6064
  1326.2500     48.2038     74.7289   -138.9033     63.4644
  1326.5000     48.0649     74.1512   -139.8306     64.3235
  1326.7500     48.1764     73.2009   -140.6539     65.1972
  1327.0000     48.3466     71.8323   -141.2577     66.3289
  1327.2500     48.2671     70.0032   -141.5223     66.6736
  1327.5000     47.5527     67.6455   -141.3402     65.7700
  1327.7500     45.8679     64.6659   -140.6335     63.6167
  1328.0000     43.1065     61.0180   -139.3679     57.7266
  1328.2500     39.4981     56.8046   -137.5624     52.7812
  1328.5000     35.5226     52.3125   -135.2888     46.7039
  1328.7500     31.6836     47.9178   -132.6640     45.3886
  1329.0000     28.3226     43.9106   -129.8339     49.2571
  1329.2500     25.5727     40.3670   -126.9536     55.5106
  1329.5000     23.4115     37.1626   -124.1672     68.2817
  1329.7500     21.7371     34.1061   -121.5917     77.2570
  1330.0000     20.4281     31.0886   -119.3071     88.2110
  1330.2500     19.3855     28.1584   -117.3538     92.4697
  1330.5000     18.5540     25.5037   -115.7366     93.9045
  1330.7500     17.9236     23.3768   -114.4319     92.6568
  1331.0000     17.5122     22.0016   -113.3983     90.3729
  1331.2500     17.3444     21.4961   -112.5848     89.6942
  1331.5000     17.4346     21.8266   -111.9389     89.7902
  1331.7500     17.7781     22.8002   -111.4110     89.8526
  1332.0000     18.3462     24.1039   -110.9570     89.4716
  1332.2500     19.0796     25.3942   -110.5392     89.4418
  1332.5000     19.8816     26.4022   -110.1267     90.9613
  1332.7500     20.6222     27.0015   -109.6963     93.2201
  1333.0000     21.1645     27.2043   -109.2337     97.8365
  1333.2500     21.4107     27.1033   -108.7343    101.1164
  1333.5000     21.3424     26.8070   -108.2046    105.4120
  1333.7500     21.0217     26.4059   -107.6618    107.5718
  1334.0000     20.5562     25.9710   -107.1313    109.8578
  1334.2500     20.0561     25.5599   -106.6435    111.0046
  1334.5000     19.6063     25.2113   -106.2290    112.5295
  1334.7500     19.2564     24.9351   -105.9130    113.4211
  1335.0000     19.0241     24.7109   -105.7117    113.9764
  1335.2500     18.9043     24.4999   -105.6288    113.1247
  1335.5000     18.8784     24.2647   -105.6546    108.9111
  1335.7500     18.9198     23.9834   -105.7667    104.1611
  1336.0000     18.9955     23.6550   -105.9329     95.6939
  1336.2500     19.0674     23.2981   -106.1146     90.5743
  1336.5000     19.0963     22.9434   -106.2726     85.6447
  1336.7500     19.0486     22.6205   -106.3724     84.5746
  1337.0000     18.9027     22.3455   -106.3900     85.7876
  1337.2500     18.6531     22.1120   -106.3168     88.0007
  1337.5000     18.3081     21.8866   -106.1624     93.1661
  1337.7500     17.8839     21.6132   -105.9547     98.0261
  1338.0000     17.3981     21.2325   -105.7366    107.4966
  1338.2500     16.8677     20.7109   -105.5596    114.6441
  1338.5000     16.3099     20.0616   -105.4754    124.3551
  1338.7500     15.7446     19.3435   -105.5269    128.7189
  1339.0000     15.1958     18.6384   -105.7403    131.0095
  1339.2500     14.6928     18.0233   -106.1176    130.2885
  1339.5000     14.2687     17.5507   -106.6335    127.9918
  1339.7500     13.9542     17.2421   -107.2363    126.5660
  1340.0000     13.7699     17.0889   -107.8531    124.7413
  1340.2500     13.7205     17.0588   -108.4007    123.3861
  1340.5000     13.7948     17.1099   -108.8000    120.7444
  1340.7500     13.9702     17.2071   -108.9911    118.4923
  1341.0000     14.2179     17.3327   -108.9468    114.1722
  1341.2500     14.5074     17.4816   -108.6807    110.6415
  1341.5000     14.8118     17.6557   -108.2474    105.2765
  1341.7500     15.1152     17.8674   -107.7356    102.8278
  1342.0000     15.4185     18.1437   -107.2532    102.6890
  1342.2500     15.7380     18.5142   -106.9078    105.0038
  1342.5000     16.0945     18.9835   -106.7852    110.2568
  1342.7500     16.4979     19.5091   -106.9309    113.5172
  1343.0000     16.9366     20.0008   -107.3387    116.1379
  1343.2500     17.3755     20.3464   -107.9518    115.6746
  1343.5000     17.7644     20.4647   -108.6749    111.3080
  1343.7500     18.0545     20.3601   -109.3973    106.4564
  1344.0000     18.2175     20.1328   -110.0172     98.3611
  1344.2500     18.2547     19.9215   -110.4629     93.9836
  1344.5000     18.1896     19.8096   -110.7020     91.1802
  1344.7500     18.0453     19.7651   -110.7404     92.3126
  1345.0000     17.8258     19.6633   -110.6111     97.4397
  1345.2500     17.5123     19.3794   -110.3605    101.6594
  1345.5000     17.0818     18.8798   -110.0365    106.6586
  1345.7500     16.5351     18.2466   -109.6807    108.5010
  1346.0000     15.9126     17.6278   -109.3268    109.9572
  1346.2500     15.2821     17.1520   -109.0016    111.1620
  1346.5000     14.7094     16.8662   -108.7265    114.5741
  1346.7500     14.2347     16.7297   -108.5184    117.7819
  1347.0000     13.8656     16.6587   -108.3884    122.4627
  1347.2500     13.5863     16.5784   -108.3392    124.4596
  1347.5000     13.3739     16.4493   -108.3646    125.2066
  1347.7500     13.2116     16.2670   -108.4480    124.8655
  1348.0000     13.0960     16.0519   -108.5648    124.6931
  1348.2500     13.0339     15.8379   -108.6854    125.1170
  1348.5000     13.0348     15.6576   -108.7799    125.8677
  1348.7500     13.1037     15.5223   -108.8226    125.9656
  1349.0000     13.2379     15.4113   -108.7954    125.3679
  1349.2500     13.4271     15.2842   -108.6891    124.6305
  1349.5000     13.6540     15.1093   -108.5039    123.1235
  1349.7500     13.8954     14.8860   -108.2469    121.9019
  1350.0000     14.1234     14.6485   -107.9304    120.4344
  1350.2500     14.3108     14.4562   -107.5693    120.3701
  1350.5000     14.4390     14.3761   -107.1793    121.9123
  1350.7500     14.5049     14.4572   -106.7752    123.2027
  1351.0000     14.5210     14.7059   -106.3705    123.5578
  1351.2500     14.5063     15.0782   -105.9766    122.4574
  1351.5000     14.4768     15.5006   -105.6036    120.5815
  1351.7500     14.4410     15.9059   -105.2602    120.6556
  1352.0000     14.4032     16.2543   -104.9556    123.6316
  1352.2500     14.3686     16.5298   -104.7000    126.6562
  1352.5000     14.3430     16.7270   -104.5056    130.4013
  1352.7500     14.3305     16.8482   -104.3863    131.5477
  1353.0000     14.3330     16.9101   -104.3561    131.2264
  1353.2500     14.3547     16.9468   -104.4271    129.9781
  1353.5000     14.4073     17.0001   -104.6060    126.9930
  1353.7500     14.5096     17.1016   -104.8912    124.4917
  1354.0000     14.6816     17.2599   -105.2697    120.4503
  1354.2500     14.9349     17.4593   -105.7167    117.7202
  1354.5000     15.2646     17.6687   -106.1957    113.4561
  1354.7500     15.6479     17.8567   -106.6621    110.4030
