~Version Information
 VERS.                                  2.0 : CWLS LAS VERSION
 WRAP.                                   NO : WRAPING MODE
 SWARE .                 MController 2.5.0N : SOFTWARE VERSION
~Well Information
 WELL.                 Flying Horse 12-11Tr : WELL
 COMP.    Pioneer Natural Resources USA Inc : COMPANY
 FLD.                      Purgatoire River : FIELD
 LOC.                 SW/NW SEC11 T32S R66W : LOCATION
 DATE.                             09/03/05 : DATE(S) LOGGED
 SRVC.       Blanco Geological Services LLC : SERVICE COMPANY
 STAT.                             Colorado : STATE
 CNTY.                           Las Animas : COUNTY
 CTRY.                                 USA : COUNTRY
 API.                       05-071-08485-00 : API NUMBER
 STRT.FT                             565.00 : START DEPTH
 STOP.FT                            1978.00 : STOP DEPTH
 STEP.FT                               1.00 : DEPTH INCREMENT
 NULL.                                -9999 : NULL VALUE
~Curve information
 DEPTH.FT                                   :
 ROP.MIN/FT                                 :
 GAS.UNITS                                  :
~ASCII Log data
       565.0     -9999.00         14.7 
       566.0         1.35         15.6 
       567.0         7.00         15.3 
       568.0         0.63         14.2 
       569.0         0.13         13.7 
       570.0         0.70         14.2 
       571.0         0.13         13.7 
       572.0         0.27         13.4 
       573.0         0.23         13.7 
       574.0         0.25         13.6 
       575.0         0.17         13.2 
       576.0         0.17         13.2 
       577.0         0.17         13.3 
       578.0         0.17         13.8 
       579.0         0.67         14.0 
       580.0         0.20         13.4 
       581.0         0.67         13.5 
       582.0         0.17         12.8 
       583.0         0.23         13.7 
       584.0         0.43         13.5 
       585.0         0.07         13.6 
       586.0         0.18         13.6 
       587.0         0.27         13.6 
       588.0         0.23         13.4 
       589.0         0.20         13.1 
       590.0         0.20         13.0 
       591.0         0.17         13.0 
       592.0         0.17         13.7 
       593.0         0.17         13.6 
       594.0         0.17         13.1 
       595.0         2.18         13.6 
       596.0         0.30         13.2 
       597.0         0.23         12.2 
       598.0         0.23         13.2 
       599.0         0.20         12.6 
       600.0         0.20         12.9 
       601.0         0.20         12.6 
       602.0         0.17         12.1 
       603.0         0.17         12.8 
       604.0         0.20         12.4 
       605.0         0.17         12.4 
       606.0         0.17         12.9 
       607.0         0.13         12.9 
       608.0         0.13         13.2 
       609.0         0.17         12.6 
       610.0         0.13         12.6 
       611.0         0.18         12.5 
       612.0         0.13         12.5 
       613.0         0.17         13.3 
       614.0         0.17         13.3 
       615.0         0.20         12.3 
       616.0         0.17         12.3 
       617.0         0.17         12.3 
       618.0         0.17         12.7 
       619.0         0.17         12.7 
       620.0         0.17         12.4 
       621.0         0.17         12.7 
       622.0         0.17         12.8 
       623.0         0.17         12.8 
       624.0         1.68         12.8 
       625.0         0.50         12.6 
       626.0         0.33         12.3 
       627.0         0.23         12.1 
       628.0         0.30         12.4 
       629.0         0.17         12.1 
       630.0         0.20         12.0 
       631.0         0.17         12.1 
       632.0         0.17         10.5 
       633.0         0.13         11.4 
       634.0         0.17         11.0 
       635.0         0.17         11.0 
       636.0         0.13         11.9 
       637.0         0.17         11.7 
       638.0         0.22         11.7 
       639.0         0.20         11.6 
       640.0         0.17         11.8 
       641.0         0.20         12.0 
       642.0         0.20         12.1 
       643.0         0.20         12.2 
       644.0         0.20         12.2 
       645.0         0.17         12.0 
       646.0         0.17         12.0 
       647.0         0.17         11.6 
       648.0         0.17         11.6 
       649.0         0.17         11.2 
       650.0         0.13         12.1 
       651.0         0.20         11.7 
       652.0         0.17         11.3 
       653.0         0.13         12.0 
       654.0         0.27         11.6 
       655.0         0.27         11.7 
       656.0         0.25         11.0 
       657.0         0.43         11.9 
       658.0         0.20         12.4 
       659.0         0.37         13.5 
       660.0         0.23         11.8 
       661.0         0.20         11.7 
       662.0         0.20         11.6 
       663.0         0.20         11.9 
       664.0         0.20         11.6 
       665.0         0.17         11.4 
       666.0         0.23         11.5 
       667.0         0.17         11.5 
       668.0         0.17         11.9 
       669.0         0.17         11.8 
       670.0         0.17         11.8 
       671.0         0.18         11.8 
       672.0         0.13         11.8 
       673.0         0.13         11.6 
       674.0         0.20         11.6 
       675.0         0.17         11.7 
       676.0         0.17         11.5 
       677.0         0.13         11.7 
       678.0         0.17         12.0 
       679.0         0.17         12.0 
       680.0         0.17         11.7 
       681.0         0.17         11.7 
       682.0         0.17         11.6 
       683.0         0.20         11.5 
       684.0         0.17         11.5 
       685.0         0.17         11.1 
       686.0         1.78         11.7 
       687.0         0.37         11.8 
       688.0         0.40         11.8 
       689.0         0.30         11.6 
       690.0         0.20         10.9 
       691.0         0.20         11.8 
       692.0         0.20         11.8 
       693.0         0.20         11.7 
       694.0         0.17         11.7 
       695.0         0.20         11.7 
       696.0         0.20         11.7 
       697.0         0.22         11.2 
       698.0         0.17         12.0 
       699.0         0.23         11.7 
       700.0         0.20         11.6 
       701.0         0.17         11.6 
       702.0         0.20         11.6 
       703.0         0.17         11.5 
       704.0         0.17         11.5 
       705.0         0.20         11.9 
       706.0         0.20         11.9 
       707.0         0.17         11.9 
       708.0         0.20         11.5 
       709.0         0.20         11.5 
       710.0         0.17         11.4 
       711.0         0.17         11.6 
       712.0         0.17         11.3 
       713.0         0.17         11.3 
       714.0         0.17         11.3 
       715.0         0.22         11.5 
       716.0         1.93         11.9 
       717.0         0.37         11.3 
       718.0         0.27         11.3 
       719.0         0.27         11.2 
       720.0         0.23         11.1 
       721.0         0.25         11.5 
       722.0         0.20         11.5 
       723.0         0.20         11.5 
       724.0         0.20         11.1 
       725.0         0.20         11.6 
       726.0         0.23         11.5 
       727.0         0.17         11.5 
       728.0         0.20         11.1 
       729.0         0.17         10.7 
       730.0         0.13         11.0 
       731.0         0.13         11.0 
       732.0         0.13         10.8 
       733.0         0.13         10.8 
       734.0         0.17         11.1 
       735.0         0.10         11.1 
       736.0         0.13         11.1 
       737.0         0.10         10.3 
       738.0         0.17         10.8 
       739.0         0.17         10.7 
       740.0         0.20         10.5 
       741.0         0.18         10.5 
       742.0         0.20         10.6 
       743.0         0.13         11.3 
       744.0         0.17         11.2 
       745.0         0.27         10.9 
       746.0         1.57         11.4 
       747.0         0.27         11.3 
       748.0         0.23         10.9 
       749.0         0.17         11.2 
       750.0         0.20         10.5 
       751.0         0.22         10.7 
       752.0         0.20         10.3 
       753.0         0.17         11.0 
       754.0         0.17         10.9 
       755.0         0.13         10.8 
       756.0         0.17         10.8 
       757.0         0.20         10.9 
       758.0         0.23         10.6 
       759.0         0.17         11.1 
       760.0         0.17         11.1 
       761.0         0.17         10.6 
       762.0         0.13         10.7 
       763.0         0.17         10.7 
       764.0         0.20         10.9 
