~Version Information
VERS.                      2.0: CWLS Log ASCII Standard - VERSION 2.0
WRAP.                       NO: One line per depth step
~Well Information Block
STRT.FT               530.7500: 
STOP.FT              1325.2500: 
STEP.FT                 0.2500: 
NULL.                -999.2500: 
COMP.          Pioneer Natural Resources: COMPANY
WELL.            Erin 21-15 Tr: WELL
FLD.           Purgatoire River: FIELD
LOC.           1217' FNL & 2284' FWL--: LOCATION
CNTY.               Las Animas: COUNTY
SRVC.                Patterson: SERVICE COMPANY
DATE.          Fri Mar 03 23:07:06 2006: LOG DATE
UWI.           05 071 08712 00: UNIQUE WELL ID
STAT.                 Colorado: STATE
~Curve Information Block
DEPT.FT            0 000 00 00: Depth
SN.Ohm-m                      : IEL Short Normal
SP.mV                         : IEL Spontaneous Potential
DIR.Ohm-m                     : IEL Induction Resistivity
GR.GAPI                       : Gamma Ray
~Parameter Information Block
~A  Depth        SN          SP         DIR          GR     
# ...
   765.2500     20.8028     63.9838     16.5325    124.1196
   765.5000     22.6605     63.5268     17.4179    126.0143
   765.7500     24.2799     63.1579     18.3827    126.6006
   766.0000     25.6920     62.8703     19.4200    123.7450
   766.2500     26.9781     62.6494     20.5161    118.3967
   766.5000     28.2462     62.4788     21.6543    106.4264
   766.7500     29.6153     62.3442     22.8238     97.8457
   767.0000     31.1842     62.2349     24.0260     87.3898
   767.2500     32.9812     62.1432     25.2736     82.9709
   767.5000     34.9285     62.0631     26.5816     80.3330
   767.7500     36.8573     61.9903     27.9534     80.9661
   768.0000     38.5671     61.9211     29.3680     84.6965
   768.2500     39.8870     61.8524     30.7717     88.3390
   768.5000     40.6954     61.7822     32.0733     94.0329
   768.7500     40.9085     61.7103     33.1481     97.0455
   769.0000     40.4794     61.6382     33.8582     99.0496
   769.2500     39.4319     61.5694     34.0915     98.4014
   769.5000     37.8938     61.5086     33.8004     95.1649
   769.7500     36.0769     61.4609     33.0168     92.4795
   770.0000     34.2003     61.4304     31.8350     89.5155
   770.2500     32.4068     61.4190     30.3780     89.1151
   770.5000     30.7246     61.4259     28.7670     91.8972
   770.7500     29.0909     61.4486     27.1058     96.2174
   771.0000     27.4196     61.4834     25.4760    105.5011
   771.2500     25.6700     61.5275     23.9358    112.2296
   771.5000     23.8772     61.5800     22.5170    120.5395
   771.7500     22.1301     61.6427     21.2254    124.1012
   772.0000     20.5228     61.7194     20.0494    126.9685
   772.2500     19.1169     61.8143     18.9742    128.0001
   772.5000     17.9303     61.9299     17.9920    128.9231
   772.7500     16.9495     62.0657     17.1023    129.0905
   773.0000     16.1473     62.2165     16.3063    128.8935
   773.2500     15.4954     62.3727     15.6031    129.0276
   773.5000     14.9687     62.5213     14.9892    130.5638
   773.7500     14.5447     62.6474     14.4601    132.4955
   774.0000     14.2023     62.7365     14.0103    135.8057
   774.2500     13.9248     62.7765     13.6328    137.4795
   774.5000     13.7043     62.7596     13.3204    138.0936
   774.7500     13.5428     62.6845     13.0686    137.1757
   775.0000     13.4463     62.5573     12.8799    134.9230
   775.2500     13.4165     62.3924     12.7642    133.7500
   775.5000     13.4448     62.2120     12.7351    133.1949
   775.7500     13.5116     62.0434     12.8020    133.2059
   776.0000     13.5925     61.9146     12.9645    132.1564
   776.2500     13.6723     61.8483     13.2112    129.9314
   776.5000     13.7572     61.8557     13.5222    124.2329
   776.7500     13.8735     61.9327     13.8731    119.5889
   777.0000     14.0490     62.0602     14.2348    112.9556
   777.2500     14.2877     62.2085     14.5705    109.4848
   777.5000     14.5533     62.3459     14.8366    106.6905
   777.7500     14.7773     62.4476     14.9904    106.9409
   778.0000     14.8875     62.5022     15.0063    110.7547
   778.2500     14.8395     62.5137     14.8875    115.0904
   778.5000     14.6307     62.4991     14.6662    122.4515
   778.7500     14.2928     62.4811     14.3904    126.7988
   779.0000     13.8740     62.4814     14.1077    131.3745
   779.2500     13.4280     62.5149     13.8544    133.1325
   779.5000     13.0117     62.5876     13.6523    134.4595
   779.7500     12.6790     62.6971     13.5104    134.8348
   780.0000     12.4632     62.8366     13.4269    134.8693
   780.2500     12.3576     62.9978     13.3918    134.4005
   780.5000     12.3161     63.1744     13.3890    132.5049
   780.7500     12.2809     63.3631     13.3992    130.3891
   781.0000     12.2198     63.5632     13.4037    126.7207
   781.2500     12.1403     63.7751     13.3892    124.8235
   781.5000     12.0716     63.9985     13.3496    124.2028
   781.7500     12.0309     64.2305     13.2861    125.5152
   782.0000     12.0047     64.4652     13.2021    129.0947
   782.2500     11.9605     64.6933     13.0975    131.4812
   782.5000     11.8762     64.9035     12.9662    133.5474
   782.7500     11.7642     65.0843     12.8030    133.6695
   783.0000     11.6701     65.2257     12.6121    132.5936
   783.2500     11.6461     65.3207     12.4125    131.7392
   783.5000     11.7180     65.3662     12.2320    131.4976
   783.7500     11.8666     65.3625     12.0959    132.3453
   784.0000     12.0387     65.3127     12.0181    134.2299
   784.2500     12.1810     65.2213     12.0004    134.7310
   784.5000     12.2707     65.0932     12.0355    132.8878
   784.7500     12.3198     64.9323     12.1129    130.1233
   785.0000     12.3564     64.7418     12.2247    125.5285
   785.2500     12.4062     64.5242     12.3683    123.3353
   785.5000     12.4859     64.2821     12.5476    122.1268
   785.7500     12.6047     64.0187     12.7706    122.1856
   786.0000     12.7631     63.7389     13.0438    121.7318
   786.2500     12.9526     63.4494     13.3645    120.2555
   786.5000     13.1567     63.1584     13.7188    116.3301
   786.7500     13.3598     62.8753     14.0848    113.2005
   787.0000     13.5578     62.6099     14.4435    108.8348
   787.2500     13.7628     62.3707     14.7852    106.5867
   787.5000     13.9957     62.1649     15.1101    104.7430
   787.7500     14.2707     61.9969     15.4214    104.6640
   788.0000     14.5805     61.8690     15.7186    106.1099
   788.2500     14.8908     61.7813     15.9940    107.9443
   788.5000     15.1463     61.7325     16.2304    111.6397
   788.7500     15.2867     61.7212     16.4000    114.2904
   789.0000     15.2665     61.7455     16.4671    117.4168
   789.2500     15.0735     61.8043     16.3961    118.5299
   789.5000     14.7360     61.8963     16.1653    119.2681
   789.7500     14.3147     62.0206     15.7812    119.9002
   790.0000     13.8797     62.1762     15.2832    121.8382
   790.2500     13.4855     62.3621     14.7329    123.6253
   790.5000     13.1570     62.5765     14.1941    126.3659
   790.7500     12.8931     62.8167     13.7151    128.0268
   791.0000     12.6815     63.0786     13.3191    130.0503
   791.2500     12.5107     63.3564     13.0044    130.7534
   791.5000     12.3732     63.6427     12.7510    130.0852
   791.7500     12.2616     63.9289     12.5312    128.3710
   792.0000     12.1679     64.2059     12.3200    124.7622
   792.2500     12.0866     64.4648     12.1041    122.6734
   792.5000     12.0168     64.6968     11.8865    121.6219
   792.7500     11.9631     64.8937     11.6851    122.4913
   793.0000     11.9324     65.0489     11.5264    124.7962
   793.2500     11.9281     65.1572     11.4370    125.8983
   793.5000     11.9395     65.2160     11.4370    126.2088
   793.7500     11.9369     65.2256     11.5379    125.9930
   794.0000     11.8831     65.1899     11.7427    125.9285
   794.2500     11.7655     65.1154     12.0474    125.8765
   794.5000     11.6276     65.0118     12.4447    124.5445
   794.7500     11.5776     64.8898     12.9273    122.3289
   795.0000     11.7660     64.7608     13.4929    117.4328
   795.2500     12.3459     64.6346     14.1463    113.7582
   795.5000     13.4313     64.5188     14.9011    108.2757
   795.7500     15.0670     64.4173     15.7778    104.6815
   796.0000     17.2108     64.3304     16.7990     99.6657
   796.2500     19.7312     64.2552     17.9817     97.0265
   796.5000     22.4260     64.1868     19.3286     94.6440
   796.7500     25.0570     64.1202     20.8190     93.8097
   797.0000     27.3887     64.0518     22.3995     92.4254
   797.2500     29.2269     63.9808     23.9740     90.8998
   797.5000     30.4576     63.9098     25.4082     87.9523
   797.7500     31.0742     63.8451     26.5607     86.0261
   798.0000     31.1745     63.7963     27.3376     83.6679
   798.2500     30.9212     63.7744     27.7316     82.5143
   798.5000     30.4801     63.7908     27.8137     81.6637
