~Version Information
VERS.                      2.0: CWLS Log ASCII Standard - VERSION 2.0
WRAP.                       NO: One line per depth step
~Well Information Block
STRT.FT               245.0000: 
STOP.FT              1102.5000: 
STEP.FT                 0.1000: 
NULL.                -999.2500: 
COMP.          Pioneer Natural Resources: COMPANY
WELL.           Pavilion 44-25: WELL
FLD.           Purgatoire River: FIELD
LOC.           719' FSL & 650' FEL: LOCATION
PROV.                 Colorado: PROVINCE
CNTY.               Las Animas: COUNTRY
SRVC.                Patterson: SERVICE COMPANY
DATE.          Wed Dec 14 09:57:07 2005: LOG DATE
UWI.           05 071 08624 00: UNIQUE WELL ID
~Curve Information Block
DEPT.FT            0 000 00 00: Depth
DCAL.in                       : CDL Caliper
RHOB.g/cc                     : CDL Bulk Density
RHOC.g/cc                     : CDL Density Correction
DPOR.pu                       : CDL Density Porosity
GR.GAPI                       : Gamma Ray
NPOR.pu                       : Neutron Porosity
~Parameter Information Block
~A  Depth       DCAL        RHOB        RHOC        DPOR         GR         NPOR    
# ...
   753.8000      8.0406      2.5774      0.0438      4.3971     57.7241     22.4754
   753.9000      8.0406      2.5771      0.0635      4.4172     52.6333     22.6770
   754.0000      8.0399      2.5805     -0.0213      4.2101     49.3183     22.7447
   754.1000      8.0399      2.5956      0.0385      3.2970     47.5119     22.5114
   754.2000      8.0399      2.6093      0.0932      2.4646     47.6632     22.0633
   754.3000      8.0401      2.6107     -0.0005      2.3839     46.4464     21.4664
   754.4000      8.0401      2.6146      0.0334      2.1427     40.7552     21.2931
   754.5000      8.0386      2.6215      0.0275      1.7300     36.6852     21.9820
   754.6000      8.0386      2.6165      0.0562      2.0314     39.2392     22.8134
   754.7000      8.0386      2.6049      0.0229      2.7342     43.3711     22.7690
   754.8000      8.0316      2.6019      0.0061      2.9156     45.2375     21.9816
   754.9000      8.0316      2.6111     -0.0038      2.3597     46.5708     21.2509
   755.0000      8.0274      2.6281      0.0519      1.3270     47.7726     20.7378
   755.1000      8.0274      2.6430      0.0689      0.4229     47.1030     20.0549
   755.2000      8.0274      2.6506      0.0232     -0.0339     44.7302     19.2453
   755.3000      8.0345      2.6505      0.0661     -0.0273     42.3136     18.7332
   755.4000      8.0345      2.6372      0.0270      0.7733     40.4692     18.6255
   755.5000      8.0391      2.6119      0.0251      2.3118     39.9927     18.6432
   755.6000      8.0391      2.5843      0.0331      3.9822     40.3857     18.9173
   755.7000      8.0391      2.5654      0.0238      5.1272     39.2920     19.4517
   755.8000      8.0390      2.5626      0.0124      5.2983     37.6936     19.6055
   755.9000      8.0390      2.5762      0.0136      4.4750     37.7389     19.5782
   756.0000      8.0298      2.5954      0.0401      3.3101     38.5256     20.0326
   756.1000      8.0298      2.6060      0.0498      2.6673     38.7155     20.4909
   756.2000      8.0298      2.6043      0.0487      2.7713     42.7585     20.0650
   756.3000      8.0384      2.5940      0.0318      3.3947     43.1324     19.1426
   756.4000      8.0384      2.5845      0.0288      3.9723     43.0338     18.6552
   756.5000      8.0416      2.5938     -0.0149      3.4032     42.1435     18.5928
   756.6000      8.0416      2.6261      0.0787      1.4455     42.0855     18.5572
   756.7000      8.0416      2.6487      0.1074      0.0797     44.6656     18.5730
   756.8000      8.0415      2.6329      0.0747      1.0350     49.6707     18.7933
   756.9000      8.0415      2.5952      0.0201      3.3232     54.3703     18.8310
   757.0000      8.0382      2.5683      0.0029      4.9486     56.0507     18.4178
   757.1000      8.0382      2.5624      0.0043      5.3101     56.1226     17.8554
   757.2000      8.0382      2.5654      0.0039      5.1263     63.0240     17.2199
   757.3000      8.0323      2.5688      0.0305      4.9215     64.9792     16.6491
   757.4000      8.0323      2.5723      0.0396      4.7095     65.8353     16.4505
   757.5000      8.0297      2.5695      0.0327      4.8783     69.0323     16.5365
   757.6000      8.0297      2.5538      0.0382      5.8328     74.4945     16.9449
   757.7000      8.0297      2.5278      0.0262      7.4089     78.5312     17.4052
   757.8000      8.0299      2.4969      0.0423      9.2784     81.1594     17.3624
   757.9000      8.0299      2.4726     -0.0176     10.7531     84.6129     17.1480
   758.0000      8.0298      2.4704      0.0094     10.8838     89.2786     17.3128
   758.1000      8.0298      2.4874      0.0518      9.8549     95.4375     17.8772
   758.2000      8.0298      2.5053      0.0565      8.7714    112.6994     18.8531
   758.3000      8.0365      2.5126      0.0528      8.3243    121.2338     19.8946
   758.4000      8.0365      2.5104      0.0856      8.4577    125.9604     20.2893
   758.5000      8.0336      2.5014      0.0945      9.0034    130.3486     20.0982
   758.6000      8.0336      2.4820      0.0760     10.1830    137.4277     19.6558
   758.7000      8.0336      2.4533      0.0256     11.9220    142.9567     19.0875
   758.8000      8.0437      2.4329      0.0154     13.1599    141.2331     18.8694
   758.9000      8.0437      2.4328      0.0094     13.1628    137.4413     19.5996
   759.0000      8.0436      2.4396     -0.0023     12.7511    138.9977     21.0157
   759.1000      8.0436      2.4323      0.0046     13.1964    146.7165     22.3175
   759.2000      8.0436      2.4125     -0.0322     14.3969    166.6816     23.1315
   759.3000      8.0432      2.4031     -0.0527     14.9621    164.7203     23.4211
   759.4000      8.0432      2.4141     -0.0059     14.2951    152.0593     23.5232
   759.5000      8.0417      2.4300      0.0240     13.3316    143.4217     23.8094
   759.6000      8.0417      2.4374      0.0178     12.8871    148.0093     24.3433
   759.7000      8.0417      2.4462     -0.0134     12.3545    156.3450     24.8274
   759.8000      8.0420      2.4721      0.0174     10.7813    156.4632     25.0055
   759.9000      8.0420      2.5072      0.0290      8.6564    150.7531     25.2983
   760.0000      8.0405      2.5276      0.0934      7.4156    147.5756     25.8598
   760.1000      8.0405      2.5230      0.0588      7.6950    145.6282     26.0366
   760.2000      8.0405      2.5066      0.0641      8.6921    137.5392     25.4087
   760.3000      8.0349      2.4924      0.0656      9.5511    125.0052     24.1767
   760.4000      8.0349      2.4815      0.0712     10.2134    117.5414     22.7825
   760.5000      8.0118      2.4787      0.0486     10.3839    118.8649     21.7833
   760.6000      8.0118      2.4912      0.0499      9.6255    123.4831     21.6033
   760.7000      8.0118      2.5070      0.1063      8.6690    125.2651     21.7799
   760.8000      8.0151      2.5049      0.0548      8.7950    125.8075     21.6956
   760.9000      8.0151      2.4857      0.0487      9.9586    128.5744     21.6738
   761.0000      8.0146      2.4676      0.0735     11.0555    130.0863     21.9045
   761.1000      8.0146      2.4601      0.0641     11.5076    128.1142     21.8789
   761.2000      8.0146      2.4594      0.0841     11.5512    129.6524     21.5872
   761.3000      8.0138      2.4610      0.0810     11.4567    139.7943     21.5987
   761.4000      8.0138      2.4706      0.0440     10.8738    151.0575     21.7541
   761.5000      8.0158      2.4918      0.0910      9.5853    154.0558     21.4173
   761.6000      8.0158      2.5110      0.1059      8.4242    149.7245     20.9408
   761.7000      8.0158      2.5126      0.1119      8.3293    140.0924     20.7344
   761.8000      8.0329      2.4990      0.0657      9.1539    128.5062     20.7076
   761.9000      8.0329      2.4864      0.0684      9.9147    125.0157     21.0906
   762.0000      8.0487      2.4812      0.0727     10.2328    131.0240     21.7929
   762.1000      8.0487      2.4747      0.0652     10.6261    138.6422     21.8584
   762.2000      8.0487      2.4603      0.0468     11.4958    145.6044     20.9801
   762.3000      8.0485      2.4386      0.0612     12.8110    152.5168     19.7973
   762.4000      8.0485      2.4130      0.0369     14.3620    154.1615     19.1579
   762.5000      8.0563      2.3946     -0.0014     15.4774    148.6442     19.3519
   762.6000      8.0563      2.3937      0.0202     15.5337    143.7810     19.9332
   762.7000      8.0563      2.4006      0.0381     15.1123    143.1622     20.6287
   762.8000      8.0617      2.3983      0.0056     15.2567    143.2386     21.4017
   762.9000      8.0617      2.3857      0.0238     16.0183    142.1962     22.0504
   763.0000      8.0595      2.3716     -0.0025     16.8740    140.3759     22.3286
   763.1000      8.0595      2.3532      0.0331     17.9898    138.0450     22.1500
   763.2000      8.0595      2.3192      0.0192     20.0460    136.6124     21.4816
   763.3000      8.0593      2.2764     -0.0330     22.6435    136.3399     20.7312
