~Version Information
VERS.                      2.0: CWLS Log ASCII Standard - VERSION 2.0
WRAP.                       NO: One line per depth step
~Well Information Block
STRT.FT               245.0000: 
STOP.FT              1208.2000: 
STEP.FT                 0.1000: 
NULL.                -999.2500: 
COMP.          Pioneer Natural Resources: COMPANY
WELL.              Davida 34-8: WELL
FLD.           Purgatoire River: FIELD
LOC.           418' FSL & 1923' FEL--: LOCATION
CNTY.               Las Animas: COUNTY
SRVC.                Patterson: SERVICE COMPANY
DATE.          Mon Mar 20 08:22:01 2006: LOG DATE
UWI.           05 071 08722 00: UNIQUE WELL ID
STAT.                 Colorado: STATE
~Curve Information Block
DEPT.FT            0 000 00 00: Depth
DCAL.in                       : CDL Caliper
RHOB.g/cc                     : CDL Bulk Density
RHOC.g/cc                     : CDL Density Correction
DPOR.pu                       : CDL Density Porosity
NPOR.pu                       : Neutron Porosity
GR.GAPI                       : Gamma Ray
~Parameter Information Block
~A  Depth       DCAL        RHOB        RHOC        DPOR        NPOR         GR     
# ...
   369.8000      8.3310      1.4141      0.1069     74.9048      3.2715    114.6816
   369.9000      8.3310      1.4308      0.1295     73.8927      2.8856     98.1364
   370.0000      8.3647      1.4624      0.1374     71.9786      2.8899     91.6476
   370.1000      8.3647      1.5132      0.1039     68.8965      3.0765     90.3805
   370.2000      8.3647      1.5951      0.1178     63.9334      3.5458     88.4861
   370.3000      8.3958      1.7027      0.1941     57.4113      4.4865     86.2496
   370.4000      8.3958      1.8169      0.2249     50.4907      5.7150     85.1830
   370.5000      8.4277      1.9285      0.2292     43.7275      7.0583     85.0805
   370.6000      8.4277      2.0378      0.3046     37.1001      8.6420     84.8380
   370.7000      8.4277      2.1411      0.3435     30.8417     10.4011     84.6784
   370.8000      8.4160      2.2398      0.3089     24.8605     12.1098     86.0816
   370.9000      8.4160      2.3378      0.2974     18.9189     13.6575     90.2339
   371.0000      8.3189      2.4155      0.2759     14.2147     15.1956     95.9729
   371.1000      8.3189      2.4425      0.1501     12.5765     16.8335    102.5886
   371.2000      8.3189      2.4198      0.0432     13.9533     18.1233    113.1698
   371.3000      8.2050      2.3746     -0.0185     16.6924     18.7881    126.9411
   371.4000      8.2050      2.3269     -0.0145     19.5815     19.0782    136.7417
   371.5000      8.1575      2.2837      0.0206     22.1987     19.1988    138.8616
   371.6000      8.1575      2.2542      0.0083     23.9877     19.2164    137.7574
   371.7000      8.1575      2.2560     -0.0077     23.8803     19.0754    135.9630
   371.8000      8.1667      2.2913      0.1137     21.7411     18.5970    130.4976
   371.9000      8.1667      2.3282      0.1717     19.5023     17.8313    122.7269
   372.0000      8.1931      2.3404      0.1129     18.7649     17.3188    119.6522
   372.1000      8.1931      2.3377      0.0834     18.9267     17.2129    124.9213
   372.2000      8.1931      2.3361      0.0902     19.0240     17.1774    132.8598
   372.3000      8.2116      2.3386      0.0403     18.8728     17.2842    137.0206
   372.4000      8.2116      2.3515      0.0633     18.0887     17.7749    136.8047
   372.5000      8.2130      2.3821      0.0566     16.2338     18.4530    133.8646
   372.6000      8.2130      2.4217      0.0966     13.8366     18.9493    129.1542
   372.7000      8.2130      2.4525      0.0740     11.9720     19.0974    123.6722
   372.8000      8.2015      2.4683      0.0974     11.0151     19.1576    120.1750
   372.9000      8.2015      2.4739      0.0416     10.6719     19.6005    119.6496
   373.0000      8.1822      2.4748      0.0576     10.6192     20.4240    120.0354
   373.1000      8.1822      2.4770      0.0333     10.4851     21.1174    123.1642
   373.2000      8.1822      2.4853      0.0698      9.9828     21.2314    131.7971
   373.3000      8.1533      2.4903      0.0762      9.6818     20.8705    141.6721
   373.4000      8.1533      2.4857      0.0422      9.9563     20.5614    146.3324
   373.5000      8.1194      2.4838      0.0405     10.0758     20.5858    144.3400
   373.6000      8.1194      2.4963      0.0452      9.3164     20.6587    140.4798
   373.7000      8.1194      2.5205      0.0907      7.8507     20.5695    139.3655
   373.8000      8.0901      2.5392      0.1274      6.7159     20.4975    139.5905
   373.9000      8.0901      2.5419      0.1140      6.5507     20.6098    135.8481
   374.0000      8.0708      2.5398      0.0972      6.6759     20.7409    128.4749
   374.1000      8.0708      2.5474      0.0926      6.2181     20.8509    125.2192
   374.2000      8.0708      2.5620      0.1209      5.3333     21.1385    127.7713
   374.3000      8.0501      2.5698      0.0761      4.8597     21.4497    129.3964
   374.4000      8.0501      2.5634      0.0772      5.2473     21.6596    127.0130
   374.5000      8.0211      2.5510      0.0152      6.0011     21.9586    122.6532
   374.6000      8.0211      2.5537      0.0301      5.8335     22.4090    118.1935
   374.7000      8.0211      2.5765      0.0487      4.4556     22.7966    114.5570
   374.8000      8.0018      2.5938      0.0855      3.4062     23.1146    111.4324
   374.9000      8.0018      2.5881      0.0674      3.7486     23.6039    108.6395
   375.0000      8.0019      2.5736      0.0495      4.6277     24.2223    108.6012
   375.1000      8.0019      2.5635      0.0339      5.2450     24.7113    110.7841
   375.2000      8.0019      2.5534      0.0184      5.8570     24.9138    109.4984
   375.3000      8.0127      2.5453      0.0200      6.3470     24.9465    104.7494
   375.4000      8.0127      2.5536      0.0486      5.8404     24.9216    104.9128
   375.5000      8.0201      2.5821      0.1047      4.1179     24.7937    112.4522
   375.6000      8.0201      2.6066      0.1811      2.6288     24.3931    121.1315
   375.7000      8.0201      2.6050      0.0762      2.7246     23.7785    123.0856
   375.8000      8.0196      2.5862      0.0713      3.8690     23.4610    113.9850
   375.9000      8.0196      2.5646      0.0777      5.1759     23.6226    100.9156
   376.0000      8.0170      2.5439      0.0580      6.4313     23.8715     95.7149
   376.1000      8.0170      2.5315      0.0188      7.1838     23.8977    100.3616
   376.2000      8.0170      2.5323      0.0390      7.1306     23.7394    107.6976
   376.3000      8.0170      2.5348      0.0571      6.9823     23.6065    114.9522
   376.4000      8.0170      2.5270      0.0271      7.4539     23.5379    121.4528
   376.5000      8.0154      2.5129      0.0269      8.3066     23.2150    124.1136
   376.6000      8.0154      2.5034      0.0467      8.8840     22.5168    124.1270
   376.7000      8.0154      2.5010      0.0403      9.0333     21.8251    124.0994
   376.8000      8.0071      2.5000      0.0600      9.0898     21.5400    123.4755
   376.9000      8.0071      2.4965      0.0379      9.3034     21.5602    123.2508
   377.0000      7.9948      2.4937      0.0492      9.4727     21.5391    124.2196
   377.1000      7.9948      2.4963      0.0450      9.3157     21.4512    124.2564
   377.2000      7.9948      2.5035      0.0651      8.8759     21.3137    121.2871
   377.3000      7.9869      2.5161      0.0448      8.1150     20.9547    116.6151
   377.4000      7.9869      2.5353      0.0778      6.9498     20.6364    113.9680
   377.5000      7.9843      2.5612      0.0567      5.3815     20.8114    113.5310
   377.6000      7.9843      2.5965      0.0577      3.2449     21.2824    113.4075
   377.7000      7.9843      2.6390      0.0437      0.6694     21.5659    113.8377
   377.8000      7.9842      2.6768      0.0791     -1.6239     21.6730    115.2325
   377.9000      7.9842      2.6975      0.0902     -2.8818     21.9887    115.5078
   378.0000      7.9816      2.6952      0.1370     -2.7373     22.7292    111.2906
   378.1000      7.9816      2.6787      0.0849     -1.7411     23.6213    104.4833
   378.2000      7.9816      2.6663      0.0631     -0.9887     24.3044    102.8829
   378.3000      7.9751      2.6584      0.0294     -0.5114     25.0287    106.4555
   378.4000      7.9751      2.6470      0.0226      0.1806     25.9913    105.4094
   378.5000      7.9784      2.6344     -0.0055      0.9482     26.7405     98.6249
   378.6000      7.9784      2.6282     -0.0692      1.3228     26.6878     95.3972
   378.7000      7.9784      2.6260     -0.0814      1.4555     25.7439     98.1300
   378.8000      7.9909      2.6151     -0.0329      2.1160     24.3605    101.9590
   378.9000      7.9909      2.5974     -0.0159      3.1859     23.0738    105.2700
   379.0000      7.9946      2.5848      0.0245      3.9515     22.2316    109.8221
   379.1000      7.9946      2.5769      0.0114      4.4324     21.9503    113.2087
   379.2000      7.9946      2.5740     -0.0369      4.6072     21.9579    112.7327
   379.3000      7.9866      2.5831      0.0077      4.0576     21.9344    110.0228
