~Version Information
VERS.                      2.0: CWLS Log ASCII Standard - VERSION 2.0
WRAP.                       NO: One line per depth step
~Well Information Block
STRT.FT               655.0000: 
STOP.FT              2623.7000: 
STEP.FT                 0.1000: 
NULL.                -999.2500: 
COMP.          Pioneer Natural Resources: COMPANY
WELL.             Aviator 12-4: WELL
FLD.           Purgatoire River: FIELD
LOC.           1969' FNL & 732' FWL--: LOCATION
CNTY.               Las Animas: COUNTY
SRVC.                Patterson: SERVICE COMPANY
DATE.          Mon Apr 10 07:35:20 2006: LOG DATE
UWI.           05 071 08714 00: UNIQUE WELL ID
STAT.                 Colorado: STATE
~Curve Information Block
DEPT.FT            0 000 00 00: Depth
DCAL.in                       : CDL Caliper
RHOB.g/cc                     : CDL Bulk Density
RHOC.g/cc                     : CDL Density Correction
DPOR.pu                       : CDL Density Porosity
NPOR.pu                       : Neutron Porosity
GR.GAPI                       : Gamma Ray
~Parameter Information Block
~A  Depth       DCAL        RHOB        RHOC        DPOR        NPOR         GR     
   655.0000      8.1090      2.4716     -0.1551     10.8134     41.6822     79.7812
   655.1000      8.1090      2.4843     -0.1952     10.0433     41.8277     81.0361
   655.2000      8.1090      2.4972     -0.1360      9.2602     41.7921     79.8349
   655.3000      8.1093      2.5102     -0.1557      8.4720     40.9623     76.2535
   655.4000      8.1093      2.5181     -0.1579      7.9947     39.8978     72.5271
   655.5000      8.1105      2.5101     -0.1676      8.4784     39.6312     70.0090
   655.6000      8.1105      2.4867     -0.1812      9.8966     40.0087     70.6819
   655.7000      8.1105      2.4653     -0.1906     11.1936     40.3244     75.7963
   655.8000      8.1124      2.4451     -0.1803     12.4196     40.3419     81.9562
   655.9000      8.1124      2.4136     -0.2048     14.3266     40.2450     83.2144
   656.0000      8.1148      2.3836     -0.2441     16.1475     40.2154     78.0588
   656.1000      8.1148      2.3754     -0.2464     16.6452     40.2400     72.4818
   656.2000      8.1148      2.3776     -0.1504     16.5070     40.0931     72.5121
   656.3000      8.1155      2.3682     -0.1627     17.0788     39.9000     76.4045
   656.4000      8.1155      2.3632     -0.2481     17.3847     40.0023     78.8008
   656.5000      8.1141      2.3851     -0.1725     16.0558     40.1533     78.7699
   656.6000      8.1141      2.4063     -0.1009     14.7692     40.2575     77.7645
   656.7000      8.1141      2.3952     -0.1620     15.4412     40.4673     76.5029
   656.8000      8.1123      2.3667     -0.1912     17.1679     40.3341     74.4325
   656.9000      8.1123      2.3419     -0.1688     18.6712     39.7511     69.5385
   657.0000      8.1123      2.3259     -0.2374     19.6416     39.4393     63.7801
   657.1000      8.1123      2.3169     -0.1558     20.1875     39.7697     61.4220
   657.2000      8.1123      2.3088     -0.2078     20.6780     40.3492     61.7342
   657.3000      8.1127      2.3059     -0.2020     20.8536     40.6815     62.3310
   657.4000      8.1127      2.3125     -0.1737     20.4529     40.7637     64.8634
   657.5000      8.1142      2.3263     -0.1803     19.6211     40.8649     69.1876
   657.6000      8.1142      2.3449     -0.1918     18.4892     41.0129     71.6025
   657.7000      8.1142      2.3691     -0.2300     17.0251     41.2140     70.9587
   657.8000      8.1158      2.3945     -0.1088     15.4853     41.6182     68.6704
   657.9000      8.1158      2.4092     -0.1193     14.5956     42.0180     67.4415
   658.0000      8.1151      2.4118     -0.1268     14.4342     41.9647     68.9743
   658.1000      8.1151      2.4106     -0.1417     14.5066     41.5480     69.7343
   658.2000      8.1151      2.4122     -0.1625     14.4101     41.3715     66.9807
   658.3000      8.1135      2.4180     -0.1628     14.0614     41.8125     63.9920
   658.4000      8.1135      2.4324     -0.1688     13.1875     42.5451     63.3590
   658.5000      8.1133      2.4590     -0.1046     11.5750     42.9865     66.0411
   658.6000      8.1133      2.4811     -0.0799     10.2389     42.8903     71.4777
   658.7000      8.1133      2.4809     -0.1110     10.2470     42.5258     75.0797
   658.8000      8.1136      2.4589     -0.1235     11.5806     42.3381     75.6804
   658.9000      8.1136      2.4268     -0.1141     13.5251     42.5738     75.2858
   659.0000      8.1143      2.4097     -0.1643     14.5627     43.0385     74.3275
   659.1000      8.1143      2.4253     -0.1519     13.6190     43.2941     75.0222
   659.2000      8.1143      2.4537     -0.1235     11.8980     43.5113     79.6642
   659.3000      8.1138      2.4666     -0.1116     11.1126     43.9464     86.9294
   659.4000      8.1138      2.4658     -0.1303     11.1635     44.4012     91.9387
   659.5000      8.1117      2.4597     -0.1166     11.5341     44.6168     90.4073
   659.6000      8.1117      2.4416     -0.1455     12.6303     44.4331     83.9116
   659.7000      8.1117      2.4046     -0.1439     14.8739     43.8525     78.1400
   659.8000      8.1114      2.3651     -0.2380     17.2656     43.1530     76.9954
   659.9000      8.1114      2.3586     -0.2053     17.6614     43.0563     79.4609
   660.0000      8.1119      2.3868     -0.1446     15.9501     43.6850     82.0286
   660.1000      8.1119      2.4094     -0.1341     14.5845     44.2367     82.9648
   660.2000      8.1119      2.4013     -0.1268     15.0723     44.3654     83.5484
   660.3000      8.1109      2.3779     -0.2008     16.4884     44.3490     86.5372
   660.4000      8.1109      2.3656     -0.1961     17.2351     44.2646     92.5331
   660.5000      8.1118      2.3690     -0.1576     17.0312     44.0730     97.3067
   660.6000      8.1118      2.3739     -0.1544     16.7317     43.8324     98.4368
   660.7000      8.1118      2.3674     -0.1589     17.1268     43.5380     99.5714
   660.8000      8.1135      2.3528     -0.2232     18.0101     43.3192    101.9360
   660.9000      8.1135      2.3489     -0.1793     18.2505     43.2723    101.4304
   661.0000      8.1147      2.3569     -0.1965     17.7631     43.3515     96.8565
   661.1000      8.1147      2.3567     -0.1321     17.7731     43.4515     92.4005
   661.2000      8.1147      2.3454     -0.2153     18.4600     43.4851     89.3078
   661.3000      8.1165      2.3434     -0.1808     18.5795     43.5664     85.4237
   661.4000      8.1165      2.3475     -0.1377     18.3350     43.6578     81.5135
   661.5000      8.1169      2.3368     -0.1733     18.9811     43.5580     80.0504
   661.6000      8.1169      2.3147     -0.1664     20.3216     43.2604     80.9172
   661.7000      8.1169      2.2985     -0.1862     21.3051     42.9975     83.6369
   661.8000      8.1144      2.3043     -0.2173     20.9497     42.9654     88.4236
   661.9000      8.1144      2.3339     -0.1735     19.1565     43.2881     92.5311
   662.0000      8.1117      2.3607     -0.1227     17.5328     43.8642     92.1759
   662.1000      8.1117      2.3616     -0.1398     17.4779     44.2063     86.9403
   662.2000      8.1117      2.3535     -0.2257     17.9717     44.2322     82.2169
   662.3000      8.1110      2.3600     -0.1659     17.5735     44.4922     82.2752
   662.4000      8.1110      2.3697     -0.1576     16.9894     44.9355     84.9632
   662.5000      8.1078      2.3676     -0.1661     17.1171     44.8965     87.3818
   662.6000      8.1078      2.3770     -0.1728     16.5463     44.2287     89.7562
   662.7000      8.1078      2.4382     -0.2027     12.8391     43.5938     91.0415
   662.8000      8.1008      2.5446     -0.0944      6.3899     43.5366     90.3385
   662.9000      8.1008      2.6344     -0.0539      0.9430     43.7056     90.0915
   663.0000      8.0937      2.6689     -0.0993     -1.1447     43.7980     89.0876
   663.1000      8.0937      2.6385     -0.0197      0.6940     43.9344     84.0641
   663.2000      8.0937      2.5222     -0.0727      7.7471     43.9042     77.5114
   663.3000      8.0859      2.3265     -0.2281     19.6069     43.5799     73.4349
   663.4000      8.0859      2.1296     -0.4804     31.5369     43.3573     71.9602
   663.5000      8.0780      2.0322     -0.5811     37.4441     43.3188     71.0974
   663.6000      8.0780      2.0532     -0.5440     36.1669     42.9812     71.0272
   663.7000      8.0780      2.1253     -0.5233     31.7989     42.1798     72.4726
   663.8000      8.0710      2.1832     -0.5993     28.2888     40.6959     72.9213
   663.9000      8.0710      2.2005     -0.5583     27.2415     37.8208     70.1898
   664.0000      8.0633      2.1722     -0.5696     28.9564     33.2030     66.3254
   664.1000      8.0633      2.1135     -0.4589     32.5127     27.6437     64.4767
   664.2000      8.0633      2.0662     -0.4433     35.3803     22.5644     65.0594
   664.3000      8.0555      2.0785     -0.2935     34.6384     18.7055     67.5041
   664.4000      8.0555      2.1489     -0.0178     30.3708     15.9308     68.8528
   664.5000      8.0486      2.2256      0.1497     25.7241     13.9922     67.1402
