~Version Information
 VERS.                                  2.0 : CWLS LAS VERSION
 WRAP.                                   NO : WRAPING MODE
 SWARE .                 MController 2.5.0J : SOFTWARE VERSION
~Well Information
 WELL.                         State 16-44R : WELL
 COMP.                Petrogulf Corporation : COMPANY
 FLD.                      Purgatoire River : FIELD
 LOC.                SE/SE Sec 16 T33S R67W : LOCATION
 DATE.                          10/20-21/05 : DATE(S) LOGGED
 SRVC.       BLANCO Geological Services LLC : SERVICE COMPANY
 STAT.                                   CO : STATE
 CNTY.                           Las Animas : COUNTY
 CTRY.                                  USA : COUNTRY
 API.                       05-071-08457-00 : API NUMBER
 STRT.FT                               1.00 : START DEPTH
 STOP.FT                            1629.00 : STOP DEPTH
 STEP.FT                               1.00 : DEPTH INCREMENT
 NULL.                                -9999 : NULL VALUE
~Curve information
 DEPTH.FT                                   :
 ROP.MIN/FT                                 :
 GAS.UNITS                                  :
~ASCII Log data
# ...
      1201.0         0.37        553.7 
      1202.0         0.33        535.3 
      1203.0         0.27        529.2 
      1204.0         0.27        524.2 
      1205.0         0.27        525.7 
      1206.0         0.27        520.7 
      1207.0         0.23        508.9 
      1208.0         0.23        507.6 
      1209.0         0.28        515.6 
      1210.0         0.27        514.0 
      1211.0         0.27        504.8 
      1212.0         0.20        500.0 
      1213.0         0.27        504.5 
      1214.0         0.27        504.2 
      1215.0         0.27        506.1 
      1216.0         0.27        507.0 
      1217.0         0.30        506.1 
      1218.0         0.30        503.5 
      1219.0         0.28        503.8 
      1220.0         0.27        497.8 
      1221.0         0.30        496.2 
      1222.0         0.30        461.9 
      1223.0         0.27        471.5 
      1224.0         0.30        660.3 
      1225.0         0.33       1013.6 
      1226.0         2.12       1559.1 
      1227.0         0.43        640.0 
      1228.0         0.37        617.8 
      1229.0         0.37        598.4 
      1230.0         0.37        565.1 
      1231.0         0.38        544.8 
      1232.0         0.37        538.1 
      1233.0         0.33        527.6 
      1234.0         0.33        513.4 
      1235.0         0.30        503.8 
      1236.0         0.30        490.8 
      1237.0         0.27        486.1 
      1238.0         0.27        491.8 
      1239.0         0.30        492.7 
      1240.0         0.30        490.2 
      1241.0         0.35        489.2 
      1242.0         0.33        493.4 
      1243.0         0.40        501.3 
      1244.0         0.37        504.2 
      1245.0         0.37        501.0 
      1246.0         0.43        498.8 
      1247.0         0.37        495.9 
      1248.0         0.37        488.9 
      1249.0         0.33        488.0 
      1250.0         0.35        488.0 
      1251.0         0.30        480.0 
      1252.0         0.40        477.8 
      1253.0         0.33        474.3 
      1254.0         0.23        442.3 
      1255.0         0.27        440.0 
      1256.0         2.52       1464.9 
      1257.0         0.33        871.7 
      1258.0         0.30        699.7 
      1259.0         0.23        617.1 
      1260.0         0.23        612.1 
      1261.0         0.17        641.9 
      1262.0         0.20        658.1 
      1263.0         0.17        657.5 
      1264.0         0.23        651.1 
      1265.0         0.30        635.2 
      1266.0         0.42        626.3 
      1267.0         0.53        588.6 
      1268.0         0.40        515.9 
      1269.0         0.43        488.9 
      1270.0         0.30        499.7 
      1271.0         0.20        496.9 
      1272.0         0.20        514.3 
      1273.0         0.20        526.1 
      1274.0         0.27        528.3 
      1275.0         0.17        531.1 
      1276.0         0.20        535.3 
      1277.0         0.32        532.4 
      1278.0         0.20        528.9 
      1279.0         0.30        524.5 
      1280.0         0.33        507.6 
      1281.0         0.33        519.7 
      1282.0         0.23        527.0 
      1283.0         0.27        528.0 
      1284.0         0.30        493.0 
      1285.0         0.40        486.4 
      1286.0         3.05       1475.7 
      1287.0         0.60        673.6 
      1288.0         0.52        585.1 
      1289.0         0.33        576.5 
      1290.0         0.27        567.6 
      1291.0         0.30        556.5 
      1292.0         0.27        545.1 
      1293.0         0.27        529.2 
      1294.0         0.27        523.5 
      1295.0         0.30        526.7 
      1296.0         0.30        522.6 
      1297.0         0.43        532.4 
      1298.0         0.32        536.2 
      1299.0         0.30        538.4 
      1300.0         0.30        536.2 
      1301.0         0.37        526.1 
      1302.0         0.40        527.6 
      1303.0         0.23        525.1 
      1304.0         0.23        518.1 
      1305.0         0.33        515.6 
      1306.0         0.37        527.0 
      1307.0         0.33        529.2 
      1308.0         0.42        531.8 
      1309.0         0.50        521.3 
      1310.0         0.33        524.5 
      1311.0         0.20        521.3 
      1312.0         0.20        504.2 
      1313.0         0.33        478.1 
      1314.0         0.30        472.7 
      1315.0         0.30        582.2 
      1316.0         2.72       1258.6 
      1317.0         0.37        633.6 
      1318.0         0.30        608.9 
      1319.0         0.27        617.5 
      1320.0         0.27        613.0 
      1321.0         0.27        591.8 
      1322.0         0.32        579.1 
      1323.0         0.27        570.5 
      1324.0         0.27        548.3 
      1325.0         0.23        529.5 
      1326.0         0.30        509.9 
      1327.0         0.20        499.7 
      1328.0         0.27        501.0 
      1329.0         0.47        498.8 
      1330.0         0.40        500.7 
      1331.0         0.33        503.2 
      1332.0         0.20        505.7 
      1333.0         0.22        508.3 
      1334.0         0.20        507.0 
      1335.0         0.20        501.9 
      1336.0         0.27        517.8 
      1337.0         0.33        537.8 
      1338.0         0.20        538.8 
      1339.0         0.20        539.4 
      1340.0         0.23        538.1 
      1341.0         0.23        503.8 
      1342.0         0.20        471.8 
      1343.0         0.23        465.4 
      1344.0         0.23        503.2 
      1345.0         0.27        612.7 
      1346.0         2.95       2264.4 
      1347.0         0.65        837.4 
      1348.0         0.70        600.3 
      1349.0         0.67        591.8 
      1350.0         0.40        569.9 
      1351.0         0.33        556.8 
      1352.0         0.40        536.5 
      1353.0         0.42        521.0 
      1354.0         0.40        509.6 
      1355.0         0.37        502.6 
      1356.0         0.33        511.1 
      1357.0         0.37        516.5 
      1358.0         0.37        523.5 
      1359.0         0.38        526.1 
      1360.0         0.47        528.0 
      1361.0         0.43        526.7 
      1362.0         0.43        522.9 
      1363.0         0.50        527.3 
      1364.0         0.53        526.1 
      1365.0         0.45        520.7 
      1366.0         0.37        517.5 
      1367.0         0.33        513.7 
      1368.0         0.37        548.0 
      1369.0         0.33        570.2 
      1370.0         0.40        570.5 
      1371.0         0.33        560.7 
      1372.0         0.33        549.9 
      1373.0         0.35        500.3 
      1374.0         0.33        472.4 
      1375.0         0.27        542.6 
      1376.0         2.38       1185.3 
      1377.0         0.60        729.2 
      1378.0         0.40        629.8 
      1379.0         0.33        628.6 
      1380.0         0.37        620.6 
      1381.0         0.30        613.7 
      1382.0         0.40        597.1 
      1383.0         0.30        575.2 
      1384.0         0.42        558.7 
      1385.0         0.33        524.2 
      1386.0         0.30        508.9 
      1387.0         0.37        508.0 
      1388.0         0.43        510.2 
      1389.0         0.37        513.0 
      1390.0         0.40        512.1 
      1391.0         0.40        511.8 
      1392.0         0.40        513.0 
      1393.0         0.22        498.4 
      1394.0         0.20        495.3 
      1395.0         0.20        505.4 
      1396.0         0.20        511.8 
      1397.0         0.20        514.0 
      1398.0         0.17        515.9 
      1399.0         0.17        518.4 
      1400.0         0.27        517.8 
