~Version Information
VERS.                      2.0: CWLS Log ASCII Standard - VERSION 2.0
WRAP.                       NO: One line per depth step
~Well Information Block
STRT.FT               245.0000: 
STOP.FT              1102.5000: 
STEP.FT                 0.1000: 
NULL.                -999.2500: 
COMP.          Pioneer Natural Resources: COMPANY
WELL.           Pavilion 44-25: WELL
FLD.           Purgatoire River: FIELD
LOC.           719' FSL & 650' FEL: LOCATION
PROV.                 Colorado: PROVINCE
CNTY.               Las Animas: COUNTRY
SRVC.                Patterson: SERVICE COMPANY
DATE.          Wed Dec 14 09:57:07 2005: LOG DATE
UWI.           05 071 08624 00: UNIQUE WELL ID
~Curve Information Block
DEPT.FT            0 000 00 00: Depth
DCAL.in                       : CDL Caliper
RHOB.g/cc                     : CDL Bulk Density
RHOC.g/cc                     : CDL Density Correction
DPOR.pu                       : CDL Density Porosity
GR.GAPI                       : Gamma Ray
NPOR.pu                       : Neutron Porosity
~Parameter Information Block
~A  Depth       DCAL        RHOB        RHOC        DPOR         GR         NPOR    
# ...
   869.0000      7.9940      2.4860      0.0018      9.9379    111.9872     21.0943
   869.1000      7.9940      2.4894      0.0321      9.7343    116.7974     21.1401
   869.2000      7.9940      2.4950      0.0808      9.3925    118.4426     21.2065
   869.3000      7.9947      2.4935      0.0279      9.4834    113.7775     21.5058
   869.4000      7.9947      2.4915      0.0768      9.6091    108.6523     21.7286
   869.5000      7.9958      2.4934      0.0529      9.4915    110.0153     21.3103
   869.6000      7.9958      2.5026      0.0470      8.9328    114.1927     20.6770
   869.7000      7.9958      2.5217      0.0427      7.7734    115.2578     20.7565
   869.8000      8.0014      2.5409      0.0909      6.6094    117.0082     21.7539
   869.9000      8.0014      2.5432      0.0986      6.4713    122.2934     22.9355
   870.0000      7.9904      2.5266      0.0595      7.4758    126.5849     23.3930
   870.1000      7.9904      2.5041      0.0316      8.8454    124.6256     23.1001
   870.2000      7.9904      2.4899      0.0079      9.7017    116.8916     22.6902
   870.3000      7.9938      2.4898      0.0668      9.7114    110.2286     22.5324
   870.4000      7.9938      2.4912      0.0680      9.6235    111.1962     22.7625
   870.5000      7.9949      2.4879      0.0242      9.8267    118.4643     23.1184
   870.6000      7.9949      2.4937     -0.0182      9.4706    124.2142     23.1008
   870.7000      7.9949      2.5087      0.0794      8.5628    122.8420     22.8433
   870.8000      7.9952      2.5097      0.0722      8.5055    120.0863     23.0265
   870.9000      7.9952      2.4876      0.0232      9.8401    120.1047     23.8357
   871.0000      7.9950      2.4521      0.0276     11.9940    119.8565     24.6305
   871.1000      7.9950      2.4249     -0.0598     13.6450    119.8390     25.1344
   871.2000      7.9950      2.4298     -0.0382     13.3458    118.2437     25.7886
   871.3000      7.9936      2.4596      0.0247     11.5393    112.2990     26.7744
   871.4000      7.9936      2.4881     -0.0025      9.8102    106.0431     27.6709
   871.5000      7.9939      2.5016      0.0169      8.9946    105.7587     28.0115
   871.6000      7.9939      2.4995      0.0313      9.1237    112.0206     27.5707
   871.7000      7.9939      2.4950      0.0315      9.3940    119.0077     26.5540
   871.8000      7.9933      2.4996      0.0575      9.1180    119.8574     25.6630
   871.9000      7.9933      2.5092      0.0501      8.5351    113.5238     25.4105
   872.0000      7.9928      2.5205      0.0314      7.8502    104.0442     25.3647
   872.1000      7.9928      2.5324      0.0079      7.1267     96.8664     24.9732
   872.2000      7.9928      2.5382      0.0459      6.7783     94.3921     24.4457
   872.3000      7.9894      2.5350      0.0293      6.9722     94.3716     24.1636
   872.4000      7.9894      2.5319      0.0683      7.1545     93.6369     24.2060
   872.5000      7.9889      2.5306      0.1021      7.2350     90.7776     24.2437
   872.6000      7.9889      2.5264      0.0732      7.4921     86.9416     23.9586
   872.7000      7.9889      2.5323      0.0484      7.1346     84.9835     23.3905
   872.8000      7.9889      2.5634      0.0405      5.2508     86.3798     22.7539
   872.9000      7.9889      2.6068      0.0974      2.6197     86.6152     22.2483
   873.0000      8.0124      2.6370      0.0747      0.7876     82.3822     21.9190
   873.1000      8.0124      2.6465      0.1099      0.2148     79.4604     21.5737
   873.2000      8.0124      2.6387      0.1163      0.6876     81.6563     21.0617
   873.3000      8.0635      2.6212      0.0922      1.7426     82.4632     20.3785
   873.4000      8.0635      2.6108      0.0420      2.3774     78.0664     19.4420
   873.5000      8.0163      2.6171      0.0973      1.9957     71.6962     18.4761
   873.6000      8.0163      2.6268      0.0554      1.4059     65.9465     18.2003
   873.7000      8.0163      2.6212      0.0501      1.7451     63.4775     18.6125
   873.8000      8.0190      2.5958      0.0401      3.2841     64.2478     18.9864
   873.9000      8.0190      2.5658      0.0006      5.1012     64.6936     19.0886
   874.0000      8.0224      2.5581     -0.0080      5.5680     64.1767     19.2717
   874.1000      8.0224      2.5723      0.0245      4.7078     65.1583     19.6053
   874.2000      8.0224      2.5745      0.0779      4.5730     70.5828     19.7067
   874.3000      8.0261      2.5552      0.0113      5.7427     81.8882     19.5985
   874.4000      8.0261      2.5400      0.0258      6.6643     91.5437     19.6510
   874.5000      8.0269      2.5366      0.0552      6.8734     91.2649     19.9386
   874.6000      8.0269      2.5347      0.0314      6.9909     85.4041     20.3154
   874.7000      8.0269      2.5311      0.0457      7.2090     80.7499     20.4718
   874.8000      8.0272      2.5216      0.0500      7.7831     80.0358     20.2503
   874.9000      8.0272      2.5088     -0.0174      8.5554     83.4183     20.0928
   875.0000      8.0289      2.5055     -0.0087      8.7549     86.7700     20.3334
   875.1000      8.0289      2.5109      0.0059      8.4291     86.3107     20.7576
   875.2000      8.0289      2.5176      0.0163      8.0220     84.1889     21.1678
   875.3000      8.0300      2.5291      0.0051      7.3253     82.2859     21.4562
   875.4000      8.0300      2.5471      0.0422      6.2380     78.8503     21.4564
   875.5000      8.0297      2.5646      0.0521      5.1727     74.2657     21.0407
   875.6000      8.0297      2.5757      0.0641      4.5044     71.6630     20.3712
   875.7000      8.0297      2.5735      0.0511      4.6343     72.5453     19.9723
   875.8000      8.0286      2.5560      0.0364      5.6985     77.8170     20.1448
   875.9000      8.0286      2.5358      0.0166      6.9231     86.2715     20.6054
   876.0000      8.0275      2.5298      0.0060      7.2857     89.7157     20.7959
   876.1000      8.0275      2.5372      0.0335      6.8392     85.9741     20.6073
   876.2000      8.0275      2.5373      0.0369      6.8312     82.1146     20.7785
   876.3000      8.0275      2.5146     -0.0245      8.2083     82.9030     21.8218
   876.4000      8.0275      2.4832     -0.0596     10.1096     89.7146     23.3332
   876.5000      8.0279      2.4673     -0.0175     11.0730     98.6712     24.4121
   876.6000      8.0279      2.4681      0.0091     11.0230    103.6114     24.4949
   876.7000      8.0279      2.4736     -0.0002     10.6932    103.5055     24.1115
   876.8000      8.0270      2.4822     -0.0063     10.1698     99.7020     23.8858
   876.9000      8.0270      2.4995      0.0455      9.1222     94.5933     23.6092
   877.0000      8.0271      2.5224      0.0556      7.7324     93.2542     23.2382
   877.1000      8.0271      2.5446      0.0289      6.3905     95.3996     23.1888
   877.2000      8.0271      2.5646      0.0042      5.1731     95.4373     23.1553
   877.3000      8.0186      2.5791      0.0087      4.2952     94.7809     22.4913
   877.4000      8.0186      2.5767      0.0380      4.4424     95.0326     21.6344
   877.5000      8.0201      2.5540      0.0200      5.8197     94.3095     21.5975
   877.6000      8.0201      2.5250      0.0275      7.5768     93.7511     22.1865
   877.7000      8.0201      2.5098      0.0021      8.4977     91.7375     22.4465
   877.8000      8.0212      2.5165      0.0225      8.0915     87.0558     22.5603
   877.9000      8.0212      2.5377      0.0086      6.8056     82.7865     23.0214
   878.0000      8.0286      2.5639      0.0364      5.2206     80.0580     23.0829
   878.1000      8.0286      2.5823      0.0614      4.1004     78.6705     22.2185
   878.2000      8.0286      2.5800      0.0323      4.2425     78.1226     21.1774
   878.3000      8.0283      2.5638     -0.0011      5.2219     75.6179     20.5228
   878.4000      8.0283      2.5505      0.0281      6.0329     70.4623     20.2097
   878.5000      8.0276      2.5459      0.0043      6.3078     65.6684     20.0808
