~Version Information
VERS.                      2.0: CWLS Log ASCII Standard - VERSION 2.0
WRAP.                       NO: One line per depth step
~Well Information Block
STRT.FT               875.0000: 
STOP.FT              2053.0000: 
STEP.FT                 0.1000: 
NULL.                -999.2500: 
COMP.          Pioneer Natural Resources: COMPANY
WELL.          Woodstock 43-19: WELL
FLD.           Purgatoire River: FIELD
LOC.           2195' FSL & 250' FEL: LOCATION
CNTY.               Las Animas: COUNTY
SRVC.                Patterson: SERVICE COMPANY
DATE.          Thu Feb 02 12:45:04 2006: LOG DATE
UWI.           05 071 08677 00: UNIQUE WELL ID
STAT.                 Colorado: STATE
~Curve Information Block
DEPT.FT            0 000 00 00: Depth
DCAL.in                       : CDL Caliper
RHOB.g/cc                     : CDL Bulk Density
RHOC.g/cc                     : CDL Density Correction
DPOR.pu                       : CDL Density Porosity
GR.GAPI                       : Gamma Ray
NPOR.pu                       : Neutron Porosity
~Parameter Information Block
~A  Depth       DCAL        RHOB        RHOC        DPOR         GR         NPOR    
# ...
  1652.6000      7.9236      2.5055      0.0444      8.7587    107.1737     29.0531
  1652.7000      7.9236      2.4850      0.0284      9.9993    103.9019     29.0244
  1652.8000      7.9278      2.4654      0.0086     11.1906    102.9954     28.6491
  1652.9000      7.9278      2.4580      0.0241     11.6369    102.3956     28.2225
  1653.0000      7.9235      2.4644      0.0564     11.2505    100.3068     27.8862
  1653.1000      7.9235      2.4832      0.0153     10.1079     97.0746     27.2206
  1653.2000      7.9235      2.5091      0.0602      8.5371     95.9077     26.2504
  1653.3000      7.9115      2.5256      0.0885      7.5366    100.2032     25.6925
  1653.4000      7.9115      2.5269      0.0990      7.4579    107.0683     25.8967
  1653.5000      7.9149      2.5232      0.0462      7.6869    111.2025     26.6659
  1653.6000      7.9149      2.5222      0.0371      7.7459    112.1575     27.5071
  1653.7000      7.9149      2.5249      0.0616      7.5798    110.5417     27.9599
  1653.8000      7.9082      2.5237      0.0513      7.6537    105.8559     28.0131
  1653.9000      7.9082      2.5068      0.0969      8.6776    100.6646     27.7355
  1654.0000      7.9143      2.4808      0.0256     10.2532     98.1478     26.9852
  1654.1000      7.9143      2.4636      0.0286     11.2987     97.6733     26.1431
  1654.2000      7.9143      2.4588     -0.0135     11.5870     96.3276     25.8853
  1654.3000      7.9164      2.4592      0.0483     11.5611     93.5711     26.4564
  1654.4000      7.9164      2.4610     -0.0107     11.4528     92.6170     27.4035
  1654.5000      7.9235      2.4717      0.0188     10.8067     95.9052     27.7138
  1654.6000      7.9235      2.4945      0.0537      9.4258     98.2075     26.8061
  1654.7000      7.9235      2.5247      0.0575      7.5931     95.0942     25.1811
  1654.8000      7.9311      2.5475      0.0999      6.2091     90.5013     24.0386
  1654.9000      7.9311      2.5502      0.0245      6.0465     88.3870     23.8782
  1655.0000      7.9155      2.5574      0.0083      5.6110     91.0565     23.9582
  1655.1000      7.9155      2.5942      0.0532      3.3844     95.4340     24.1219
  1655.2000      7.9155      2.6366      0.1131      0.8095     93.4796     24.4279
  1655.3000      7.9213      2.6548      0.1003     -0.2900     82.7798     24.2476
  1655.4000      7.9213      2.6513      0.0587     -0.0762     68.3583     23.7095
  1655.5000      7.9127      2.6397      0.0743      0.6232     58.4387     23.0628
  1655.6000      7.9127      2.6267      0.0522      1.4142     53.9799     21.9329
  1655.7000      7.9127      2.6071      0.0328      2.5980     50.5577     20.7321
  1655.8000      7.8996      2.5786      0.0148      4.3263     47.0552     20.0214
  1655.9000      7.8996      2.5611     -0.0278      5.3872     43.8321     19.8585
  1656.0000      7.9053      2.5727      0.0441      4.6874     40.7499     20.0310
  1656.1000      7.9053      2.5999      0.0556      3.0351     36.5714     19.8543
  1656.2000      7.9053      2.6189      0.0149      1.8845     30.9582     19.4951
  1656.3000      7.8944      2.6232      0.0333      1.6242     27.1782     19.9410
  1656.4000      7.8944      2.6187      0.0670      1.8995     28.2818     20.9759
  1656.5000      7.9064      2.6132      0.0765      2.2290     31.9470     21.1585
  1656.6000      7.9064      2.6076      0.1105      2.5699     32.7908     19.7833
  1656.7000      7.9064      2.5951      0.1176      3.3265     30.2336     18.0512
  1656.8000      7.9196      2.5820      0.0300      4.1212     27.9368     17.2462
  1656.9000      7.9196      2.5791      0.0841      4.2997     27.9857     17.4521
  1657.0000      7.8864      2.5831      0.0289      4.0529     29.1804     17.8049
  1657.1000      7.8864      2.5885      0.0735      3.7250     29.9098     17.6973
  1657.2000      7.8864      2.5889      0.0374      3.7027     30.6615     17.1066
  1657.3000      7.9254      2.5863      0.0309      3.8595     32.5760     16.1066
  1657.4000      7.9254      2.5954      0.0552      3.3064     34.9939     15.3216
  1657.5000      7.9266      2.6167      0.0891      2.0194     36.2850     15.2431
  1657.6000      7.9266      2.6263      0.1413      1.4352     35.6615     15.5364
  1657.7000      7.9266      2.6089      0.0848      2.4899     34.1979     15.8365
  1657.8000      7.9166      2.5818      0.0538      4.1357     33.7045     16.4251
  1657.9000      7.9166      2.5712      0.0266      4.7741     34.5784     17.3097
  1658.0000      7.9247      2.5844      0.0571      3.9759     37.4439     17.8091
  1658.1000      7.9247      2.6041      0.1183      2.7796     40.7489     17.7546
  1658.2000      7.9247      2.6152      0.0854      2.1105     41.1773     17.7621
  1658.3000      7.9357      2.6255      0.0729      1.4841     38.7933     18.0505
  1658.4000      7.9357      2.6422      0.1199      0.4710     36.9891     18.6745
  1658.5000      7.9214      2.6507      0.1511     -0.0430     37.8514     18.9254
  1658.6000      7.9214      2.6340      0.0861      0.9671     37.8163     18.1591
  1658.7000      7.9214      2.5993      0.0605      3.0720     34.1294     17.3231
  1658.8000      7.9138      2.5701      0.0418      4.8429     30.0489     17.0420
  1658.9000      7.9138      2.5611      0.0110      5.3895     28.3977     17.0963
  1659.0000      7.9185      2.5662      0.0207      5.0800     29.2021     17.4971
  1659.1000      7.9185      2.5760     -0.0256      4.4853     31.7489     18.0573
  1659.2000      7.9185      2.5872      0.0473      3.8045     34.5131     18.1334
  1659.3000      7.9247      2.5892      0.0603      3.6847     35.9244     18.0050
  1659.4000      7.9247      2.5789      0.0353      4.3069     36.3247     18.3032
  1659.5000      7.9323      2.5704      0.0404      4.8236     37.3924     18.3108
  1659.6000      7.9323      2.5701      0.0324      4.8441     38.1999     17.3518
  1659.7000      7.9323      2.5691      0.0854      4.9008     36.9064     16.4763
  1659.8000      7.9473      2.5653     -0.0010      5.1353     34.5065     16.6457
  1659.9000      7.9473      2.5620      0.0354      5.3304     32.2582     16.7516
  1660.0000      7.9453      2.5546      0.0300      5.7832     31.2664     15.5171
  1660.1000      7.9453      2.5426      0.0450      6.5074     32.9934     14.0786
  1660.2000      7.9453      2.5312      0.0382      7.2006     35.9904     13.9205
  1660.3000      7.9496      2.5266      0.0090      7.4768     37.7745     14.5484
  1660.4000      7.9496      2.5372     -0.0042      6.8366     37.5021     14.7501
  1660.5000      7.9204      2.5533      0.0916      5.8602     36.6723     14.6600
  1660.6000      7.9204      2.5605      0.0482      5.4221     37.4730     14.5697
  1660.7000      7.9204      2.5671      0.0379      5.0267     37.6634     13.9452
  1660.8000      7.9218      2.5786      0.0666      4.3269     33.7039     12.8325
  1660.9000      7.9218      2.5858      0.0439      3.8883     28.0185     11.9181
  1661.0000      7.9135      2.5852      0.0412      3.9285     25.0069     11.7112
  1661.1000      7.9135      2.5814      0.0304      4.1582     25.1252     12.1556
  1661.2000      7.9135      2.5800      0.0566      4.2452     26.4014     12.7095
  1661.3000      7.9177      2.5814      0.0625      4.1573     27.4166     13.0711
  1661.4000      7.9177      2.5862      0.0760      3.8679     29.3707     13.2844
  1661.5000      7.9116      2.5988      0.0669      3.1022     33.9167     13.3939
  1661.6000      7.9116      2.6190      0.0495      1.8789     38.6764     13.5921
  1661.7000      7.9116      2.6301      0.1189      1.2049     40.2711     13.9098
  1661.8000      7.9186      2.6260      0.0033      1.4530     38.6585     14.0434
  1661.9000      7.9186      2.6274      0.0137      1.3695     36.8122     13.9227
  1662.0000      7.9292      2.6299      0.0907      1.2207     36.6971     13.5551
  1662.1000      7.9292      2.6084      0.1029      2.5198     37.4854     12.8876
