~Version Information
VERS.                      2.0: CWLS Log ASCII Standard - VERSION 2.0
WRAP.                       NO: One line per depth step
~Well Information Block
STRT.FT               -12.0000: 
STOP.FT              1728.0000: 
STEP.FT                 0.2500: 
NULL.                -999.2500: 
COMP.          XTO Energy Inc.: COMPANY
WELL.          Apache Canyon 35-06: WELL
FLD.              Vermejo Coal: FIELD
LOC.           2422' FNL & 1889' FWL--: LOCATION
STAT.                       CO: State
CNTY.               Las Animas: COUNTY
CTRY. USA : Country
SECT.  : Section
TOWN.  : Township
RANG.  : Range
SRVC.          Patterson Wireline: SERVICE COMPANY
DATE.          Fri Jan 06 08:11:44 2006: LOG DATE
API.              05 071 08540: UNIQUE WELL ID
~Curve Information Block
DEPT.FT            0 000 00 00: Depth
CCL.                          : Casing Collar Locator
TT3.usec                      : CBL 3' Travel Time
AMP3.mV                       : CBL 3' Amplitude
GR.GAPI                       : Gamma Ray
~Parameter Information Block
~A  Depth       CCL         TT3         AMP3         GR     
# ...
   892.5000      0.0000    621.4984      5.5346    145.5644
   892.7500      0.0000    595.7814      5.5968    144.5128
   893.0000      0.0000    567.7199      5.6723    146.4543
   893.2500      0.0000    545.4703      5.7439    150.4359
   893.5000      0.0000    531.3538      5.7951    154.5293
   893.7500      0.0000    522.6728      5.8173    157.4726
   894.0000      0.0000    516.4047      5.8125    159.6735
   894.2500      0.0000    512.4897      5.7899    162.1284
   894.5000      0.0000    513.6178      5.7587    164.5548
   894.7500      0.0000    523.7911      5.7247    165.2642
   895.0000      0.0000    546.8071      5.6899    163.1231
   895.2500      0.0000    583.5491      5.6591    159.0714
   895.5000      0.0000    628.6949      5.6436    155.1855
   895.7500      0.0000    671.3002      5.6553    152.6635
   896.0000      0.0000    701.3024      5.6933    151.2905
   896.2500      0.0000    716.2427      5.7393    150.5193
   896.5000      0.0000    721.2620      5.7727    150.3827
   896.7500      0.0000    723.8644      5.7872    151.2317
   897.0000      0.0000    729.7056      5.7910    152.9885
   897.2500      0.0000    741.1744      5.7926    155.0145
   897.5000      0.0000    756.7730      5.7915    156.6397
   897.7500      0.0000    771.3712      5.7809    157.3914
   898.0000      0.0000    778.8843      5.7584    156.5454
   898.2500      0.0000    776.1312      5.7315    153.0729
   898.5000      0.0000    764.5615      5.7103    146.6724
   898.7500      0.0000    748.7040      5.6943    138.6694
   899.0000      0.0000    732.8500      5.6701    131.3784
   899.2500      0.0000    718.5148      5.6261    126.3963
   899.5000      0.0000    704.8145      5.5691    123.6249
   899.7500      0.0000    691.4785      5.5185    121.9482
   900.0000      0.0000    681.0608      5.4860    120.6437
   900.2500      0.0000    677.2955      5.4711    119.8609
   900.5000      0.0000    681.4459      5.4777    119.7676
   900.7500      0.0000    691.1491      5.5159    119.7110
   901.0000      0.0000    702.6603      5.5810    118.6080
   901.2500      0.0000    713.2133      5.6438    116.0237
   901.5000      0.0000    721.2300      5.6720    112.6186
   901.7500      2.0000    724.7066      5.6520    109.5050
   902.0000      0.0000    720.3073      5.5881    107.2171
   902.2500      0.0000    706.1992      5.4932    105.3436
   902.5000      0.0000    686.7856      5.3880    103.2599
   902.7500      0.0000    671.4171      5.3016    101.3072
   903.0000      0.0000    664.9931      5.2608    101.0523
   903.2500      0.0000    661.2712      5.2752    104.0613
   903.5000      0.0000    648.1700      5.3334    110.2546
   903.7500      0.0000    618.8212      5.4120    117.4254
   904.0000      0.0000    576.5021      5.4891    122.5437
   904.2500      0.0000    530.9163      5.5518    123.7859
   904.5000      0.0000    491.5198      5.5964    121.3418
   904.7500      0.0000    463.2097      5.6239    116.3424
   905.0000      0.0000    445.9612      5.6396    109.5902
   905.2500      0.0000    436.9154      5.6523    101.6983
   905.5000      0.0000    432.7184      5.6688     93.8713
   905.7500      0.0000    430.7965      5.6903     87.6418
   906.0000      0.0000    429.6684      5.7127     83.7644
   906.2500      0.0000    428.7276      5.7329     81.9035
   906.5000      0.0000    427.9016      5.7512     81.4788
   906.7500      0.0000    427.3362      5.7687     82.3293
   907.0000      0.0000    427.2018      5.7852     84.4000
   907.2500      0.0000    427.6389      5.8005     87.2591
   907.5000      0.0000    428.8297      5.8171     90.2679
   907.7500      0.0000    430.9523      5.8386     92.9571
   908.0000      0.0000    433.8245      5.8656     94.9625
   908.2500      0.0000    436.5232      5.8947     95.7428
   908.5000      0.0000    437.7070      5.9219     94.6325
   908.7500      0.0000    436.6896      5.9454     91.2060
   909.0000      0.0000    434.0928      5.9655     85.7761
   909.2500      0.0000    431.2205      5.9805     79.7483
   909.5000      0.0000    428.9740      5.9847     75.1518
   909.7500      0.0000    427.5394      5.9709     73.2493
   910.0000      0.0000    427.0800      5.9355     73.5565
   910.2500      0.0000    428.9341      5.8833     74.4604
   910.5000      0.0000    436.9222      5.8257     74.7994
   910.7500      0.0000    457.5878      5.7738     74.6420
   911.0000      0.0000    497.1577      5.7339     74.5755
   911.2500      0.0000    555.3076      5.7081     74.7684
   911.5000      0.0000    621.5066      5.6975     75.0067
   911.7500      0.0000    679.8519      5.7001     75.1162
   912.0000      0.0000    718.7720      5.7099     74.9336
   912.2500      0.0000    735.3934      5.7181     74.3097
   912.5000      0.0000    731.8206      5.7178     73.4918
   912.7500      0.0000    710.7936      5.7050     73.0624
   913.0000      0.0000    676.4581      5.6790     73.3005
   913.2500      0.0000    636.8095      5.6421     74.0375
   913.5000      0.0000    601.7854      5.5997     75.1938
   913.7500      0.0000    577.8646      5.5574     76.8695
   914.0000      0.0000    565.3279      5.5179     78.8737
   914.2500      0.0000    560.5228      5.4819     80.8245
   914.5000      0.0000    559.6664      5.4508     82.8472
   914.7500      0.0000    560.6813      5.4278     85.6009
   915.0000      0.0000    562.8969      5.4155     89.3324
   915.2500      0.0000    565.9616      5.4143     93.1300
   915.5000      0.0000    569.0735      5.4226     95.2989
   915.7500      0.0000    571.2460      5.4386     94.5401
   916.0000      0.0000    572.3221      5.4602     90.8931
   916.2500      0.0000    573.2292      5.4825     85.7649
   916.5000      0.0000    574.7886      5.5005     81.1644
   916.7500      0.0000    576.5214      5.5119     78.5499
   917.0000      0.0000    577.0159      5.5168     77.9296
   917.2500      0.0000    575.3259      5.5153     78.1375
   917.5000      0.0000    571.8414      5.5077     78.1426
   917.7500      0.0000    567.9819      5.4970     77.8234
   918.0000      0.0000    565.2399      5.4874     77.4937
   918.2500      0.0000    564.4059      5.4829     77.3075
   918.5000      0.0000    565.2551      5.4869     77.2829
   918.7500      0.0000    566.5840      5.5009     77.2584
   919.0000      0.0000    566.7217      5.5225     76.6002
   919.2500      0.0000    564.4254      5.5459     74.5657
   919.5000      0.0000    559.1822      5.5652     71.2279
   919.7500      0.0000    550.5240      5.5767     67.5340
   920.0000      0.0000    537.8788      5.5785     64.2181
   920.2500      0.0000    521.9481      5.5716     61.2135
   920.5000      0.0000    505.4247      5.5614     58.4920
   920.7500      0.0000    490.8133      5.5552     56.9869
   921.0000      0.0000    477.8298      5.5575     58.0818
   921.2500      0.0000    464.5253      5.5668     62.1593
   921.5000      0.0000    450.7003      5.5768     67.8900
   921.7500      0.0000    438.5666      5.5808     73.0354
   922.0000      0.0000    430.2062      5.5762     76.0161
   922.2500      0.0000    425.7195      5.5654     76.8914
   922.5000      0.0000    423.8042      5.5557     76.8932
   922.7500      0.0000    423.1315      5.5570     77.0004
   923.0000      0.0000    423.0177      5.5787     77.0706
   923.2500      0.0000    423.5359      5.6257     76.3900
   923.5000      0.0000    425.7158      5.6950     74.8117
   923.7500      0.0000    431.7784      5.7750     73.0923
   924.0000      0.0000    444.5860      5.8486     72.0958
   924.2500      0.0000    465.2906      5.9025     71.7996
   924.5000      0.0000    490.4717      5.9362     71.2760
   924.7500      0.0000    512.4584      5.9639     69.7741
   925.0000      0.0000    524.2553      6.0047     67.6671
   925.2500      0.0000    524.8638      6.0678     66.0089
   925.5000      0.0000    520.1678      6.1441     65.1756
   925.7500      0.0000    519.4922      6.2119     64.4565
