~Version Information
VERS.                      2.0: CWLS Log ASCII Standard - VERSION 2.0
WRAP.                       NO: One line per depth step
~Well Information Block
STRT.FT                -8.2500: 
STOP.FT              1118.7500: 
STEP.FT                 0.2500: 
NULL.                -999.2500: 
COMP.          Pioneer Natural Resources: COMPANY
WELL.             Croc 42-9 Tr: WELL
FLD.           Purgatorie River: FIELD
LOC.           --2429' FNL & 315' FEL------: LOCATION
STAT.                       CO: State
CNTY.               Las Animas: COUNTY
CTRY. USA : Country
SECT. 9 : Section
TOWN. 32S : Township
RANG. 66W : Range
SRVC.          Patterson Wireline: SERVICE COMPANY
DATE.          Tue Oct 18 14:14:43 2005: LOG DATE
API.           05 071 08550 00: UNIQUE WELL ID
~Curve Information Block
DEPT.FT            0 000 00 00: Depth
CCL.                          : Casing Collar Locator
TT3.usec                      : CBL 3' Travel Time
AMP3.mV                       : CBL 3' Amplitude
GR.GAPI                       : Gamma Ray
~Parameter Information Block
~A  Depth       CCL         TT3         AMP3         GR     
# ...
    58.7500      0.0000    752.4361     16.0404     72.5670
    59.0000      0.0000    752.3336     15.7467     69.3357
    59.2500      0.0000    752.2149     15.4273     65.3456
    59.5000      0.0000    752.0619     15.1020     61.0373
    59.7500      0.0000    751.8665     14.7928     57.0596
    60.0000      0.0000    751.6442     14.5283     54.7714
    60.2500      0.0000    751.4337     14.3391     55.2044
    60.5000      0.0000    751.2759     14.2402     57.7415
    60.7500      0.0000    751.1822     14.2156     60.2855
    61.0000      0.0000    751.1277     14.2237     60.6492
    61.2500      0.0000    751.0865     14.2226     57.8857
    61.5000      0.0000    751.0606     14.1902     52.8920
    61.7500      0.0000    751.0570     14.1218     47.9723
    62.0000      0.0000    751.0558     14.0161     45.4740
    62.2500      0.0000    751.0275     13.8730     46.3848
    62.5000      0.0000    750.9772     13.7082     49.9441
    62.7500      0.0000    750.9577     13.5673     54.4526
    63.0000      0.0000    751.0366     13.5109     58.4812
    63.2500      0.0000    751.2526     13.5744     61.3878
    63.5000      0.0000    751.6304     13.7352     62.9734
    63.7500      0.0000    752.2969     13.9268     63.2100
    64.0000      0.0000    753.6541     14.0855     62.4808
    64.2500      0.0000    756.3688     14.1778     61.6577
    64.5000      0.0000    760.8846     14.1907     61.6683
    64.7500      0.0000    766.7101     14.1183     62.9194
    65.0000      0.0000    772.5900     13.9674     64.9063
    65.2500      0.0000    778.0040     13.7653     66.3164
    65.5000      0.0000    784.0881     13.5481     65.8736
    65.7500      0.0000    791.9780     13.3416     63.3353
    66.0000      0.0000    800.4875     13.1548     59.5810
    66.2500      0.0000    806.9037     12.9881     55.8355
    66.5000      0.0000    810.2483     12.8443     53.1887
    66.7500      0.0000    812.3583     12.7320     52.6156
    67.0000      0.0000    815.4106     12.6620     54.7151
    67.2500      0.0000    819.6216     12.6372     59.2475
    67.5000      0.0000    823.9034     12.6411     65.4442
    67.7500      0.0000    827.6304     12.6390     72.8919
    68.0000      0.0000    830.6697     12.5937     81.6825
    68.2500      0.0000    832.2065     12.4794     91.5273
    68.5000      0.0000    830.5924     12.2826    101.1631
    68.7500      0.0000    825.1406     12.0049    108.8302
    69.0000      0.0000    818.8273     11.6843    113.1136
    69.2500      0.0000    819.3781     11.3921    113.4413
    69.5000      0.0000    836.0606     11.1698    110.3822
    69.7500      0.0000    872.7980     10.9842    105.6341
    70.0000      0.0000    923.2319     10.7873    101.1238
    70.2500      0.0000    973.5777     10.5959     97.6742
    70.5000      0.0000   1011.8549     10.4665     94.7480
    70.7500      0.0000   1034.5388     10.4173     91.6018
    71.0000      2.0000   1044.2023     10.4228     88.3534
    71.2500      0.0000   1042.6761     10.4727     85.8716
    71.5000      0.0000   1026.8269     10.6190     85.1332
    71.7500      0.0000    989.6277     10.9557     86.9918
    72.0000      0.0000    928.6881     11.5316     92.0755
    72.2500      0.0000    857.5054     12.2625     99.9024
    72.5000      0.0000    802.5323     12.9650    107.7563
    72.7500      0.0000    782.2497     13.5066    111.3244
    73.0000      0.0000    792.0060     13.8838    107.6741
    73.2500      0.0000    812.6976     14.1399     97.9597
    73.5000      0.0000    829.2837     14.2792     86.9014
    73.7500      0.0000    837.9520     14.2903     79.4348
    74.0000      0.0000    841.2997     14.1913     77.6833
    74.2500      0.0000    842.4219     14.0184     80.4018
    74.5000      0.0000    842.9294     13.8030     84.4878
    74.7500      0.0000    843.3553     13.5799     87.1109
    75.0000      0.0000    843.7825     13.4032     87.2223
    75.2500      0.0000    844.1945     13.3300     85.7305
    75.5000      0.0000    844.5600     13.3836     84.4559
    75.7500      0.0000    844.8697     13.5256     84.6627
    76.0000      0.0000    845.1082     13.6699     86.0898
    76.2500      0.0000    845.2460     13.7396     87.2476
    76.5000      0.0000    845.2634     13.7237     86.8732
    76.7500      0.0000    845.1692     13.6748     85.2005
    77.0000      0.0000    844.9946     13.6504     83.7014
    77.2500      0.0000    844.7779     13.6632     83.5594
    77.5000      0.0000    844.5540     13.6905     84.5307
    77.7500      0.0000    844.3558     13.7148     85.4553
    78.0000      0.0000    844.2145     13.7469     85.7431
    78.2500      0.0000    844.1475     13.8174     85.9795
    78.5000      0.0000    844.1390     13.9483     86.9427
    78.7500      0.0000    844.1404     14.1237     88.3923
    79.0000      0.0000    844.0922     14.2850     89.1386
    79.2500      0.0000    843.9233     14.3698     88.2332
    79.5000      0.0000    843.4727     14.3620     85.8866
    79.7500      0.0000    842.4305     14.3006     83.1333
    80.0000      0.0000    840.5215     14.2339     80.7434
    80.2500      0.0000    838.1391     14.1753     78.6814
    80.5000      0.0000    836.9019     14.1026     76.5454
    80.7500      0.0000    838.8347     13.9910     74.1856
    81.0000      0.0000    844.0983     13.8371     71.9321
    81.2500      0.0000    849.9532     13.6524     70.5751
    81.5000      0.0000    853.1297     13.4480     71.0487
    81.7500      0.0000    853.1089     13.2300     73.7914
    82.0000      0.0000    852.5215     13.0032     78.3457
    82.2500      0.0000    855.0527     12.7774     83.6613
    82.5000      0.0000    863.5787     12.5729     88.6740
    82.7500      0.0000    878.5996     12.4147     92.6261
    83.0000      0.0000    896.0722     12.3154     95.1353
    83.2500      0.0000    907.1309     12.2649     96.3730
    83.5000      0.0000    903.1700     12.2356     97.2717
    83.7500      0.0000    883.4659     12.1971     99.0542
    84.0000      0.0000    856.7663     12.1302    101.9026
    84.2500      0.0000    834.0322     12.0356    104.1680
    84.5000      0.0000    820.2530     11.9348    103.5468
    84.7500      0.0000    813.4656     11.8577     99.2539
    85.0000      0.0000    809.5683     11.8277     92.8011
    85.2500      0.0000    806.3298     11.8561     86.6201
    85.5000      0.0000    803.6054     11.9416     82.2000
    85.7500      0.0000    801.7468     12.0617     79.5174
    86.0000      0.0000    800.7344     12.1648     77.7910
    86.2500      0.0000    800.3271     12.1896     76.5230
    86.5000      0.0000    800.4245     12.1041     76.0531
    86.7500      0.0000    801.1840     11.9266     77.2896
    87.0000      0.0000    802.8709     11.7111     80.5874
    87.2500      0.0000    805.4035     11.5134     84.7743
    87.5000      0.0000    807.9028     11.3660     87.7078
    87.7500      0.0000    809.0190     11.2727     88.0405
    88.0000      0.0000    808.0689     11.2179     86.1933
    88.2500      0.0000    805.7171     11.1779     83.7788
    88.5000      0.0000    803.3038     11.1210     82.6634
    88.7500      0.0000    801.7190     11.0094     84.1597
    89.0000      0.0000    801.1098     10.8145     88.0471
    89.2500      0.0000    801.3950     10.5406     92.3004
    89.5000      0.0000    802.8112     10.2314     94.5403
    89.7500      0.0000    806.0183      9.9486     93.9923
    90.0000      0.0000    811.6519      9.7421     91.8966
    90.2500      0.0000    819.5314      9.6331     90.2809
    90.5000      0.0000    828.2542      9.6148     90.5697
    90.7500      0.0000    835.8508      9.6583     92.7408
    91.0000      0.0000    841.0269      9.7200     95.2557
    91.2500      0.0000    843.7601      9.7561     96.2677
    91.5000      0.0000    844.8067      9.7403     95.3826
    91.7500      0.0000    844.8555      9.6744     93.9537
    92.0000      0.0000    844.0970      9.5825     93.5291
