~Version Information
VERS.                      2.0: CWLS Log ASCII Standard - VERSION 2.0
WRAP.                       NO: One line per depth step
~Well Information Block
STRT.FT               400.0000: 
STOP.FT              1804.7000: 
STEP.FT                 0.1000: 
NULL.                -999.2500: 
COMP.          Pioneer Natural Resources: COMPANY
WELL.           Lynch 43-30 Tr: WELL
FLD.           Purgatoire River: FIELD
LOC.           1431' FSL & 296' FEL--: LOCATION
PROV.                 Colorado: PROVINCE
CNTY.               Las Animas: COUNTRY
SRVC.                Patterson: SERVICE COMPANY
DATE.          Thu Jul 28 10:43:37 2005: LOG DATE
UWI.           05 071 08447 00: UNIQUE WELL ID
~Curve Information Block
DEPT.FT            0 000 00 00: Depth
DCAL.in                       : CDL Caliper
RHOB.g/cc                     : CDL Bulk Density
RHOC.g/cc                     : CDL Density Correction
DPOR.pu                       : CDL Density Porosity
NPOR.pu                       : Neutron Porosity
GR.GAPI                       : Gamma Ray
~Parameter Information Block
~A  Depth       DCAL        RHOB        RHOC        DPOR        NPOR         GR     
# ...
  1225.6000      8.2318      1.2937      0.0913     82.1990      2.9083     45.5189
  1225.7000      8.2318      1.2996      0.0917     81.8430      2.6961     42.0118
  1225.8000      8.3111      1.3145      0.1097     80.9418      2.7054     41.3366
  1225.9000      8.3111      1.3318      0.1205     79.8919      2.8987     44.1131
  1226.0000      8.3461      1.3414      0.1326     79.3098      3.2067     45.6765
  1226.1000      8.3461      1.3432      0.1287     79.2028      3.6237     43.3066
  1226.2000      8.3461      1.3559      0.1208     78.4310      4.0987     40.4692
  1226.3000      8.2908      1.4033      0.1334     75.5577      4.6769     40.6482
  1226.4000      8.2908      1.4895      0.1714     70.3304      5.4152     44.7913
  1226.5000      8.1863      1.6056      0.1934     63.2993      6.2303     52.1843
  1226.6000      8.1863      1.7485      0.2246     54.6383      7.0918     60.1576
  1226.7000      8.1863      1.9085      0.2794     44.9396      7.9843     67.1736
  1226.8000      8.0859      2.0621      0.3125     35.6312      8.8533     75.0017
  1226.9000      8.0859      2.2004      0.3169     27.2467      9.9618     84.4139
  1227.0000      7.9962      2.3359      0.3371     19.0366     11.4393     92.4904
  1227.1000      7.9962      2.4784      0.3457     10.4029     12.9840     96.9919
  1227.2000      7.9962      2.6207      0.3626      1.7742     14.6860     98.7923
  1227.3000      7.9247      2.7333      0.3871     -5.0505     16.6040    100.3169
  1227.4000      7.9247      2.7878      0.3523     -8.3489     18.4709    104.6213
  1227.5000      7.8915      2.7919      0.2989     -8.5983     20.2182    111.2980
  1227.6000      7.8915      2.7711      0.2662     -7.3379     21.7311    118.3262
  1227.7000      7.8915      2.7385      0.2148     -5.3629     22.8086    123.8442
  1227.8000      7.8860      2.7026      0.1752     -3.1890     23.4743    123.7790
  1227.9000      7.8860      2.6747      0.1388     -1.4975     24.0044    118.7861
  1228.0000      7.8853      2.6615      0.1145     -0.6986     24.5462    114.1929
  1228.1000      7.8853      2.6542      0.1186     -0.2528     25.0635    110.0555
  1228.2000      7.8853      2.6366      0.0942      0.8098     25.5961    106.3730
  1228.3000      7.8835      2.6105      0.0767      2.3968     25.8945    107.0438
  1228.4000      7.8835      2.5916      0.0587      3.5401     25.7855    112.2662
  1228.5000      7.8829      2.5886      0.0665      3.7224     25.4965    117.6820
  1228.6000      7.8829      2.5960      0.0624      3.2697     25.3463    121.2785
  1228.7000      7.8829      2.6038      0.0748      2.8004     25.5915    124.5182
  1228.8000      7.8820      2.6039      0.0651      2.7918     26.0511    126.1333
  1228.9000      7.8820      2.5947      0.0715      3.3506     26.2859    123.4163
  1229.0000      7.8795      2.5822      0.0495      4.1077     26.1799    118.2014
  1229.1000      7.8795      2.5770      0.0591      4.4265     26.0541    114.8775
  1229.2000      7.8795      2.5821      0.0514      4.1152     26.3258    115.0296
  1229.3000      7.8778      2.5873      0.0741      3.8026     26.9755    116.4287
  1229.4000      7.8778      2.5754      0.0676      4.5195     27.3795    118.5572
  1229.5000      7.8753      2.5415      0.0527      6.5738     26.9791    121.8798
  1229.6000      7.8753      2.4937      0.0485      9.4721     25.9434    123.9429
  1229.7000      7.8753      2.4496      0.0178     12.1434     24.9780    122.5495
  1229.8000      7.8668      2.4346      0.0138     13.0565     24.3686    120.6962
  1229.9000      7.8668      2.4536      0.0425     11.9028     24.0677    120.9616
  1230.0000      7.8516      2.4833      0.0603     10.1058     24.1873    120.2113
  1230.1000      7.8516      2.5022      0.0677      8.9546     24.4367    116.7296
  1230.2000      7.8516      2.5077      0.0712      8.6224     24.6296    114.4580
  1230.3000      7.8368      2.5079      0.0686      8.6096     25.1402    115.3736
  1230.4000      7.8368      2.5147      0.0681      8.1972     25.8775    116.1879
  1230.5000      7.8331      2.5357      0.0750      6.9243     26.4834    112.6839
  1230.6000      7.8331      2.5664      0.0902      5.0680     27.0596    104.0873
  1230.7000      7.8331      2.5939      0.1002      3.4012     27.7148     96.8780
  1230.8000      7.8369      2.6111      0.0939      2.3595     28.0782     96.6035
  1230.9000      7.8369      2.6170      0.1013      1.9973     27.6369    101.2491
  1231.0000      7.8369      2.6112      0.0891      2.3522     26.5788    105.2242
  1231.1000      7.8369      2.5999      0.0771      3.0340     25.4646    105.0728
  1231.2000      7.8369      2.5964      0.0673      3.2503     24.7761    100.9200
  1231.3000      7.8286      2.6067      0.0705      2.6271     24.8414     92.3421
  1231.4000      7.8286      2.6218      0.0798      1.7067     25.1742     84.8334
  1231.5000      7.8166      2.6273      0.0808      1.3762     25.1804     86.8215
  1231.6000      7.8166      2.6185      0.0653      1.9103     25.2379     92.6982
  1231.7000      7.8166      2.5972      0.0677      3.2014     25.8302     93.5853
  1231.8000      7.8077      2.5673      0.0519      5.0149     26.8190     90.6230
  1231.9000      7.8077      2.5506      0.0142      6.0234     27.8576     87.6294
  1232.0000      7.8025      2.5690      0.0458      4.9109     28.7935     86.1806
  1232.1000      7.8025      2.6117      0.0551      2.3226     29.4745     86.5160
  1232.2000      7.8025      2.6563      0.0732     -0.3820     29.8497     88.2011
  1232.3000      7.7998      2.6901      0.0764     -2.4279     30.0482     92.1223
  1232.4000      7.7998      2.7042      0.0929     -3.2859     30.2053     98.0343
  1232.5000      7.7989      2.6954      0.0692     -2.7542     30.5283    100.9555
  1232.6000      7.7989      2.6707      0.0707     -1.2521     30.8135     97.6013
  1232.7000      7.7989      2.6409      0.0467      0.5543     30.4683     94.4643
  1232.8000      7.7976      2.6194      0.0393      1.8529     29.6507     99.5102
  1232.9000      7.7976      2.6127      0.0412      2.2584     29.0537    109.4664
  1233.0000      7.8025      2.6124      0.0514      2.2784     28.8207    116.2385
  1233.1000      7.8025      2.6092      0.0468      2.4708     28.7360    116.4024
  1233.2000      7.8025      2.6079      0.0451      2.5526     28.7819    111.5995
  1233.3000      7.8094      2.6199      0.0480      1.8236     28.8274    107.4393
  1233.4000      7.8094      2.6449      0.0635      0.3093     28.5415    105.5824
  1233.5000      7.8079      2.6661      0.0902     -0.9736     28.0524    102.9180
  1233.6000      7.8079      2.6765      0.0576     -1.6086     27.7504     99.3872
  1233.7000      7.8079      2.6850      0.0814     -2.1183     27.7426     99.3649
  1233.8000      7.8066      2.6877      0.0776     -2.2834     28.0994    104.6496
  1233.9000      7.8066      2.6839      0.0596     -2.0546     28.6333    109.4145
  1234.0000      7.8145      2.6922      0.0475     -2.5555     28.6657    109.6547
  1234.1000      7.8145      2.7217      0.0703     -4.3471     28.0967    109.0442
  1234.2000      7.8145      2.7567      0.0737     -6.4650     27.8159    109.0137
  1234.3000      7.8311      2.7686      0.0934     -7.1893     28.1131    108.5744
  1234.4000      7.8311      2.7314      0.0866     -4.9354     28.1704    109.7878
  1234.5000      7.8424      2.6491      0.0365      0.0528     27.6844    113.2293
  1234.6000      7.8424      2.5616      0.0060      5.3605     27.2089    117.5521
  1234.7000      7.8424      2.5049     -0.0079      8.7958     26.8297    119.4215
  1234.8000      7.8375      2.4824      0.0025     10.1605     26.2767    118.2059
  1234.9000      7.8375      2.4743      0.0233     10.6492     25.7893    119.6746
  1235.0000      7.8248      2.4758      0.0005     10.5547     25.4232    123.5144
  1235.1000      7.8248      2.5025      0.0254      8.9402     24.8964    124.1298
