~Version Information
VERS.                      2.0: CWLS Log ASCII Standard - VERSION 2.0
WRAP.                       NO: One line per depth step
~Well Information Block
STRT.FT               370.0000: 
STOP.FT              1259.0000: 
STEP.FT                 0.1000: 
NULL.                -999.2500: 
COMP.          Pioneer Natural Resources: COMPANY
WELL.           Tennis 7-12 Tr: WELL
FLD.           Purgatoire River: FIELD
LOC.           1794' FNL & 1563' FEL: LOCATION
PROV.                 Colorado: PROVINCE
CNTY.               Las Animas: COUNTRY
SRVC.                Patterson: SERVICE COMPANY
DATE.          Tue Dec 20 13:35:40 2005: LOG DATE
UWI.           05 071 08635 00: UNIQUE WELL ID
~Curve Information Block
DEPT.FT            0 000 00 00: Depth
DCAL.in                       : CDL Caliper
RHOB.g/cc                     : CDL Bulk Density
RHOC.g/cc                     : CDL Density Correction
DPOR.pu                       : CDL Density Porosity
GR.GAPI                       : Gamma Ray
~Parameter Information Block
~A  Depth       DCAL        RHOB        RHOC        DPOR         GR     
# ...
   840.4000      7.9475      2.4890      0.1093      9.7588    129.1541
   840.5000      7.9430      2.5608      0.1420      5.4091    123.7249
   840.6000      7.9430      2.6328      0.1830      1.0430    123.0371
   840.7000      7.9430      2.6937      0.3057     -2.6495    126.0016
   840.8000      7.9416      2.7215      0.3282     -4.3363    127.0886
   840.9000      7.9416      2.7097      0.2844     -3.6204    125.3514
   841.0000      7.9463      2.6781      0.1892     -1.7014    127.1823
   841.1000      7.9463      2.6422      0.1761      0.4724    133.6975
   841.2000      7.9463      2.6045      0.1327      2.7592    140.1208
   841.3000      7.9534      2.5739      0.0321      4.6105    148.7413
   841.4000      7.9534      2.5569      0.0809      5.6396    159.6007
   841.5000      7.9587      2.5422      0.0355      6.5333    162.4704
   841.6000      7.9587      2.5217     -0.0011      7.7768    155.0760
   841.7000      7.9587      2.4999      0.0203      9.0980    145.9510
   841.8000      7.9614      2.4844     -0.0281     10.0364    141.4319
   841.9000      7.9614      2.4751      0.0357     10.6008    141.2948
   842.0000      7.9618      2.4607      0.0350     11.4708    142.2405
   842.1000      7.9618      2.4407      0.0141     12.6845    139.9961
   842.2000      7.9618      2.4281      0.0014     13.4485    134.9071
   842.3000      7.9608      2.4307      0.0375     13.2930    132.2956
   842.4000      7.9608      2.4395      0.0850     12.7571    134.5139
   842.5000      7.9601      2.4409      0.0937     12.6714    143.8711
   842.6000      7.9601      2.4355      0.1042     12.9982    159.2634
   842.7000      7.9601      2.4305      0.0959     13.3007    169.0449
   842.8000      7.9605      2.4284      0.0725     13.4312    166.2859
   842.9000      7.9605      2.4262      0.0699     13.5649    158.5249
   843.0000      7.9615      2.4134      0.1195     14.3391    153.3826
   843.1000      7.9615      2.3886      0.0500     15.8449    150.5523
   843.2000      7.9615      2.3663      0.0475     17.1940    149.6553
   843.3000      7.9633      2.3479      0.0519     18.3121    151.4746
   843.4000      7.9633      2.3162      0.0828     20.2301    154.5768
   843.5000      7.9647      2.2644      0.0826     23.3716    156.3005
   843.6000      7.9647      2.2055      0.0209     26.9403    158.4407
   843.7000      7.9647      2.1572      0.0162     29.8649    162.8134
   843.8000      7.9650      2.1313     -0.0153     31.4339    164.3811
   843.9000      7.9650      2.1361     -0.0262     31.1453    160.2705
   844.0000      7.9655      2.1649      0.0207     29.4020    156.1152
   844.1000      7.9655      2.1967      0.0387     27.4750    157.8382
   844.2000      7.9655      2.2273      0.0367     25.6194    162.2238
   844.3000      7.9641      2.2684      0.0941     23.1267    163.7796
   844.4000      7.9641      2.3125      0.1035     20.4540    162.1379
   844.5000      7.9571      2.3398      0.1438     18.8009    158.2077
   844.6000      7.9571      2.3520      0.0635     18.0611    155.7901
   844.7000      7.9571      2.3615      0.0578     17.4854    157.9966
   844.8000      7.9478      2.3586      0.0965     17.6590    160.4116
   844.9000      7.9478      2.3368     -0.0078     18.9848    160.6539
   845.0000      7.9429      2.3198     -0.0385     20.0145    158.7518
   845.1000      7.9429      2.3261     -0.0034     19.6329    152.1237
   845.2000      7.9429      2.3481     -0.0077     18.2944    141.5183
   845.3000      7.9409      2.3797     -0.0144     16.3800    132.1359
   845.4000      7.9409      2.4193      0.0477     13.9800    126.7697
   845.5000      7.9394      2.4569      0.0396     11.7021    120.8225
   845.6000      7.9394      2.4912      0.0420      9.6246    111.3245
   845.7000      7.9394      2.5323      0.0649      7.1312    103.6857
   845.8000      7.9387      2.5752      0.1105      4.5342    103.2747
   845.9000      7.9387      2.6066      0.0720      2.6322    107.6379
   846.0000      7.9380      2.6301      0.0810      1.2052    109.0904
   846.1000      7.9380      2.6454      0.1019      0.2774    106.4073
   846.2000      7.9380      2.6392      0.0960      0.6515    106.0527
   846.3000      7.9382      2.6148      0.0786      2.1359    109.5772
   846.4000      7.9382      2.5870      0.0949      3.8173    113.4448
   846.5000      7.9391      2.5673      0.0286      5.0098    116.5989
   846.6000      7.9391      2.5636      0.0447      5.2373    118.7284
   846.7000      7.9391      2.5695      0.0809      4.8793    119.0529
   846.8000      7.9371      2.5774      0.0323      4.3975    116.4535
   846.9000      7.9371      2.5962      0.0085      3.2588    109.8562
   847.0000      7.9320      2.6252      0.0761      1.5024    106.0856
   847.1000      7.9320      2.6414      0.1296      0.5226    115.1546
   847.2000      7.9320      2.6383      0.0701      0.7109    135.6980
   847.3000      7.9287      2.6374      0.1046      0.7645    156.2611
   847.4000      7.9287      2.6420      0.1389      0.4840    163.7419
   847.5000      7.9316      2.6383      0.1012      0.7109    155.1752
   847.6000      7.9316      2.6288      0.1264      1.2834    143.0765
   847.7000      7.9316      2.6202      0.1095      1.8069    138.5900
   847.8000      7.9369      2.6053      0.0917      2.7069    141.3316
   847.9000      7.9369      2.5787      0.0962      4.3209    143.7183
   848.0000      7.9393      2.5580     -0.0082      5.5776    139.8834
   848.1000      7.9393      2.5668      0.0020      5.0427    130.3096
   848.2000      7.9393      2.5918      0.0391      3.5264    120.8635
   848.3000      7.9393      2.6016      0.0183      2.9353    117.4607
   848.4000      7.9393      2.5929      0.0108      3.4632    119.2052
   848.5000      7.9376      2.5843     -0.0070      3.9813    119.1653
   848.6000      7.9376      2.5931     -0.0097      3.4502    113.6934
   848.7000      7.9376      2.6208      0.0215      1.7720    107.4366
   848.8000      7.9362      2.6461      0.1256      0.2381    105.9381
   848.9000      7.9362      2.6519      0.0844     -0.1132    109.6877
   849.0000      7.9376      2.6493      0.0777      0.0406    114.9242
   849.1000      7.9376      2.6524      0.0835     -0.1427    117.1800
   849.2000      7.9376      2.6557      0.1017     -0.3456    116.5218
   849.3000      7.9401      2.6536      0.0585     -0.2208    117.4763
   849.4000      7.9401      2.6538      0.0833     -0.2274    119.6566
   849.5000      7.9403      2.6595      0.0771     -0.5762    118.1742
   849.6000      7.9403      2.6711      0.0709     -1.2768    114.2784
   849.7000      7.9403      2.6803      0.1350     -1.8372    112.5696
   849.8000      7.9395      2.6707      0.0820     -1.2549    112.7569
   849.9000      7.9395      2.6508      0.0626     -0.0458    113.7207
   850.0000      7.9389      2.6379      0.0743      0.7361    117.6013
   850.1000      7.9389      2.6293      0.0862      1.2539    122.6001
   850.2000      7.9389      2.6177      0.0403      1.9549    122.3941
   850.3000      7.9372      2.6046      0.0348      2.7532    117.6866
   850.4000      7.9372      2.5981      0.0511      3.1445    116.2785
   850.5000      7.9356      2.6026      0.0291      2.8703    118.1872
   850.6000      7.9356      2.6103      0.0428      2.4035    117.6579
   850.7000      7.9356      2.6132      0.0093      2.2287    116.7176
   850.8000      7.9371      2.6111      0.0572      2.3558    121.3987
   850.9000      7.9371      2.6058      0.0330      2.6758    129.4337
   851.0000      7.9393      2.6048      0.0175      2.7412    130.5100
   851.1000      7.9393      2.6136      0.0027      2.2034    121.8111
   851.2000      7.9393      2.6255      0.0180      1.4823    113.9352
   851.3000      7.9396      2.6263      0.0746      1.4361    114.1216
   851.4000      7.9396      2.6092      0.0153      2.4740    117.1400
   851.5000      7.9389      2.5869      0.0046      3.8234    116.3299
