~Version Information
 VERS.                                  2.0 : CWLS LAS VERSION
 WRAP.                                   NO : WRAPING MODE
 SWARE .                 MController 2.5.0N : SOFTWARE VERSION
~Well Information
 WELL.                        Cleaver 24-12 : WELL
 COMP.    Pioneer Natural Resources USA Inc : COMPANY
 FLD.                      Purgatoire River : FIELD
 LOC.                SE/SW Sec 12 T32S R67W : LOCATION
 DATE.                         1/05-06/2006 : DATE(S) LOGGED
 SRVC.       BLANCO Geological Services LLC : SERVICE COMPANY
 STAT.                                   CO : STATE
 CNTY.                           Las Animas : COUNTY
 CTRY.                                  USA : COUNTRY
 API.                       05-071-08634-00 : API NUMBER
 STRT.FT                             461.00 : START DEPTH
 STOP.FT                            3055.00 : STOP DEPTH
 STEP.FT                               1.00 : DEPTH INCREMENT
 NULL.                                -9999 : NULL VALUE
~Curve information
 DEPTH.FT                                   :
 ROP.MIN/FT                                 :
 GAS.UNITS                                  :
~ASCII Log data
# ...
      2061.0         0.63         19.1 
      2062.0         0.68         22.3 
      2063.0         0.77         27.2 
      2064.0         0.27         28.1 
      2065.0         0.53         30.5 
      2066.0         7.20         70.0 
      2067.0         6.50         66.5 
      2068.0         0.20         49.9 
      2069.0         0.50         45.0 
      2070.0         0.42         37.0 
      2071.0         0.40         30.1 
      2072.0         0.57         28.6 
      2073.0         0.73         26.3 
      2074.0         0.73         26.9 
      2075.0         0.47         15.8 
      2076.0         0.17         13.3 
      2077.0         0.17         12.6 
      2078.0         0.28         15.0 
      2079.0         0.20          9.9 
      2080.0         0.37         14.5 
      2081.0         0.23         19.3 
      2082.0         0.20         14.5 
      2083.0         0.23         14.4 
      2084.0         0.40         20.6 
      2085.0         0.40         17.4 
      2086.0         0.40         19.5 
      2087.0         0.37         19.7 
      2088.0         0.38         19.3 
      2089.0         0.33         25.1 
      2090.0         0.37         46.2 
      2091.0         0.23         17.8 
      2092.0         0.33         15.6 
      2093.0         0.27         28.2 
      2094.0         0.30         28.4 
      2095.0         0.40         34.7 
      2096.0         5.93         86.6 
      2097.0         0.80         32.9 
      2098.0         0.63         16.5 
      2099.0         0.58         31.9 
      2100.0         0.63         16.7 
      2101.0         0.40         27.3 
      2102.0         0.43          0.7 
      2103.0         0.40          2.6 
      2104.0         0.50         27.8 
      2105.0         0.67          9.9 
      2106.0         0.55          1.1 
      2107.0         0.47         11.2 
      2108.0         0.40          2.3 
      2109.0         0.43          3.7 
      2110.0         0.47          5.4 
      2111.0         0.47         17.3 
      2112.0         0.23         14.1 
      2113.0         0.23          6.8 
      2114.0         0.38          8.1 
      2115.0         0.40          9.0 
      2116.0         0.50         15.4 
      2117.0         0.47         20.2 
      2118.0         0.23          2.7 
      2119.0         0.33          5.2 
      2120.0         0.40          5.4 
      2121.0         0.43          5.6 
      2122.0         0.38          5.8 
      2123.0         0.60          5.8 
      2124.0         0.53          6.0 
      2125.0         0.73          6.2 
      2126.0         4.58         29.8 
      2127.0         0.82         12.7 
      2128.0         0.60          9.1 
      2129.0         0.77         32.6 
      2130.0         0.77          9.7 
      2131.0         0.68         12.3 
      2132.0         0.67          7.9 
      2133.0         0.50         12.5 
      2134.0         0.77         20.7 
      2135.0         0.77         40.4 
      2136.0         0.82         38.7 
      2137.0         0.67         34.9 
      2138.0         0.97         39.1 
      2139.0         0.70         32.2 
      2140.0         0.67         44.5 
      2141.0         0.78         36.9 
      2142.0         0.67         22.4 
      2143.0         0.40         31.0 
      2144.0         0.40         14.9 
      2145.0         0.53         35.5 
      2146.0         0.47         36.6 
      2147.0         0.55         34.1 
      2148.0         0.47         55.5 
      2149.0         0.40         66.1 
      2150.0         0.40        111.3 
      2151.0         0.30        101.1 
      2152.0         0.40        120.4 
      2153.0         0.33        127.6 
      2154.0         0.23        148.1 
      2155.0         0.40        153.4 
      2156.0         8.85        197.8 
      2157.0         0.50         17.8 
      2158.0         0.98         42.0 
      2159.0         0.63         55.1 
      2160.0         0.53         28.6 
      2161.0         0.67         37.6 
      2162.0         0.63         66.3 
      2163.0         0.47         57.9 
      2164.0         0.38         61.6 
      2165.0         0.17         41.3 
      2166.0         0.20         29.7 
      2167.0         0.23         38.0 
      2168.0         0.63         40.2 
      2169.0         0.77         28.9 
      2170.0         0.77         30.3 
      2171.0         0.52         29.2 
      2172.0         0.27         27.4 
      2173.0         0.53         29.8 
      2174.0         0.27         32.3 
      2175.0         0.17         32.9 
      2176.0         0.37         32.9 
      2177.0         0.27         30.8 
      2178.0         0.23         28.0 
      2179.0         0.43         26.3 
      2180.0         0.53         23.6 
      2181.0         0.65         23.0 
      2182.0         0.60         23.4 
      2183.0         0.80         23.8 
      2184.0         0.70         24.2 
      2185.0         0.68         23.5 
      2186.0         6.62         78.7 
      2187.0         0.55         77.3 
      2188.0         0.63         47.6 
      2189.0         1.03         23.0 
      2190.0         1.22         20.1 
      2191.0         0.67         20.4 
      2192.0         0.47         19.8 
      2193.0         0.43         21.1 
      2194.0         0.53         22.1 
      2195.0         0.43         22.6 
      2196.0         0.30         22.7 
      2197.0         0.37         23.2 
      2198.0         0.32         24.1 
      2199.0         0.33         25.8 
      2200.0         0.30         29.1 
      2201.0         0.53         38.8 
      2202.0         0.23         45.3 
      2203.0         0.33         56.1 
      2204.0         0.33         66.2 
      2205.0         0.23         70.0 
      2206.0         0.27         70.5 
      2207.0         0.23         69.3 
      2208.0         0.27         66.1 
      2209.0         0.68         74.5 
      2210.0         0.60         69.3 
      2211.0         0.57         62.4 
      2212.0         0.73         26.0 
      2213.0         0.77         24.9 
      2214.0         1.02         23.3 
      2215.0         0.30         21.2 
      2216.0         9.58        102.6 
      2217.0         0.83         47.8 
      2218.0         0.87         18.6 
      2219.0         0.95         18.5 
      2220.0         0.80         33.6 
      2221.0         0.80         24.6 
      2222.0         0.80         29.9 
      2223.0         0.53         36.3 
      2224.0         0.92         79.8 
      2225.0         0.80         51.8 
      2226.0         1.03         44.9 
      2227.0         0.60         27.0 
      2228.0         0.48         24.8 
      2229.0         0.43         25.4 
      2230.0         0.50         19.2 
      2231.0         0.70         25.8 
      2232.0         0.70         30.8 
      2233.0         0.60         43.9 
      2234.0         0.62         55.1 
      2235.0         0.70         53.2 
      2236.0         0.70         43.6 
      2237.0         0.67         55.5 
      2238.0         1.02         50.9 
      2239.0         0.50         66.4 
      2240.0         0.60         46.6 
      2241.0         0.90         46.4 
      2242.0         0.33         52.7 
      2243.0         0.57         80.2 
      2244.0         0.95         89.4 
      2245.0         0.67        101.7 
      2246.0         5.63        119.4 
      2247.0         0.30         31.4 
      2248.0         0.50         41.1 
      2249.0         0.53         36.5 
      2250.0         0.40         25.4 
      2251.0         0.43         27.7 
      2252.0         0.33         28.8 
      2253.0         0.33         19.2 
      2254.0         0.72         29.9 
      2255.0         0.73         25.3 
      2256.0         0.57         40.6 
      2257.0         0.53         32.1 
      2258.0         0.77         38.9 
      2259.0         0.75         25.1 
      2260.0         0.77         50.2 
