~Version Information
VERS.                      2.0: CWLS Log ASCII Standard - VERSION 2.0
WRAP.                       NO: One line per depth step
~Well Information Block
STRT.FT               240.0000: 
STOP.FT              1456.0000: 
STEP.FT                 0.1000: 
NULL.                -999.2500: 
COMP.          Pioneer Natural Resources: COMPANY
WELL.              Darren 11-7: WELL
FLD.           Purgatoire River: FIELD
LOC.           230' FNL & 596' FWL: LOCATION
CNTY.               Las Animas: COUNTY
SRVC.                Patterson: SERVICE COMPANY
DATE.          Mon Mar 20 07:16:06 2006: LOG DATE
UWI.           05 071 08720 00: UNIQUE WELL ID
STAT.                 Colorado: STATE
~Curve Information Block
DEPT.FT            0 000 00 00: Depth
DCAL.in                       : CDL Caliper
RHOB.g/cc                     : CDL Bulk Density
RHOC.g/cc                     : CDL Density Correction
DPOR.pu                       : CDL Density Porosity
GR.GAPI                       : Gamma Ray
NPOR.pu                       : Neutron Porosity
~Parameter Information Block
~A  Depth       DCAL        RHOB        RHOC        DPOR         GR         NPOR    
# ...
  1440.0000      7.8470      2.3750      0.0493     16.6692   -999.2500     16.9847
  1440.1000      7.8470      2.3579      0.0227     17.7028   -999.2500     17.3850
  1440.2000      7.8470      2.3327      0.0505     19.2289   -999.2500     17.6250
  1440.3000      7.8473      2.3068      0.0063     20.8002   -999.2500     17.0065
  1440.4000      7.8473      2.2921     -0.0105     21.6897   -999.2500     16.8079
  1440.5000      7.8384      2.2939      0.0189     21.5848   -999.2500     17.8878
  1440.6000      7.8384      2.3019      0.0465     21.0945   -999.2500     18.5677
  1440.7000      7.8384      2.3045     -0.0004     20.9371   -999.2500     17.7373
  1440.8000      7.8439      2.3047      0.0239     20.9276   -999.2500     17.0201
  1440.9000      7.8439      2.3107      0.0435     20.5645   -999.2500     17.3219
  1441.0000      7.8543      2.3233      0.0341     19.8016   -999.2500     17.9037
  1441.1000      7.8543      2.3420      0.0135     18.6650   -999.2500     19.5959
  1441.2000      7.8543      2.3680      0.0655     17.0912   -999.2500     26.0221
  1441.3000      7.8460      2.3988      0.0462     15.2249   -999.2500     37.2549
  1441.4000      7.8460      2.4268      0.0706     13.5287   -999.2500     45.8261
  1441.5000      7.8469      2.4370      0.1428     12.9090   -999.2500     48.9791
  1441.6000      7.8469      2.4260      0.0713     13.5771   -999.2500     49.6008
  1441.7000      7.8469      2.4142      0.0705     14.2881   -999.2500     49.6668
  1441.8000      7.8447      2.4170      0.0424     14.1217   -999.2500     49.6706
  1441.9000      7.8447      2.4216      0.0904     13.8422   -999.2500   -999.2500
  1442.0000      7.8458      2.4123      0.0353     14.4058   -999.2500   -999.2500
  1442.1000      7.8458      2.4011      0.0345     15.0866   -999.2500   -999.2500
  1442.2000      7.8458      2.4004      0.0836     15.1243   -999.2500   -999.2500
  1442.3000      7.8496      2.4040      0.0474     14.9109   -999.2500   -999.2500
  1442.4000      7.8496      2.4022      0.0564     15.0159   -999.2500   -999.2500
  1442.5000      7.8475      2.3939      0.0832     15.5186   -999.2500   -999.2500
  1442.6000      7.8475      2.3946      0.0067     15.4799   -999.2500   -999.2500
  1442.7000      7.8475      2.4133      0.0460     14.3429   -999.2500   -999.2500
  1442.8000      7.8450      2.4278      0.0690     13.4644   -999.2500   -999.2500
  1442.9000      7.8450      2.4159      0.0529     14.1886   -999.2500   -999.2500
  1443.0000      7.8521      2.3874      0.0482     15.9161   -999.2500   -999.2500
  1443.1000      7.8521      2.3732      0.0164     16.7729   -999.2500   -999.2500
  1443.2000      7.8521      2.3890      0.0184     15.8163   -999.2500   -999.2500
  1443.3000      7.8583      2.4188      0.0107     14.0106   -999.2500   -999.2500
  1443.4000      7.8583      2.4359      0.0605     12.9753   -999.2500   -999.2500
  1443.5000      7.8501      2.4273      0.0889     13.4941   -999.2500   -999.2500
  1443.6000      7.8501      2.4097      0.0058     14.5617   -999.2500   -999.2500
  1443.7000      7.8501      2.4112      0.0408     14.4716   -999.2500   -999.2500
  1443.8000      7.8553      2.4309      0.0663     13.2801   -999.2500   -999.2500
  1443.9000      7.8553      2.4483      0.0620     12.2234   -999.2500   -999.2500
  1444.0000      7.8434      2.4554      0.0588     11.7922   -999.2500   -999.2500
  1444.1000      7.8434      2.4515      0.0628     12.0325   -999.2500   -999.2500
  1444.2000      7.8434      2.4382      0.0289     12.8351   -999.2500   -999.2500
  1444.3000      7.8499      2.4295     -0.0052     13.3631   -999.2500   -999.2500
  1444.4000      7.8499      2.4287      0.0910     13.4143   -999.2500   -999.2500
  1444.5000      7.8518      2.4259     -0.0104     13.5799   -999.2500   -999.2500
  1444.6000      7.8518      2.4346     -0.0052     13.0570   -999.2500   -999.2500
  1444.7000      7.8518      2.4631      0.0508     11.3264   -999.2500   -999.2500
  1444.8000      7.8568      2.4898      0.0676      9.7084   -999.2500   -999.2500
  1444.9000      7.8568      2.4993      0.0721      9.1360   -999.2500   -999.2500
  1445.0000      7.8489      2.4986      0.0657      9.1784   -999.2500   -999.2500
  1445.1000      7.8489      2.4921      0.0820      9.5694   -999.2500   -999.2500
  1445.2000      7.8489      2.4780      0.0661     10.4271   -999.2500   -999.2500
  1445.3000      7.8519      2.4631      0.0498     11.3251   -999.2500   -999.2500
  1445.4000      7.8519      2.4534      0.0363     11.9172   -999.2500   -999.2500
  1445.5000      7.8512      2.4492      0.0607     12.1701   -999.2500   -999.2500
  1445.6000      7.8512      2.4540      0.0345     11.8774   -999.2500   -999.2500
  1445.7000      7.8512      2.4677      0.0678     11.0500   -999.2500   -999.2500
  1445.8000      7.8531      2.4821      0.0337     10.1772   -999.2500   -999.2500
  1445.9000      7.8531      2.4919      0.0253      9.5800   -999.2500   -999.2500
  1446.0000      7.8442      2.5007      0.0649      9.0481   -999.2500   -999.2500
  1446.1000      7.8442      2.5107      0.0852      8.4410   -999.2500   -999.2500
  1446.2000      7.8442      2.5184      0.0755      7.9744   -999.2500   -999.2500
  1446.3000      7.8484      2.5217      0.0705      7.7742   -999.2500   -999.2500
  1446.4000      7.8484      2.5237      0.0522      7.6522   -999.2500   -999.2500
  1446.5000      7.8476      2.5311      0.0756      7.2032   -999.2500   -999.2500
  1446.6000      7.8476      2.5468      0.0645      6.2575   -999.2500   -999.2500
  1446.7000      7.8476      2.5630      0.0631      5.2748   -999.2500   -999.2500
  1446.8000      7.8435      2.5679      0.0871      4.9785   -999.2500   -999.2500
  1446.9000      7.8435      2.5620      0.0675      5.3348   -999.2500   -999.2500
  1447.0000      7.8502      2.5514      0.0850      5.9784   -999.2500   -999.2500
  1447.1000      7.8502      2.5349      0.0441      6.9765   -999.2500   -999.2500
  1447.2000      7.8502      2.5150      0.0322      8.1833   -999.2500   -999.2500
  1447.3000      7.8597      2.5016      0.0145      8.9916   -999.2500   -999.2500
  1447.4000      7.8597      2.5003      0.1062      9.0753   -999.2500   -999.2500
  1447.5000      7.8598      2.5043      0.0660      8.8282   -999.2500   -999.2500
  1447.6000      7.8598      2.5041      0.1230      8.8407   -999.2500   -999.2500
  1447.7000      7.8598      2.5011      0.0063      9.0241   -999.2500   -999.2500
  1447.8000      7.8377      2.5072      0.0116      8.6568   -999.2500   -999.2500
  1447.9000      7.8377      2.5191      0.0825      7.9331   -999.2500   -999.2500
  1448.0000      7.8446      2.5231      0.0690      7.6883   -999.2500   -999.2500
  1448.1000      7.8446      2.5224      0.0392      7.7322   -999.2500   -999.2500
  1448.2000      7.8446      2.5244      0.0342      7.6112   -999.2500   -999.2500
  1448.3000      7.8388      2.5181      0.0633      7.9945   -999.2500   -999.2500
  1448.4000      7.8388      2.4962      0.0635      9.3233   -999.2500   -999.2500
  1448.5000      7.8332      2.4813     -0.0455     10.2227   -999.2500   -999.2500
  1448.6000      7.8332      2.4921      0.0248      9.5715   -999.2500   -999.2500
  1448.7000      7.8332      2.5148      0.0326      8.1947   -999.2500   -999.2500
  1448.8000      7.8118      2.5364      0.0283      6.8856   -999.2500   -999.2500
  1448.9000      7.8118      2.5464      0.0798      6.2788   -999.2500   -999.2500
  1449.0000      7.8359      2.5371      0.0478      6.8395   -999.2500   -999.2500
  1449.1000      7.8359      2.5217      0.0667      7.7780   -999.2500   -999.2500
  1449.2000      7.8359      2.5127      0.0440      8.3197   -999.2500   -999.2500
  1449.3000      7.8472      2.5146      0.0166      8.2052   -999.2500   -999.2500
  1449.4000      7.8472      2.5254      0.0692      7.5545   -999.2500   -999.2500
  1449.5000      7.8563      2.5341      0.0500      7.0244   -999.2500   -999.2500
