~Version Information
VERS.                      2.0: CWLS Log ASCII Standard - VERSION 2.0
WRAP.                       NO: One line per depth step
~Well Information Block
STRT.FT                 0.0000: 
STOP.FT              1923.5000: 
STEP.FT                 0.2500: 
NULL.                -999.2500: 
COMP.          Petrogulf Corporation: COMPANY
WELL.            Montoya 7-14R: WELL
FLD.           Purgatorie River: FIELD
LOC.           628' FSL & 454' FWL: LOCATION
STAT.                 Colorado: State
CNTY.               Las Animas: COUNTY
CTRY. USA : Country
SECT. 7 : Section
TOWN. 33S : Township
RANG. 67W : Range
SRVC.                Patterson: SERVICE COMPANY
DATE.          Wed Nov 09 12:02:27 2005: LOG DATE
API. 05-071-08554                         : UNIQUE WELL ID
~Curve Information Block
DEPT.FT            0 000 00 00: Depth
CCL.                          : Casing Collar Locator
TT3.usec                      : CBL 3' Travel Time
AMP3.mV                       : CBL 3' Amplitude
GR.GAPI                       : Gamma Ray
~Parameter Information Block
~A  Depth       CCL         TT3         AMP3         GR     
# ...
   368.5000      0.0000    257.9955     78.8895     51.1005
   368.7500      0.0000    258.0208     78.9812     47.2942
   369.0000      0.0000    258.0312     79.0537     45.1667
   369.2500      0.0000    258.0361     79.0263     44.4973
   369.5000      0.0000    258.0405     78.9113     44.6885
   369.7500      0.0000    258.0283     78.7900     44.9846
   370.0000      0.0000    257.9879     78.7230     44.8284
   370.2500      0.0000    257.9400     78.7051     44.3234
   370.5000      0.0000    257.9190     78.7097     44.1600
   370.7500      0.0000    257.9317     78.7397     44.8601
   371.0000      0.0000    257.9628     78.7974     46.1079
   371.2500      0.0000    258.0026     78.8522     46.9762
   371.5000      0.0000    258.0447     78.8827     46.8171
   371.7500      0.0000    258.0817     78.9034     45.9158
   372.0000      0.0000    258.1123     78.9381     45.3442
   372.2500      0.0000    258.1335     79.0058     46.1783
   372.5000      0.0000    258.1349     79.1001     48.6586
   372.7500      0.0000    258.1126     79.1672     51.9612
   373.0000      0.0000    258.0794     79.1488     54.7837
   373.2500      0.0000    258.0548     79.0440     56.1836
   373.5000      0.0000    258.0486     78.9273     56.0453
   373.7500      0.0000    258.0572     78.8984     55.0925
   374.0000      0.0000    258.0670     78.9860     54.4895
   374.2500      0.0000    258.0644     79.1297     55.1342
   374.5000      0.0000    258.0463     79.2475     57.0867
   374.7500      0.0000    258.0240     79.2679     59.5153
   375.0000      0.0000    258.0089     79.1710     61.1066
   375.2500      0.0000    257.9958     79.0408     60.7292
   375.5000      0.0000    257.9780     78.9759     58.0277
   375.7500      0.0000    257.9653     78.9774     53.5754
   376.0000      0.0000    257.9637     79.0080     48.5279
   376.2500      0.0000    257.9656     79.0519     44.1067
   376.5000      0.0000    257.9658     79.0615     41.2306
   376.7500      0.0000    257.9608     78.9727     40.3676
   377.0000      0.0000    257.9455     78.8295     41.3892
   377.2500      0.0000    257.9230     78.7765     43.3837
   377.5000      0.0000    257.9048     78.8615     44.9533
   377.7500      0.0000    257.8995     78.9445     45.2869
   378.0000      0.0000    257.9318     78.7753     45.0179
   378.2500      0.0000    258.1205     77.9615     45.6152
   378.5000      0.0000    258.7223     75.9367     47.8139
   378.7500      0.0000    259.9490     72.2108     50.8884
   379.0000      0.0000    261.6460     66.9439     53.4291
   379.2500      0.0000    263.3008     61.5645     54.5166
   379.5000      0.0000    264.4875     57.9484     54.1198
   379.7500      0.0000    265.1564     56.5050     52.8017
   380.0000     -2.0000    265.4778     56.2447     51.3684
   380.2500      2.0000    265.6103     56.3242     50.4950
   380.5000      2.0000    265.6369     56.4976     50.2234
   380.7500     -2.0000    265.5832     56.6600     49.9189
   381.0000      0.0000    265.4224     56.7341     49.0279
   381.2500      0.0000    265.0629     57.0277     47.6881
   381.5000      0.0000    264.3720     57.9741     46.3967
   381.7500      0.0000    263.2744     59.4558     45.4231
   382.0000      0.0000    261.8983     61.6833     44.8424
   382.2500      0.0000    260.5661     65.6569     44.8304
   382.5000      0.0000    259.5634     70.9439     45.5626
   382.7500      0.0000    258.9746     75.3612     47.0965
   383.0000      0.0000    258.7077     77.6930     49.7739
   383.2500      0.0000    258.6090     78.5091     54.4516
   383.5000      0.0000    258.5628     78.7533     61.7357
   383.7500      0.0000    258.5189     78.8826     70.9225
   384.0000      0.0000    258.4767     78.9654     80.0713
   384.2500      0.0000    258.4556     78.9797     87.3434
   384.5000      0.0000    258.4634     78.9327     92.2592
   384.7500      0.0000    258.4844     78.8593     95.5806
   385.0000      0.0000    258.4901     78.8413     98.0816
   385.2500      0.0000    258.4637     78.9625     99.7143
   385.5000      0.0000    258.4173     79.1874     99.9985
   385.7500      0.0000    258.3868     79.3789     98.7732
   386.0000      0.0000    258.4060     79.4438     96.4158
   386.2500      0.0000    258.4698     79.3792     93.6858
   386.5000      0.0000    258.5313     79.2405     91.4431
   386.7500      0.0000    258.5540     79.1100     90.1850
   387.0000      0.0000    258.5516     79.0200     89.8085
   387.2500      0.0000    258.5497     78.9473     90.0111
   387.5000      0.0000    258.5443     78.8908     90.7933
   387.7500      0.0000    258.5222     78.8677     92.3455
   388.0000      0.0000    258.4928     78.8654     94.5744
   388.2500      0.0000    258.4771     78.8560     96.8240
   388.5000      0.0000    258.4801     78.8373     98.0254
   388.7500      0.0000    258.4857     78.8252     97.3655
   389.0000      0.0000    258.4804     78.8205     95.1478
   389.2500      0.0000    258.4634     78.8298     92.8905
   389.5000      0.0000    258.4369     78.8714     92.1965
   389.7500      0.0000    258.4078     78.9193     93.4960
   390.0000      0.0000    258.3870     78.9269     96.1219
   390.2500      0.0000    258.3747     78.9112     99.3146
   390.5000      0.0000    258.3723     78.9213    102.5036
   390.7500      0.0000    258.4003     78.9615    104.8938
   391.0000      0.0000    258.4684     79.0067    105.7585
   391.2500      0.0000    258.5478     79.0450    105.2414
   391.5000      0.0000    258.5964     79.0817    104.1186
   391.7500      0.0000    258.5992     79.1152    102.6310
   392.0000      0.0000    258.5749     79.1275    100.2281
   392.2500      0.0000    258.5526     79.1164     96.8445
   392.5000      0.0000    258.5411     79.1125     94.0032
   392.7500      0.0000    258.5260     79.1497     93.9940
   393.0000      0.0000    258.5002     79.2224     97.7063
   393.2500      0.0000    258.4734     79.2792    103.5462
   393.5000      0.0000    258.4507     79.2987    108.8087
   393.7500      0.0000    258.4377     79.3117    111.9998
   394.0000      0.0000    258.4514     79.3078    113.5762
   394.2500      0.0000    258.4941     79.2461    114.6826
   394.5000      0.0000    258.5395     79.1658    115.7024
   394.7500      0.0000    258.5611     79.1463    116.0061
   395.0000      0.0000    258.5583     79.1844    114.6028
   395.2500      0.0000    258.5440     79.2464    110.8672
   395.5000      0.0000    258.5232     79.3486    104.9751
   395.7500      0.0000    258.4939     79.4871     97.9833
   396.0000      0.0000    258.4552     79.6017     91.4369
   396.2500      0.0000    258.4140     79.6462     86.6425
   396.5000      0.0000    258.3856     79.6294     84.1826
   396.7500      0.0000    258.3815     79.5876     83.9649
   397.0000      0.0000    258.3981     79.5508     85.4290
   397.2500      0.0000    258.4227     79.5440     87.6058
   397.5000      0.0000    258.4481     79.5656     89.2280
   397.7500      0.0000    258.4767     79.5607     89.1497
   398.0000      0.0000    258.5050     79.4945     86.8239
   398.2500      0.0000    258.5161     79.4151     82.5159
   398.5000      0.0000    258.4998     79.3827     77.3044
   398.7500      0.0000    258.4662     79.4076     72.7351
   399.0000      0.0000    258.4474     79.4637     69.9898
   399.2500      0.0000    258.5078     79.5118     69.1122
   399.5000      0.0000    258.7157     79.5563     69.0107
   399.7500      0.0000    259.0136     79.6400     68.2265
   400.0000      0.0000    259.1652     79.7436     65.9503
   400.2500      0.0000    259.0226     79.8095     62.6618
   400.5000      0.0000    258.7509     79.8227     59.8297
   400.7500      0.0000    258.5776     79.7596     58.8305
   401.0000      0.0000    258.5292     79.5928     60.0300
   401.2500      0.0000    258.5250     79.3731     62.7249
   401.5000      0.0000    258.5222     79.1724     65.8187
   401.7500      0.0000    258.5172     79.0108     68.6640
