~Version Information
VERS.                      2.0: CWLS Log ASCII Standard - VERSION 2.0
WRAP.                       NO: One line per depth step
~Well Information Block
STRT.FT                10.0000: 
STOP.FT              1665.0000: 
STEP.FT                 0.1000: 
NULL.                -999.2500: 
COMP.          Pioneer Natural Resources: COMPANY
WELL.          Stock Canyon 34-33: WELL
FLD.           Purgatorie River: FIELD
LOC.           980' FSL & 2191' FEL: LOCATION
PROV.                 Colorado: PROVINCE
CNTY.               Las Animas: COUNTRY
SRVC.                Patterson: SERVICE COMPANY
DATE.          Mon Dec 05 10:33:50 2005: LOG DATE
UWI.                          : UNIQUE WELL ID
~Curve Information Block
DEPT.FT            0 000 00 00: Depth
DCAL.in                       : CDL Caliper
RHOB.g/cc                     : CDL Bulk Density
RHOC.g/cc                     : CDL Density Correction
DPOR.pu                       : CDL Density Porosity
GR.GAPI                       : Gamma Ray
NPOR.pu                       : Neutron Porosity
~Parameter Information Block
~A  Depth       DCAL        RHOB        RHOC        DPOR         GR         NPOR    
# ...
  1104.4000      8.2291      2.1983      0.2098     27.3749    127.4467     29.7429
  1104.5000      8.1858      2.2607      0.2510     23.5961    128.3725     29.4632
  1104.6000      8.1858      2.3012      0.1805     21.1389    134.8340     29.0641
  1104.7000      8.1858      2.3118      0.1681     20.4943    140.5674     28.7301
  1104.8000      8.1663      2.2932      0.1163     21.6229    141.4794     28.3981
  1104.9000      8.1663      2.2618      0.0207     23.5284    140.3129     27.8331
  1105.0000      8.1598      2.2402      0.0073     24.8345    139.5349     27.1845
  1105.1000      8.1598      2.2254      0.0477     25.7332    136.0887     26.9592
  1105.2000      8.1598      2.1927      0.0201     27.7149    132.1161     27.4688
  1105.3000      8.1851      2.1325      0.0516     31.3629    135.3024     28.2646
  1105.4000      8.1851      2.0599      0.0751     35.7661    142.1438     28.6098
  1105.5000      8.2609      2.0008      0.1131     39.3436    143.7541     28.4575
  1105.6000      8.2609      1.9578      0.2312     41.9521    140.9208     28.2587
  1105.7000      8.2609      1.8894      0.2685     46.0971    139.4027     28.3372
  1105.8000      8.4469      1.7701      0.1982     53.3243    140.7280     28.9608
  1105.9000      8.4469      1.6486      0.0594     60.6879    142.3278     29.9455
  1106.0000      8.4943      1.5946      0.1007     63.9636    140.3634     30.7378
  1106.1000      8.4943      1.6213      0.1362     62.3447    134.5289     31.2813
  1106.2000      8.4943      1.7009      0.1448     57.5229    130.5847     31.6729
  1106.3000      8.7931      1.8102      0.2026     50.8988    132.8681     31.7886
  1106.4000      8.7931      1.9399      0.2549     43.0380    137.9851     31.6495
  1106.5000      9.0465      2.0812      0.3370     34.4741    141.6546     31.3786
  1106.6000      9.0465      2.2199      0.3863     26.0697    144.9183     31.1909
  1106.7000      9.0465      2.3498      0.4048     18.1925    149.3965     31.2847
  1106.8000      8.4506      2.4659      0.4453     11.1564    152.8141     31.4252
  1106.9000      8.4506      2.5543      0.4462      5.8001    154.6416     31.3426
  1107.0000      8.2910      2.6143      0.4332      2.1637    158.2187     30.9516
  1107.1000      8.2910      2.6532      0.4131     -0.1949    163.9226     30.2099
  1107.2000      8.2910      2.6649      0.4057     -0.9018    167.2815     29.4156
  1107.3000      8.2720      2.6453      0.3170      0.2847    164.8029     28.8866
  1107.4000      8.2720      2.6100      0.2676      2.4236    158.2173     28.5946
  1107.5000      8.2255      2.5806      0.2160      4.2048    152.9305     28.4726
  1107.6000      8.2255      2.5667      0.1791      5.0500    149.5950     28.4323
  1107.7000      8.2255      2.5580      0.1487      5.5729    145.3714     28.2719
  1107.8000      8.1830      2.5429      0.1052      6.4915    143.1881     27.8219
  1107.9000      8.1830      2.5294      0.1256      7.3113    144.8551     27.2204
  1108.0000      8.1564      2.5375      0.0990      6.8156    147.9615     26.7652
  1108.1000      8.1564      2.5773      0.1197      4.4064    150.7147     26.5010
  1108.2000      8.1564      2.6227      0.2144      1.6529    151.0700     26.3388
  1108.3000      8.1438      2.6273      0.2180      1.3767    150.5162     26.2022
  1108.4000      8.1438      2.5842      0.0772      3.9867    152.4842     26.0096
  1108.5000      8.1395      2.5310      0.0318      7.2115    156.7398     25.9277
  1108.6000      8.1395      2.4974     -0.0211      9.2471    161.6819     26.0354
  1108.7000      8.1395      2.4903     -0.0045      9.6768    164.3152     25.9276
  1108.8000      8.1388      2.4983      0.0179      9.1931    161.1659     25.5269
  1108.9000      8.1388      2.4983      0.0364      9.1935    153.8901     25.1800
  1109.0000      8.1374      2.4804      0.0279     10.2785    148.7680     25.1513
  1109.1000      8.1374      2.4574      0.0113     11.6717    149.4458     25.6422
  1109.2000      8.1374      2.4436      0.0022     12.5111    152.4110     26.3501
  1109.3000      8.1430      2.4435     -0.0105     12.5150    152.8526     26.7815
  1109.4000      8.1430      2.4587     -0.0031     11.5960    151.2360     26.8214
  1109.5000      8.1496      2.4763      0.0293     10.5243    151.0462     26.6853
  1109.6000      8.1496      2.4776      0.0572     10.4502    154.2126     26.7802
  1109.7000      8.1496      2.4745      0.0142     10.6364    157.9263     27.2676
  1109.8000      8.1599      2.5017      0.0258      8.9907    157.4843     27.7085
  1109.9000      8.1599      2.5678      0.1051      4.9821    152.5173     27.6508
  1110.0000      8.1933      2.6538      0.1312     -0.2305    146.2140     27.4917
  1110.1000      8.1933      2.7404      0.1494     -5.4763    141.4093     27.7789
  1110.2000      8.1933      2.8047      0.1993     -9.3743    140.0422     28.2657
  1110.3000      8.1866      2.8268      0.1853    -10.7155    140.4572     28.3820
  1110.4000      8.1866      2.8129      0.2288     -9.8722    140.9117     28.2110
  1110.5000      8.1266      2.7777      0.2657     -7.7406    142.6288     28.1215
  1110.6000      8.1266      2.7231      0.1378     -4.4325    145.2547     27.9893
  1110.7000      8.1266      2.6482      0.0615      0.1072    146.7430     27.6817
  1110.8000      8.1209      2.5625     -0.0397      5.3026    146.0624     27.3926
  1110.9000      8.1209      2.4892     -0.0419      9.7472    144.5237     27.1116
  1111.0000      8.1307      2.4423      0.0097     12.5892    144.1476     26.7536
  1111.1000      8.1307      2.4207      0.0340     13.8986    143.7749     26.3962
  1111.2000      8.1307      2.4291      0.0487     13.3897    141.8565     26.1992
  1111.3000      8.2582      2.4755      0.0927     10.5763    141.4420     26.4258
  1111.4000      8.2582      2.5514      0.1868      5.9753    144.7617     27.0651
  1111.5000      8.4155      2.6284      0.2212      1.3091    148.6044     27.6509
  1111.6000      8.4155      2.6753      0.2847     -1.5324    150.0571     27.9154
  1111.7000      8.4155      2.6816      0.3132     -1.9157    148.4392     28.0410
  1111.8000      8.3485      2.6647      0.2690     -0.8928    145.1081     28.1998
  1111.9000      8.3485      2.6426      0.2764      0.4505    142.6740     28.4035
  1112.0000      8.2041      2.6219      0.1668      1.7053    140.9739     28.5664
  1112.1000      8.2041      2.6081      0.1216      2.5390    141.8789     28.4589
  1112.2000      8.2041      2.5988      0.0777      3.1041    148.5808     27.9501
  1112.3000      8.2362      2.5887      0.0084      3.7180    156.0085     27.4758
  1112.4000      8.2362      2.5747      0.0709      4.5667    159.0444     27.5385
  1112.5000      8.2069      2.5565      0.0725      5.6676    159.8475     27.9533
  1112.6000      8.2069      2.5469      0.0341      6.2513    160.0563     28.1377
  1112.7000      8.2069      2.5494      0.0496      6.0956    158.7021     27.8799
  1112.8000      8.1791      2.5420      0.0593      6.5431    157.2213     27.4559
  1112.9000      8.1791      2.5085      0.0289      8.5760    156.4798     27.0117
  1113.0000      8.2089      2.4669     -0.0578     11.0941    156.7645     26.6341
  1113.1000      8.2089      2.4471     -0.0577     12.2984    157.5089     26.5966
  1113.2000      8.2089      2.4436      0.0346     12.5082    156.1783     26.7924
  1113.3000      8.2679      2.4308      0.0559     13.2836    151.7752     26.8313
  1113.4000      8.2679      2.4092      0.0166     14.5910    147.3165     26.7097
  1113.5000      8.2718      2.3949     -0.0012     15.4629    147.5414     26.6032
  1113.6000      8.2718      2.3838      0.0156     16.1315    151.2436     26.6165
  1113.7000      8.2718      2.3685     -0.0272     17.0630    154.5221     26.8440
  1113.8000      8.2627      2.3615      0.0261     17.4838    155.9936     27.3208
  1113.9000      8.2627      2.3745      0.0358     16.6986    155.9436     27.8605
