~Version Information
VERS.                      2.0: CWLS Log ASCII Standard - VERSION 2.0
WRAP.                       NO: One line per depth step
~Well Information Block
STRT.FT                -8.2500: 
STOP.FT               686.7500: 
STEP.FT                 0.2500: 
NULL.                -999.2500: 
COMP.          Pioneer Natural Resources: COMPANY
WELL.           Quintessa 23-7: WELL
FLD.           Purgatorie River: FIELD
LOC.           1964' FSL & 2589' FWL--: LOCATION
PROV.                       CO: PROVINCE
CNTY.               Las Animas: COUNTRY
SRVC.          Patterson Wireline: SERVICE COMPANY
DATE.          Wed Nov 23 10:31:07 2005: LOG DATE
UWI.           05 071 08558 00: UNIQUE WELL ID
~Curve Information Block
DEPT.FT            0 000 00 00: Depth
CCL.                          : Casing Collar Locator
TT3.usec                      : CBL 3' Travel Time
AMP3.mV                       : CBL 3' Amplitude
GR.GAPI                       : Gamma Ray
~Parameter Information Block
~A  Depth       CCL         TT3         AMP3         GR     
# ...
   393.7500      0.0000    753.3027     18.5581    123.8102
   394.0000      0.0000    754.0399     18.5001    118.8111
   394.2500      0.0000    754.0981     18.4255    115.5900
   394.5000      0.0000    754.0152     18.3065    113.9796
   394.7500      0.0000    753.9000     18.1421    112.6169
   395.0000      0.0000    753.7739     17.9586    110.2494
   395.2500      0.0000    753.6455     17.7969    106.5438
   395.5000      0.0000    753.5414     17.7000    102.1187
   395.7500      0.0000    753.4934     17.7002     98.1236
   396.0000      0.0000    753.5186     17.8033     95.6089
   396.2500      0.0000    753.6065     17.9837     95.0144
   396.5000      0.0000    753.7199     18.1994     95.9927
   396.7500      0.0000    753.8115     18.4118     97.5355
   397.0000      0.0000    753.8470     18.5871     98.4784
   397.2500      0.0000    753.8206     18.6936     98.3825
   397.5000      0.0000    753.7540     18.7138     97.9005
   397.7500      0.0000    753.6833     18.6634     97.8507
   398.0000      0.0000    753.6404     18.5886     97.9681
   398.2500      0.0000    753.6367     18.5414     97.0506
   398.5000      0.0000    753.6605     18.5552     94.3468
   398.7500      0.0000    753.6931     18.6385     90.3484
   399.0000      0.0000    753.7305     18.7766     86.1624
   399.2500      0.0000    753.7811     18.9331     82.5860
   399.5000      0.0000    753.8450     19.0584     79.8805
   399.7500      0.0000    753.8772     19.1116     77.9897
   400.0000      0.0000    753.7449     19.0805     76.6567
   400.2500      0.0000    753.1696     18.9790     75.4069
   400.5000      0.0000    751.7666     18.8285     73.5654
   400.7500      0.0000    749.3160     18.6483     70.5712
   401.0000      0.0000    746.1646     18.4613     66.6365
   401.2500      0.0000    743.3290     18.3004     62.9971
   401.5000      0.0000    741.9700     18.2039     61.0591
   401.7500      0.0000    742.5162     18.2056     61.2215
   402.0000      0.0000    743.9058     18.3196     62.6436
   402.2500      0.0000    743.2882     18.5243     64.0667
   402.5000      0.0000    736.1467     18.7671     64.8444
   402.7500      0.0000    717.0111     18.9994     65.4207
   403.0000      0.0000    681.7571     19.2085     66.9505
   403.2500      0.0000    631.6666     19.4062     70.2920
   403.5000      0.0000    575.6992     19.5890     75.0897
   403.7500      0.0000    526.5723     19.7211     79.6370
   404.0000      0.0000    492.8276     19.7621     81.7267
   404.2500      0.0000    474.8449     19.7086     80.1394
   404.5000      0.0000    468.1796     19.6032     75.6066
   404.7500      0.0000    469.6416     19.5047     70.1617
   405.0000      0.0000    480.4123     19.4413     65.4357
   405.2500      0.0000    503.6347     19.3751     61.7021
   405.5000      0.0000    538.1924     19.1937     58.4101
   405.7500      0.0000    575.9307     18.7460     55.1423
   406.0000      0.0000    607.3223     17.9634     51.9738
   406.2500      0.0000    628.9239     17.0047     49.3224
   406.5000      0.0000    643.5770     16.2156     47.6563
   406.7500      0.0000    656.9983     15.8276     47.2186
   407.0000      0.0000    676.1608     15.7386     47.9251
   407.2500      0.0000    705.3574     15.6926     49.3699
   407.5000      0.0000    740.6597     15.5858     50.7651
   407.7500      0.0000    771.7292     15.4827     51.0832
   408.0000      0.0000    789.7040     15.4375     49.7390
   408.2500      0.0000    791.3726     15.4384     47.2369
   408.5000     -2.0000    778.3227     15.4741     44.8427
   408.7500      0.0000    755.3838     15.5768     43.5186
   409.0000      0.0000    728.0234     15.8074     43.3383
   409.2500      0.0000    699.2671     16.1888     43.7630
   409.5000      0.0000    670.9319     16.5909     44.1580
   409.7500      0.0000    647.4431     16.7205     44.2191
   410.0000      0.0000    634.9025     16.3633     44.1979
   410.2500      0.0000    637.4901     15.6210     44.5362
   410.5000      0.0000    656.9382     14.7932     45.1270
   410.7500      0.0000    692.9225     14.0671     45.1659
   411.0000      0.0000    742.8276     13.4322     43.8509
   411.2500      0.0000    803.8073     12.8247     41.1194
   411.5000      0.0000    874.0722     12.2376     37.7373
   411.7500      0.0000    949.5244     11.7126     34.8175
   412.0000      0.0000   1021.0648     11.2963     33.1539
   412.2500      0.0000   1077.8184     11.0116     32.8357
   412.5000      0.0000   1112.0275     10.8496     33.4970
   412.7500      0.0000   1119.8264     10.7851     34.8993
   413.0000      0.0000   1099.4816     10.7984     37.1266
   413.2500      0.0000   1052.2537     10.8833     40.2009
   413.5000      0.0000    986.1458     11.0406     43.6196
   413.7500      0.0000    916.4160     11.2664     46.3727
   414.0000      0.0000    858.7330     11.5487     47.5662
   414.2500      0.0000    820.5048     11.8708     47.1408
   414.5000      0.0000    798.9379     12.2183     45.8726
   414.7500      0.0000    786.4612     12.5802     44.6017
   415.0000      0.0000    777.0208     12.9366     43.6406
   415.2500      0.0000    768.4770     13.2537     43.0474
   415.5000      0.0000    761.3105     13.5054     43.0871
   415.7500      0.0000    756.3081     13.7008     43.9375
   416.0000      0.0000    753.3754     13.8850     45.0334
   416.2500      0.0000    751.7837     14.1182     45.2211
   416.5000      0.0000    750.8563     14.4489     43.7179
   416.7500      0.0000    750.2883     14.8868     40.6658
   417.0000      0.0000    750.1295     15.3939     36.7323
   417.2500      0.0000    750.6852     15.9228     32.5523
   417.5000      0.0000    752.0128     16.4709     28.7083
   417.7500      0.0000    752.3987     17.0822     25.9004
   418.0000      0.0000    745.9879     17.7986     24.7575
   418.2500      0.0000    722.2625     18.6347     25.4585
   418.5000      0.0000    671.2524     19.5972     27.7057
   418.7500      0.0000    593.2700     20.6918     31.2087
   419.0000      0.0000    503.6468     21.8871     36.1375
   419.2500      0.0000    424.6288     23.0698     42.8360
   419.5000      0.0000    370.9226     24.0429     50.9530
   419.7500      0.0000    343.2219     24.5925     59.1709
   420.0000      0.0000    333.4132     24.6071     66.1452
   420.2500      0.0000    332.5942     24.1711     71.4367
   420.5000      0.0000    334.6257     23.5336     75.1529
   420.7500      0.0000    336.1276     22.9514     77.2157
   421.0000      0.0000    336.4071     22.5432     77.7059
   421.2500      0.0000    338.0537     22.2801     77.5188
   421.5000      0.0000    347.3674     22.0801     77.7917
   421.7500      0.0000    373.5150     21.8887     78.8014
   422.0000      0.0000    424.2807     21.6948     79.9978
   422.2500      0.0000    498.1795     21.5111     80.9106
   422.5000      0.0000    579.3422     21.3505     81.4828
   422.7500      0.0000    642.6288     21.2196     81.6634
   423.0000      0.0000    666.2249     21.1330     81.2883
   423.2500      0.0000    641.8502     21.1235     80.5549
   423.5000      0.0000    578.0704     21.2172     80.2150
   423.7500      0.0000    497.2737     21.3963     80.8462
   424.0000      0.0000    426.2514     21.5974     82.0141
   424.2500      0.0000    384.6454     21.7505     82.4656
   424.5000      0.0000    379.7123     21.8178     81.0091
   424.7500      0.0000    407.5464     21.8130     76.9259
   425.0000      0.0000    454.3513     21.7954     69.9988
   425.2500      0.0000    498.6631     21.8356     60.9825
   425.5000      0.0000    520.2861     21.9730     52.0720
   425.7500      0.0000    511.0122     22.2115     46.1257
   426.0000      0.0000    476.6302     22.5494     44.9817
   426.2500      0.0000    430.6190     22.9902     48.5922
   426.5000      0.0000    387.0104     23.5112     55.4394
   426.7500      0.0000    355.1180     24.0323     63.2607
   427.0000      0.0000    336.9675     24.4335     69.8019
