~Version Information
VERS.                      2.0: CWLS Log ASCII Standard - VERSION 2.0
WRAP.                       NO: One line per depth step
~Well Information Block
STRT.FT                 0.0000: 
STOP.FT               988.7500: 
STEP.FT                 0.2500: 
NULL.                -999.2500: 
COMP.          Pioneer Natural Resources: COMPANY
WELL.             Quartz 13-22: WELL
FLD.           Purgatoire River: FIELD
LOC.           1933' FSL & 675' FWL --------: LOCATION
PROV.                 Colorado: PROVINCE
CNTY.               Las Animas: COUNTRY
SRVC.                         : SERVICE COMPANY
DATE.          Thu Dec 22 09:29:32 2005: LOG DATE
UWI.                          : UNIQUE WELL ID
~Curve Information Block
DEPT.FT            0 000 00 00: Depth
CCL.                          : Casing Collar Locator
TT3.usec                      : CBL 3' Travel Time
AMP3.mV                       : CBL 3' Amplitude
AMP5.mV                       : CBL 5' Amplitude
GR.GAPI                       : Gamma Ray
~Parameter Information Block
~A  Depth       CCL         TT3         AMP3        AMP5         GR     
# ...
   448.0000      0.0000    725.5986      9.8670      1.4675     94.9780
   448.2500      0.0000    725.6005      9.8721      1.4124     92.8865
   448.5000      0.0000    725.5102      9.8472      1.5119     90.7149
   448.7500      0.0000    725.3629      9.8015      1.7347     88.5989
   449.0000      0.0000    725.1788      9.7490      1.9831     86.9312
   449.2500      0.0000    724.9668      9.7062      2.1546     86.7561
   449.5000      0.0000    724.7811      9.6851      2.2244     89.2046
   449.7500      0.0000    724.7361      9.6886      2.2334     94.3904
   450.0000      0.0000    724.9206      9.7090      2.2018    101.3128
   450.2500      0.0000    725.2943      9.7323      2.1037    108.5898
   450.5000      0.0000    725.6962      9.7451      1.9257    114.7694
   450.7500      0.0000    725.9656      9.7397      1.7079    118.2734
   451.0000      0.0000    726.0483      9.7152      1.5255    117.8685
   451.2500      0.0000    726.0054      9.6752      1.4602    113.6151
   451.5000      0.0000    725.9488      9.6249      1.5805    107.3256
   451.7500      0.0000    725.9714      9.5717      1.9074    101.7954
   452.0000      0.0000    726.1143      9.5297      2.3798     99.1146
   452.2500      0.0000    726.3624      9.5220      2.8609     99.4051
   452.5000      0.0000    726.6490      9.5753      3.2014    101.2157
   452.7500      0.0000    726.8669      9.7048      3.3099    103.1323
   453.0000      0.0000    726.9174      9.8990      3.1917    104.6888
   453.2500      0.0000    726.7837     10.1146      2.9571    105.6832
   453.5000      0.0000    726.5500     10.2902      2.7847    105.2810
   453.7500      0.0000    726.3651     10.3771      2.8205    102.4562
   454.0000      0.0000    726.4225     10.3665      3.0652     97.3099
   454.2500      0.0000    727.0103     10.2910      3.3642     91.4653
   454.5000      0.0000    728.4600     10.1976      3.5178     86.9177
   454.7500      0.0000    730.8181     10.1154      3.4062     84.6149
   455.0000      0.0000    733.4798     10.0344      3.0381     84.1456
   455.2500      0.0000    735.4894      9.9056      2.5201     84.5501
   455.5000      0.0000    736.4857      9.6659      1.9912     85.2673
   455.7500      0.0000    737.0698      9.3012      1.5598     86.2764
   456.0000      0.0000    738.0078      8.9097      1.2717     87.5487
   456.2500      0.0000    739.6765      8.6639      1.1193     88.6878
   456.5000      0.0000    742.8359      8.6505      1.0833     89.1072
   456.7500      0.0000    749.1917      8.7735      1.1639     88.3140
   457.0000      0.0000    760.3335      8.8735      1.3672     86.0731
   457.2500      0.0000    776.0854      8.9047      1.6596     82.5507
   457.5000      0.0000    793.6341      8.9366      1.9530     78.3133
   457.7500     -2.0000    807.6068      9.0345      2.1433     74.0691
   458.0000      2.0000    811.7923      9.2080      2.1635     70.5081
   458.2500      0.0000    802.5082      9.4538      2.0136     68.4550
   458.5000      0.0000    779.7721      9.8277      1.7555     68.8417
   458.7500      0.0000    744.7385     10.4593      1.4826     72.1371
   459.0000      0.0000    699.6592     11.4339      1.2762     77.8841
   459.2500      0.0000    653.4775     12.6030      1.1716     84.9046
   459.5000      0.0000    623.0383     13.5815      1.1536     91.6588
   459.7500      0.0000    621.5130     14.0422      1.1828     96.2152
   460.0000      0.0000    645.4593     13.9752      1.2405     96.6229
   460.2500      0.0000    677.7898     13.6010      1.3563     92.3011
   460.5000      0.0000    703.0775     13.1151      1.5865     84.9898
   460.7500      0.0000    716.9367     12.5877      1.9519     77.5329
   461.0000      0.0000    723.0948     12.0291      2.3812     71.6858
   461.2500      0.0000    726.5533     11.4677      2.7209     67.6336
   461.5000      0.0000    730.1738     10.9731      2.8237     65.3271
   461.7500      0.0000    734.5249     10.6218      2.6625     65.2099
   462.0000      0.0000    738.7764     10.4398      2.3634     67.4101
   462.2500      0.0000    741.7813     10.3781      2.1165     70.9915
   462.5000      0.0000    742.7810     10.3577      2.0352     74.4154
   462.7500      0.0000    741.5096     10.3338      2.0881     76.5289
   463.0000      0.0000    738.1601     10.3159      2.1606     77.2188
   463.2500      0.0000    733.5468     10.3314      2.1877     77.5340
   463.5000      0.0000    729.0004     10.3841      2.2202     79.1327
   463.7500      0.0000    725.6505     10.4519      2.3498     83.1256
   464.0000      0.0000    723.7748     10.5207      2.5721     89.1638
   464.2500      0.0000    722.9310     10.6096      2.7475     95.7021
   464.5000      0.0000    722.5612     10.7544      2.7189    101.1962
   464.7500      0.0000    722.3488     10.9618      2.4748    104.9786
   465.0000      0.0000    722.1871     11.1839      2.1892    107.1738
   465.2500      0.0000    722.0215     11.3476      2.0925    108.3674
   465.5000      0.0000    721.7974     11.4152      2.2943    109.6036
   465.7500      0.0000    721.4962     11.4093      2.7083    111.9571
   466.0000      0.0000    721.1712     11.3820      3.1278    115.3254
   466.2500      0.0000    720.9052     11.3768      3.3751    117.8667
   466.5000      0.0000    720.7418     11.4176      3.4020    117.3582
   466.7500      0.0000    720.6757     11.5125      3.2749    113.3110
   467.0000      0.0000    720.6920     11.6544      3.0818    107.4953
   467.2500      0.0000    720.7841     11.8218      2.8651    102.3063
   467.5000      0.0000    720.9370     11.9845      2.6480     98.9027
   467.7500      0.0000    721.1152     12.1079      2.4952     97.0071
   468.0000      0.0000    721.2758     12.1659      2.4978     96.0541
   468.2500      0.0000    721.3897     12.1638      2.6798     96.1946
   468.5000      0.0000    721.4483     12.1451      2.9443     98.4158
   468.7500      0.0000    721.4570     12.1613      3.1379    103.7523
   469.0000      0.0000    721.4293     12.2328      3.1828    111.9015
   469.2500      0.0000    721.3829     12.3440      3.1369    120.5761
   469.5000      0.0000    721.3355     12.4721      3.1053    126.8322
   469.7500      0.0000    721.3075     12.6130      3.1000    129.1753
   470.0000      0.0000    721.3311     12.7801      3.0322    128.1823
   470.2500      0.0000    721.4418     12.9761      2.8580    125.5370
   470.5000      0.0000    721.6472     13.1654      2.6829    122.9055
   470.7500      0.0000    721.9026     13.2891      2.6773    121.0994
   471.0000      0.0000    722.1350     13.3247      2.8915    119.5108
   471.2500      0.0000    722.3036     13.3164      3.1866    116.5730
   471.5000      0.0000    722.4326     13.3321      3.3494    111.4432
   471.7500      0.0000    722.5762     13.4019      3.2684    105.1716
   472.0000      0.0000    722.7637     13.5094      3.0175     99.8888
   472.2500      0.0000    722.9853     13.6288      2.8003     97.0053
   472.5000      0.0000    723.2073     13.7513      2.7992     96.5310
   472.7500      0.0000    723.3784     13.8786      3.0359     97.9152
   473.0000      0.0000    723.4466     14.0020      3.3524    100.8893
   473.2500      0.0000    723.4013     14.0968      3.5311    105.2112
   473.5000      0.0000    723.2854     14.1443      3.4518    110.1833
   473.7500      0.0000    723.1517     14.1602      3.1693    115.0900
   474.0000      0.0000    723.0205     14.1981      2.8727    119.8078
   474.2500      0.0000    722.8837     14.3149      2.7598    124.3851
   474.5000      0.0000    722.7307     14.5242      2.9130    128.2135
   474.7500      0.0000    722.5677     14.7806      3.2550    130.2188
   475.0000      0.0000    722.4274     15.0073      3.5983    129.9140
   475.2500      0.0000    722.3655     15.1431      3.7509    128.0235
   475.5000      0.0000    722.4351     15.1665      3.6301    126.0502
   475.7500      0.0000    722.6404     15.0854      3.3247    125.2625
