~Version Information
VERS.                      2.0: CWLS Log ASCII Standard - VERSION 2.0
WRAP.                       NO: One line per depth step
~Well Information Block
STRT.FT               645.0000: 
STOP.FT              2133.5000: 
STEP.FT                 0.2500: 
NULL.                -999.2500: 
COMP.          Pioneer Natural Resources: COMPANY
WELL.          Gunslinger 13-24: WELL
FLD.           Purgatoire River: FIELD
LOC.           1968' FSL & 633' FWL: LOCATION
PROV.                 Colorado: PROVINCE
CNTY.               Las Animas: COUNTRY
SRVC.                Patterson: SERVICE COMPANY
DATE.          Fri Jul 29 15:04:35 2005: LOG DATE
UWI.           05 071 08442 00: UNIQUE WELL ID
~Curve Information Block
DEPT.FT            0 000 00 00: Depth
SN.Ohm-m                      : IEL Short Normal
SP.mV                         : IEL Spontaneous Potential
DIR.Ohm-m                     : IEL Induction Resistivity
GR.GAPI                       : Gamma Ray
~Parameter Information Block
~A  Depth        SN          SP         DIR          GR     
# ...
  1516.0000     11.3514     96.1196      9.6001    168.3007
  1516.2500     11.3909     96.3772      9.8168    169.6143
  1516.5000     11.5459     96.4875     10.0447    172.5298
  1516.7500     11.7619     96.5048     10.2628    174.3251
  1517.0000     11.9931     96.4917     10.4582    174.4502
  1517.2500     12.2729     96.4979     10.6332    171.4529
  1517.5000     12.5662     96.5370     10.8008    162.0561
  1517.7500     12.7421     96.5794     10.9776    153.9349
  1518.0000     12.7676     96.5671     11.1784    142.5496
  1518.2500     12.7925     96.4371     11.4172    137.2275
  1518.5000     12.9813     96.1476     11.7068    134.3532
  1518.7500     13.3641     95.6953     12.0549    136.0476
  1519.0000     13.8579     95.1208     12.4551    142.4671
  1519.2500     14.3068     94.4930     12.8821    147.2072
  1519.5000     14.5914     93.8792     13.2960    150.7444
  1519.7500     14.7948     93.3097     13.6592    149.3496
  1520.0000     15.0526     92.7619     13.9518    142.8403
  1520.2500     15.2947     92.1776     14.1696    137.8447
  1520.5000     15.3637     91.5067     14.3069    133.2186
  1520.7500     15.2557     90.7429     14.3441    132.8524
  1521.0000     15.1384     89.9262     14.2628    134.8280
  1521.2500     15.1743     89.1157     14.0716    136.1949
  1521.5000     15.3472     88.3585     13.8121    136.5497
  1521.7500     15.4889     87.6756     13.5331    135.7331
  1522.0000     15.4334     87.0705     13.2626    134.3688
  1522.2500     15.1111     86.5453     13.0007    134.3761
  1522.5000     14.5946     86.1085     12.7339    136.8195
  1522.7500     14.0762     85.7739     12.4528    140.0409
  1523.0000     13.7514     85.5510     12.1597    146.3109
  1523.2500     13.6949     85.4277     11.8648    150.6833
  1523.5000     13.7759     85.3633     11.5785    156.4140
  1523.7500     13.7296     85.3047     11.3058    159.3787
  1524.0000     13.4328     85.2233     11.0494    162.6727
  1524.2500     13.0268     85.1351     10.8142    164.2863
  1524.5000     12.7261     85.0831     10.6098    165.9213
  1524.7500     12.5870     85.0971     10.4472    166.4886
  1525.0000     12.4325     85.1701     10.3333    166.7021
  1525.2500     12.1266     85.2695     10.2661    166.5197
  1525.5000     11.8289     85.3631     10.2367    165.8307
  1525.7500     11.7625     85.4364     10.2352    165.1766
  1526.0000     11.9541     85.4936     10.2581    164.1243
  1526.2500     12.2495     85.5512     10.3123    163.3268
  1526.5000     12.4694     85.6271     10.4148    161.5519
  1526.7500     12.6041     85.7295     10.5869    159.9307
  1527.0000     12.7739     85.8533     10.8472    157.4806
  1527.2500     13.0478     85.9858     11.2048    156.0920
  1527.5000     13.4639     86.1146     11.6570    153.4765
  1527.7500     14.1055     86.2318     12.1928    150.2533
  1528.0000     15.0221     86.3375     12.8024    141.6130
  1528.2500     16.1957     86.4441     13.4854    133.0986
  1528.5000     17.6825     86.5770     14.2477    117.1982
  1528.7500     19.6951     86.7686     15.0864    105.7394
  1529.0000     22.5281     87.0499     15.9754     89.8803
  1529.2500     26.3611     87.4400     16.8663     81.6241
  1529.5000     30.9911     87.9354     17.7054     74.3234
  1529.7500     35.6895     88.5017     18.4501     73.0942
  1530.0000     39.3868     89.0757     19.0660     76.2293
  1530.2500     41.1361     89.5838     19.5117     81.2845
  1530.5000     40.5003     89.9720     19.7311     92.9529
  1530.7500     37.7445     90.2333     19.6683    103.0187
  1531.0000     33.8362     90.4083     19.2933    119.5330
  1531.2500     29.9258     90.5521     18.6224    129.7434
  1531.5000     26.5357     90.6921     17.7192    141.4995
  1531.7500     23.4931     90.8135     16.6828    146.7197
  1532.0000     20.6730     90.8830     15.6233    151.9526
  1532.2500     18.3280     90.8823     14.6360    154.7065
  1532.5000     16.6540     90.8222     13.7819    158.5419
  1532.7500     15.5452     90.7356     13.0836    160.8289
  1533.0000     14.8158     90.6653     12.5349    163.6591
  1533.2500     14.3193     90.6547     12.1156    165.2456
  1533.5000     13.8763     90.7335     11.8037    167.2344
  1533.7500     13.3190     90.8991     11.5804    168.0264
  1534.0000     12.6753     91.1107     11.4274    167.8693
  1534.2500     12.1528     91.3096     11.3218    166.8029
  1534.5000     11.8778     91.4523     11.2340    163.8653
  1534.7500     11.7867     91.5294     11.1340    160.9386
  1535.0000     11.7848     91.5596     11.0028    154.8546
  1535.2500     11.9286     91.5760     10.8398    149.7788
  1535.5000     12.3313     91.6188     10.6589    141.6396
  1535.7500     12.8644     91.7279     10.4793    136.8210
  1536.0000     13.1960     91.9252     10.3186    132.2265
  1536.2500     13.1693     92.1936     10.1905    131.7708
  1536.5000     12.9311     92.4746     10.1046    135.8630
  1536.7500     12.6806     92.6972     10.0623    141.5412
  1537.0000     12.4460     92.8153     10.0518    152.2645
  1537.2500     12.1392     92.8270     10.0455    158.9478
  1537.5000     11.7344     92.7635     10.0056    165.9005
  1537.7500     11.2921     92.6644      9.8999    168.5062
  1538.0000     10.8593     92.5606      9.7173    171.0425
  1538.2500     10.4957     92.4707      9.4721    172.3799
  1538.5000     10.2969     92.3937      9.1929    172.9582
  1538.7500     10.2277     92.3020      8.9075    171.7952
  1539.0000     10.1316     92.1567      8.6360    168.7050
  1539.2500      9.9580     91.9399      8.3907    167.0688
  1539.5000      9.7575     91.6711      8.1790    166.3823
  1539.7500      9.5772     91.3941      8.0041    166.6402
  1540.0000      9.4653     91.1568      7.8646    166.6691
  1540.2500      9.4026     91.0010      7.7531    166.1332
  1540.5000      9.3035     90.9544      7.6576    165.3007
  1540.7500      9.1569     91.0163      7.5645    165.4267
  1541.0000      9.0314     91.1489      7.4623    166.8637
  1541.2500      8.9704     91.2913      7.3447    168.1479
  1541.5000      8.9306     91.3942      7.2124    169.7615
  1541.7500      8.8255     91.4478      7.0710    170.5953
  1542.0000      8.6222     91.4833      6.9288    171.6581
  1542.2500      8.3618     91.5523      6.7940    172.2425
  1542.5000      8.1193     91.6965      6.6734    173.1714
  1542.7500      7.9376     91.9222      6.5720    174.2004
  1543.0000      7.8060     92.1933      6.4932    176.5407
  1543.2500      7.7075     92.4535      6.4385    178.0124
  1543.5000      7.6362     92.6650      6.4066    178.2189
  1543.7500      7.5777     92.8291      6.3944    176.1884
  1544.0000      7.5018     92.9672      6.3976    169.9033
  1544.2500      7.3946     93.0837      6.4125    164.3710
  1544.5000      7.3216     93.1491      6.4382    155.9193
  1544.7500      7.3960     93.1213      6.4771    151.0395
  1545.0000      7.6307     92.9833      6.5341    145.5843
  1545.2500      7.9280     92.7584      6.6141    143.2102
  1545.5000      8.2346     92.4881      6.7204    140.7740
  1545.7500      8.5337     92.1983      6.8541    139.0336
  1546.0000      8.7528     91.8910      7.0155    135.0165
  1546.2500      8.8572     91.5627      7.2039    131.5273
  1546.5000      8.9197     91.2228      7.4158    126.8395
  1546.7500      8.9893     90.8883      7.6442    125.2845
  1547.0000      9.0716     90.5699      7.8802    126.2231
  1547.2500      9.2402     90.2642      8.1193    128.6824
  1547.5000      9.5579     89.9583      8.3656    133.6972
  1547.7500      9.9393     89.6421      8.6296    137.0858
  1548.0000     10.2400     89.3240      8.9202    141.1091
  1548.2500     10.4089     89.0413      9.2362    142.6247
  1548.5000     10.4927     88.8513      9.5650    142.9388
  1548.7500     10.6066     88.8012      9.8890    142.0799
  1549.0000     10.8468     88.8962     10.1941    139.7196
  1549.2500     11.1737     89.0931     10.4752    137.6067
