~Version Information
VERS.                      2.0: CWLS Log ASCII Standard - VERSION 2.0
WRAP.                       NO: One line per depth step
~Well Information Block
STRT.FT               655.0000: 
STOP.FT              2623.7000: 
STEP.FT                 0.1000: 
NULL.                -999.2500: 
COMP.          Pioneer Natural Resources: COMPANY
WELL.             Aviator 12-4: WELL
FLD.           Purgatoire River: FIELD
LOC.           1969' FNL & 732' FWL--: LOCATION
CNTY.               Las Animas: COUNTY
SRVC.                Patterson: SERVICE COMPANY
DATE.          Mon Apr 10 07:35:20 2006: LOG DATE
UWI.           05 071 08714 00: UNIQUE WELL ID
STAT.                 Colorado: STATE
~Curve Information Block
DEPT.FT            0 000 00 00: Depth
DCAL.in                       : CDL Caliper
RHOB.g/cc                     : CDL Bulk Density
RHOC.g/cc                     : CDL Density Correction
DPOR.pu                       : CDL Density Porosity
NPOR.pu                       : Neutron Porosity
GR.GAPI                       : Gamma Ray
~Parameter Information Block
~A  Depth       DCAL        RHOB        RHOC        DPOR        NPOR         GR     
# ...
  2594.2000      7.7825      2.5932      0.1117      3.4433     18.7277   -999.2500
  2594.3000      7.7830      2.5720      0.0928      4.7268     19.1318   -999.2500
  2594.4000      7.7830      2.5419      0.0549      6.5494     19.0820   -999.2500
  2594.5000      7.7854      2.5271      0.0528      7.4479     18.5701   -999.2500
  2594.6000      7.7854      2.5320      0.0340      7.1513     18.1134   -999.2500
  2594.7000      7.7854      2.5443      0.0948      6.4091     17.9177   -999.2500
  2594.8000      7.7867      2.5491      0.0545      6.1181     17.5268   -999.2500
  2594.9000      7.7867      2.5460      0.0573      6.3032     17.2461   -999.2500
  2595.0000      7.7853      2.5426      0.0485      6.5066     17.2769   -999.2500
  2595.1000      7.7853      2.5417      0.0588      6.5635     17.1657   -999.2500
  2595.2000      7.7853      2.5420      0.0734      6.5471     17.1002   -999.2500
  2595.3000      7.7833      2.5444      0.0426      6.3988     17.3238   -999.2500
  2595.4000      7.7833      2.5517      0.0274      5.9579     17.3291   -999.2500
  2595.5000      7.7833      2.5547      0.0933      5.7754     17.1731   -999.2500
  2595.6000      7.7833      2.5427      0.0298      6.5041     17.3973   -999.2500
  2595.7000      7.7833      2.5233      0.0308      7.6793     17.5698   -999.2500
  2595.8000      7.7853      2.5046      0.0604      8.8095     17.4123   -999.2500
  2595.9000      7.7853      2.4919      0.0296      9.5844     17.2730   -999.2500
  2596.0000      7.7869      2.4946      0.0254      9.4182     17.1744   -999.2500
  2596.1000      7.7869      2.5100      0.0597      8.4848     17.2587   -999.2500
  2596.2000      7.7869      2.5291     -0.0035      7.3258     17.7807   -999.2500
  2596.3000      7.7853      2.5491      0.0655      6.1180     18.5102   -999.2500
  2596.4000      7.7853      2.5612      0.0638      5.3847     19.1367   -999.2500
  2596.5000      7.7831      2.5617      0.0616      5.3506     19.4456   -999.2500
  2596.6000      7.7831      2.5584      0.0335      5.5497     18.9626   -999.2500
  2596.7000      7.7831      2.5570      0.0487      5.6392     17.9069   -999.2500
  2596.8000      7.7821      2.5589      0.0507      5.5211     17.7134   -999.2500
  2596.9000      7.7821      2.5693      0.0506      4.8932     20.7705   -999.2500
  2597.0000      7.7809      2.5915      0.0836      3.5463     29.9348   -999.2500
  2597.1000      7.7809      2.6124      0.1049      2.2770     42.8519   -999.2500
  2597.2000      7.7809      2.6085      0.1204      2.5125     51.4706   -999.2500
  2597.3000      7.7820      2.5783      0.0563      4.3450     54.4283   -999.2500
  2597.4000      7.7820      2.5471      0.0648      6.2359     54.9954   -999.2500
  2597.5000      7.7847      2.5329      0.0210      7.0997     55.0550   -999.2500
  2597.6000      7.7847      2.5353      0.0514      6.9545     55.0584   -999.2500
  2597.7000      7.7847      2.5512      0.0343      5.9859   -999.2500   -999.2500
  2597.8000      7.7854      2.5740      0.1068      4.6044   -999.2500   -999.2500
  2597.9000      7.7854      2.5827      0.0950      4.0772   -999.2500   -999.2500
  2598.0000      7.7859      2.5639      0.0842      5.2161   -999.2500   -999.2500
  2598.1000      7.7859      2.5339      0.0225      7.0340   -999.2500   -999.2500
  2598.2000      7.7859      2.5202      0.0515      7.8695   -999.2500   -999.2500
  2598.3000      7.7872      2.5307      0.0388      7.2274   -999.2500   -999.2500
  2598.4000      7.7872      2.5522      0.0833      5.9282   -999.2500   -999.2500
  2598.5000      7.7864      2.5598      0.0757      5.4663   -999.2500   -999.2500
  2598.6000      7.7864      2.5447      0.0488      6.3832   -999.2500   -999.2500
  2598.7000      7.7864      2.5276      0.0073      7.4181   -999.2500   -999.2500
  2598.8000      7.7848      2.5302      0.0079      7.2608   -999.2500   -999.2500
  2598.9000      7.7848      2.5431      0.0562      6.4811   -999.2500   -999.2500
  2599.0000      7.7859      2.5465      0.0817      6.2753   -999.2500   -999.2500
  2599.1000      7.7859      2.5460      0.0580      6.3033   -999.2500   -999.2500
  2599.2000      7.7859      2.5523      0.0659      5.9232   -999.2500   -999.2500
  2599.3000      7.7874      2.5530      0.0776      5.8790   -999.2500   -999.2500
  2599.4000      7.7874      2.5369      0.0732      6.8546   -999.2500   -999.2500
  2599.5000      7.7874      2.5199      0.0328      7.8857   -999.2500   -999.2500
  2599.6000      7.7874      2.5266      0.0256      7.4765   -999.2500   -999.2500
  2599.7000      7.7874      2.5572      0.0987      5.6257   -999.2500   -999.2500
  2599.8000      7.7867      2.5876      0.1078      3.7797   -999.2500   -999.2500
  2599.9000      7.7867      2.5998      0.1195      3.0425   -999.2500   -999.2500
  2600.0000      7.7845      2.5921      0.0875      3.5111   -999.2500   -999.2500
  2600.1000      7.7845      2.5766      0.0752      4.4491   -999.2500   -999.2500
  2600.2000      7.7845      2.5711      0.0690      4.7788   -999.2500   -999.2500
  2600.3000      7.7799      2.5803      0.0597      4.2215   -999.2500   -999.2500
  2600.4000      7.7799      2.5913      0.0969      3.5592   -999.2500   -999.2500
  2600.5000      7.7711      2.5960      0.0576      3.2735   -999.2500   -999.2500
  2600.6000      7.7711      2.6022      0.0860      2.8979   -999.2500   -999.2500
  2600.7000      7.7711      2.6152      0.0713      2.1072   -999.2500   -999.2500
  2600.8000      7.7610      2.6304      0.0776      1.1853   -999.2500   -999.2500
  2600.9000      7.7610      2.6344      0.0932      0.9435   -999.2500   -999.2500
  2601.0000      7.7562      2.6226      0.0596      1.6618   -999.2500   -999.2500
  2601.1000      7.7562      2.6116      0.0779      2.3284   -999.2500   -999.2500
  2601.2000      7.7562      2.6099      0.0518      2.4318   -999.2500   -999.2500
  2601.3000      7.7563      2.5986      0.0762      3.1166   -999.2500   -999.2500
  2601.4000      7.7563      2.5697      0.0209      4.8669   -999.2500   -999.2500
  2601.5000      7.7567      2.5492     -0.0124      6.1111   -999.2500   -999.2500
  2601.6000      7.7567      2.5478      0.0640      6.1926   -999.2500   -999.2500
  2601.7000      7.7567      2.5503      0.0313      6.0406   -999.2500   -999.2500
  2601.8000      7.7569      2.5548      0.0411      5.7704   -999.2500   -999.2500
  2601.9000      7.7569      2.5592      0.0910      5.5036   -999.2500   -999.2500
  2602.0000      7.7592      2.5532      0.0537      5.8657   -999.2500   -999.2500
  2602.1000      7.7592      2.5444      0.0354      6.3989   -999.2500   -999.2500
  2602.2000      7.7592      2.5486      0.0371      6.1437   -999.2500   -999.2500
  2602.3000      7.7611      2.5681      0.0555      4.9617   -999.2500   -999.2500
  2602.4000      7.7611      2.5915      0.0704      3.5475   -999.2500   -999.2500
  2602.5000      7.7596      2.6071      0.0638      2.5987   -999.2500   -999.2500
  2602.6000      7.7596      2.6117      0.0875      2.3214   -999.2500   -999.2500
  2602.7000      7.7596      2.6032      0.0589      2.8389   -999.2500   -999.2500
  2602.8000      7.7543      2.5849      0.0323      3.9469   -999.2500   -999.2500
  2602.9000      7.7543      2.5712      0.0137      4.7783   -999.2500   -999.2500
  2603.0000      7.7499      2.5713      0.0353      4.7711   -999.2500   -999.2500
  2603.1000      7.7499      2.5804      0.0210      4.2212   -999.2500   -999.2500
  2603.2000      7.7499      2.5915      0.0468      3.5483   -999.2500   -999.2500
  2603.3000      7.7526      2.5975      0.0642      3.1802   -999.2500   -999.2500
  2603.4000      7.7526      2.5948      0.0371      3.3446   -999.2500   -999.2500
  2603.5000      7.7567      2.5823      0.0824      4.1060   -999.2500   -999.2500
  2603.6000      7.7567      2.5568      0.0626      5.6465   -999.2500   -999.2500
  2603.7000      7.7567      2.5299      0.0113      7.2765   -999.2500   -999.2500
