~Version Information
VERS.                      2.0: CWLS Log ASCII Standard - VERSION 2.0
WRAP.                       NO: One line per depth step
~Well Information Block
STRT.FT               525.0000: 
STOP.FT              2377.2500: 
STEP.FT                 0.2500: 
NULL.                -999.2500: 
COMP.          Pioneer Natural Resources: COMPANY
WELL.          Sparrowhawk 22-12: WELL
FLD.           Purgatoire River: FIELD
LOC.           2049' FNL & 2060' FWL--: LOCATION
CNTY.               Las Animas: COUNTY
SRVC.                Patterson: SERVICE COMPANY
DATE.          Thu Mar 23 10:52:44 2006: LOG DATE
UWI.           05 071 08484 00: UNIQUE WELL ID
STAT.                 Colorado: STATE
~Curve Information Block
DEPT.FT            0 000 00 00: Depth
SN.Ohm-m                      : IEL Short Normal
SP.mV                         : IEL Spontaneous Potential
DIR.Ohm-m                     : IEL Induction Resistivity
GR.GAPI                       : Gamma Ray
~Parameter Information Block
~A  Depth        SN          SP         DIR          GR     
# ...
  1128.0000   2000.0000   1979.0000     14.7998    118.8641
  1128.2500   2000.0000   1979.0000     14.6009    119.8582
  1128.5000   2000.0000   1979.0000     14.4504    120.4715
  1128.7500   2000.0000   1979.0000     14.3142    120.6606
  1129.0000   2000.0000   1979.0000     14.1651    120.8828
  1129.2500   2000.0000   1979.0000     13.9939    120.9475
  1129.5000   2000.0000   1979.0000     13.8104    120.9155
  1129.7500   2000.0000   1979.0000     13.6349    120.9858
  1130.0000   2000.0000   1979.0000     13.4867    121.5972
  1130.2500   2000.0000   1979.0000     13.3767    122.3197
  1130.5000   2000.0000   1979.0000     13.3080    123.1781
  1130.7500   2000.0000   1979.0000     13.2810    123.0477
  1131.0000   2000.0000   1979.0000     13.3000    121.6117
  1131.2500   2000.0000   1979.0000     13.3733    120.4301
  1131.5000   2000.0000   1979.0000     13.5066    119.5315
  1131.7500   2000.0000   1979.0000     13.6941    119.3857
  1132.0000   2000.0000   1979.0000     13.9117    117.9850
  1132.2500   2000.0000   1979.0000     14.1178    115.1966
  1132.5000   2000.0000   1979.0000     14.2627    108.3597
  1132.7500   2000.0000   1979.0000     14.3047    103.3495
  1133.0000   2000.0000   1979.0000     14.2243     98.0810
  1133.2500   2000.0000   1979.0000     14.0272     97.2521
  1133.5000   2000.0000   1979.0000     13.7339    100.4232
  1133.7500   2000.0000   1979.0000     13.3663    104.9468
  1134.0000   2000.0000   1979.0000     12.9414    113.8697
  1134.2500   2000.0000   1979.0000     12.4741    120.2824
  1134.5000   2000.0000   1979.0000     11.9827    128.9906
  1134.7500   2000.0000   1979.0000     11.4927    133.5490
  1135.0000   2000.0000   1979.0000     11.0340    138.3004
  1135.2500   2000.0000   1979.0000     10.6364    140.1951
  1135.5000   2000.0000   1979.0000     10.3225    140.9593
  1135.7500   2000.0000   1979.0000     10.1044    139.8708
  1136.0000   2000.0000   1979.0000      9.9842    136.1524
  1136.2500   2000.0000   1979.0000      9.9556    132.9556
  1136.5000   2000.0000   1979.0000     10.0071    128.2793
  1136.7500   2000.0000   1979.0000     10.1242    125.5946
  1137.0000   2000.0000   1979.0000     10.2920    122.3842
  1137.2500   2000.0000   1979.0000     10.4962    120.8469
  1137.5000   2000.0000   1979.0000     10.7239    119.5208
  1137.7500   2000.0000   1979.0000     10.9623    119.2175
  1138.0000   2000.0000   1979.0000     11.1985    119.3600
  1138.2500   2000.0000   1979.0000     11.4203    119.6948
  1138.5000   2000.0000   1979.0000     11.6178    120.2090
  1138.7500   2000.0000   1979.0000     11.7846    120.2370
  1139.0000   2000.0000   1979.0000     11.9182    119.3256
  1139.2500   2000.0000   1979.0000     12.0194    118.1377
  1139.5000   2000.0000   1979.0000     12.0925    116.2084
  1139.7500   2000.0000   1979.0000     12.1457    115.2197
  1140.0000   2000.0000   1979.0000     12.1906    114.1174
  1140.2500   2000.0000   1979.0000     12.2406    113.3264
  1140.5000   2000.0000   1979.0000     12.3073    112.0262
  1140.7500   2000.0000   1979.0000     12.3981    111.4784
  1141.0000   2000.0000   1979.0000     12.5150    111.6044
  1141.2500   2000.0000   1979.0000     12.6569    112.0590
  1141.5000   2000.0000   1979.0000     12.8239    112.3063
  1141.7500   2000.0000   1979.0000     13.0193    111.7929
  1142.0000   2000.0000   1979.0000     13.2484    110.1052
  1142.2500   2000.0000   1979.0000     13.5116    108.7219
  1142.5000   2000.0000   1979.0000     13.7964    106.8783
  1142.7500   2000.0000   1979.0000     14.0723    106.0117
  1143.0000   2000.0000   1979.0000     14.2953    105.2815
  1143.2500   2000.0000   1979.0000     14.4202    104.9958
  1143.5000   2000.0000   1979.0000     14.4172    104.4144
  1143.7500   2000.0000   1979.0000     14.2803    103.8336
  1144.0000   2000.0000   1979.0000     14.0261    103.2604
  1144.2500   2000.0000   1979.0000     13.6832    103.7988
  1144.5000   2000.0000   1979.0000     13.2821    107.0377
  1144.7500   2000.0000   1979.0000     12.8479    110.8061
  1145.0000   2000.0000   1979.0000     12.3997    117.6153
  1145.2500   2000.0000   1979.0000     11.9527    121.9528
  1145.5000   2000.0000   1979.0000     11.5218    127.0655
  1145.7500   2000.0000   1979.0000     11.1239    129.3206
  1146.0000   2000.0000   1979.0000     10.7773    130.9337
  1146.2500   2000.0000   1979.0000     10.4987    130.9370
  1146.5000   2000.0000   1979.0000     10.2993    129.7993
  1146.7500   2000.0000   1979.0000     10.1811    128.6313
  1147.0000   2000.0000   1979.0000     10.1370    126.6672
  1147.2500   2000.0000   1979.0000     10.1509    125.2301
  1147.5000   2000.0000   1979.0000     10.2004    122.7638
  1147.7500   2000.0000   1979.0000     10.2604    121.0257
  1148.0000   2000.0000   1979.0000     10.3092    118.9171
  1148.2500   2000.0000   1979.0000     10.3331    118.1985
  1148.5000   2000.0000   1979.0000     10.3279    118.1583
  1148.7500   2000.0000   1979.0000     10.2960    118.5006
  1149.0000   2000.0000   1979.0000     10.2406    119.1728
  1149.2500   2000.0000   1979.0000     10.1624    119.9847
  1149.5000   2000.0000   1979.0000     10.0619    122.7944
  1149.7500   2000.0000   1979.0000      9.9431    126.0460
  1150.0000   2000.0000   1979.0000      9.8158    132.0014
  1150.2500   2000.0000   1979.0000      9.6921    135.3472
  1150.5000   2000.0000   1979.0000      9.5809    137.2748
  1150.7500   2000.0000   1979.0000      9.4851    136.1275
  1151.0000   2000.0000   1979.0000      9.4025    131.9179
  1151.2500   2000.0000   1979.0000      9.3312    128.6586
  1151.5000   2000.0000   1979.0000      9.2720    124.9009
  1151.7500   2000.0000   1979.0000      9.2282    123.6947
  1152.0000   2000.0000   1979.0000      9.2037    123.7667
  1152.2500   2000.0000   1979.0000      9.2020    124.6424
  1152.5000   2000.0000   1979.0000      9.2287    126.3499
  1152.7500   2000.0000   1979.0000      9.2933    127.3805
  1153.0000   2000.0000   1979.0000      9.4091    128.3563
  1153.2500   2000.0000   1979.0000      9.5889    128.4133
  1153.5000   2000.0000   1979.0000      9.8423    127.2151
  1153.7500   2000.0000   1979.0000     10.1745    125.4228
  1154.0000   2000.0000   1979.0000     10.5883    121.3597
  1154.2500   2000.0000   1979.0000     11.0870    117.9519
  1154.5000   2000.0000   1979.0000     11.6747    112.1782
  1154.7500   2000.0000   1979.0000     12.3540    108.1253
  1155.0000   2000.0000   1979.0000     13.1234    102.2399
  1155.2500   2000.0000   1979.0000     13.9741     98.7299
  1155.5000   2000.0000   1979.0000     14.8885     94.3921
  1155.7500   2000.0000   1979.0000     15.8375     92.1906
  1156.0000   2000.0000   1979.0000     16.7761     89.8562
  1156.2500   2000.0000   1979.0000     17.6393     88.7330
  1156.5000   2000.0000   1979.0000     18.3458     87.2002
  1156.7500   2000.0000   1979.0000     18.8194     86.2577
  1157.0000   2000.0000   1979.0000     19.0185     85.7160
  1157.2500   2000.0000   1979.0000     18.9469     86.4988
  1157.5000   2000.0000   1979.0000     18.6372     89.6348
  1157.7500   2000.0000   1979.0000     18.1242     92.7089
  1158.0000   2000.0000   1979.0000     17.4370     98.1201
  1158.2500   2000.0000   1979.0000     16.6098    102.0479
  1158.5000   2000.0000   1979.0000     15.6930    108.1635
  1158.7500   2000.0000   1979.0000     14.7502    112.1132
  1159.0000   2000.0000   1979.0000     13.8434    117.2457
  1159.2500   2000.0000   1979.0000     13.0196    119.9525
  1159.5000   2000.0000   1979.0000     12.3051    123.1174
  1159.7500   2000.0000   1979.0000     11.7079    124.8966
  1160.0000   2000.0000   1979.0000     11.2252    127.4921
  1160.2500   2000.0000   1979.0000     10.8507    129.2875
  1160.5000   2000.0000   1979.0000     10.5793    131.8055
  1160.7500   2000.0000   1979.0000     10.4107    132.8935
  1161.0000   2000.0000   1979.0000     10.3509    132.8703
  1161.2500   2000.0000   1979.0000     10.4110    131.7917
