~Version Information
VERS.                      2.0: CWLS Log ASCII Standard - VERSION 2.0
WRAP.                       NO: One line per depth step
~Well Information Block
STRT.FT                -7.0000: 
STOP.FT              1239.2500: 
STEP.FT                 0.2500: 
NULL.                -999.2500: 
COMP.          Pioneer Natural Resources: COMPANY
WELL.              Julie 11-30: WELL
FLD.           Purgatorie River: FIELD
LOC.           672' FNL & 1052' FWL--: LOCATION
CNTY.               Las Animas: COUNTY
SRVC.          Patterson Wireline: SERVICE COMPANY
DATE.          Tue Apr 18 11:12:35 2006: LOG DATE
UWI.           05 071 08724 00: UNIQUE WELL ID
STAT.                       CO: STATE
~Curve Information Block
DEPT.FT            0 000 00 00: Depth
CCL.                          : Casing Collar Locator
TT3.usec                      : CBL 3' Travel Time
AMP3.mV                       : CBL 3' Amplitude
GR.GAPI                       : Gamma Ray
~Parameter Information Block
~A  Depth       CCL         TT3         AMP3         GR     
# ...
  1199.0000      0.0000    586.3808      5.3750     92.7660
  1199.2500      0.0000    551.9866      5.0304    101.7103
  1199.5000      0.0000    503.3355      4.7610    105.7714
  1199.7500      0.0000    459.3512      4.5834    105.2281
  1200.0000      0.0000    432.9525      4.5094    102.3289
  1200.2500      0.0000    428.1118      4.5372     99.5044
  1200.5000      0.0000    440.8291      4.6493     97.6400
  1200.7500      0.0000    462.6979      4.8108     95.9691
  1201.0000      0.0000    486.7805      4.9705     93.5228
  1201.2500      0.0000    512.5181      5.0718     90.1779
  1201.5000      0.0000    544.8097      5.0863     86.2784
  1201.7500      0.0000    587.6827      5.0457     82.0520
  1202.0000      0.0000    639.1395      5.0205     77.8617
  1202.2500      0.0000    691.4903      5.0429     74.5135
  1202.5000      0.0000    735.0862      5.0745     72.8609
  1202.7500      0.0000    762.4656      5.0841     73.1318
  1203.0000      0.0000    771.9691      5.1272     74.5167
  1203.2500      0.0000    768.5692      5.2976     75.2484
  1203.5000      0.0000    759.6200      5.6206     73.5543
  1203.7500      2.0000    748.7919      6.0335     69.1778
  1204.0000      0.0000    734.4683      6.4577     64.0914
  1204.2500      0.0000    712.8980      6.8800     61.3711
  1204.5000      0.0000    680.9611      7.3754     63.0153
  1204.7500      0.0000    637.7404      8.0355     68.5782
  1205.0000      0.0000    587.9090      8.8303     75.6715
  1205.2500      0.0000    542.4547      9.5747     81.6363
  1205.5000      0.0000    510.0713     10.1110     84.8902
  1205.7500      0.0000    487.2195     10.5008     85.1771
  1206.0000      0.0000    462.0145     10.9525     83.1441
  1206.2500      0.0000    428.6329     11.5660     79.9766
  1206.5000      0.0000    393.2769     12.2163     77.2138
  1206.7500      0.0000    365.9646     12.6763     76.1224
  1207.0000      0.0000    351.1933     12.7968     76.6105
  1207.2500      0.0000    347.3033     12.5715     76.9601
  1207.5000      0.0000    350.6817     12.0954     75.1421
  1207.7500      0.0000    358.1617     11.4975     70.6046
  1208.0000      0.0000    366.9644     10.8917     64.8659
  1208.2500      0.0000    374.6602     10.3576     60.4166
  1208.5000      0.0000    379.8498      9.9443     58.9832
  1208.7500      0.0000    382.3730      9.6813     60.5588
  1209.0000      0.0000    382.5440      9.5843     63.7948
  1209.2500      0.0000    380.2899      9.6554     67.1611
  1209.5000      0.0000    375.2271      9.8809     69.8251
  1209.7500      0.0000    367.5847     10.2258     71.6497
  1210.0000      0.0000    358.8646     10.6348     72.6025
  1210.2500      0.0000    351.3025     11.0490     72.4183
  1210.5000      0.0000    346.7055     11.4299     71.0730
  1210.7500      0.0000    346.1459     11.7624     69.4093
  1211.0000      0.0000    350.8137     12.0370     68.7304
  1211.2500      0.0000    362.6768     12.2393     69.5497
  1211.5000      0.0000    383.5902     12.3628     71.2062
  1211.7500      0.0000    413.6402     12.4208     73.0139
  1212.0000      0.0000    450.6628     12.4350     75.3056
  1212.2500      0.0000    491.4351     12.4145     78.7886
  1212.5000      0.0000    533.0308     12.3545     83.0866
  1212.7500      0.0000    573.4221     12.2525     86.5547
  1213.0000      0.0000    611.4024     12.1158     87.6910
  1213.2500      0.0000    645.6400     11.9529     86.4323
  1213.5000      0.0000    673.9111     11.7658     83.9434
  1213.7500      0.0000    694.2491     11.5537     81.3563
  1214.0000      0.0000    706.4665     11.3234     78.9410
  1214.2500      0.0000    711.2404     11.0938     76.4445
  1214.5000      0.0000    707.6938     10.8886     74.0059
  1214.7500      0.0000    692.8331     10.7205     72.5311
  1215.0000      0.0000    664.3870     10.5836     72.9671
  1215.2500      0.0000    625.5706     10.4590     75.1425
  1215.5000      0.0000    587.6674     10.3350     77.6730
  1215.7500      0.0000    566.2578     10.2211     79.3592
  1216.0000      0.0000    571.7286     10.1415     80.5068
  1216.2500      0.0000    601.3115     10.1114     82.6692
  1216.5000      0.0000    639.7277     10.1220     87.2476
  1216.7500      0.0000    668.8862     10.1471     94.2536
  1217.0000      0.0000    679.5761     10.1612    101.9445
  1217.2500      0.0000    676.1165     10.1455    107.5345
  1217.5000      0.0000    670.3740     10.0785    108.7184
  1217.7500      0.0000    670.3805      9.9289    105.0428
  1218.0000      0.0000    673.1428      9.6746     98.0438
  1218.2500      0.0000    666.8368      9.3295     90.0837
  1218.5000      0.0000    639.8841      8.9501     83.0076
  1218.7500      0.0000    591.2303      8.6008     77.8574
  1219.0000      0.0000    535.3876      8.3005     75.7033
  1219.2500      0.0000    496.3394      8.0001     78.1533
  1219.5000      0.0000    492.3574      7.6261     86.2812
  1219.7500      0.0000    523.1595      7.1511     98.8580
  1220.0000      0.0000    569.8461      6.6155    112.0899
  1220.2500      0.0000    607.9948      6.0890    121.5818
  1220.5000      0.0000    623.8123      5.6245    124.8310
  1220.7500      0.0000    620.8727      5.2462    122.1824
  1221.0000      0.0000    613.4991      4.9613    115.9821
  1221.2500      0.0000    614.2282      4.7682    109.1245
  1221.5000      0.0000    625.0801      4.6566    103.8869
  1221.7500      0.0000    637.1900      4.6069    101.3222
  1222.0000      0.0000    638.0432      4.5953    101.3624
  1222.2500      0.0000    621.3080      4.5999    103.4996
  1222.5000      0.0000    591.5270      4.6033    107.3731
  1222.7500      0.0000    559.8342      4.5956    112.6671
  1223.0000      0.0000    535.6540      4.5780    118.6020
  1223.2500      0.0000    522.1009      4.5603    123.7964
  1223.5000      0.0000    516.9875      4.5535    126.7658
  1223.7500      0.0000    515.8788      4.5619    126.5633
  1224.0000      0.0000    514.3329      4.5828    123.0168
  1224.2500      0.0000    509.2346      4.6123    116.5956
  1224.5000      0.0000    500.5717      4.6491    108.1437
  1224.7500      0.0000    493.0821      4.6932     98.2732
  1225.0000      0.0000    494.1071      4.7432     86.6007
  1225.2500      0.0000    506.1191      4.7975     71.9834
  1225.5000      0.0000    520.9429      4.8574     54.2446
  1225.7500      0.0000    524.6891      4.9232     35.6130
  1226.0000      0.0000    510.5087      4.9871     19.7215
  1226.2500      0.0000    485.6811      5.0326      8.9985
  1226.5000      0.0000    465.0422      5.0445      3.3284
  1226.7500      0.0000    457.5347      5.0192      0.9868
  1227.0000      0.0000    460.1875      4.9673      0.2323
  1227.2500      0.0000    465.1282      4.9068      0.0428
  1227.5000      0.0000    469.5540      4.8546      0.0056
  1227.7500      0.0000    475.9046      4.8195      0.0000
  1228.0000      0.0000    484.2981      4.8001   -999.2500
  1228.2500      0.0000    489.5102      4.7870   -999.2500
  1228.5000      0.0000    486.0278      4.7694   -999.2500
  1228.7500      0.0000    473.0421      4.7429   -999.2500
  1229.0000      0.0000    454.4260      4.7107   -999.2500
  1229.2500      0.0000    436.3865      4.6744   -999.2500
  1229.5000      0.0000    424.8026      4.6234   -999.2500
  1229.7500      0.0000    421.2025      4.5301   -999.2500
  1230.0000      0.0000    418.6545      4.3453   -999.2500
  1230.2500      0.0000    402.2631      3.9968   -999.2500
  1230.5000      0.0000    357.3176      3.4191   -999.2500
  1230.7500      0.0000    281.4268      2.6236   -999.2500
  1231.0000      0.0000    189.9751      1.7436   -999.2500
  1231.2500      0.0000    107.1072      0.9748   -999.2500
  1231.5000      0.0000     49.4857      0.4485   -999.2500
  1231.7500      0.0000     18.4785      0.1672   -999.2500
  1232.0000      0.0000      5.5205      0.0499   -999.2500
  1232.2500      0.0000      1.3082      0.0118   -999.2500
