~Version Information
 VERS.                                  2.0 : CWLS LAS VERSION
 WRAP.                                   NO : WRAPING MODE
 SWARE .                 MController 2.5.0N : SOFTWARE VERSION
~Well Information
 WELL.                          Yoshi 14-30 : WELL
 COMP.    Pioneer Natural Resources USA Inc : COMPANY
 FLD.                      Purgatoire River : FIELD
 LOC.                 SW/SW Sec30 T32S R65W : LOCATION
 DATE.                             02/17/06 : DATE(S) LOGGED
 SRVC.       Blanco Geological Services LLC : SERVICE COMPANY
 STAT.                             Colorado : STATE
 CNTY.                           Las Animas : COUNTY
 CTRY.                                  USA : COUNTRY
 API.                       05-071-08699-00 : API NUMBER
 STRT.FT                             350.00 : START DEPTH
 STOP.FT                            1300.00 : STOP DEPTH
 STEP.FT                               1.00 : DEPTH INCREMENT
 NULL.                                -9999 : NULL VALUE
~Curve information
 DEPTH.FT                                   :
 ROP.MIN/FT                                 :
 GAS.UNITS                                  :
~ASCII Log data
# ...
       750.0         0.43          6.4 
       751.0         0.43          6.3 
       752.0         0.43          6.0 
       753.0         0.40          5.9 
       754.0         0.40          5.7 
       755.0         0.40          5.8 
       756.0         0.40          6.2 
       757.0         0.35          6.0 
       758.0         0.27          5.8 
       759.0         0.23          5.8 
       760.0         0.37          6.0 
       761.0         0.27          5.6 
       762.0         0.27          5.7 
       763.0         0.33          6.1 
       764.0         0.30          5.5 
       765.0         0.30          5.8 
       766.0         0.27          5.7 
       767.0         0.33          5.5 
       768.0         0.28          5.4 
       769.0         0.30          5.0 
       770.0         0.37          5.0 
       771.0         3.68         10.2 
       772.0         0.30          6.7 
       773.0         0.33          6.4 
       774.0         0.30          7.2 
       775.0         0.38          9.6 
       776.0         0.33         11.0 
       777.0         0.30         10.3 
       778.0         0.30          9.7 
       779.0         0.37          9.1 
       780.0         0.37          8.9 
       781.0         0.33          8.2 
       782.0         0.43          8.0 
       783.0         0.40          7.2 
       784.0         0.30          7.4 
       785.0         0.32          7.2 
       786.0         0.30          7.4 
       787.0         0.30          7.3 
       788.0         0.33          7.4 
       789.0         0.33          7.6 
       790.0         0.30         12.5 
       791.0         0.30         16.6 
       792.0         0.33         17.0 
       793.0         0.30         17.0 
       794.0         0.30         14.4 
       795.0         0.32         13.8 
       796.0         0.30         13.1 
       797.0         0.37         11.3 
       798.0         0.33         11.0 
       799.0         0.37         10.2 
       800.0         0.40          8.2 
       801.0         3.52         22.8 
       802.0         0.30          9.8 
       803.0         0.30          9.4 
       804.0         0.30          8.8 
       805.0         0.32          8.9 
       806.0         0.27          8.5 
       807.0         0.27          8.3 
       808.0         0.23          8.9 
       809.0         0.27          9.5 
       810.0         0.23          9.0 
       811.0         0.27          9.1 
       812.0         0.20          9.1 
       813.0         0.27          8.5 
       814.0         0.27          8.1 
       815.0         0.27          8.0 
       816.0         0.23          8.1 
       817.0         0.27          8.0 
       818.0         0.28          7.9 
       819.0         0.23          8.1 
       820.0         0.27          8.4 
       821.0         0.27          8.4 
       822.0         0.27          9.4 
       823.0         0.27         10.6 
       824.0         0.27         10.5 
       825.0         0.27         10.5 
       826.0         0.27          9.8 
       827.0         0.30          9.4 
       828.0         0.27          8.2 
       829.0         0.33          7.8 
       830.0         0.30          6.7 
       831.0         4.27         33.3 
       832.0         0.33         11.5 
       833.0         0.37         11.6 
       834.0         0.33         10.1 
       835.0         0.30          9.0 
       836.0         0.27          8.7 
       837.0         0.32          8.6 
       838.0         0.27          8.5 
       839.0         0.23          8.1 
       840.0         0.27          8.1 
       841.0         0.27          8.1 
       842.0         0.27          8.3 
       843.0         0.27          8.2 
       844.0         0.27          8.1 
       845.0         0.27          8.1 
       846.0         0.27          8.1 
       847.0         0.30          8.3 
       848.0         0.27          8.6 
       849.0         0.32          8.7 
       850.0         0.30          8.6 
       851.0         0.27          9.0 
       852.0         0.30          9.5 
       853.0         0.30          9.3 
       854.0         0.30          8.8 
       855.0         0.30          8.9 
       856.0         0.27          8.9 
       857.0         0.27          9.1 
       858.0         0.30          8.9 
       859.0         0.30          8.6 
       860.0         0.35          9.2 
       861.0         3.62         18.9 
       862.0         0.43         13.2 
       863.0         0.37         12.3 
       864.0         0.57         11.3 
       865.0         0.57         10.5 
       866.0         0.53         10.3 
       867.0         0.53         10.0 
       868.0         0.58          9.4 
       869.0         0.40          9.3 
       870.0         0.40          9.5 
       871.0         0.37          9.2 
       872.0         0.40          9.2 
       873.0         0.37         10.5 
       874.0         0.37         30.2 
       875.0         0.40         61.8 
       876.0         0.38         74.9 
       877.0         0.37         78.0 
       878.0         0.37         77.6 
       879.0         0.40         76.8 
       880.0         0.43         76.8 
       881.0         0.43         75.1 
       882.0         0.47         73.1 
       883.0         0.50         70.1 
       884.0         0.48         68.3 
       885.0         0.47         67.4 
       886.0         0.43         68.3 
       887.0         0.50         68.2 
       888.0         0.50         67.5 
       889.0         0.43         63.5 
       890.0         0.47         60.5 
       891.0         3.67        213.3 
       892.0         0.40         94.8 
       893.0         0.43         89.7 
       894.0         0.47         80.7 
       895.0         0.47         77.3 
       896.0         0.53         72.7 
       897.0         0.53         70.5 
       898.0         0.58         69.1 
       899.0         0.60         68.2 
       900.0         0.60         67.1 
       901.0         0.73         67.3 
       902.0         0.67         68.1 
       903.0         0.48         68.0 
       904.0         0.33         66.6 
       905.0         0.27         66.6 
       906.0         0.27         66.8 
       907.0         0.20         67.3 
       908.0         0.23         67.3 
       909.0         0.23         67.2 
       910.0         0.23         66.7 
       911.0         0.27         66.6 
       912.0         0.23         66.4 
       913.0         0.23         65.6 
       914.0         0.33         66.4 
       915.0         0.37         66.3 
       916.0         0.35         66.4 
       917.0         0.37         66.7 
       918.0         0.40         65.5 
       919.0         0.30         61.1 
       920.0         0.33         54.9 
       921.0         3.95        263.1 
       922.0         0.67        109.2 
       923.0         0.38        109.3 
       924.0         0.33         97.6 
       925.0         0.37         88.9 
       926.0         0.57         89.6 
       927.0         0.40         86.8 
       928.0         0.30         78.0 
       929.0         0.30         77.3 
       930.0         0.33         73.1 
       931.0         0.30         70.4 
       932.0         0.33         69.7 
       933.0         0.32         61.9 
       934.0         0.30         63.9 
       935.0         0.63         81.5 
       936.0         0.37         82.6 
       937.0         0.27         78.3 
       938.0         0.27         70.2 
       939.0         0.33         68.7 
       940.0         0.33         57.7 
       941.0         1.25         70.5 
       942.0         0.53         73.3 
       943.0         0.40         73.2 
       944.0         0.40         75.1 
       945.0         0.30         96.7 
       946.0         0.33        111.0 
       947.0         0.27        116.3 
       948.0         0.33        115.5 
       949.0         0.35        108.4 
