~Version Information
VERS.                      2.0: CWLS Log ASCII Standard - VERSION 2.0
WRAP.                       NO: One line per depth step
~Well Information Block
STRT.FT               555.0000: 
STOP.FT              2322.2000: 
STEP.FT                 0.1000: 
NULL.                -999.2500: 
COMP.          Pioneer Natural Resources: COMPANY
WELL.          Fittipaldi 21-12: WELL
FLD.           Purgatoire River: FIELD
LOC.           207' FNL & 2110' FWL--: LOCATION
CNTY.               Las Animas: COUNTY
SRVC.                Patterson: SERVICE COMPANY
DATE.          Wed Mar 22 07:11:06 2006: LOG DATE
UWI.           05 071 08492 00: UNIQUE WELL ID
STAT.                 Colorado: STATE
~Curve Information Block
DEPT.FT            0 000 00 00: Depth
DCAL.in                       : CDL Caliper
RHOB.g/cc                     : CDL Bulk Density
RHOC.g/cc                     : CDL Density Correction
DPOR.pu                       : CDL Density Porosity
NPOR.pu                       : Neutron Porosity
GR.GAPI                       : Gamma Ray
~Parameter Information Block
~A  Depth       DCAL        RHOB        RHOC        DPOR        NPOR         GR     
# ...
  1947.0000      7.9415      2.4281      0.0342     13.4482     29.5445     91.4751
  1947.1000      7.9415      2.4336      0.0371     13.1161     29.4008     88.3421
  1947.2000      7.9415      2.4459      0.0236     12.3693     29.1905     81.0700
  1947.3000      7.9263      2.4662      0.0667     11.1367     28.8183     75.7348
  1947.4000      7.9263      2.4935      0.1041      9.4875     28.4538     76.4012
  1947.5000      7.9097      2.5255      0.0742      7.5467     28.3070     81.9345
  1947.6000      7.9097      2.5585      0.1255      5.5484     28.0807     87.3354
  1947.7000      7.9097      2.5790      0.1307      4.3038     27.5975     89.2828
  1947.8000      7.9031      2.5844      0.0726      3.9730     27.1604     88.6570
  1947.9000      7.9031      2.5838      0.0856      4.0135     27.0585     87.8023
  1948.0000      7.9032      2.5809      0.1011      4.1855     27.0895     87.5279
  1948.1000      7.9032      2.5809      0.0787      4.1857     26.8848     87.8411
  1948.2000      7.9032      2.5849      0.1090      3.9438     26.6854     87.2775
  1948.3000      7.9049      2.5904      0.0750      3.6106     26.9330     84.5991
  1948.4000      7.9049      2.5977      0.1149      3.1672     27.3629     81.9288
  1948.5000      7.9054      2.6002      0.0598      3.0162     27.3704     82.0991
  1948.6000      7.9054      2.5890      0.0801      3.6999     27.0369     82.2258
  1948.7000      7.9054      2.5647      0.0150      5.1719     26.8377     77.9236
  1948.8000      7.9044      2.5420      0.0019      6.5445     26.6950     73.7967
  1948.9000      7.9044      2.5372     -0.0139      6.8374     26.3981     76.3990
  1949.0000      7.9012      2.5567      0.0052      5.6515     26.1862     82.4933
  1949.1000      7.9012      2.5837      0.0675      4.0204     26.2200     84.8500
  1949.2000      7.9012      2.5908      0.0798      3.5869     26.4576     83.7394
  1949.3000      7.8951      2.5786      0.0437      4.3300     26.7413     82.1729
  1949.4000      7.8951      2.5685      0.0355      4.9407     26.7907     79.5976
  1949.5000      7.8857      2.5677      0.0606      4.9874     26.5080     76.8284
  1949.6000      7.8857      2.5658      0.0703      5.1032     26.2205     75.4701
  1949.7000      7.8857      2.5617      0.0621      5.3497     26.3240     74.6448
  1949.8000      7.8730      2.5677      0.0342      4.9876     26.9215     73.3114
  1949.9000      7.8730      2.5834      0.0510      4.0340     27.6778     71.4056
  1950.0000      7.8649      2.5877      0.0954      3.7775     28.1152     70.0230
  1950.1000      7.8649      2.5737     -0.0058      4.6265     28.2736     70.1236
  1950.2000      7.8649      2.5607      0.0586      5.4106     28.4492     72.2314
  1950.3000      7.8661      2.5515      0.0438      5.9705     28.4777     76.9382
  1950.4000      7.8661      2.5390      0.0113      6.7272     28.2438     82.3586
  1950.5000      7.8757      2.5256      0.0248      7.5379     27.9820     85.2158
  1950.6000      7.8757      2.5094      0.0238      8.5240     27.9107     83.1284
  1950.7000      7.8757      2.4904      0.0338      9.6712     28.2664     76.9299
  1950.8000      7.8941      2.4846     -0.0110     10.0270     29.0098     72.2261
  1950.9000      7.8941      2.5086      0.0117      8.5718     29.4846     72.6264
  1951.0000      7.9034      2.5503      0.0851      6.0395     29.2705     75.2209
  1951.1000      7.9034      2.5876      0.1081      3.7808     28.7254     78.5375
  1951.2000      7.9034      2.6194      0.1247      1.8574     28.1363     84.2047
  1951.3000      7.9030      2.6475      0.1303      0.1505     27.4324     88.1650
  1951.4000      7.9030      2.6697      0.1835     -1.1910     26.8151     85.2793
  1951.5000      7.9121      2.6825      0.1796     -1.9710     26.5041     80.9612
  1951.6000      7.9121      2.6833      0.1168     -2.0209     26.4925     80.4603
  1951.7000      7.9121      2.6838      0.1130     -2.0459     26.4326     80.7950
  1951.8000      7.9172      2.6975      0.1364     -2.8774     25.8772     79.1489
  1951.9000      7.9172      2.7101      0.1956     -3.6410     25.3308     76.8217
  1952.0000      7.9046      2.6953      0.1068     -2.7434     25.5615     77.3251
  1952.1000      7.9046      2.6558      0.0513     -0.3530     26.1631     79.4082
  1952.2000      7.9046      2.6203      0.0258      1.7986     26.3713     78.9173
  1952.3000      7.8886      2.6071      0.0319      2.6013     26.1380     76.6883
  1952.4000      7.8886      2.6074      0.0338      2.5833     25.8523     75.2136
  1952.5000      7.8815      2.6109     -0.0043      2.3676     25.6657     74.0206
  1952.6000      7.8815      2.6159      0.0211      2.0692     25.5297     73.8948
  1952.7000      7.8815      2.6170      0.0363      1.9978     25.5449     77.4108
  1952.8000      7.8839      2.6104      0.0366      2.3976     25.7169     82.6561
  1952.9000      7.8839      2.5986      0.0237      3.1141     25.9814     87.5158
  1953.0000      7.8929      2.5873      0.0483      3.8030     26.1890     91.4128
  1953.1000      7.8929      2.5809      0.0073      4.1867     26.2365     91.2980
  1953.2000      7.8929      2.5813      0.0318      4.1643     26.3576     88.1380
  1953.3000      7.8987      2.5850      0.0147      3.9421     26.6588     87.7589
  1953.4000      7.8987      2.5816      0.0451      4.1482     27.0293     90.9772
  1953.5000      7.8937      2.5703      0.0214      4.8295     27.4111     93.8200
  1953.6000      7.8937      2.5700      0.0165      4.8462     27.6552     92.8051
  1953.7000      7.8937      2.5876      0.0194      3.7812     27.6185     86.5513
  1953.8000      7.8837      2.6132      0.0469      2.2293     27.4186     80.1929
  1953.9000      7.8837      2.6285      0.0954      1.3047     27.3584     80.5562
  1954.0000      7.8785      2.6170      0.0461      1.9974     27.5703     85.6903
  1954.1000      7.8785      2.5875      0.0889      3.7894     27.7374     89.2770
  1954.2000      7.8785      2.5609      0.0386      5.3995     27.6310     89.6645
  1954.3000      7.8738      2.5533      0.0131      5.8615     27.4218     88.7853
  1954.4000      7.8738      2.5688      0.0607      4.9184     27.3139     87.9329
  1954.5000      7.8669      2.5968      0.0718      3.2215     27.4638     86.9460
  1954.6000      7.8669      2.6181      0.0790      1.9360     27.7275     84.4522
  1954.7000      7.8669      2.6170      0.0887      1.9986     27.5056     81.6623
  1954.8000      7.8649      2.5962      0.0762      3.2582     26.7305     81.0259
  1954.9000      7.8649      2.5786     -0.0016      4.3255     26.1830     80.9251
  1955.0000      7.8648      2.5825      0.0571      4.0937     26.1609     79.6975
  1955.1000      7.8648      2.5985      0.0631      3.1218     26.1944     77.8451
  1955.2000      7.8648      2.6203      0.0355      1.8017     26.2175     75.6382
  1955.3000      7.8651      2.6480      0.0852      0.1240     26.6116     74.4994
  1955.4000      7.8651      2.6617      0.1065     -0.7101     27.3064     74.8105
  1955.5000      7.8648      2.6461      0.0728      0.2374     27.8844     74.9352
  1955.6000      7.8648      2.6139      0.0443      2.1907     28.2409     75.2363
  1955.7000      7.8648      2.5896      0.0103      3.6611     28.3916     77.1970
  1955.8000      7.8724      2.5850      0.0052      3.9381     28.3385     80.3644
  1955.9000      7.8724      2.5972      0.0106      3.2011     27.9747     82.8848
  1956.0000      7.8957      2.6200      0.0331      1.8192     27.3777     83.7866
  1956.1000      7.8957      2.6347      0.0806      0.9257     26.8848     84.5255
  1956.2000      7.8957      2.6224      0.0445      1.6749     26.7180     86.8549
  1956.3000      7.9258      2.5931     -0.0083      3.4459     27.0162     90.2486
  1956.4000      7.9258      2.5757     -0.0087      4.5038     27.7127     94.0720
  1956.5000      7.9463      2.5854      0.0575      3.9133     28.3434     96.5380
