~Version Information
VERS.                      2.0: CWLS Log ASCII Standard - VERSION 2.0
WRAP.                       NO: One line per depth step
~Well Information Block
STRT.FT               547.0000: 
STOP.FT              1685.5000: 
STEP.FT                 0.2500: 
NULL.                -999.2500: 
COMP.          Pioneer Natural Resources: COMPANY
WELL.           Pedri 42-33 Tr: WELL
FLD.           Purgatorie River: FIELD
LOC.           1933' FNL & 662' FEL: LOCATION
PROV.                 Colorado: PROVINCE
CNTY.               Las Animas: COUNTRY
SRVC.                Patterson: SERVICE COMPANY
DATE.          Mon Dec 19 10:09:44 2005: LOG DATE
UWI.                          : UNIQUE WELL ID
~Curve Information Block
DEPT.FT            0 000 00 00: Depth
DIR.Ohm-m                     : IEL Induction Resistivity
GR.GAPI                       : Gamma Ray
~Parameter Information Block
~A  Depth       DIR          GR     
# ...
   602.7500     10.8814    128.2493
   603.0000     10.8225    126.8337
   603.2500     10.8235    125.9468
   603.5000     10.8694    123.8026
   603.7500     10.9501    121.9866
   604.0000     11.0613    119.5272
   604.2500     11.2031    118.2722
   604.5000     11.3771    116.7570
   604.7500     11.5835    115.9653
   605.0000     11.8183    115.6874
   605.2500     12.0725    116.5751
   605.5000     12.3325    119.5509
   605.7500     12.5813    122.0016
   606.0000     12.7998    125.0077
   606.2500     12.9704    126.1587
   606.5000     13.0814    126.5171
   606.7500     13.1308    125.8487
   607.0000     13.1267    123.7603
   607.2500     13.0860    122.2145
   607.5000     13.0336    120.8987
   607.7500     13.0008    121.0229
   608.0000     13.0216    122.4634
   608.2500     13.1263    124.0245
   608.5000     13.3365    127.0083
   608.7500     13.6619    129.1709
   609.0000     14.1013    132.0309
   609.2500     14.6431    133.4118
   609.5000     15.2665    134.5268
   609.7500     15.9419    134.5972
   610.0000     16.6336    133.7826
   610.2500     17.3066    132.7847
   610.5000     17.9352    130.4966
   610.7500     18.5072    127.7643
   611.0000     19.0223    120.0704
   611.2500     19.4862    112.1254
   611.5000     19.9057     97.9658
   611.7500     20.2842     89.5472
   612.0000     20.6139     82.6712
   612.2500     20.8694     82.8145
   612.5000     21.0075     87.8833
   612.7500     20.9805     91.8473
   613.0000     20.7580     95.0730
   613.2500     20.3414     95.1891
   613.5000     19.7627     94.5289
   613.7500     19.0707     94.7985
   614.0000     18.3205     96.5575
   614.2500     17.5673     98.0697
   614.5000     16.8623    100.1531
   614.7500     16.2464    101.5210
   615.0000     15.7450    104.3093
   615.2500     15.3675    107.0251
   615.5000     15.1138    112.0668
   615.7500     14.9815    115.3013
   616.0000     14.9703    118.3986
   616.2500     15.0816    118.8139
   616.5000     15.3138    117.5176
   616.7500     15.6561    116.2830
   617.0000     16.0835    115.0590
   617.2500     16.5574    114.6037
   617.5000     17.0351    113.6661
   617.7500     17.4865    112.6321
   618.0000     17.9046    110.6276
   618.2500     18.3056    109.1153
   618.5000     18.7170    106.7525
   618.7500     19.1671    105.4728
   619.0000     19.6775    105.1239
   619.2500     20.2582    106.3636
   619.5000     20.9034    109.8215
   619.7500     21.5893    112.2740
   620.0000     22.2785    115.1885
   620.2500     22.9340    116.8867
   620.5000     23.5348    120.1450
   620.7500     24.0863    122.9580
   621.0000     24.6160    127.1718
   621.2500     25.1601    129.2259
   621.5000     25.7502    130.7994
   621.7500     26.4095    131.2976
   622.0000     27.1555    132.1159
   622.2500     27.9947    132.5313
   622.5000     28.9039    131.4398
   622.7500     29.8101    128.9635
   623.0000     30.5970    123.4729
   623.2500     31.1519    119.7064
   623.5000     31.4207    114.7602
   623.7500     31.4205    111.5993
   624.0000     31.1952    106.2358
   624.2500     30.7643    102.2417
   624.5000     30.1147     96.5887
   624.7500     29.2352     93.8954
   625.0000     28.1501     92.7657
   625.2500     26.9195     94.2837
   625.5000     25.6165     99.3939
   625.7500     24.3084    103.8075
   626.0000     23.0498    110.3061
   626.2500     21.8810    113.8874
   626.5000     20.8258    117.5919
   626.7500     19.8922    118.9518
   627.0000     19.0789    119.8096
   627.2500     18.3832    120.1022
   627.5000     17.8038    121.2247
   627.7500     17.3380    123.0547
   628.0000     16.9761    127.7453
   628.2500     16.6995    131.5313
   628.5000     16.4847    135.9652
   628.7500     16.3118    136.9828
   629.0000     16.1726    135.5917
   629.2500     16.0730    133.6860
   629.5000     16.0302    130.7437
   629.7500     16.0653    128.6871
   630.0000     16.1975    124.8125
   630.2500     16.4417    121.8745
   630.5000     16.8097    118.4493
   630.7500     17.3110    117.8188
   631.0000     17.9493    120.1060
   631.2500     18.7159    123.4662
   631.5000     19.5820    129.8271
   631.7500     20.4981    133.8920
   632.0000     21.4060    137.9302
   632.2500     22.2609    138.5493
   632.5000     23.0549    136.5283
   632.7500     23.8274    134.0497
   633.0000     24.6572    130.1597
   633.2500     25.6413    127.8165
   633.5000     26.8724    124.4188
   633.7500     28.4257    122.0240
   634.0000     30.3550    118.5153
   634.2500     32.6920    116.7370
   634.5000     35.4342    115.8335
   634.7500     38.5164    116.7557
   635.0000     41.7874    120.2716
   635.2500     45.0283    123.2796
   635.5000     48.0301    126.5629
   635.7500     50.6867    126.6746
   636.0000     53.0351    122.6584
   636.2500     55.2239    117.4322
   636.5000     57.4510    107.5630
   636.7500     59.9072    101.0834
   637.0000     62.7329     93.4648
   637.2500     65.9989     90.1989
   637.5000     69.7081     87.7082
   637.7500     73.8140     87.2599
   638.0000     78.2243     87.8993
   638.2500     82.7826     88.9765
   638.5000     87.2622     90.8013
   638.7500     91.3968     91.4810
   639.0000     94.9339     91.1609
   639.2500     97.6683     90.4727
   639.5000     99.4609     89.8267
   639.7500    100.2992     89.8215
   640.0000    100.3810     89.8560
   640.2500    100.1250     89.5089
   640.5000    100.0270     88.2429
   640.7500    100.4549     87.1001
   641.0000    101.5051     85.6526
   641.2500    102.9734     85.2945
   641.5000    104.4176     85.8354
   641.7500    105.3109     86.5400
   642.0000    105.2728     87.1611
   642.2500    104.2502     86.9714
   642.5000    102.4784     85.9316
   642.7500    100.2568     85.0737
   643.0000     97.7560     84.2603
   643.2500     94.9938     84.4264
   643.5000     91.9219     85.9633
   643.7500     88.5113     87.4640
   644.0000     84.7893     89.1683
   644.2500     80.8432     89.4909
   644.5000     76.8107     89.3187
   644.7500     72.8684     89.5127
   645.0000     69.2118     90.7110
   645.2500     66.0302     91.6802
   645.5000     63.4672     92.9404
   645.7500     61.5864     94.2522
   646.0000     60.3489     98.4162
   646.2500     59.6181    102.7071
   646.5000     59.1933    110.0062
   646.7500     58.8770    114.7233
   647.0000     58.5452    121.4958
   647.2500     58.1653    125.9321
   647.5000     57.7403    131.6496
   647.7500     57.2374    133.7910
   648.0000     56.5869    133.1095
   648.2500     55.7563    130.0892
   648.5000     54.8230    122.9792
   648.7500     53.9653    117.5768
   649.0000     53.3813    110.5401
   649.2500     53.2001    107.6756
   649.5000     53.4285    106.8161
   649.7500     53.9414    107.9496
   650.0000     54.5205    110.4305
   650.2500     54.9493    111.9524
   650.5000     55.1235    114.2790
   650.7500     55.0931    116.3433
   651.0000     54.9926    120.1491
   651.2500     54.9242    122.3841
   651.5000     54.8949    123.8748
   651.7500     54.8482    123.4786
   652.0000     54.7468    121.7103
   652.2500     54.6181    120.3859
   652.5000     54.5125    118.4372
   652.7500     54.4127    116.7584
   653.0000     54.1802    112.9152
   653.2500     53.5963    109.5929
   653.5000     52.4754    104.8678
   653.7500     50.7672    102.8774
   654.0000     48.5703    102.5181
   654.2500     46.0646    103.9787
   654.5000     43.4288    108.2168
   654.7500     40.8020    112.0158
   655.0000     38.2863    118.2223
   655.2500     35.9592    122.0893
   655.5000     33.8729    126.8548
   655.7500     32.0441    129.3364
   656.0000     30.4542    132.3745
   656.2500     29.0669    134.1753
   656.5000     27.8510    136.7591
   656.7500     26.7911    138.3841
   657.0000     25.8811    140.4699
   657.2500     25.1111    141.5026
   657.5000     24.4643    142.5710
   657.7500     23.9229    143.2024
   658.0000     23.4753    144.4085
   658.2500     23.1178    145.3044
