~Version Information
VERS.                      2.0: CWLS Log ASCII Standard - VERSION 2.0
WRAP.                       NO: One line per depth step
~Well Information Block
STRT.FT                -6.5000: 
STOP.FT              1773.5000: 
STEP.FT                 0.2500: 
NULL.                -999.2500: 
COMP.          Pioneer Natural Resources: COMPANY
WELL.           Lynch 43-30 Tr: WELL
FLD.           Purgatorie River: FIELD
LOC.           1431' FSL & 296' FEL--: LOCATION
PROV.                       CO: PROVINCE
CNTY.               Las Animas: COUNTRY
SRVC.          Patterson Wireline: SERVICE COMPANY
DATE.          Tue Aug 02 09:28:21 2005: LOG DATE
UWI.           05 071 08447 00: UNIQUE WELL ID
~Curve Information Block
DEPT.FT            0 000 00 00: Depth
CCL.                          : Casing Collar Locator
TT3.usec                      : CBL 3' Travel Time
AMP3.mV                       : CBL 3' Amplitude
GR.GAPI                       : Gamma Ray
~Parameter Information Block
MINAMPL.mV              1.0000: Minimum Amplitude
~A  Depth       CCL         TT3         AMP3         GR     
# ...
  1501.0000      0.0000    377.4219     10.8523    137.4929
  1501.2500      0.0000    371.9687     10.8996    141.3710
  1501.5000      0.0000    371.3252     10.9091    142.4710
  1501.7500      0.0000    372.8225     10.8888    140.1193
  1502.0000      0.0000    374.6034     10.8439    135.7355
  1502.2500      0.0000    375.7365     10.7819    130.6007
  1502.5000      0.0000    376.0982     10.7126    125.1402
  1502.7500      0.0000    375.8677     10.6470    120.2986
  1503.0000      0.0000    375.0831     10.5971    118.0595
  1503.2500      0.0000    373.6073     10.5749    119.6108
  1503.5000      0.0000    371.5328     10.5847    123.6632
  1503.7500      0.0000    369.6151     10.6175    127.4160
  1504.0000      0.0000    369.0173     10.6573    128.9270
  1504.2500      0.0000    370.3108     10.6908    128.0877
  1504.5000      0.0000    372.8607     10.7078    125.8943
  1504.7500      0.0000    375.4091     10.6972    123.5420
  1505.0000      0.0000    377.0929     10.6539    121.9994
  1505.2500      0.0000    377.7325     10.5883    121.6393
  1505.5000      0.0000    377.3867     10.5255    121.9571
  1505.7500      0.0000    376.0280     10.4896    121.8191
  1506.0000      0.0000    373.8481     10.4882    120.2203
  1506.2500      0.0000    371.8819     10.5083    117.0996
  1506.5000      0.0000    372.2184     10.5288    113.7109
  1506.7500      0.0000    377.7254     10.5378    112.1511
  1507.0000      0.0000    391.6829     10.5385    114.1294
  1507.2500      0.0000    416.5782     10.5362    119.5912
  1507.5000      0.0000    450.9406     10.5259    126.0902
  1507.7500      0.0000    486.3607     10.4957    129.7914
  1508.0000      0.0000    509.5594     10.4396    128.0033
  1508.2500      0.0000    510.3228     10.3653    121.4276
  1508.5000      0.0000    488.9997     10.2908    113.7504
  1508.7500      0.0000    456.3604     10.2357    108.5621
  1509.0000      0.0000    426.0055     10.2109    106.7117
  1509.2500      0.0000    406.9555     10.2108    106.6819
  1509.5000      0.0000    402.9359     10.2139    106.9749
  1509.7500      0.0000    415.5483     10.1938    107.4920
  1510.0000      0.0000    443.4939     10.1357    108.8379
  1510.2500      0.0000    477.6532     10.0472    111.3509
  1510.5000      0.0000    501.7696      9.9539    115.3295
  1510.7500      0.0000    503.8307      9.8835    121.2830
  1511.0000      0.0000    487.0641      9.8531    128.9332
  1511.2500      0.0000    466.9261      9.8653    136.1809
  1511.5000      0.0000    457.5969      9.9115    140.1647
  1511.7500      0.0000    462.6583      9.9769    139.8294
  1512.0000      0.0000    476.2809     10.0460    136.8615
  1512.2500      0.0000    489.6558     10.1052    133.7469
  1512.5000      0.0000    496.2760     10.1427    131.5557
  1512.7500      0.0000    494.3988     10.1498    130.0480
  1513.0000      0.0000    487.4821     10.1256    129.1605
  1513.2500      0.0000    482.6318     10.0789    129.5638
  1513.5000      0.0000    486.1235     10.0269    131.8456
  1513.7500      0.0000    497.0987      9.9883    135.6479
  1514.0000      0.0000    505.7858      9.9766    139.8459
  1514.2500      0.0000    501.9266      9.9957    143.2596
  1514.5000      0.0000    487.1127     10.0433    144.8921
  1514.7500      0.0000    476.2334     10.1130    144.2088
  1515.0000      0.0000    484.6222     10.1934    141.9305
  1515.2500      0.0000    514.8196     10.2685    139.8387
  1515.5000      0.0000    555.9100     10.3246    138.9022
  1515.7500      0.0000    593.4538     10.3569    138.0668
  1516.0000      0.0000    619.1909     10.3700    135.5778
  1516.2500      0.0000    633.3875     10.3711    131.0891
  1516.5000      0.0000    641.1897     10.3653    125.9794
  1516.7500      0.0000    648.2678     10.3533    121.9834
  1517.0000      0.0000    658.4804     10.3348    119.8990
  1517.2500      0.0000    673.0858     10.3102    119.3125
  1517.5000      0.0000    690.9302     10.2818    119.1358
  1517.7500      0.0000    709.8062     10.2514    118.3854
  1518.0000      0.0000    727.9841     10.2207    116.7414
  1518.2500      0.0000    744.3011     10.1921    114.7028
  1518.5000      0.0000    757.1487     10.1678    113.3321
  1518.7500      0.0000    764.2444     10.1459    113.5403
  1519.0000      0.0000    763.9896     10.1176    115.1983
  1519.2500      0.0000    757.1548     10.0716    117.2061
  1519.5000      0.0000    747.2311     10.0040    118.8273
  1519.7500      0.0000    739.0654      9.9232    120.5290
  1520.0000      0.0000    736.5579      9.8435    122.9763
  1520.2500      0.0000    740.4241      9.7745    125.6238
  1520.5000      0.0000    747.3094      9.7180    126.7814
  1520.7500      0.0000    751.5628      9.6708    124.7964
  1521.0000      0.0000    749.1680      9.6277    119.0064
  1521.2500      0.0000    740.6027      9.5848    110.1818
  1521.5000      0.0000    729.6855      9.5421    100.6204
  1521.7500      0.0000    719.7105      9.5019     93.3620
  1522.0000      0.0000    710.9363      9.4666     90.4404
  1522.2500      0.0000    701.6240      9.4402     91.5625
  1522.5000      0.0000    691.2143      9.4308     94.5971
  1522.7500      0.0000    682.3750      9.4476     97.3345
  1523.0000      0.0000    679.6616      9.4882     98.7063
  1523.2500      0.0000    685.7825      9.5311     98.5736
  1523.5000      0.0000    699.0457      9.5407     96.9113
  1523.7500      0.0000    713.8839      9.4912     93.5438
  1524.0000      0.0000    723.3810      9.3866     88.5103
  1524.2500      0.0000    722.3472      9.2578     82.3481
  1524.5000      0.0000    709.9906      9.1372     75.8517
  1524.7500      0.0000    690.5927      9.0401     69.5498
  1525.0000      0.0000    671.0014      8.9705     63.5149
  1525.2500      0.0000    656.4692      8.9352     57.7392
  1525.5000      0.0000    648.3191      8.9421     52.5852
  1525.7500      0.0000    644.9164      8.9858     48.6330
  1526.0000      0.0000    644.0361      9.0420     46.0814
  1526.2500      0.0000    644.4203      9.0802     44.4932
  1526.5000      0.0000    646.1752      9.0808     43.2163
  1526.7500      0.0000    650.4959      9.0433     41.9867
  1527.0000      0.0000    658.6817      8.9830     41.1190
  1527.2500      0.0000    670.5160      8.9252     41.0967
  1527.5000      0.0000    683.3513      8.8953     41.9029
  1527.7500      0.0000    693.4330      8.9073     42.7883
  1528.0000      0.0000    698.9470      8.9530     42.8311
  1528.2500      0.0000    702.0546      9.0050     41.8034
  1528.5000      0.0000    707.6809      9.0343     40.5019
  1528.7500      0.0000    719.7154      9.0307     40.1622
  1529.0000      0.0000    737.8376      9.0061     41.4835
  1529.2500      0.0000    757.7640      8.9797     44.2289
  1529.5000      0.0000    774.4800      8.9616     47.8270
  1529.7500      0.0000    785.2978      8.9512     52.2198
  1530.0000      0.0000    790.2386      8.9501     57.8834
  1530.2500      0.0000    790.1172      8.9684     65.0801
  1530.5000      0.0000    784.6692      9.0115     73.3624
  1530.7500      0.0000    772.6243      9.0671     81.7314
  1531.0000      0.0000    753.7785      9.1103     89.1407
  1531.2500      0.0000    731.0645      9.1238     95.0431
  1531.5000      0.0000    710.1843      9.1101     99.5228
  1531.7500      0.0000    696.8073      9.0861    102.7492
  1532.0000      0.0000    693.9539      9.0691    104.4492
  1532.2500      0.0000    701.4805      9.0646    104.2226
  1532.5000      0.0000    716.5826      9.0680    102.2552
  1532.7500      0.0000    733.6729      9.0789     99.4678
  1533.0000      0.0000    743.8550      9.1107     97.2377
  1533.2500      0.0000    736.5494      9.1803     97.2299
  1533.5000      0.0000    705.5517      9.2876    100.9146
  1533.7500      0.0000    657.1102      9.4084    108.3869
  1534.0000      0.0000    611.1280      9.5021    117.5959
  1534.2500      0.0000    588.5446      9.5240    125.2035
