~Version Information
VERS.                      2.0: CWLS Log ASCII Standard - VERSION 2.0
WRAP.                       NO: One line per depth step
~Well Information Block
STRT.FT               460.0000: 
STOP.FT              2311.7000: 
STEP.FT                 0.1000: 
NULL.                -999.2500: 
COMP.          Pioneer Natural Resources: COMPANY
WELL.          McDonald 33-31 R: WELL
FLD.           Purgatoire River: FIELD
LOC.           1386' FSL & 1926' FEL: LOCATION
STAT.                 Colorado: State
CNTY.               Las Animas: COUNTY
CTRY.                      USA: Country
SECT.                       31: Section
TOWN.                      32S: Township
RANG.                      66W: Range
SRVC.                Patterson: SERVICE COMPANY
DATE.          Sat Sep 24 09:00:13 2005: LOG DATE
API.           05 071 08533 00: API
~Curve Information Block
DEPT.FT            0 000 00 00: Depth
DCAL.in                       : CDL Caliper
RHOB.g/cc                     : CDL Bulk Density
RHOC.g/cc                     : CDL Density Correction
DPOR.pu                       : CDL Density Porosity
NPOR.pu                       : Neutron Porosity
GR.GAPI                       : Gamma Ray
~Parameter Information Block
~A  Depth       DCAL        RHOB        RHOC        DPOR        NPOR         GR     
# ...
  1794.4000      7.9656      2.5846      0.0796      3.9620     19.1355     92.1638
  1794.5000      7.9630      2.6102      0.0981      2.4110     19.5220     91.5258
  1794.6000      7.9630      2.6165      0.0759      2.0295     20.0132     92.3034
  1794.7000      7.9630      2.6090      0.0580      2.4854     20.9211     94.1713
  1794.8000      7.9643      2.5948      0.0636      3.3452     22.1434     94.7749
  1794.9000      7.9643      2.5761      0.0253      4.4769     22.8947     93.5431
  1795.0000      7.9673      2.5613      0.0127      5.3786     22.6854     93.3190
  1795.1000      7.9673      2.5602      0.0091      5.4446     22.1246     97.0306
  1795.2000      7.9673      2.5662      0.0637      5.0767     22.0696    101.8983
  1795.3000      7.9729      2.5610      0.0303      5.3920     22.4715    103.3096
  1795.4000      7.9729      2.5459      0.0030      6.3069     22.7408    101.2432
  1795.5000      7.9797      2.5360     -0.0161      6.9070     23.0065     98.7405
  1795.6000      7.9797      2.5303      0.0200      7.2546     23.5341     96.3541
  1795.7000      7.9797      2.5154      0.0281      8.1596     23.8821     94.1722
  1795.8000      7.9840      2.4866      0.0151      9.9039     23.7154     95.2971
  1795.9000      7.9840      2.4462      0.0189     12.3515     23.0947     99.8322
  1796.0000      7.9853      2.3972      0.0162     15.3212     22.2592    103.6702
  1796.1000      7.9853      2.3454     -0.0186     18.4605     21.5918    104.8649
  1796.2000      7.9853      2.2900     -0.0318     21.8184     20.8410    104.6279
  1796.3000      7.9855      2.2225     -0.0208     25.9103     19.5010    106.1086
  1796.4000      7.9855      2.1491     -0.0370     30.3566     17.8319    108.1972
  1796.5000      7.9841      2.0904     -0.0474     33.9135     16.4599    104.8856
  1796.6000      7.9841      2.0557     -0.0330     36.0197     15.4902     96.4327
  1796.7000      7.9841      2.0406     -0.0187     36.9349     14.5635     89.9684
  1796.8000      7.9806      2.0478     -0.0073     36.4972     13.4228     90.0005
  1796.9000      7.9806      2.0867      0.0371     34.1369     12.1966     93.2409
  1797.0000      7.9774      2.1535      0.1240     30.0938     11.1981     92.5598
  1797.1000      7.9774      2.2310      0.1575     25.3957     10.4326     88.2357
  1797.2000      7.9774      2.3056      0.1835     20.8705      9.8901     86.6903
  1797.3000      7.9763      2.3690      0.2331     17.0316      9.8204     90.6713
  1797.4000      7.9763      2.4210      0.2223     13.8798     10.3238     97.1060
  1797.5000      7.9767      2.4699      0.1877     10.9163     11.4644    100.7627
  1797.6000      7.9767      2.5114      0.1995      8.4014     13.1656     99.4908
  1797.7000      7.9767      2.5330      0.1393      7.0911     14.8590     94.8183
  1797.8000      7.9734      2.5360      0.1016      6.9062     15.9759     90.0943
  1797.9000      7.9734      2.5302      0.0900      7.2586     16.6050     89.2139
  1798.0000      7.9643      2.5236      0.0527      7.6590     17.4473     92.1267
  1798.1000      7.9643      2.5189      0.0813      7.9460     18.5551     95.7912
  1798.2000      7.9643      2.5083      0.0518      8.5893     19.2949    100.4325
  1798.3000      7.9583      2.4922      0.0241      9.5634     19.7167    107.2889
  1798.4000      7.9583      2.4886      0.0572      9.7830     20.0547    114.1605
  1798.5000      7.9591      2.5058      0.0678      8.7406     20.0694    115.2338
  1798.6000      7.9591      2.5295      0.0776      7.3048     19.5842    108.2706
  1798.7000      7.9591      2.5354      0.1178      6.9427     18.8801    100.1322
  1798.8000      7.9655      2.5176      0.0499      8.0270     18.6066     98.5388
  1798.9000      7.9655      2.5014      0.0380      9.0054     19.0653    103.8350
  1799.0000      7.9754      2.5084      0.0722      8.5806     19.9467    109.4398
  1799.1000      7.9754      2.5248      0.1044      7.5906     20.7793    111.9720
  1799.2000      7.9754      2.5273      0.0670      7.4360     21.2433    113.8200
  1799.3000      7.9817      2.5200      0.0386      7.8788     21.3950    114.8267
  1799.4000      7.9817      2.5182      0.0583      7.9876     21.4463    113.9456
  1799.5000      7.9813      2.5269      0.0478      7.4580     21.6540    111.3379
  1799.6000      7.9813      2.5392      0.0536      6.7146     22.1580    108.9562
  1799.7000      7.9813      2.5352      0.1104      6.9584     22.5967    111.3818
  1799.8000      7.9706      2.5119      0.0350      8.3725     22.9073    117.2245
  1799.9000      7.9706      2.4928      0.0053      9.5273     23.5477    119.2183
  1800.0000      7.9490      2.4881      0.0299      9.8122     24.4128    119.0838
  1800.1000      7.9490      2.4858      0.0365      9.9511     24.8199    122.2500
  1800.2000      7.9490      2.4795      0.0200     10.3354     24.4966    124.0746
  1800.3000      7.9272      2.4754      0.0096     10.5794     24.1165    121.3090
  1800.4000      7.9272      2.4770      0.0371     10.4847     24.1804    119.1469
  1800.5000      7.9144      2.4753      0.0754     10.5886     24.4115    120.6889
  1800.6000      7.9144      2.4617      0.0654     11.4092     24.7641    124.4535
  1800.7000      7.9144      2.4426      0.0479     12.5724     25.3202    126.7003
  1800.8000      7.9098      2.4319      0.0557     13.2157     25.6202    125.7250
  1800.9000      7.9098      2.4316      0.0664     13.2359     25.3992    124.5061
  1801.0000      7.9099      2.4309      0.1029     13.2782     25.0284    126.5126
  1801.1000      7.9099      2.4286      0.1087     13.4172     24.4358    129.4533
  1801.2000      7.9099      2.4393      0.0597     12.7721     23.3713    127.9036
  1801.3000      7.9157      2.4726      0.1180     10.7533     22.3099    123.3902
  1801.4000      7.9157      2.5144      0.1618      8.2162     21.6597    119.8180
  1801.5000      7.9261      2.5455      0.1937      6.3319     21.3413    116.9171
  1801.6000      7.9261      2.5616      0.1911      5.3582     21.1148    114.0382
  1801.7000      7.9261      2.5637      0.1700      5.2313     20.8247    111.3995
  1801.8000      7.9379      2.5549      0.1272      5.7608     20.4400    108.8004
  1801.9000      7.9379      2.5509      0.0724      6.0077     19.9548    107.1557
  1802.0000      7.9499      2.5614      0.1370      5.3680     19.6806    106.4743
  1802.1000      7.9499      2.5643      0.1780      5.1928     20.0646    104.7815
  1802.2000      7.9499      2.5422      0.0790      6.5323     20.7296    103.6574
  1802.3000      7.9570      2.5142      0.0185      8.2285     20.8955    107.2069
  1802.4000      7.9570      2.5012      0.0382      9.0204     20.7194    114.0581
  1802.5000      7.9581      2.5039      0.0483      8.8547     20.6880    119.9451
  1802.6000      7.9581      2.5136      0.0324      8.2660     20.9939    123.3366
  1802.7000      7.9581      2.5215      0.0374      7.7891     21.6325    123.7634
  1802.8000      7.9559      2.5243      0.0280      7.6160     21.9410    122.4888
  1802.9000      7.9559      2.5244      0.0172      7.6135     21.4156    121.1304
  1803.0000      7.9544      2.5240      0.0557      7.6353     20.6968    118.4680
  1803.1000      7.9544      2.5252      0.0438      7.5648     20.3797    114.9225
  1803.2000      7.9544      2.5299      0.0404      7.2804     20.4262    113.2823
  1803.3000      7.9563      2.5339      0.0315      7.0393     20.6209    114.8843
  1803.4000      7.9563      2.5278      0.0653      7.4033     20.6104    119.6319
  1803.5000      7.9580      2.5080      0.0496      8.6062     20.1681    123.0628
  1803.6000      7.9580      2.4838      0.0286     10.0705     19.4492    122.4144
  1803.7000      7.9580      2.4693      0.0360     10.9520     18.8156    119.6556
  1803.8000      7.9584      2.4781      0.0268     10.4197     18.5663    114.4564
  1803.9000      7.9584      2.5189      0.0857      7.9474     18.8045    107.2204
