~Version Information
VERS.                      2.0: CWLS Log ASCII Standard - VERSION 2.0
WRAP.                       NO: One line per depth step
~Well Information Block
STRT.FT                10.0000: 
STOP.FT               743.5000: 
STEP.FT                 0.1000: 
NULL.                -999.2500: 
COMP.          Pioneer Natural Resources: COMPANY
WELL.                Mia 21-18: WELL
FLD.           Purgatorie River: FIELD
LOC.           1067' FNL & 1824' FWL: LOCATION
PROV.                 Colorado: PROVINCE
CNTY.               Las Animas: COUNTRY
SRVC.                Patterson: SERVICE COMPANY
DATE.          Tue Nov 22 15:40:03 2005: LOG DATE
UWI.           05-071-08559               : UNIQUE WELL ID
~Curve Information Block
DEPT.FT            0 000 00 00: Depth
DCAL.in                       : CDL Caliper
RHOB.g/cc                     : CDL Bulk Density
RHOC.g/cc                     : CDL Density Correction
DPOR.pu                       : CDL Density Porosity
GR.GAPI                       : Gamma Ray
NPOR.pu                       : Neutron Porosity
~Parameter Information Block
~A  Depth       DCAL        RHOB        RHOC        DPOR         GR         NPOR    
# ...
   682.0000      7.9061      2.4977      0.0469      9.2303     68.0384     24.4719
   682.1000      7.9061      2.5097      0.0628      8.5003     70.7081     24.5933
   682.2000      7.9061      2.5102      0.0258      8.4725     70.0182     24.6646
   682.3000      7.9153      2.5102      0.0254      8.4703     66.7053     24.4763
   682.4000      7.9153      2.5125      0.0498      8.3334     65.3568     24.2735
   682.5000      7.9135      2.5079      0.0482      8.6100     66.8280     24.3250
   682.6000      7.9135      2.4953      0.0201      9.3747     69.0309     24.6000
   682.7000      7.9135      2.4836      0.0131     10.0819     70.3176     24.9279
   682.8000      7.9226      2.4819      0.0194     10.1890     70.4718     24.9918
   682.9000      7.9226      2.4936     -0.0013      9.4818     71.0085     24.8111
   683.0000      7.9092      2.5085      0.0777      8.5763     72.3830     24.7340
   683.1000      7.9092      2.5108      0.0065      8.4346     72.9940     24.7845
   683.2000      7.9092      2.5087     -0.0384      8.5622     72.4423     24.7255
   683.3000      7.9124      2.5170      0.0084      8.0606     72.4775     24.5311
   683.4000      7.9124      2.5227      0.0378      7.7170     75.1178     24.3033
   683.5000      7.9022      2.5110     -0.0140      8.4269     79.3015     24.1496
   683.6000      7.9022      2.4958      0.0268      9.3463     81.1035     24.2574
   683.7000      7.9022      2.4925     -0.0073      9.5431     79.4314     24.4665
   683.8000      7.8870      2.5001      0.0175      9.0826     75.9577     24.4194
   683.9000      7.8870      2.5126      0.0118      8.3300     73.0837     24.1235
   684.0000      7.8817      2.5262      0.0240      7.5000     72.9049     23.9298
   684.1000      7.8817      2.5423      0.0252      6.5283     74.7601     24.0056
   684.2000      7.8817      2.5607      0.0185      5.4137     76.8884     24.0320
   684.3000      7.8966      2.5788      0.0430      4.3144     78.1874     23.7383
   684.4000      7.8966      2.5975     -0.0065      3.1792     78.0311     23.5083
   684.5000      7.9102      2.6118      0.0728      2.3164     77.7355     23.5734
   684.6000      7.9102      2.6113      0.0194      2.3472     78.1514     23.6199
   684.7000      7.9102      2.6044      0.0080      2.7645     77.0768     23.4422
   684.8000      7.8726      2.6122     -0.0007      2.2924     74.8090     22.9919
   684.9000      7.8726      2.6396      0.0502      0.6289     74.7272     22.5394
   685.0000      7.8673      2.6681      0.0565     -1.0974     75.3988     22.3888
   685.1000      7.8673      2.6795      0.0634     -1.7898     73.5934     22.2723
   685.2000      7.8673      2.6691      0.0477     -1.1555     71.4753     21.9005
   685.3000      7.8828      2.6447      0.0259      0.3239     71.8071     21.4698
   685.4000      7.8828      2.6299     -0.0168      1.2174     72.7390     21.1425
   685.5000      7.9264      2.6355      0.0554      0.8807     72.2865     20.9235
   685.6000      7.9264      2.6466      0.0123      0.2051     70.9578     20.7744
   685.7000      7.9264      2.6486      0.0525      0.0866     68.1772     20.5672
   685.8000      7.9643      2.6390      0.0079      0.6677     62.8190     20.3428
   685.9000      7.9643      2.6279     -0.0180      1.3373     57.9476     20.0973
   686.0000      7.9337      2.6276     -0.0314      1.3581     58.7678     19.7300
   686.1000      7.9337      2.6427     -0.0026      0.4401     63.5094     19.4408
   686.2000      7.9337      2.6639      0.0616     -0.8442     65.9728     19.4098
   686.3000      7.8976      2.6747      0.0303     -1.4958     64.9882     19.3785
   686.4000      7.8976      2.6668      0.0270     -1.0168     61.8998     19.1120
   686.5000      7.8696      2.6417      0.0216      0.5008     56.8568     18.8449
   686.6000      7.8696      2.6087     -0.0076      2.5046     52.6019     18.8612
   686.7000      7.8696      2.5757     -0.0320      4.5058     53.3607     18.9767
   686.8000      7.8962      2.5507     -0.0593      6.0171     58.4411     18.8681
   686.9000      7.8962      2.5414     -0.0093      6.5809     63.5020     18.7741
   687.0000      7.8582      2.5425     -0.0320      6.5155     65.7651     19.0774
   687.1000      7.8582      2.5393      0.0088      6.7072     65.8988     19.6201
   687.2000      7.8582      2.5227     -0.0042      7.7145     66.3399     20.0319
   687.3000      7.8958      2.5007     -0.0783      9.0488     68.8284     20.2610
   687.4000      7.8958      2.4886      0.0024      9.7834     72.5124     20.3753
   687.5000      7.8997      2.4899     -0.0100      9.7031     75.0415     20.5315
   687.6000      7.8997      2.4981     -0.0093      9.2047     75.9215     21.0253
   687.7000      7.8997      2.5025      0.0465      8.9373     76.3638     21.6551
   687.8000      7.9270      2.5024      0.0090      8.9460     77.8055     21.9202
   687.9000      7.9270      2.5140      0.0127      8.2454     79.0871     21.9373
   688.0000      7.8918      2.5404      0.0738      6.6453     78.0338     22.2114
   688.1000      7.8918      2.5615      0.0652      5.3623     75.9449     22.7109
   688.2000      7.8918      2.5654      0.0879      5.1273     74.7365     22.9730
   688.3000      7.8709      2.5615      0.0429      5.3643     76.3800     22.8399
   688.4000      7.8709      2.5621      0.0997      5.3299     79.4653     22.6122
   688.5000      7.8899      2.5681      0.0696      4.9635     79.4753     22.5855
   688.6000      7.8899      2.5764      0.0424      4.4602     77.3036     22.7203
   688.7000      7.8899      2.5800      0.0491      4.2423     76.7745     22.9415
   688.8000      7.9029      2.5732     -0.0059      4.6538     79.5211     23.4567
   688.9000      7.9029      2.5641     -0.0068      5.2072     84.0558     24.2147
   689.0000      7.8998      2.5605      0.0093      5.4262     88.0327     24.8221
   689.1000      7.8998      2.5585      0.0036      5.5425     92.3453     25.1393
   689.2000      7.8998      2.5583      0.0204      5.5590     98.0479     25.3345
   689.3000      7.9450      2.5647      0.0158      5.1678    102.8221     25.5218
   689.4000      7.9450      2.5685      0.0883      4.9420    102.7475     25.6210
   689.5000      7.9080      2.5487      0.0842      6.1382     97.8984     25.5524
   689.6000      7.9080      2.5100      0.0006      8.4819     93.0780     25.3777
   689.7000      7.9080      2.4871     -0.0401      9.8712     91.9768     25.2093
   689.8000      7.9181      2.4998     -0.0034      9.1057     94.8673     25.1789
   689.9000      7.9181      2.5321      0.0290      7.1447     98.3237     25.3008
   690.0000      7.9134      2.5581      0.0923      5.5678     98.3819     25.5050
   690.1000      7.9134      2.5675      0.0833      5.0001     96.0658     25.6587
   690.2000      7.9134      2.5676      0.0302      4.9915     93.7909     25.6214
   690.3000      7.9112      2.5660      0.0615      5.0898     92.0616     25.5816
   690.4000      7.9112      2.5611      0.0443      5.3849     91.6003     25.6346
   690.5000      7.9206      2.5491      0.0640      6.1131     91.6887     25.5057
   690.6000      7.9206      2.5306      0.0406      7.2387     90.7253     25.0977
   690.7000      7.9206      2.5183     -0.0078      7.9848     90.2796     24.5773
   690.8000      7.9264      2.5231      0.0205      7.6907     90.3159     23.9704
   690.9000      7.9264      2.5348      0.0664      6.9825     87.3470     23.1994
   691.0000      7.9309      2.5390      0.0302      6.7256     83.3423     22.5303
   691.1000      7.9309      2.5368      0.0463      6.8633     82.6605     22.4038
   691.2000      7.9309      2.5311      0.0049      7.2084     83.2159     22.7220
   691.3000      7.9288      2.5253     -0.0044      7.5566     84.0323     23.0297
   691.4000      7.9288      2.5312     -0.0030      7.2017     87.9160     23.1943
   691.5000      7.9124      2.5518      0.0676      5.9513     95.0061     23.4858
