~Version Information
VERS.                      2.0: CWLS Log ASCII Standard - VERSION 2.0
WRAP.                       NO: One line per depth step
~Well Information Block
STRT.FT               585.0000: 
STOP.FT              2277.5000: 
STEP.FT                 0.1000: 
NULL.                -999.2500: 
COMP.          Pioneer Natural Resources: COMPANY
WELL.          Interceptor 43-13 Tr: WELL
FLD.           Purgatoire River: FIELD
LOC.           2006' FSL & 438' FEL: LOCATION
PROV.                 Colorado: PROVINCE
CNTY.               Las Animas: COUNTRY
SRVC.                Patterson: SERVICE COMPANY
DATE.          Mon Oct 17 07:15:06 2005: LOG DATE
UWI.           05 071 08549 00: UNIQUE WELL ID
~Curve Information Block
DEPT.FT            0 000 00 00: Depth
DCAL.in                       : CDL Caliper
RHOB.g/cc                     : CDL Bulk Density
RHOC.g/cc                     : CDL Density Correction
DPOR.pu                       : CDL Density Porosity
GR.GAPI                       : Gamma Ray
NPOR.pu                       : Neutron Porosity
~Parameter Information Block
~A  Depth       DCAL        RHOB        RHOC        DPOR         GR         NPOR    
   585.0000      4.9628      2.4968      2.0000     -0.0031     68.0762     17.2826
   585.1000      4.9628      2.3112      2.0000     -0.0068     67.9374     16.7954
   585.2000      4.9628      2.1445      2.0000     -0.0101     65.1509     16.9247
   585.3000      4.9684      1.9915      2.0000     -0.0132     64.5003     17.4539
   585.4000      4.9684      1.8638      2.0000     -0.0157     67.1246     17.2593
   585.5000      4.9677      1.8026      2.0000     -0.0170     69.8325     16.5630
   585.6000      4.9677      1.8283      2.0000     -0.0164     70.9296     16.5036
   585.7000      4.9677      1.9073      2.0000     -0.0149     69.4929     16.9619
   585.8000      4.9692      1.9856      2.0000     -0.0133     66.2143     16.9914
   585.9000      4.9692      2.0365      2.0000     -0.0123     66.9508     16.5714
   586.0000      4.9623      2.0615      2.0000     -0.0118     72.4240     16.4421
   586.1000      4.9623      2.0655      2.0000     -0.0117     73.4723     16.6623
   586.2000      4.9623      2.0515      2.0000     -0.0120     65.9930     16.9634
   586.3000      4.9615      2.0193      2.0000     -0.0126     57.9494     17.4499
   586.4000      4.9615      1.9533      2.0000     -0.0139     55.8538     17.8499
   586.5000      4.9609      1.8409      2.0000     -0.0162     58.0455     17.7424
   586.6000      4.9609      1.6931      2.0000     -0.0191     60.4364     17.4600
   586.7000      4.9609      1.5300      2.0000     -0.0224     62.7679     17.1973
   586.8000      4.9422      1.3746      2.0000     -0.0255     66.5671     16.7710
   586.9000      4.9422      1.2457      2.0000     -0.0281     71.0428     16.6725
   587.0000      4.9325      1.1383      2.0000     -0.0303     72.1885     17.0553
   587.1000      4.9325      1.0434      2.0000     -0.0321     67.9946     17.1211
   587.2000      4.9325      0.9687      2.0000     -0.0336     64.2149     16.8857
   587.3000      4.9352      0.9123      2.0000     -0.0348     64.4002     17.0775
   587.4000      4.9352      0.8493      2.0000     -0.0360     65.4809     17.3992
   587.5000      4.9306      0.7635      2.0000     -0.0378     64.8270     17.0858
   587.6000      4.9306      0.6557      2.0000     -0.0399     63.8249     16.3954
   587.7000      4.9306      0.5218      2.0000     -0.0426     64.2630     15.8284
   587.8000      4.9080      0.3572      2.0000     -0.0459     64.9351     15.4490
   587.9000      4.9080      0.1832      2.0000     -0.0494     67.6017     15.5166
   588.0000      4.8997      0.0458      2.0000     -0.0521     74.7828     16.3030
   588.1000      4.8997     -0.0249      2.0000     -0.0535     79.4413     17.3662
   588.2000      4.8997     -0.0383      2.0000     -0.0538     74.8163     17.7510
   588.3000      4.8993     -0.0172      2.0000     -0.0534     67.9149     17.3886
   588.4000      4.8993      0.0359      2.0000     -0.0523     66.1478     17.2373
   588.5000      4.9164      0.1261      2.0000     -0.0505     65.9413     17.3144
   588.6000      4.9164      0.2401      2.0000     -0.0482     61.9245     17.0120
   588.7000      4.9164      0.3660      2.0000     -0.0457     56.7174     16.7507
   588.8000      4.9304      0.5296      2.0000     -0.0424     55.8123     16.9533
   588.9000      4.9304      0.7760      2.0000     -0.0375     60.4884     17.3664
   589.0000      4.9273      1.1223      2.0000     -0.0306     66.8764     17.6671
   589.1000      4.9273      1.5305      2.0000     -0.0224     70.2424     17.2355
   589.2000      4.9273      1.9343      2.0000     -0.0143     70.3531     15.9839
   589.3000      4.9247      2.2961      2.0000     -0.0071     71.5624     15.0853
   589.4000      4.9247      2.6173      2.0000     -0.0007     77.6802     15.3288
   589.5000      4.9445      2.8804      2.0000      0.0046     82.8098     15.9893
   589.6000      4.9445      3.0171      2.0000      0.0073     78.4012     16.0804
   589.7000      4.9445      2.9664      2.0000      0.0063     69.5416     15.6917
   589.8000      4.9596      2.7518      2.0000      0.0020     64.3575     15.2083
   589.9000      4.9596      2.4624      2.0000     -0.0038     63.1474     14.5715
   590.0000      4.9690      2.1867      2.0000     -0.0093     64.0880     13.6951
   590.1000      4.9690      1.9848      2.0000     -0.0133     65.1119     12.8469
   590.2000      4.9690      1.8985      2.0000     -0.0150     65.5473     12.7704
   590.3000      4.9660      1.9275      2.0000     -0.0145     65.9432     13.9200
   590.4000      4.9660      1.9843      2.0000     -0.0133     65.5503     15.6577
   590.5000      4.9596      1.9391      2.0000     -0.0142     66.2953     16.8047
   590.6000      4.9596      1.7268      2.0000     -0.0185     69.8479     16.6431
   590.7000      4.9596      1.3823      2.0000     -0.0254     72.3160     15.9307
   590.8000      4.9693      0.9998      2.0000     -0.0330     68.2241     16.1443
   590.9000      4.9693      0.6752      2.0000     -0.0395     59.5745     17.0663
   591.0000      4.9689      0.4728      2.0000     -0.0436     53.7599     17.6219
   591.1000      4.9689      0.4237      2.0000     -0.0446     55.1287     18.1532
   591.2000      4.9689      0.5187      2.0000     -0.0426     61.1635     19.4575
   591.3000      4.9471      0.6942      2.0000     -0.0391     63.9717     21.1185
   591.4000      4.9471      0.8771      2.0000     -0.0355     59.7722     22.1678
   591.5000      4.9300      1.0681      2.0000     -0.0317     54.8727     22.1800
   591.6000      4.9300      1.3222      2.0000     -0.0266     56.7067     21.8358
   591.7000      4.9300      1.6557      2.0000     -0.0199     61.9074     22.5599
   591.8000      4.9199      2.0472      2.0000     -0.0121     63.0455     25.1364
   591.9000      4.9199      2.4748     -0.0547     -0.0035     63.1968     28.3869
   592.0000      4.9412      2.8849      0.2992      0.0047     66.4941     30.3231
   592.1000      4.9412      3.1661      0.6585      0.0103     68.3313     30.5294
   592.2000      4.9412      3.1773      0.8565      0.0106     67.2656     29.5700
   592.3000      4.9662      2.8372      0.6014      0.0037     67.5310     27.8856
   592.4000      4.9662      2.1905      0.1815     27.8491     68.6285     26.1057
   592.5000      4.9679      1.3853     -0.3805     76.6482     66.4212     24.4704
   592.6000      4.9679      0.6389     -0.9103    121.8822     61.6167     22.4341
   592.7000      4.9679      0.1595     -1.1169    150.9394     58.7797     20.0185
   592.8000      4.9659      0.0221     -0.8685    159.2675     59.0656     17.9914
   592.9000      4.9659      0.1464     -0.5473    151.7361     59.7856     16.7915
   593.0000      4.9444      0.3843     -0.2445    137.3144     58.4926     16.6011
   593.1000      4.9444      0.5728      0.1906    125.8918     54.9664     16.6976
   593.2000      4.9444      0.5836      0.1517    125.2386     53.7662     16.0256
   593.3000      4.9086      0.4375     -0.2642    134.0900     56.9489     14.8949
   593.4000      4.9086      0.3278     -0.6143    140.7420     59.4969     14.3831
   593.5000      4.9046      0.4989     -0.7502    130.3688     59.3557     14.7201
   593.6000      4.9046      1.0526     -0.5257     96.8127     60.9200     14.8067
   593.7000      4.9046      1.7959     -0.1167     51.7632     65.4594     14.2018
   593.8000      4.9095      2.3991      0.0521     15.2064     66.4342     13.7641
   593.9000      4.9095      2.7242      0.1635     -4.4999     63.0437     13.5875
   594.0000      5.2778      2.8309      0.3047    -10.9633     63.5111     13.3905
   594.1000      5.2778      2.7771      0.2988     -7.7037     66.6523     13.5058
   594.2000      5.2778      2.5910      0.0902      3.5761     66.4021     14.2569
   594.3000      7.8349      2.3518     -0.3907     18.0716     67.4080     15.2680
   594.4000      7.8349      2.1756     -0.4863     28.7486     71.7072     15.7081
   594.5000      8.1797      2.1052     -0.5001     33.0179     71.5462     15.5312
