~Version Information
VERS.                      2.0: CWLS Log ASCII Standard - VERSION 2.0
WRAP.                       NO: One line per depth step
~Well Information Block
STRT.FT                -7.2500: 
STOP.FT              1273.5000: 
STEP.FT                 0.2500: 
NULL.                -999.2500: 
COMP.          Pioneer Natural Resources: COMPANY
WELL.            Keiko 14-6 Tr: WELL
FLD.           Purgatorie River: FIELD
LOC.           462' FSL & 1202' FWL--: LOCATION
PROV.                       CO: PROVINCE
CNTY.               Las Animas: COUNTRY
SRVC.          Patterson Wireline: SERVICE COMPANY
DATE.          Wed Jan 04 09:22:19 2006: LOG DATE
UWI.           05 071 08629 00: UNIQUE WELL ID
~Curve Information Block
DEPT.FT            0 000 00 00: Depth
CCL.                          : Casing Collar Locator
TT3.usec                      : CBL 3' Travel Time
AMP3.mV                       : CBL 3' Amplitude
GR.GAPI                       : Gamma Ray
~Parameter Information Block
~A  Depth       CCL         TT3         AMP3         GR     
# ...
  1232.2500      0.0000    341.3549      8.6584    101.0912
  1232.5000      0.0000    341.3967      8.5383    102.5707
  1232.7500      0.0000    341.4792      8.4005    102.6788
  1233.0000      0.0000    341.6751      8.2552    101.6213
  1233.2500      0.0000    342.1766      8.1087     99.4477
  1233.5000      0.0000    343.4181      7.9610     96.3387
  1233.7500      0.0000    346.0934      7.8072     93.0334
  1234.0000      0.0000    350.8092      7.6446     90.4664
  1234.2500      0.0000    357.4226      7.4799     88.8100
  1234.5000      0.0000    364.7144      7.3254     87.2825
  1234.7500      0.0000    370.9966      7.1892     85.2189
  1235.0000      0.0000    375.2241      7.0691     83.0077
  1235.2500      0.0000    377.5480      6.9520     81.7116
  1235.5000      0.0000    379.1383      6.8120     82.0013
  1235.7500      0.0000    381.9268      6.6115     83.5737
  1236.0000      0.0000    388.4970      6.3184     85.3296
  1236.2500      0.0000    400.9980      5.9461     86.0363
  1236.5000      0.0000    418.3401      5.5856     85.1475
  1236.7500      0.0000    434.1783      5.3658     83.2443
  1237.0000      0.0000    440.0472      5.3433     81.6363
  1237.2500      0.0000    432.6009      5.4470     81.2677
  1237.5000      0.0000    416.9042      5.5708     81.8239
  1237.7500      0.0000    401.5423      5.6939     82.0852
  1238.0000      0.0000    391.9972      5.8659     81.5189
  1238.2500      0.0000    389.5166      6.1023     81.3487
  1238.5000     -2.0000    394.3040      6.3465     83.4615
  1238.7500      0.0000    407.1477      6.5245     88.2235
  1239.0000      0.0000    426.6474      6.6222     93.8391
  1239.2500      0.0000    445.4749      6.7184     97.9445
  1239.5000      0.0000    452.6006      6.9219     99.5968
  1239.7500      0.0000    442.1841      7.2411     99.7579
  1240.0000      0.0000    419.2242      7.5514    100.1387
  1240.2500      0.0000    394.4637      7.7457    101.8046
  1240.5000      0.0000    375.5170      7.8667    104.7429
  1240.7500      0.0000    364.3768      8.0208    108.1678
  1241.0000      0.0000    360.3898      8.2110    110.8130
  1241.2500      0.0000    362.2317      8.3300    111.3878
  1241.5000      0.0000    367.6677      8.2880    109.4712
  1241.7500      0.0000    373.8163      8.0914    105.8719
  1242.0000      0.0000    378.5489      7.8168    101.6180
  1242.2500      0.0000    381.3123      7.5467     96.8148
  1242.5000      0.0000    382.6844      7.3275     91.1242
  1242.7500      0.0000    383.4373      7.1658     85.2504
  1243.0000      0.0000    384.0238      7.0491     81.1095
  1243.2500      0.0000    384.5623      6.9667     80.0621
  1243.5000      0.0000    385.0017      6.9130     81.4533
  1243.7500      0.0000    385.2559      6.8831     83.4320
  1244.0000      0.0000    385.2736      6.8723     84.7984
  1244.2500      0.0000    385.0612      6.8790     85.4034
  1244.5000      0.0000    384.6733      6.9041     85.2217
  1244.7500      0.0000    384.1770      6.9455     84.1087
  1245.0000      0.0000    383.6206      6.9939     82.5642
  1245.2500      0.0000    383.0384      7.0369     81.8388
  1245.5000      0.0000    382.4794      7.0667     82.6824
  1245.7500      0.0000    382.0231      7.0845     84.3068
  1246.0000      0.0000    381.7493      7.0988     85.1241
  1246.2500      0.0000    381.6734      7.1215     84.3807
  1246.5000      0.0000    381.7031      7.1646     82.6797
  1246.7500      0.0000    381.6838      7.2345     81.1096
  1247.0000      0.0000    381.5152      7.3275     80.3910
  1247.2500      0.0000    381.2326      7.4304     80.8804
  1247.5000      0.0000    380.9633      7.5274     82.9318
  1247.7500      0.0000    380.8013      7.6048     86.7318
  1248.0000      0.0000    380.7370      7.6533     91.5762
  1248.2500      0.0000    380.7059      7.6708     95.5586
  1248.5000      0.0000    380.6822      7.6621     96.5124
  1248.7500      0.0000    380.6971      7.6341     93.7635
  1249.0000      0.0000    380.7673      7.5889     89.1391
  1249.2500      0.0000    380.8361      7.5218     85.8874
  1249.5000      0.0000    380.8060      7.4286     86.1193
  1249.7500      0.0000    380.6198      7.3129     89.3902
  1250.0000      0.0000    380.2960      7.1884     93.9013
  1250.2500      0.0000    379.9026      7.0709     98.4585
  1250.5000      0.0000    379.5197      6.9688    102.8065
  1250.7500      0.0000    379.2178      6.8820    106.6293
  1251.0000      0.0000    379.0408      6.8085    109.0455
  1251.2500      0.0000    378.9936      6.7492    109.2067
  1251.5000      0.0000    379.0460      6.7051    107.0867
  1251.7500      0.0000    379.1550      6.6753    103.6817
  1252.0000      0.0000    379.2850      6.6592    100.6075
  1252.2500      0.0000    379.4151      6.6593     99.3038
  1252.5000      0.0000    379.5305      6.6796    100.2564
  1252.7500      0.0000    379.6073      6.7207    102.7569
  1253.0000      0.0000    379.6112      6.7773    105.3887
  1253.2500      0.0000    379.5178      6.8404    106.9688
  1253.5000      0.0000    379.3419      6.9001    107.3607
  1253.7500      0.0000    379.1469      6.9487    107.5153
  1254.0000      0.0000    379.0199      6.9827    108.4694
  1254.2500      0.0000    379.0314      7.0053    110.0903
  1254.5000      0.0000    379.2080      7.0275    111.0225
  1254.7500      0.0000    379.5239      7.0649    110.1325
  1255.0000      0.0000    379.9054      7.1297    107.7313
  1255.2500      0.0000    380.2516      7.2230    105.0005
  1255.5000      0.0000    380.4733      7.3314    102.5442
  1255.7500      0.0000    380.5002      7.4351    100.1208
  1256.0000      0.0000    380.2241      7.5219     97.6104
  1256.2500      0.0000    379.4211      7.5971     95.4705
  1256.5000      0.0000    377.8313      7.6760     94.0243
  1256.7500      0.0000    375.5245      7.7697     92.8411
  1257.0000      0.0000    373.2560      7.8762     91.1742
  1257.2500      0.0000    372.1759      7.9801     88.7074
  1257.5000      0.0000    372.8714      8.0558     85.5809
  1257.7500      0.0000    374.7886      8.0750     81.9511
  1258.0000      0.0000    376.7781      8.0223     77.9314
  1258.2500      0.0000    378.0618      7.9086     73.9239
  1258.5000      0.0000    378.5687      7.7677     70.5332
  1258.7500      0.0000    378.6133      7.6333     67.8572
  1259.0000      0.0000    378.5161      7.5178     64.9190
  1259.2500      0.0000    378.4663      7.4123     59.9813
  1259.5000      0.0000    378.5420      7.3046     51.6220
  1259.7500      0.0000    378.7458      7.1944     39.8929
  1260.0000      0.0000    379.0156      7.0939     26.7545
  1260.2500      0.0000    379.2336      7.0141     15.1237
  1260.5000      0.0000    379.2856      6.9557      7.0417
  1260.7500      0.0000    379.1404      6.9112      2.6553
  1261.0000      0.0000    378.8689      6.8739      0.8012
  1261.2500      0.0000    378.5821      6.8420      0.1914
  1261.5000      0.0000    378.3694      6.8140      0.0358
  1261.7500      0.0000    378.2956      6.7854      0.0049
  1262.0000      0.0000    378.4193      6.7508      0.0000
  1262.2500      0.0000    378.7790      6.7091   -999.2500
  1262.5000      0.0000    379.3533      6.6630   -999.2500
  1262.7500      0.0000    380.0488      6.6150   -999.2500
  1263.0000      0.0000    380.7430      6.5671   -999.2500
  1263.2500      0.0000    381.3096      6.5245   -999.2500
  1263.5000      0.0000    381.5573      6.4957   -999.2500
  1263.7500      0.0000    380.8830      6.4819   -999.2500
  1264.0000      0.0000    377.4493      6.4545   -999.2500
  1264.2500      0.0000    366.8878      6.3280   -999.2500
  1264.5000      0.0000    341.9196      5.9549   -999.2500
  1264.7500      0.0000    295.6411      5.1932   -999.2500
  1265.0000      0.0000    228.5177      4.0402   -999.2500
  1265.2500      0.0000    152.5261      2.7086   -999.2500
  1265.5000      0.0000     85.4648      1.5222   -999.2500
