~Version Information
 VERS.                                  2.0 : CWLS LAS VERSION
 WRAP.                                   NO : WRAPING MODE
 SWARE .                 MController 2.5.0J : SOFTWARE VERSION
~Well Information
 WELL.                     Montoya 18-11V B : WELL
 COMP.                 Petrogulf Corporation: COMPANY
 FLD.                      Purgatoire River : FIELD
 LOC.                NW/NW Sec 18 T33S R67W : LOCATION
 DATE.                            10/3-4/05 : DATE(S) LOGGED
 SRVC.       BLANCO Geological Services LLC : SERVICE COMPANY
 STAT.                                   CO : STATE
 CNTY.                           Las Animas : COUNTY
 CTRY.                                  USA : COUNTRY
 API.                       05-071-08539-00 : API NUMBER
 STRT.FT                              86.00 : START DEPTH
 STOP.FT                            2495.00 : STOP DEPTH
 STEP.FT                               1.00 : DEPTH INCREMENT
 NULL.                                9999 : NULL VALUE
~Curve information
 DEPTH.FT                                   :
 ROP.MIN/FT                                 :
 GAS.UNITS                                  :
~ASCII Log data 
# ...
       686.0         1.75         17.9 
       687.0         0.57         17.6 
       688.0         0.40         17.6 
       689.0       802.20         17.6 
       690.0        14.27          8.9 
       691.0         0.73          7.4 
       692.0         0.27          7.1 
       693.0         0.27          7.2 
       694.0         0.32          7.4 
       695.0         0.40          7.1 
       696.0         0.20          7.1 
       697.0         0.37          7.1 
       698.0         0.27          7.2 
       699.0         0.23          7.0 
       700.0         0.32          7.0 
       701.0         0.30          7.1 
       702.0         0.20          6.9 
       703.0         0.28          7.1 
       704.0         0.23          6.8 
       705.0         0.43          6.9 
       706.0         0.23          6.7 
       707.0         0.27          6.6 
       708.0         0.23          7.2 
       709.0         0.25          6.7 
       710.0         0.20          6.7 
       711.0         0.20          6.5 
       712.0         0.33          6.9 
       713.0         0.37          7.1 
       714.0         0.30          6.6 
       715.0         0.32          7.0 
       716.0         0.30          7.1 
       717.0         0.27          7.1 
       718.0         1.88          7.0 
       719.0         0.30          6.6 
       720.0         0.27          6.7 
       721.0         0.23          6.7 
       722.0         0.27          6.5 
       723.0         0.23          6.4 
       724.0         0.25          6.7 
       725.0         0.20          6.3 
       726.0         0.20          6.3 
       727.0         0.20          4.1 
       728.0         0.13          3.8 
       729.0         0.17          4.1 
       730.0         0.13          4.3 
       731.0         0.13          4.3 
       732.0         0.10          4.1 
       733.0         0.10          4.3 
       734.0         0.10          3.9 
       735.0         0.10          4.0 
       736.0         0.10          4.1 
       737.0         0.12          4.3 
       738.0         0.17          4.6 
       739.0         0.17          4.4 
       740.0         0.17          4.6 
       741.0         0.20          4.5 
       742.0         0.27          4.7 
       743.0         0.17         34.8 
       744.0         0.17        103.2 
       745.0         0.18        146.3 
       746.0         0.23        147.5 
       747.0         0.20        112.7 
       748.0         1.52         67.4 
       749.0         0.20          1.9 
       750.0         0.23          1.6 
       751.0         0.23          1.7 
       752.0         0.23          1.7 
       753.0         0.18          1.4 
       754.0         0.13          1.4 
       755.0         0.13          2.0 
       756.0         0.20          1.9 
       757.0         0.30          2.1 
       758.0         0.23          2.4 
       759.0         0.17          2.1 
       760.0         0.23          2.4 
       761.0         0.17          2.9 
       762.0         0.20          2.8 
       763.0         0.20          3.2 
       764.0         0.20          3.2 
       765.0         0.17          3.2 
       766.0         0.22          3.4 
       767.0         0.23          4.0 
       768.0         0.20          4.3 
       769.0         0.20          4.5 
       770.0         0.27          4.5 
       771.0         0.17          4.4 
       772.0         0.20          4.8 
       773.0         0.20          4.8 
       774.0         0.10          4.8 
       775.0         0.17          4.7 
       776.0         0.17          5.0 
       777.0         0.20          5.8 
       778.0         1.12          5.5 
       779.0         0.23          5.2 
       780.0         0.20          5.0 
       781.0         0.10          5.2 
       782.0         0.13          5.1 
       783.0         0.13          4.9 
       784.0         0.10          4.8 
       785.0         0.17          5.0 
       786.0         0.23          5.2 
       787.0         0.23          5.1 
       788.0         0.20          4.9 
       789.0         0.20          4.7 
       790.0         0.13          5.2 
       791.0         0.13          4.8 
       792.0         0.13          5.0 
       793.0         0.20          5.3 
       794.0         0.20          5.2 
       795.0         0.27          5.1 
       796.0         0.17          5.0 
       797.0         0.18          5.5 
       798.0         0.17          5.0 
       799.0         0.23          5.3 
       800.0         0.17          5.2 
       801.0         0.23          5.5 
       802.0         0.23          5.4 
       803.0         0.23          5.7 
       804.0         0.20          5.7 
       805.0         0.23          5.3 
       806.0         0.27          5.4 
       807.0         0.40          5.4 
       808.0         1.58          5.5 
       809.0         0.20          5.5 
       810.0         0.30          5.7 
       811.0         0.30          5.2 
       812.0         0.20          4.4 
       813.0         0.30          4.4 
       814.0         0.27          4.1 
       815.0         0.22          4.0 
       816.0         0.23          4.0 
       817.0         0.23          4.3 
       818.0         0.23          4.2 
       819.0         0.23          4.6 
       820.0         0.30          4.4 
       821.0         0.23          4.2 
       822.0         0.33          4.2 
       823.0         0.20          4.4 
       824.0         0.27          4.2 
       825.0         0.35          4.6 
       826.0         0.23          4.9 
       827.0         0.20          4.8 
       828.0         0.23          4.6 
       829.0         0.23          5.1 
       830.0         0.17          5.0 
       831.0         0.20          4.9 
       832.0         0.20          4.9 
       833.0         0.20          4.3 
       834.0         0.20          4.7 
       835.0         0.20          4.4 
       836.0         0.23          4.3 
       837.0         0.20          4.3 
       838.0         1.18          4.6 
       839.0         0.27          4.4 
       840.0         0.23          4.0 
       841.0         0.27          4.3 
       842.0         0.13          4.3 
       843.0         0.27          4.7 
       844.0         0.23          4.4 
       845.0         0.27          4.8 
       846.0         0.28          4.9 
       847.0         0.37          4.9 
       848.0         0.40          4.8 
       849.0         0.27          5.6 
       850.0         0.20          6.2 
       851.0         0.23          6.6 
       852.0         0.20          5.9 
       853.0         0.20          6.0 
       854.0         0.20          5.4 
       855.0         0.20          5.4 
       856.0         0.17          4.9 
       857.0         0.15          5.0 
       858.0         0.07          4.9 
       859.0         0.13          4.9 
       860.0         0.07          4.7 
       861.0         0.13          4.5 
       862.0         0.13          4.6 
       863.0         0.17          4.5 
       864.0         0.23          4.8 
       865.0         0.17          4.6 
       866.0         0.20          4.3 
       867.0         0.17          4.4 
       868.0         1.42          4.4 
       869.0         0.20          4.3 
       870.0         0.27          4.0 
       871.0         0.30          4.3 
       872.0         0.27          4.5 
       873.0         0.23          4.7 
       874.0         0.23          4.4 
       875.0         0.27          4.4 
       876.0         0.27          4.6 
       877.0         0.23          4.3 
       878.0         0.23          4.4 
       879.0         0.17          4.2 
       880.0         0.13          4.4 
       881.0         0.20          4.3 
       882.0         0.20          4.6 
       883.0         0.22          4.8 
       884.0         0.20          5.0 
       885.0         0.20          5.0 
