~Version Information
VERS.                      2.0: CWLS Log ASCII Standard - VERSION 2.0
WRAP.                       NO: One line per depth step
~Well Information Block
STRT.FT               970.0000: 
STOP.FT              1882.0000: 
STEP.FT                 0.2500: 
NULL.                -999.2500: 
COMP.          Petrogulf Corporation: COMPANY
WELL.             Norton 9-14R: WELL
FLD.           Purgatorie River: FIELD
LOC.           725' FSL & 1103' FWL: LOCATION
PROV.                 Colorado: PROVINCE
CNTY.               Las Animas: COUNTRY
SRVC.                Patterson: SERVICE COMPANY
DATE.          Thu Oct 06 16:10:47 2005: LOG DATE
UWI.                          : UNIQUE WELL ID
~Curve Information Block
DEPT.FT            0 000 00 00: Depth
SP.mV                         : DIL Spontaneous Potential
RILD.Ohm-m                    : DIL Deep Resistivity
RILM.Ohm-m                    : DIL Medium Resistivity
RLL3.Ohm-m                    : DIL Shallow Resistivity
GR.GAPI                       : Gamma Ray
~Parameter Information Block
~A  Depth        SP         RILD        RILM        RLL3         GR     
# ...
  1810.0000     99.5782      8.9240      9.1560      9.9852    134.9413
  1810.2500     99.0684      9.0672      9.3174     10.2545    131.9756
  1810.5000     98.5634      9.2472      9.5020     10.4497    129.5413
  1810.7500     98.0636      9.4663      9.7144     10.6274    128.8280
  1811.0000     97.5699      9.7240      9.9595     10.8536    127.5960
  1811.2500     97.0870     10.0176     10.2419     11.1578    126.1341
  1811.5000     96.6247     10.3436     10.5649     11.5213    123.1150
  1811.7500     96.1971     10.6996     10.9309     11.9131    121.0675
  1812.0000     95.8191     11.0853     11.3411     12.3371    119.0105
  1812.2500     95.5061     11.5030     11.7963     12.8382    118.4898
  1812.5000     95.2747     11.9555     12.2982     13.4642    117.8475
  1812.7500     95.1441     12.4448     12.8502     14.2389    116.5282
  1813.0000     95.1351     12.9696     13.4586     15.1778    112.5766
  1813.2500     95.2663     13.5259     14.1322     16.2990    109.0256
  1813.5000     95.5468     14.1079     14.8816     17.5899    103.4661
  1813.7500     95.9696     14.7079     15.7160     18.9610    100.1352
  1814.0000     96.5103     15.3153     16.6395     20.2634     96.0125
  1814.2500     97.1361     15.9131     17.6446     21.4144     93.5761
  1814.5000     97.8190     16.4753     18.7048     22.5822     89.4284
  1814.7500     98.5433     16.9660     19.7666     24.2575     85.8349
  1815.0000     99.3065     17.3432     20.7439     27.0369     78.9792
  1815.2500    100.1187     17.5670     21.5213     31.1579     73.6992
  1815.5000    100.9983     17.6120     21.9730     36.0940     65.4692
  1815.7500    101.9618     17.4778     21.9999     40.5461     60.2178
  1816.0000    103.0116     17.1913     21.5698     42.9126     53.4805
  1816.2500    104.1334     16.7984     20.7378     42.0407     50.2550
  1816.5000    105.3041     16.3500     19.6294     37.8661     48.1890
  1816.7500    106.4998     15.8888     18.3968     31.5074     49.2521
  1817.0000    107.6946     15.4436     17.1752     24.6737     55.5904
  1817.2500    108.8562     15.0299     16.0593     18.8080     63.1823
  1817.5000    109.9521     14.6530     15.1004     14.5988     78.4476
  1817.7500    110.9678     14.3124     14.3165     12.0518     89.9154
  1818.0000    111.9204     14.0060     13.7044     10.8215    106.7884
  1818.2500    112.8513     13.7323     13.2506     10.4750    116.4775
  1818.5000    113.7988     13.4922     12.9388     10.6177    126.0743
  1818.7500    114.7730     13.2897     12.7533     10.9497    128.0924
  1819.0000    115.7519     13.1320     12.6817     11.3177    125.0758
  1819.2500    116.6983     13.0297     12.7145     11.7592    120.7166
  1819.5000    117.5791     12.9953     12.8437     12.4803    113.8161
  1819.7500    118.3711     13.0400     13.0616     13.7097    109.8904
  1820.0000    119.0579     13.1710     13.3592     15.4678    104.6243
  1820.2500    119.6344     13.3895     13.7260     17.4289    100.6839
  1820.5000    120.1146     13.6913     14.1506     19.0440     92.9407
  1820.7500    120.5257     14.0684     14.6225     19.8822     86.4979
  1821.0000    120.8867     14.5114     15.1336     19.9052     75.8410
  1821.2500    121.1931     15.0096     15.6794     19.4492     68.7996
  1821.5000    121.4264     15.5503     16.2577     18.9651     59.3923
  1821.7500    121.5766     16.1157     16.8665     18.7568     54.3907
  1822.0000    121.6533     16.6812     17.5011     18.8869     49.2212
  1822.2500    121.6747     17.2156     18.1516     19.2435     47.0767
  1822.5000    121.6514     17.6856     18.8025     19.6633     44.7345
  1822.7500    121.5813     18.0646     19.4342     20.0202     43.2453
  1823.0000    121.4578     18.3398     20.0254     20.2595     41.0678
  1823.2500    121.2808     18.5131     20.5554     20.3969     39.9698
  1823.5000    121.0667     18.5944     21.0052     20.4979     39.3369
  1823.7500    120.8508     18.5937     21.3570     20.6436     39.5245
  1824.0000    120.6766     18.5167     21.5930     20.8934     39.9172
  1824.2500    120.5753     18.3672     21.6950     21.2604     39.7284
  1824.5000    120.5547     18.1522     21.6460     21.7116     38.6838
  1824.7500    120.6105     17.8854     21.4347     22.1884     37.9544
  1825.0000    120.7487     17.5878     21.0605     22.6227     37.6511
  1825.2500    120.9947     17.2836     20.5389     22.9271     38.0857
  1825.5000    121.3794     16.9952     19.9022     22.9813     39.4173
  1825.7500    121.9163     16.7372     19.1960     22.6496     40.6622
  1826.0000    122.5932     16.5144     18.4712     21.8251     43.2024
  1826.2500    123.3866     16.3213     17.7764     20.4869     45.4944
  1826.5000    124.2785     16.1460     17.1500     18.7660     50.1943
  1826.7500    125.2527     15.9757     16.6171     16.9770     54.5090
  1827.0000    126.2718     15.8006     16.1882     15.5364     63.0638
  1827.2500    127.2661     15.6176     15.8615     14.7686     69.6750
  1827.5000    128.1585     15.4314     15.6259     14.7402     78.9068
  1827.7500    128.9062     15.2534     15.4650     15.2469     83.4367
  1828.0000    129.5210     15.1001     15.3621     15.9294     87.3529
  1828.2500    130.0447     14.9891     15.3040     16.4198     88.7608
  1828.5000    130.5010     14.9365     15.2846     16.4735     90.6137
  1828.7500    130.8666     14.9542     15.3053     16.0692     91.9960
  1829.0000    131.0929     15.0495     15.3744     15.4151     93.5536
  1829.2500    131.1573     15.2245     15.5044     14.8178     93.4639
  1829.5000    131.0921     15.4749     15.7088     14.5040     90.5124
  1829.7500    130.9638     15.7903     15.9998     14.5483     86.3935
  1830.0000    130.8289     16.1547     16.3863     14.9341     77.6045
  1830.2500    130.7158     16.5505     16.8716     15.6287     71.1203
  1830.5000    130.6409     16.9609     17.4529     16.5845     62.8663
  1830.7500    130.6307     17.3699     18.1197     17.7145     59.0975
  1831.0000    130.7202     17.7599     18.8530     18.9250     55.3130
  1831.2500    130.9354     18.1081     19.6233     20.1774     52.9851
  1831.5000    131.2858     18.3856     20.3890     21.4635     48.6952
  1831.7500    131.7727     18.5607     21.0940     22.6934     45.3882
  1832.0000    132.3958     18.6034     21.6664     23.6763     40.4613
  1832.2500    133.1460     18.4912     22.0201     24.3054     37.5739
  1832.5000    133.9942     18.2150     22.0662     24.7529     34.2389
  1832.7500    134.8890     17.7827     21.7347     25.3868     32.7132
  1833.0000    135.7679     17.2187     21.0037     26.4142     31.1334
  1833.2500    136.5763     16.5581     19.9201     27.5586     30.3062
  1833.5000    137.2886     15.8393     18.5938     28.0545     29.4297
  1833.7500    137.9133     15.0971     17.1650     27.0355     29.5327
  1834.0000    138.4765     14.3598     15.7632     24.1381     32.1857
  1834.2500    138.9953     13.6477     14.4802     19.8868     36.6679
  1834.5000    139.4659     12.9738     13.3635     15.4589     48.7808
  1834.7500    139.8737     12.3451     12.4240     11.9641     60.4913
  1835.0000    140.2113     11.7643     11.6498      9.8644     81.9959
  1835.2500    140.4872     11.2313     11.0175      8.9568     97.2539
  1835.5000    140.7220     10.7454     10.5011      8.7429    117.8573
  1835.7500    140.9434     10.3062     10.0771      8.7772    128.1480
  1836.0000    141.1806      9.9152      9.7268      8.8084    136.8566
  1836.2500    141.4548      9.5761      9.4374      8.7636    138.6059
  1836.5000    141.7698      9.2927      9.2004      8.6739    137.4504
  1836.7500    142.1196      9.0674      9.0102      8.6002    135.5701
  1837.0000    142.5052      8.8989      8.8623      8.5830    132.5328
  1837.2500    142.9353      8.7821      8.7523      8.6259    130.7918
  1837.5000    143.3976      8.7094      8.6754      8.7044    129.2760
  1837.7500    143.8320      8.6720      8.6260      8.7847    129.1746
