~Version Information
VERS.                      2.0: CWLS Log ASCII Standard - VERSION 2.0
WRAP.                       NO: One line per depth step
~Well Information Block
STRT.FT               240.0000: 
STOP.FT              1338.7000: 
STEP.FT                 0.1000: 
NULL.                -999.2500: 
COMP.          Pioneer Natural Resources: COMPANY
WELL.            Hamburg 43-35: WELL
FLD.           Purgatoire River: FIELD
LOC.           2444' FSL & 950' FEL--: LOCATION
PROV.                 Colorado: PROVINCE
CNTY.               Las Animas: COUNTRY
SRVC.                Patterson: SERVICE COMPANY
DATE.          Sun Dec 04 11:50:58 2005: LOG DATE
UWI.           05 071 08607 00: UNIQUE WELL ID
~Curve Information Block
DEPT.FT            0 000 00 00: Depth
DCAL.in                       : CDL Caliper
RHOB.g/cc                     : CDL Bulk Density
RHOC.g/cc                     : CDL Density Correction
DPOR.pu                       : CDL Density Porosity
NPOR.pu                       : Neutron Porosity
GR.GAPI                       : Gamma Ray
~Parameter Information Block
~A  Depth       DCAL        RHOB        RHOC        DPOR        NPOR         GR     
# ...
   950.4000      7.8982      2.6116      0.0966      2.3256     21.6987    122.3016
   950.5000      7.9073      2.6025      0.1078      2.8788     21.6684    126.0859
   950.6000      7.9073      2.5803      0.0413      4.2219     21.2726    128.2325
   950.7000      7.9073      2.5601      0.0394      5.4496     20.9532    128.8871
   950.8000      7.9274      2.5455      0.0250      6.3333     20.8985    129.2645
   950.9000      7.9274      2.5308      0.0080      7.2234     20.7877    131.3220
   951.0000      7.9422      2.5195      0.0095      7.9118     20.7105    133.4254
   951.1000      7.9422      2.5157     -0.0213      8.1391     21.0554    132.2002
   951.2000      7.9422      2.5188     -0.0238      7.9523     21.6124    127.8413
   951.3000      7.9461      2.5182      0.0247      7.9864     21.8701    122.7961
   951.4000      7.9461      2.5076     -0.0250      8.6281     21.6459    118.8794
   951.5000      7.9420      2.5030     -0.0215      8.9095     21.0608    116.7922
   951.6000      7.9420      2.5150     -0.0074      8.1811     20.3187    115.0941
   951.7000      7.9420      2.5318      0.0447      7.1638     19.6792    111.8128
   951.8000      7.9357      2.5394      0.0216      6.7009     19.3880    107.2500
   951.9000      7.9357      2.5361      0.0042      6.9030     19.3107    101.5577
   952.0000      7.9349      2.5282      0.0096      7.3841     19.2965     95.2917
   952.1000      7.9349      2.5240     -0.0085      7.6373     19.5768     90.8838
   952.2000      7.9349      2.5244      0.0352      7.6110     20.0684     88.4346
   952.3000      7.9426      2.5201      0.0084      7.8752     20.3823     87.6992
   952.4000      7.9426      2.5049      0.0231      8.7910     20.3884     89.0899
   952.5000      7.9532      2.4868      0.0121      9.8884     20.0631     91.2372
   952.6000      7.9532      2.4815     -0.0121     10.2150     19.4678     96.0377
   952.7000      7.9532      2.4893      0.0352      9.7388     18.8288    105.8164
   952.8000      7.9521      2.4918      0.0665      9.5886     18.4188    115.2864
   952.9000      7.9521      2.4806      0.0425     10.2666     18.2935    117.0149
   953.0000      7.9304      2.4657      0.0656     11.1722     18.2490    111.6434
   953.1000      7.9304      2.4624      0.0066     11.3681     18.1531    105.0734
   953.2000      7.9304      2.4822      0.0742     10.1684     17.9711    101.6412
   953.3000      7.9053      2.5148      0.1032      8.1948     17.8153    102.4309
   953.4000      7.9053      2.5395      0.1257      6.6986     17.8437    106.3657
   953.5000      7.8929      2.5546      0.1051      5.7814     17.8394    108.6169
   953.6000      7.8929      2.5725      0.1249      4.6948     17.6448    103.6774
   953.7000      7.8929      2.5940      0.1295      3.3968     17.5739     95.4553
   953.8000      7.8902      2.6044      0.1442      2.7641     17.7445     90.1496
   953.9000      7.8902      2.6014      0.0818      2.9426     17.8335     86.5586
   954.0000      7.8881      2.6033      0.0608      2.8307     17.6981     82.4605
   954.1000      7.8881      2.6139      0.1110      2.1879     17.3619     77.5845
   954.2000      7.8881      2.6160      0.1072      2.0607     17.0017     72.1954
   954.3000      7.8862      2.6012      0.0800      2.9570     16.9016     69.1191
   954.4000      7.8862      2.5802      0.0644      4.2289     16.8849     72.0304
   954.5000      7.8879      2.5689      0.0353      4.9174     16.8602     76.7890
   954.6000      7.8879      2.5723      0.0521      4.7086     17.2272     74.6696
   954.7000      7.8879      2.5849      0.0395      3.9475     17.9441     68.4120
   954.8000      7.8950      2.6043      0.0475      2.7675     18.3476     65.7659
   954.9000      7.8950      2.6216      0.0877      1.7225     18.0509     67.5597
   955.0000      7.9134      2.6203      0.0632      1.8002     17.3323     71.9381
   955.1000      7.9134      2.6030      0.0643      2.8466     16.6961     77.0981
   955.2000      7.9134      2.5823      0.0379      4.1052     16.3343     81.2881
   955.3000      7.9370      2.5602      0.0843      5.4397     16.1122     83.2841
   955.4000      7.9370      2.5412      0.0048      6.5968     15.9287     84.2226
   955.5000      7.9525      2.5414      0.0121      6.5789     15.9054     87.6974
   955.6000      7.9525      2.5662      0.0208      5.0789     16.0732     94.3026
   955.7000      7.9525      2.6001      0.0652      3.0233     16.1906     97.3588
   955.8000      7.9583      2.6206      0.0663      1.7827     16.0388     92.8672
   955.9000      7.9583      2.6188      0.0618      1.8912     15.7646     87.7353
   956.0000      7.9663      2.6041      0.0793      2.7803     15.6861     87.7834
   956.1000      7.9663      2.5884      0.0382      3.7320     15.8239     86.9042
   956.2000      7.9663      2.5794      0.0076      4.2813     15.9944     78.7115
   956.3000      7.9767      2.5749      0.0509      4.5506     16.2657     68.7601
   956.4000      7.9767      2.5731      0.0133      4.6631     16.6583     64.1368
   956.5000      7.9754      2.5813      0.0255      4.1665     16.9413     63.1114
   956.6000      7.9754      2.5991      0.0328      3.0878     17.1090     62.4965
   956.7000      7.9754      2.6158      0.0573      2.0697     17.4057     64.4954
   956.8000      7.9657      2.6183      0.0659      1.9196     17.9669     69.0229
   956.9000      7.9657      2.6028      0.0707      2.8596     18.6467     71.4046
   957.0000      7.9591      2.5862      0.0173      3.8638     19.1330     69.5263
   957.1000      7.9591      2.5833      0.0511      4.0408     19.4688     66.5013
   957.2000      7.9591      2.5901      0.0088      3.6328     19.8603     67.3086
   957.3000      7.9534      2.5982      0.0459      3.1394     20.2845     71.6541
   957.4000      7.9534      2.5946      0.0567      3.3590     20.7600     74.7257
   957.5000      7.9454      2.5814      0.0013      4.1565     21.3516     73.9754
   957.6000      7.9454      2.5828      0.0198      4.0703     21.9414     73.1688
   957.7000      7.9454      2.5981      0.0620      3.1479     22.3681     75.7596
   957.8000      7.9380      2.6064      0.0396      2.6424     22.7149     79.4623
   957.9000      7.9380      2.6058      0.0510      2.6773     23.1349     82.7422
   958.0000      7.9392      2.5992      0.0699      3.0806     23.5495     86.0085
   958.1000      7.9392      2.5828      0.0513      4.0720     23.8767     87.1601
   958.2000      7.9392      2.5543      0.0501      5.8021     24.0603     88.0174
   958.3000      7.9467      2.5177      0.0156      8.0170     24.2497     92.9703
   958.4000      7.9467      2.4889     -0.0171      9.7638     24.6951    103.0010
   958.5000      7.9507      2.4834     -0.0002     10.0973     25.2018    116.7635
   958.6000      7.9507      2.5026      0.0163      8.9315     25.4830    128.2152
   958.7000      7.9507      2.5273      0.0467      7.4371     25.6257    132.6827
   958.8000      7.9498      2.5342      0.0728      7.0183     25.9364    132.9087
   958.9000      7.9498      2.5299      0.0247      7.2761     26.6485    133.5038
   959.0000      7.9514      2.5347      0.0760      6.9899     27.6274    138.5101
   959.1000      7.9514      2.5458      0.0844      6.3127     28.2943    148.1121
   959.2000      7.9514      2.5515      0.0880      5.9692     28.4260    157.8484
   959.3000      7.9560      2.5477      0.0736      6.2005     28.2817    162.0145
   959.4000      7.9560      2.5422      0.0303      6.5307     28.0465    160.9553
   959.5000      7.9604      2.5478      0.0399      6.1968     28.0790    162.5250
   959.6000      7.9604      2.5580      0.0893      5.5769     28.3964    167.6953
   959.7000      7.9604      2.5604      0.0555      5.4285     28.3756    167.6906
   959.8000      7.9649      2.5608      0.0412      5.4060     27.7438    163.2577
   959.9000      7.9649      2.5662      0.0620      5.0798     26.7818    163.9957
