~Version Information
 VERS.                                  2.0 : CWLS LAS VERSION
 WRAP.                                   NO : WRAPING MODE
 SWARE .                 MController 2.5.0N : SOFTWARE VERSION
~Well Information
 WELL.                 Flying Horse 12-11Tr : WELL
 COMP.    Pioneer Natural Resources USA Inc : COMPANY
 FLD.                      Purgatoire River : FIELD
 LOC.                 SW/NW SEC11 T32S R66W : LOCATION
 DATE.                             09/03/05 : DATE(S) LOGGED
 SRVC.       Blanco Geological Services LLC : SERVICE COMPANY
 STAT.                             Colorado : STATE
 CNTY.                           Las Animas : COUNTY
 CTRY.                                 USA : COUNTRY
 API.                       05-071-08485-00 : API NUMBER
 STRT.FT                             565.00 : START DEPTH
 STOP.FT                            1978.00 : STOP DEPTH
 STEP.FT                               1.00 : DEPTH INCREMENT
 NULL.                                -9999 : NULL VALUE
~Curve information
 DEPTH.FT                                   :
 ROP.MIN/FT                                 :
 GAS.UNITS                                  :
~ASCII Log data
# ...
      1565.0         0.23        465.2 
      1566.0         0.27        489.4 
      1567.0         0.17        489.4 
      1568.0         0.17        516.4 
      1569.0         0.20        516.4 
      1570.0         0.17        537.4 
      1571.0         0.13        537.4 
      1572.0         0.13        552.2 
      1573.0         0.27        572.8 
      1574.0         0.17        593.1 
      1575.0         0.13        586.0 
      1576.0         0.23        564.8 
      1577.0         0.13        564.8 
      1578.0         0.17        560.3 
      1579.0         0.23        548.3 
      1580.0         0.23        536.4 
      1581.0         0.32        455.5 
      1582.0         0.27        440.0 
      1583.0         0.23        173.7 
      1584.0         0.33        152.8 
      1585.0         0.37        210.7 
      1586.0         1.80        472.8 
      1587.0         0.07        441.3 
      1588.0         0.15        408.5 
      1589.0         0.33        361.6 
      1590.0         0.30        355.4 
      1591.0         0.13        304.3 
      1592.0         0.27        298.6 
      1593.0         0.33        313.1 
      1594.0         0.30        311.9 
      1595.0         0.27        305.7 
      1596.0         0.33        304.4 
      1597.0         0.27        283.7 
      1598.0         0.27        280.8 
      1599.0         0.23        268.9 
      1600.0         0.28        259.9 
      1601.0         0.20        255.3 
      1602.0         0.23        254.8 
      1603.0         0.23        249.8 
      1604.0         0.20        246.4 
      1605.0         0.27        245.4 
      1606.0         0.27        241.8 
      1607.0         0.27        254.5 
      1608.0         0.27        252.6 
      1609.0         0.30        244.3 
      1610.0         0.27        245.4 
      1611.0         0.27        257.2 
      1612.0         0.33        249.0 
      1613.0         0.35        229.1 
      1614.0         0.30        176.4 
      1615.0         0.30        175.5 
      1616.0         1.77        965.3 
      1617.0         0.98        960.5 
      1618.0         0.33        753.9 
      1619.0         0.23        716.6 
      1620.0         0.30        732.3 
      1621.0         0.27        751.4 
      1622.0         0.20        760.4 
      1623.0         0.23        756.8 
      1624.0         0.23        727.5 
      1625.0         0.37        676.6 
      1626.0         0.27        687.2 
      1627.0         0.20        687.5 
      1628.0         0.20        721.7 
      1629.0         0.20        744.6 
      1630.0         0.15        769.7 
      1631.0         0.13        769.7 
      1632.0         0.30        795.2 
      1633.0         0.20        808.1 
      1634.0         0.17        808.1 
      1635.0         0.30        874.8 
      1636.0         0.27        878.3 
      1637.0         0.30        893.2 
      1638.0         0.30        859.0 
      1639.0         0.27        852.2 
      1640.0         0.33        763.9 
      1641.0         0.30        729.1 
      1642.0         0.33        541.2 
      1643.0         0.38        520.6 
      1644.0         0.37        596.0 
      1645.0         0.83        910.9 
      1646.0         3.55       1178.7 
      1647.0         0.70       1113.6 
      1648.0         0.98       1120.7 
      1649.0         0.40       1008.2 
      1650.0         0.50        892.5 
      1651.0         0.47        774.6 
      1652.0         0.50        721.7 
      1653.0         0.47        674.3 
      1654.0         0.27        707.5 
      1655.0         0.20        734.3 
      1656.0         0.20        742.3 
      1657.0         0.23        764.9 
      1658.0         0.28        766.2 
      1659.0         0.23        732.0 
      1660.0         0.27        652.7 
      1661.0         0.27        510.9 
      1662.0         0.33        440.0 
      1663.0         0.30        149.6 
      1664.0         0.37        153.6 
      1665.0         1.27        346.5 
      1666.0         0.38        360.7 
      1667.0         0.27        380.4 
      1668.0         0.30        372.8 
      1669.0         0.23        361.0 
      1670.0         0.27        351.4 
      1671.0         0.43        336.3 
      1672.0         0.27        306.6 
      1673.0         0.27        249.7 
      1674.0         0.33        195.0 
      1675.0         0.27        192.9 
      1676.0         1.92       1066.9 
      1677.0         0.33       1073.3 
      1678.0         0.20       1066.5 
      1679.0         0.30        975.7 
      1680.0         0.43        868.0 
      1681.0         0.33        794.9 
      1682.0         0.35        778.1 
      1683.0         0.27        775.5 
      1684.0         0.23        758.4 
      1685.0         0.23        739.8 
      1686.0         0.27        733.6 
      1687.0         0.27        694.0 
      1688.0         0.27        683.4 
      1689.0         0.30        679.2 
      1690.0         0.40        664.0 
      1691.0         0.33        643.7 
      1692.0         0.37        639.5 
      1693.0         0.32        626.6 
      1694.0         0.30        621.8 
      1695.0         0.37        625.0 
      1696.0         0.30        621.8 
      1697.0         0.47        678.5 
      1698.0         0.30        668.2 
      1699.0         0.33        635.3 
      1700.0         0.30        593.8 
      1701.0         0.23        568.6 
      1702.0         0.30        514.8 
      1703.0         0.27        444.2 
      1704.0         0.28        172.9 
      1705.0         0.20        160.8 
      1706.0         1.77        976.0 
      1707.0         0.27       1004.7 
      1708.0         0.23        956.3 
      1709.0         0.23        894.8 
      1710.0         0.27        869.3 
      1711.0         0.28        708.8 
      1712.0         0.37        703.3 
      1713.0         0.30        654.4 
      1714.0         0.27        665.0 
      1715.0         0.27        674.3 
      1716.0         0.27        673.4 
      1717.0         0.23        673.7 
      1718.0         0.23        677.2 
      1719.0         0.20        674.3 
      1720.0         0.27        667.2 
      1721.0         0.27        660.5 
      1722.0         0.40        642.8 
      1723.0         0.75        631.8 
      1724.0         0.67        573.5 
      1725.0         0.40        570.9 
      1726.0         0.30        576.4 
      1727.0         0.33        578.3 
      1728.0         0.27        582.2 
      1729.0         0.37        598.9 
      1730.0         0.33        576.7 
      1731.0         0.38        569.0 
      1732.0         0.33        552.5 
      1733.0         0.33        522.9 
      1734.0         0.23        508.0 
      1735.0         0.33        456.2 
      1736.0         1.95        982.1 
      1737.0         0.47        974.4 
      1738.0         0.43        888.3 
      1739.0         0.43        783.6 
      1740.0         0.43        688.2 
      1741.0         0.30        656.9 
      1742.0         0.33        698.5 
      1743.0         0.27        717.5 
      1744.0         0.27        716.6 
      1745.0         0.35        724.0 
      1746.0         0.30        720.7 
      1747.0         0.37        694.0 
      1748.0         0.30        669.8 
      1749.0         0.37        644.7 
      1750.0         0.30        620.8 
      1751.0         0.30        585.1 
      1752.0         0.33        586.7 
      1753.0         0.23        609.6 
      1754.0         0.27        637.6 
      1755.0         0.30        637.3 
      1756.0         0.13        603.1 
      1757.0         0.35        565.4 
      1758.0         0.43        551.6 
      1759.0         0.30        495.5 
      1760.0         0.23        445.8 
      1761.0         0.23        440.0 
      1762.0         0.27        184.2 
      1763.0         0.23        187.0 
      1764.0         0.23        206.6 
