~Version Information
VERS.                      2.0: CWLS Log ASCII Standard - VERSION 2.0
WRAP.                       NO: One line per depth step
~Well Information Block
STRT.FT                -7.7500: 
STOP.FT              1519.0000: 
STEP.FT                 0.2500: 
NULL.                -999.2500: 
COMP.          Pioneer Natural Resources: COMPANY
WELL.          Mow 8-14-33-67 Tr: WELL
FLD.           Purgatorie River: FIELD
LOC.           2258' FNL & 929' FEL--: LOCATION
CNTY.               Las Animas: COUNTY
SRVC.          Patterson Wireline: SERVICE COMPANY
DATE.          Thu Feb 02 10:06:28 2006: LOG DATE
UWI.           05 071 08684 00: UNIQUE WELL ID
STAT.                       CO: STATE
~Curve Information Block
DEPT.FT            0 000 00 00: Depth
MINMK.                        : Magnetic Mark Ticks
CCL.                          : Casing Collar Locator
TT3.usec                      : CBL 3' Travel Time
AMP3.mV                       : CBL 3' Amplitude
GR.GAPI                       : Gamma Ray
~Parameter Information Block
~A  Depth      MINMK        CCL         TT3         AMP3         GR     
# ...
  1112.2500      0.0000      0.0000    268.6432     63.1315     57.1230
  1112.5000      0.0000      0.0000    266.8554     66.8790     61.3895
  1112.7500      0.0000      0.0000    265.3496     70.8162     71.8777
  1113.0000      0.0000      0.0000    264.3867     74.5755     86.7599
  1113.2500      0.0000      0.0000    263.9122     77.6438    103.1149
  1113.5000      0.0000      0.0000    263.7301     79.6537    118.0206
  1113.7500      0.0000      0.0000    263.6730     80.6635    129.6478
  1114.0000      0.0000      0.0000    263.6518     81.0393    137.8289
  1114.2500      0.0000      0.0000    263.6339     81.1542    143.6205
  1114.5000      0.0000      0.0000    263.6146     81.2189    147.9096
  1114.7500      0.0000      0.0000    263.5978     81.2921    150.3260
  1115.0000      0.0000      0.0000    263.5874     81.3601    149.8823
  1115.2500      0.0000      0.0000    263.5828     81.4136    146.6359
  1115.5000      0.0000      0.0000    263.5809     81.4655    142.2376
  1115.7500      0.0000      0.0000    263.5802     81.5318    138.9656
  1116.0000      0.0000      0.0000    263.5813     81.6125    138.4977
  1116.2500      0.0000      0.0000    263.5852     81.6899    140.9708
  1116.5000      0.0000      0.0000    263.5911     81.7445    144.4720
  1116.7500      0.0000      0.0000    263.5975     81.7734    145.8695
  1117.0000      0.0000      0.0000    263.6040     81.7947    143.2513
  1117.2500      0.0000      0.0000    263.6111     81.8299    137.9254
  1117.5000      0.0000      0.0000    263.6205     81.8817    133.5888
  1117.7500      0.0000      0.0000    263.6327     81.9330    133.2285
  1118.0000      0.0000      0.0000    263.6468     81.9668    136.8361
  1118.2500      0.0000      0.0000    263.6592     81.9828    141.8027
  1118.5000      0.0000      0.0000    263.6661     81.9930    144.9908
  1118.7500      0.0000      0.0000    263.6660     82.0049    144.4936
  1119.0000      0.0000      0.0000    263.6612     82.0126    140.3171
  1119.2500      0.0000      0.0000    263.6565     82.0020    134.3326
  1119.5000      0.0000      0.0000    263.6557     81.9656    129.5962
  1119.7500      0.0000      0.0000    263.6600     81.9139    128.7075
  1120.0000      0.0000      0.0000    263.6686     81.8689    131.8182
  1120.2500      0.0000      0.0000    263.6804     81.8414    136.2218
  1120.5000      0.0000      0.0000    263.6945     81.8184    138.5344
  1120.7500      0.0000      0.0000    263.7098     81.7725    137.4654
  1121.0000      0.0000      0.0000    263.7253     81.6870    134.3587
  1121.2500      0.0000      0.0000    263.7392     81.5732    131.4431
  1121.5000      0.0000      0.0000    263.7490     81.4686    129.9662
  1121.7500      0.0000      0.0000    263.7518     81.4145    129.6421
  1122.0000      0.0000      0.0000    263.7467     81.4276    129.3137
  1122.2500      0.0000      0.0000    263.7361     81.4897    127.9628
  1122.5000      0.0000      0.0000    263.7246     81.5638    125.1186
  1122.7500      0.0000      0.0000    263.7172     81.6168    120.6360
  1123.0000      0.0000      0.0000    263.7167     81.6310    114.5634
  1123.2500      0.0000      0.0000    263.7234     81.6042    107.2076
  1123.5000      0.0000      0.0000    263.7355     81.5451     99.1449
  1123.7500      0.0000      0.0000    263.7504     81.4669     91.1865
  1124.0000      0.0000      0.0000    263.7655     81.3817     84.3593
  1124.2500      0.0000      0.0000    263.7788     81.3016     79.8000
  1124.5000      0.0000      0.0000    263.7888     81.2384     78.3056
  1124.7500      0.0000      0.0000    263.7961     81.1982     79.4452
  1125.0000      0.0000      0.0000    263.8024     81.1765     81.2350
  1125.2500      0.0000      0.0000    263.8090     81.1608     81.4272
  1125.5000      0.0000      0.0000    263.8152     81.1397     79.4160
  1125.7500      0.0000      0.0000    263.8186     81.1096     76.7489
  1126.0000      0.0000      0.0000    263.8163     81.0737     75.8743
  1126.2500      0.0000      0.0000    263.8086     81.0363     78.3677
  1126.5000      0.0000      0.0000    263.7986     80.9985     83.8055
  1126.7500      0.0000      0.0000    263.7913     80.9576     89.9733
  1127.0000      0.0000      0.0000    263.7900     80.9100     94.4241
  1127.2500      0.0000      0.0000    263.7945     80.8549     96.2168
  1127.5000      0.0000      0.0000    263.8019     80.7976     96.2392
  1127.7500      0.0000      0.0000    263.8093     80.7480     95.9419
  1128.0000      0.0000      0.0000    263.8155     80.7182     95.9905
  1128.2500      0.0000      0.0000    263.8213     80.7195     96.1601
  1128.5000      0.0000      0.0000    263.8269     80.7583     96.2559
  1128.7500      0.0000      0.0000    263.8314     80.8316     96.7531
  1129.0000      0.0000      0.0000    263.8328     80.9272     98.4233
  1129.2500      0.0000      0.0000    263.8296     81.0314    101.5007
  1129.5000      0.0000      0.0000    263.8214     81.1335    105.3566
  1129.7500      0.0000      0.0000    263.8086     81.2249    109.0197
  1130.0000      0.0000      0.0000    263.7921     81.3007    111.8788
  1130.2500      0.0000      0.0000    263.7744     81.3607    113.7056
  1130.5000      0.0000      0.0000    263.7591     81.4061    114.1044
  1130.7500      0.0000      0.0000    263.7504     81.4349    112.4026
  1131.0000      0.0000      0.0000    263.7505     81.4424    108.4923
  1131.2500      0.0000      0.0000    263.7589     81.4265    103.7511
  1131.5000      0.0000      0.0000    263.7721     81.3917    100.6432
  1131.7500      0.0000      0.0000    263.7861     81.3476    100.8671
  1132.0000      0.0000      0.0000    263.7975     81.3024    103.7574
  1132.2500      0.0000      0.0000    263.8047     81.2572    106.7511
  1132.5000      0.0000      0.0000    263.8082     81.2108    107.5264
  1132.7500      0.0000      0.0000    263.8097     81.1690    105.6348
  1133.0000      0.0000      0.0000    263.8104     81.1484    102.2882
  1133.2500      0.0000      0.0000    263.8100     81.1661     99.0721
  1133.5000      0.0000      0.0000    263.8080     81.2218     97.0566
  1133.7500      0.0000      0.0000    263.8047     81.2909     96.8961
  1134.0000      0.0000      0.0000    263.8015     81.3392     99.1619
  1134.2500      0.0000      0.0000    263.7988     81.3483    104.0266
  1134.5000      0.0000      0.0000    263.7959     81.3255    110.6194
  1134.7500      0.0000      0.0000    263.7920     81.2900    117.1415
  1135.0000      0.0000      0.0000    263.7865     81.2520    121.8213
  1135.2500      0.0000      0.0000    263.7797     81.2072    123.7027
  1135.5000      0.0000      0.0000    263.7728     81.1474    122.7521
  1135.7500      0.0000      0.0000    263.7675     81.0756    119.6642
  1136.0000      0.0000      0.0000    263.7650     81.0118    115.5726
  1136.2500      0.0000      0.0000    263.7646     80.9811    111.4909
  1136.5000      0.0000      0.0000    263.7639     80.9939    107.8348
  1136.7500      0.0000      0.0000    263.7609     81.0359    104.5257
  1137.0000      0.0000      0.0000    263.7555     81.0804    101.5868
  1137.2500      0.0000      0.0000    263.7492     81.1071     99.7743
  1137.5000      0.0000      0.0000    263.7441     81.1151    100.4402
  1137.7500      0.0000      0.0000    263.7416     81.1196    104.1988
  1138.0000      0.0000      0.0000    263.7412     81.1379    109.6205
  1138.2500      0.0000      0.0000    263.7418     81.1751    113.8559
  1138.5000      0.0000      0.0000    263.7420     81.2226    114.8621
  1138.7500      0.0000      0.0000    263.7407     81.2696    112.9589
  1139.0000      0.0000      0.0000    263.7371     81.3127    110.2532
  1139.2500      0.0000      0.0000    263.7321     81.3533    108.4608
  1139.5000      0.0000      0.0000    263.7275     81.3892    107.1509
  1139.7500      0.0000      0.0000    263.7256     81.4126    104.2830
  1140.0000      0.0000      0.0000    263.7274     81.4137     98.4421
