~Version Information
VERS.                      2.0: CWLS Log ASCII Standard - VERSION 2.0
WRAP.                       NO: One line per depth step
~Well Information Block
STRT.FT                -6.5000: 
STOP.FT              1636.7500: 
STEP.FT                 0.2500: 
NULL.                -999.2500: 
COMP.          Pioneer Natural Resources: COMPANY
WELL.          Stock Canyon 34-33: WELL
FLD.           Purgatorie River: FIELD
LOC.           980' FSL & 2191' FEL--: LOCATION
PROV.                       CO: PROVINCE
CNTY.               Las Animas: COUNTRY
SRVC.          Patterson Wireline: SERVICE COMPANY
DATE.          Mon Dec 12 09:29:49 2005: LOG DATE
UWI.           05 071 08601 00: UNIQUE WELL ID
~Curve Information Block
DEPT.FT            0 000 00 00: Depth
CCL.                          : Casing Collar Locator
TT3.usec                      : CBL 3' Travel Time
AMP3.mV                       : CBL 3' Amplitude
GR.GAPI                       : Gamma Ray
~Parameter Information Block
~A  Depth       CCL         TT3         AMP3         GR     
# ...
  1400.5000      0.0000    283.6806     54.0588     61.7182
  1400.7500      0.0000    281.4573     55.9968     61.5691
  1401.0000      0.0000    278.9949     59.4198     61.9056
  1401.2500      0.0000    277.1695     63.7337     63.5602
  1401.5000      0.0000    276.5254     67.8089     66.3125
  1401.7500      0.0000    276.8388     70.7365     69.2530
  1402.0000      0.0000    277.4599     72.3384     71.6541
  1402.2500      0.0000    277.9257     73.0187     73.2055
  1402.5000      0.0000    278.1499     73.2731     73.6604
  1402.7500      0.0000    278.2278     73.3857     72.7095
  1403.0000      0.0000    278.2473     73.4443     70.3056
  1403.2500      0.0000    278.2464     73.4624     66.8544
  1403.5000      0.0000    278.2357     73.4427     63.0673
  1403.7500      0.0000    278.2179     73.3859     59.8325
  1404.0000      0.0000    278.1972     73.2993     58.1808
  1404.2500      0.0000    278.1778     73.2054     58.9009
  1404.5000      0.0000    278.1636     73.1338     61.8710
  1404.7500      0.0000    278.1572     73.1012     65.8282
  1405.0000      0.0000    278.1598     73.1009     68.9569
  1405.2500      0.0000    278.1713     73.1110     69.8572
  1405.5000      0.0000    278.1901     73.1095     68.1971
  1405.7500      0.0000    278.2134     73.0893     64.7248
  1406.0000      0.0000    278.2375     73.0608     60.7420
  1406.2500      0.0000    278.2582     73.0405     57.2600
  1406.5000      0.0000    278.2719     73.0347     54.3254
  1406.7500      0.0000    278.2766     73.0343     51.1975
  1407.0000      0.0000    278.2723     73.0240     47.2178
  1407.2500      0.0000    278.2617     72.9988     42.3572
  1407.5000      0.0000    278.2491     72.9736     37.0924
  1407.7500      0.0000    278.2391     72.9728     32.1504
  1408.0000      0.0000    278.2350     73.0090     28.3264
  1408.2500      0.0000    278.2381     73.0706     26.0590
  1408.5000      0.0000    278.2478     73.1339     25.0487
  1408.7500      0.0000    278.2620     73.1841     24.6054
  1409.0000      0.0000    278.2779     73.2237     24.5059
  1409.2500      0.0000    278.2928     73.2637     25.2533
  1409.5000      0.0000    278.3045     73.3135     27.4220
  1409.7500      0.0000    278.3117     73.3753     31.0354
  1410.0000      0.0000    278.3142     73.4422     35.6814
  1410.2500      0.0000    278.3124     73.5010     40.9506
  1410.5000      0.0000    278.3071     73.5384     46.6812
  1410.7500      0.0000    278.2990     73.5470     52.7653
  1411.0000      0.0000    278.2891     73.5258     58.5043
  1411.2500      0.0000    278.2787     73.4768     62.2631
  1411.5000      0.0000    278.2691     73.4037     62.5045
  1411.7500      0.0000    278.2607     73.3138     59.7085
  1412.0000      0.0000    278.2532     73.2205     56.8316
  1412.2500      0.0000    278.2462     73.1431     57.1684
  1412.5000      0.0000    278.2394     73.1003     61.8037
  1412.7500      0.0000    278.2343     73.0987     69.3908
  1413.0000      0.0000    278.2330     73.1274     77.9322
  1413.2500      0.0000    278.2377     73.1656     86.1584
  1413.5000      0.0000    278.2479     73.1961     93.5136
  1413.7500      0.0000    278.2602     73.2113     99.7350
  1414.0000      0.0000    278.2705     73.2092    104.8594
  1414.2500      0.0000    278.2768     73.1878    109.2660
  1414.5000      0.0000    278.2794     73.1492    113.2752
  1414.7500      0.0000    278.2795     73.1082    116.6460
  1415.0000      0.0000    278.2784     73.0900    118.5526
  1415.2500      0.0000    278.2766     73.1115    117.9529
  1415.5000      0.0000    278.2746     73.1663    114.1174
  1415.7500      0.0000    278.2735     73.2339    107.3734
  1416.0000      0.0000    278.2753     73.2987     99.5893
  1416.2500      0.0000    278.2819     73.3552     93.3968
  1416.5000      0.0000    278.2928     73.4016     90.3509
  1416.7500      0.0000    278.3049     73.4361     89.7840
  1417.0000      0.0000    278.3142     73.4604     89.7514
  1417.2500      0.0000    278.3189     73.4793     89.1186
  1417.5000      0.0000    278.3206     73.4988     88.2225
  1417.7500      0.0000    278.3223     73.5209     87.4205
  1418.0000      0.0000    278.3259     73.5408     85.9515
  1418.2500      0.0000    278.3316     73.5493     82.7413
  1418.5000      0.0000    278.3380     73.5406     77.7126
  1418.7500      0.0000    278.3444     73.5199     71.8703
  1419.0000      0.0000    278.3503     73.5005     66.5405
  1419.2500      0.0000    278.3558     73.4962     62.8314
  1419.5000      0.0000    278.3596     73.5160     61.4156
  1419.7500      0.0000    278.3600     73.5598     62.2337
  1420.0000      0.0000    278.3560     73.6193     64.3047
  1420.2500      0.0000    278.3475     73.6847     66.1853
  1420.5000      0.0000    278.3353     73.7503     66.9387
  1420.7500      0.0000    278.3207     73.8133     66.6633
  1421.0000      0.0000    278.3059     73.8676     66.1896
  1421.2500      0.0000    278.2937     73.9025     66.3836
  1421.5000      0.0000    278.2863     73.9097     67.4616
  1421.7500      0.0000    278.2847     73.8914     68.6476
  1422.0000      0.0000    278.2881     73.8621     68.6834
  1422.2500      0.0000    278.2951     73.8419     67.0313
  1422.5000      0.0000    278.3034     73.8464     64.4161
  1422.7500      0.0000    278.3105     73.8778     61.9297
  1423.0000      0.0000    278.3149     73.9256     59.8793
  1423.2500      0.0000    278.3155     73.9747     57.8249
  1423.5000      0.0000    278.3124     74.0145     55.5219
  1423.7500      0.0000    278.3054     74.0450     53.4800
  1424.0000      0.0000    278.2950     74.0754     52.5846
  1424.2500      0.0000    278.2820     74.1182     53.2685
  1424.5000      0.0000    278.2685     74.1818     55.1127
  1424.7500      0.0000    278.2560     74.2635     57.2233
  1425.0000      0.0000    278.2465     74.3516     58.8149
  1425.2500      0.0000    278.2415     74.4329     59.3686
  1425.5000      0.0000    278.2418     74.4982     58.6179
  1425.7500      0.0000    278.2470     74.5428     56.7489
  1426.0000      0.0000    278.2556     74.5644     54.4577
  1426.2500      0.0000    278.2653     74.5639     52.4668
  1426.5000      0.0000    278.2738     74.5458     50.9609
  1426.7500      0.0000    278.2794     74.5187     49.6158
  1427.0000      0.0000    278.2822     74.4927     48.1854
  1427.2500      0.0000    278.2858     74.4782     47.0735
  1427.5000      0.0000    278.3007     74.4841     47.2784
  1427.7500      0.0000    278.3483     74.5142     49.5410
  1428.0000      0.0000    278.4535     74.5618     53.4077
  1428.2500      0.0000    278.6150     74.6101     57.2874
  1428.5000      0.0000    278.7751     74.6425     59.5803
  1428.7500      0.0000    278.8431     74.6531     59.7322
  1429.0000      0.0000    278.7733     74.6472     58.3303
  1429.2500      0.0000    278.6107     74.6322     56.4944
  1429.5000      0.0000    278.4447     74.6099     55.1430
  1429.7500      0.0000    278.3316     74.5767     54.4136
  1430.0000      0.0000    278.2732     74.5298     53.5772
  1430.2500      0.0000    278.2459     74.4733     51.8053
  1430.5000      0.0000    278.2308     74.4181     49.2497
  1430.7500      0.0000    278.2193     74.3755     47.1401
  1431.0000      0.0000    278.2092     74.3492     46.5745
  1431.2500      0.0000    278.2008     74.3336     47.3535
  1431.5000      0.0000    278.1950     74.3183     48.2963
  1431.7500      0.0000    278.1929     74.2934     48.6650
  1432.0000      0.0000    278.1938     74.2536     48.9894
  1432.2500      0.0000    278.1952     74.1989     50.3319
  1432.5000      0.0000    278.1944     74.1331     52.9096
  1432.7500      0.0000    278.1910     74.0600     55.7333
  1433.0000      0.0000    278.1862     73.9808     57.7783
  1433.2500      0.0000    278.1816     73.8939     59.4173
  1433.5000      0.0000    278.1776     73.7972     62.2229
  1433.7500      0.0000    278.1739     73.6902     66.9584
