~Version Information
VERS.                      2.0: CWLS Log ASCII Standard - VERSION 2.0
WRAP.                       NO: One line per depth step
~Well Information Block
STRT.FT                -4.7500: 
STOP.FT              2723.2500: 
STEP.FT                 0.2500: 
NULL.                -999.2500: 
COMP.          Pioneer Natural Resources: COMPANY
WELL.           Dolzanie 34-12: WELL
FLD.           Purgatorie River: FIELD
LOC.           1001' FSL & 1750' FEL: LOCATION
PROV.                 Colorado: PROVINCE
CNTY.               Las Animas: COUNTRY
SRVC.                Patterson: SERVICE COMPANY
DATE.          Wed Jul 27 14:23:29 2005: LOG DATE
UWI.                          : UNIQUE WELL ID
~Curve Information Block
DEPT.FT            0 000 00 00: Depth
GR.GAPI                       : Gamma Ray
CCL.                          : Casing Collar Locator
TT3.usec                      : CBL 3' Travel Time
AMP3.mV                       : CBL 3' Amplitude
~Parameter Information Block
~A  Depth        GR         CCL         TT3         AMP3    
# ...
  1770.7500    123.9501      0.0000    748.8137      6.8127
  1771.0000    133.1949      0.0000    727.9031      6.9082
  1771.2500    140.3779      0.0000    687.6481      6.9995
  1771.5000    145.0377      0.0000    646.8198      7.0926
  1771.7500    146.1658      0.0000    640.2601      7.2042
  1772.0000    143.5697      0.0000    675.3963      7.3279
  1772.2500    138.6272      0.0000    721.0118      7.4271
  1772.5000    133.6628      0.0000    750.3134      7.4594
  1772.7500    130.8976      0.0000    764.5360      7.4173
  1773.0000    131.6831      0.0000    774.5397      7.3429
  1773.2500    135.7869      0.0000    783.4852      7.2936
  1773.5000    141.0121      0.0000    787.4836      7.2894
  1773.7500    144.1864      0.0000    782.2266      7.3191
  1774.0000    143.3747      0.0000    764.9195      7.3822
  1774.2500    139.4016      0.0000    735.2671      7.4746
  1774.5000    135.0735      0.0000    702.2966      7.5678
  1774.7500    132.8296      0.0000    683.0343      7.6319
  1775.0000    133.1165      0.0000    683.3386      7.6374
  1775.2500    134.6707      0.0000    690.1182      7.5735
  1775.5000    135.7849      0.0000    694.1924      7.5022
  1775.7500    135.2557      0.0000    704.4104      7.5202
  1776.0000    132.8096      0.0000    724.6434      7.6590
  1776.2500    129.2429      0.0000    738.7791      7.8659
  1776.5000    126.0755      0.0000    732.6058      8.0625
  1776.7500    124.5519      0.0000    713.6888      8.1941
  1777.0000    124.6778      0.0000    700.8286      8.2236
  1777.2500    125.2993      0.0000    702.9026      8.1164
  1777.5000    125.2983      0.0000    714.1703      7.8784
  1777.7500    124.6317      0.0000    725.8517      7.5734
  1778.0000    124.0993      0.0000    733.9031      7.2811
  1778.2500    124.3939      0.0000    735.0507      7.0534
  1778.5000    125.6526      0.0000    725.5696      6.8988
  1778.7500    127.7038      0.0000    711.2534      6.7852
  1779.0000    130.4480      0.0000    710.6723      6.6781
  1779.2500    133.9928      0.0000    732.4338      6.5735
  1779.5000    138.2892      0.0000    758.0941      6.4764
  1779.7500    142.3865      0.0000    762.8847      6.3922
  1780.0000    144.3357      0.0000    737.6605      6.3379
  1780.2500    142.4989      0.0000    687.1553      6.3179
  1780.5000    137.0863      0.0000    623.6342      6.3119
  1780.7500    130.0191      0.0000    565.1387      6.3005
  1781.0000    123.2286      0.0000    527.9438      6.2840
  1781.2500    117.3467      0.0000    512.5292      6.2686
  1781.5000    112.0472      0.0000    506.2339      6.2418
  1781.7500    107.3283      0.0000    501.2967      6.1884
  1782.0000    104.0770      0.0000    498.9471      6.1375
  1782.2500    103.2364      0.0000    499.5215      6.1388
  1782.5000    104.8035      0.0000    499.7541      6.1950
  1782.7500    108.1282      0.0000    497.0681      6.2675
  1783.0000    112.8582      0.0000    491.5591      6.3308
  1783.2500    118.8210      0.0000    485.7168      6.3904
  1783.5000    125.1235      0.0000    481.9139      6.4624
  1783.7500    130.3077      0.0000    480.2805      6.5585
  1784.0000    133.7001      0.0000    479.7492      6.6749
  1784.2500    136.1203      0.0000    479.4928      6.7880
  1784.5000    138.9136      0.0000    479.0919      6.8739
  1784.7500    142.3462      0.0000    478.3486      6.9351
  1785.0000    145.1968      0.0000    477.2182      6.9941
  1785.2500    146.1583      0.0000    475.6210      7.0585
  1785.5000    145.4461      0.0000    472.8038      7.1054
  1785.7500    144.5721      0.0000    466.6555      7.1157
  1786.0000    144.6427      0.0000    454.8417      7.1181
  1786.2500    145.4851      0.0000    437.8972      7.1799
  1786.5000    146.3669      0.0000    420.9821      7.3522
  1786.7500    146.8328      0.0000    414.4466      7.6083
  1787.0000    146.4963      0.0000    432.1351      7.8097
  1787.2500    144.6400      0.0000    476.5253      7.7933
  1787.5000    140.6754      0.0000    521.6363      7.5642
  1787.7500    134.9639      0.0000    536.3995      7.3255
  1788.0000    128.9691      0.0000    531.4872      7.2440
  1788.2500    124.5849      0.0000    546.3825      7.2943
  1788.5000    123.0889      0.0000    590.0068      7.3559
  1788.7500    124.4832      0.0000    633.3499      7.3531
  1789.0000    127.8520      0.0000    651.6671      7.3062
  1789.2500    132.2886      0.0000    640.4076      7.2898
  1789.5000    137.2949      0.0000    605.3709      7.3240
  1789.7500    142.3629      0.0000    561.0349      7.3311
  1790.0000    146.2792      0.0000    523.1330      7.2304
  1790.2500    146.9883      0.0000    496.1113      7.0301
  1790.5000    142.6540      0.0000    482.4114      6.7717
  1790.7500    133.3473      0.0000    491.7266      6.4061
  1791.0000    121.5588      0.0000    525.3229      5.8612
  1791.2500    110.8171      0.0000    566.6493      5.2943
  1791.5000    103.7039      0.0000    597.7014      4.9557
  1791.7500    100.7513      0.0000    614.7693      4.7436
  1792.0000    100.6188      0.0000    626.3229      4.4300
  1792.2500    101.3580      0.0000    640.1935      4.1317
  1792.5000    102.0309      0.0000    654.0975      4.0350
  1792.7500    103.4690      0.0000    661.8141      4.0770
  1793.0000    107.4964      0.0000    666.3681      4.1164
  1793.2500    115.1477      0.0000    679.7091      4.0775
  1793.5000    125.2758      0.0000    701.9607      3.9393
  1793.7500    134.8566      0.0000    715.8668      3.8065
  1794.0000    140.7332      0.0000    717.8329      3.9632
  1794.2500    141.1717      0.0000    726.2515      4.5381
  1794.5000    136.1958      0.0000    748.8584      5.1418
  1794.7500    127.1206      0.0000    772.6304      5.3433
  1795.0000    115.9926      0.0000    786.3998      5.2591
  1795.2500    105.0630      0.0000    791.2741      5.2211
  1795.5000     96.2500      0.0000    792.0920      5.3388
  1795.7500     90.7869      0.0000    790.5719      5.5363
  1796.0000     89.3572      0.0000    785.1074      5.7010
  1796.2500     92.4359      0.0000    773.0371      5.7999
  1796.5000    100.1359      0.0000    753.5740      5.8924
  1796.7500    111.4506      0.0000    730.1750      6.0206
  1797.0000    123.7654      0.0000    710.6338      6.1453
  1797.2500    133.5925      0.0000    700.4785      6.2114
  1797.5000    138.4392      0.0000    694.5743      6.2222
  1797.7500    138.4179      0.0000    682.3779      6.2251
  1798.0000    136.1484      0.0000    658.2374      6.2748
  1798.2500    135.0790      0.0000    622.8340      6.3963
  1798.5000    137.5984      0.0000    586.0333      6.5406
  1798.7500    144.0377      0.0000    564.4869      6.6303
  1799.0000    152.7701      0.0000    563.1788      6.6555
  1799.2500    161.0152      0.0000    568.3932      6.6598
  1799.5000    165.7863      0.0000    569.8725      6.6685
  1799.7500    164.8253      0.0000    577.2419      6.6769
  1800.0000    157.6239      0.0000    603.3483      6.6688
  1800.2500    145.9396      0.0000    643.8217      6.6235
  1800.5000    133.0551      0.0000    680.1881      6.5385
  1800.7500    122.1733      0.0000    696.2553      6.4489
  1801.0000    115.1960      0.0000    690.1926      6.4068
  1801.2500    112.5407      0.0000    674.6454      6.4408
  1801.5000    113.5342      0.0000    664.2928      6.5318
  1801.7500    116.6414      0.0000    663.1440      6.6235
  1802.0000    119.5507      0.0000    666.1396      6.6740
  1802.2500    120.0541      0.0000    668.6412      6.6960
  1802.5000    117.6824      0.0000    669.7711      6.7256
  1802.7500    114.0343      0.0000    670.1135      6.7663
  1803.0000    110.9120      0.0000    670.0914      6.8059
  1803.2500    108.6249      0.0000    669.8148      6.8653
  1803.5000    106.6195      0.0000    668.8760      6.9733
  1803.7500    105.0223      0.0000    666.1387      7.1163
  1804.0000    104.5409      0.0000    661.0192      7.2579
