~Version Information
VERS.                      2.0: CWLS Log ASCII Standard - VERSION 2.0
WRAP.                       NO: One line per depth step
~Well Information Block
STRT.FT                31.2500: 
STOP.FT               700.7500: 
STEP.FT                 0.2500: 
NULL.                -999.2500: 
COMP.          XTO Energy Inc.: COMPANY
WELL.          Golden Eagle 20-14: WELL
FLD.           Purgatrorie River: FIELD
LOC.           587' FSL & 2478' FWL--: LOCATION
STAT.                       CO: State
CNTY.               Las Animas: COUNTY
CTRY. USA : Country
SECT. 20 : Section
TOWN. 33S : Township
RANG. 67W : Range
SRVC.          Patterson Wireline: SERVICE COMPANY
DATE.          Sat Dec 10 15:54:00 2005: LOG DATE
API.           05 071 08614 00: UNIQUE WELL ID
~Curve Information Block
DEPT.FT            0 000 00 00: Depth
CCL.                          : Casing Collar Locator
TT3.usec                      : CBL 3' Travel Time
AMP3.mV                       : CBL 3' Amplitude
GR.GAPI                       : Gamma Ray
~Parameter Information Block
~A  Depth       CCL         TT3         AMP3         GR     
# ...
   466.7500      0.0000    687.3104      2.0366     74.2072
   467.0000      0.0000    687.1608      2.0099     82.3675
   467.2500      0.0000    686.9158      1.9938     91.8208
   467.5000      0.0000    686.5624      1.9955     99.9888
   467.7500      0.0000    686.1597      2.0270    105.8255
   468.0000      0.0000    685.8026      2.0933    109.5518
   468.2500      0.0000    685.5540      2.1809    111.3828
   468.5000      0.0000    685.4102      2.2619    111.2974
   468.7500      0.0000    685.3279      2.3165    109.7690
   469.0000      0.0000    685.2731      2.3517    108.0998
   469.2500      0.0000    685.2388      2.3959    107.9824
   469.5000      0.0000    685.2305      2.4814    110.4791
   469.7500      0.0000    685.2574      2.6402    114.8485
   470.0000      0.0000    685.3312      2.9095    118.7516
   470.2500      0.0000    685.4572      3.3225    120.5777
   470.5000      0.0000    685.6198      3.8898    121.3954
   470.7500      0.0000    685.7846      4.5913    123.5479
   471.0000      0.0000    685.9254      5.3825    127.4914
   471.2500      0.0000    686.0370      6.2076    131.4127
   471.5000      0.0000    686.1139      7.0185    134.0909
   471.7500      0.0000    686.0079      7.7908    136.5656
   472.0000      0.0000    685.1412      8.5121    140.1678
   472.2500      0.0000    682.1662      9.1512    144.1475
   472.5000      0.0000    675.1591      9.6512    146.4755
   472.7500      0.0000    663.0524      9.9617    146.2338
   473.0000      0.0000    647.6696     10.0821    144.1149
   473.2500      0.0000    633.8634     10.0774    141.2315
   473.5000      0.0000    626.5873     10.0489    138.4004
   473.7500      0.0000    627.7579     10.0646    136.1289
   474.0000      0.0000    636.0617     10.0956    134.5713
   474.2500      0.0000    648.6495     10.0191    133.7269
   474.5000      0.0000    662.2518      9.6834    133.8574
   474.7500      0.0000    673.8501      8.9840    135.1786
   475.0000      0.0000    681.7147      7.9147    137.1223
   475.2500      0.0000    685.9920      6.5829    138.5723
   475.5000      0.0000    688.1212      5.1807    138.7651
   475.7500      0.0000    689.7838      3.9214    137.4026
   476.0000      0.0000    692.1941      2.9651    133.8619
   476.2500      0.0000    695.7016      2.3676    126.7404
   476.5000      0.0000    699.8148      2.0805    114.6812
   476.7500      0.0000    703.9673      2.0019     98.0600
   477.0000      0.0000    708.4703      2.0341     79.7975
   477.2500      0.0000    714.1635      2.1085     64.0991
   477.5000      0.0000    720.6770      2.1805     54.0199
   477.7500      0.0000    725.5081      2.2244     49.9714
   478.0000      0.0000    725.6094      2.2361     50.1314
   478.2500      0.0000    720.1187      2.2352     51.9213
   478.5000      0.0000    711.3079      2.2509     53.2937
   478.7500      0.0000    702.7634      2.2949     53.3403
   479.0000      0.0000    696.8132      2.3470     52.2831
   479.2500      0.0000    693.6288      2.3718     51.0338
   479.5000      0.0000    692.1479      2.3517     50.6733
   479.7500      0.0000    691.3094      2.2980     52.1616
   480.0000      0.0000    690.5812      2.2355     56.1450
   480.2500      0.0000    689.8666      2.1796     62.6351
   480.5000      0.0000    689.2380      2.1328     70.8635
   480.7500      0.0000    688.7518      2.0949     79.6132
   481.0000      0.0000    688.4050      2.0692     87.8573
   481.2500      0.0000    688.1506      2.0577     95.3311
   481.5000      0.0000    687.9131      2.0565    102.5888
   481.7500      0.0000    687.6213      2.0618    110.2186
   482.0000      0.0000    687.2606      2.0765    117.6536
   482.2500      0.0000    686.8804      2.1085    122.8852
   482.5000      0.0000    686.5362      2.1624    123.8248
   482.7500      0.0000    686.2360      2.2358    120.2956
   483.0000      0.0000    685.9552      2.3231    114.6248
   483.2500      0.0000    685.6896      2.4199    109.9823
   483.5000      0.0000    685.4799      2.5249    108.0398
   483.7500      0.0000    685.3839      2.6403    108.3468
   484.0000      0.0000    685.4326      2.7716    109.8464
   484.2500      0.0000    685.6097      2.9204    112.2978
   484.5000      0.0000    685.8627      3.0774    115.7811
   484.7500      0.0000    686.1284      3.2260    119.3844
   485.0000      0.0000    686.3521      3.3537    121.2260
   485.2500      0.0000    686.5010      3.4621    119.8640
   485.5000      0.0000    686.5734      3.5782    115.4055
   485.7500      0.0000    686.5909      3.7544    109.4118
   486.0000      0.0000    686.5714      4.0327    103.9998
   486.2500      0.0000    686.5074      4.3899    100.7600
   486.5000      0.0000    686.3815      4.7266    100.1186
   486.7500      0.0000    686.2118      4.9310    101.5048
   487.0000      0.0000    686.0742      4.9608    103.9237
   487.2500      0.0000    686.0601      4.8576    106.5204
   487.5000      0.0000    686.2029      4.6878    109.0697
   487.7500      0.0000    686.4472      4.4926    112.0462
   488.0000      0.0000    686.6882      4.3007    115.9743
   488.2500      0.0000    686.8371      4.1604    120.5988
   488.5000      0.0000    686.8624      4.1320    124.8851
   488.7500      0.0000    686.7975      4.2501    127.9871
   489.0000      0.0000    686.7181      4.5015    130.0416
   489.2500      0.0000    686.7004      4.8293    131.6787
   489.5000      0.0000    686.7850      5.1523    132.9113
   489.7500      0.0000    686.9708      5.3975    133.0569
   490.0000      0.0000    687.2292      5.5381    131.7224
   490.2500      0.0000    687.5156      5.6095    129.2958
   490.5000      0.0000    687.7795      5.6801    126.5475
   490.7500      0.0000    687.9885      5.7922    124.3370
   491.0000      0.0000    688.1505      5.9270    123.6470
   491.2500      0.0000    688.2950      6.0290    125.1670
   491.5000      0.0000    688.4277      6.0630    128.3984
   491.7500      0.0000    688.5188      6.0422    131.3660
   492.0000      0.0000    688.5443      6.0049    131.7838
   492.2500      0.0000    688.5211      5.9776    128.9664
   492.5000      0.0000    688.4893      5.9628    124.5818
   492.7500      0.0000    688.4658      5.9508    121.2082
   493.0000      0.0000    688.4242      5.9339    120.0847
   493.2500      0.0000    688.3251      5.9118    120.4910
   493.5000      0.0000    688.1613      5.8871    121.1273
   493.7500      0.0000    687.9749      5.8629    121.4600
   494.0000      0.0000    687.8290      5.8440    121.6082
   494.2500      0.0000    687.7647      5.8395    121.6615
   494.5000      0.0000    687.7456      5.8547    121.6972
   494.7500      0.0000    687.5673      5.8808    121.9002
   495.0000      0.0000    686.7325      5.8970    122.0186
   495.2500      0.0000    684.4383      5.8872    121.1503
   495.5000      0.0000    679.9697      5.8536    118.7366
   495.7500      0.0000    673.4805      5.8126    115.3202
   496.0000      0.0000    666.4935      5.7799    111.6371
   496.2500      0.0000    661.3241      5.7574    107.4102
   496.5000      0.0000    659.6588      5.7302    101.9128
   496.7500      0.0000    661.5317      5.6741     95.5289
   497.0000      0.0000    665.5266      5.5677     89.9158
   497.2500      0.0000    669.8276      5.4018     86.3973
   497.5000      0.0000    673.2140      5.1847     84.6542
   497.7500      0.0000    675.4919      4.9515     83.2326
   498.0000      0.0000    677.1986      4.7653     81.0349
   498.2500      0.0000    678.7799      4.6844     78.1153
   498.5000      0.0000    680.1688      4.7137     75.3283
   498.7500      0.0000    681.3495      4.8034     73.5113
   499.0000      0.0000    682.8522      4.9044     72.9117
   499.2500      2.0000    685.1351      5.0069     73.1610
   499.5000     -2.0000    687.7625      5.1200     73.7689
   499.7500      0.0000    689.7172      5.2308     74.4626
   500.0000      0.0000    690.4363      5.2955     75.0758
