~Version Information
VERS.                      2.0: CWLS Log ASCII Standard - VERSION 2.0
WRAP.                       NO: One line per depth step
~Well Information Block
STRT.FT                 0.0000: 
STOP.FT              1871.2500: 
STEP.FT                 0.2500: 
NULL.                -999.2500: 
COMP.          Petrogulf Corporation: COMPANY
WELL.             Norton 9-14R: WELL
FLD.           Purgatorie River: FIELD
LOC.           725' FSL & 1103' FWL: LOCATION
STAT.                 Colorado: State
CNTY.               Las Animas: COUNTY
CTRY. USA : Country
SECT. 9 : Section
TOWN. 33S : Township
RANG. 67W : Range
SRVC.                Patterson: SERVICE COMPANY
DATE.          Thu Nov 10 13:05:53 2005: LOG DATE
API. 05-071-08444                         : UNIQUE WELL ID
~Curve Information Block
DEPT.FT            0 000 00 00: Depth
CCL.                          : Casing Collar Locator
TT3.usec                      : CBL 3' Travel Time
AMP3.mV                       : CBL 3' Amplitude
GR.GAPI                       : Gamma Ray
~Parameter Information Block
~A  Depth       CCL         TT3         AMP3         GR     
# ...
  1239.5000      0.0000    559.8143      5.8805    121.1843
  1239.7500      0.0000    546.4547      5.7705    119.8731
  1240.0000      0.0000    533.1730      5.6294    118.6411
  1240.2500      0.0000    525.7740      5.5091    119.1723
  1240.5000      0.0000    527.7221      5.4328    121.4589
  1240.7500      0.0000    537.8360      5.4148    123.4845
  1241.0000      0.0000    552.2427      5.4808    122.7529
  1241.2500      0.0000    567.1060      5.6133    117.7973
  1241.5000      0.0000    580.4834      5.7324    108.7502
  1241.7500      0.0000    594.5657      5.7811     97.4179
  1242.0000      0.0000    613.1833      5.7989     87.0438
  1242.2500      0.0000    634.5126      5.8754     81.3336
  1242.5000      0.0000    651.4653      6.0532     82.7633
  1242.7500      0.0000    660.5565      6.3048     91.0234
  1243.0000      0.0000    664.8589      6.5877    102.9021
  1243.2500      0.0000    668.9988      6.9035    114.1483
  1243.5000      0.0000    674.1424      7.2951    122.1566
  1243.7500      0.0000    677.0897      7.8056    127.3018
  1244.0000      0.0000    675.2590      8.4652    131.7300
  1244.2500      0.0000    671.0253      9.2465    136.7627
  1244.5000      0.0000    668.1051      9.9913    141.6529
  1244.7500      0.0000    667.2121     10.4797    144.8927
  1245.0000      0.0000    667.2043     10.6369    146.0533
  1245.2500      0.0000    667.1811     10.5847    145.8521
  1245.5000      0.0000    666.4937     10.4540    145.1394
  1245.7500      0.0000    664.4483     10.2745    144.7080
  1246.0000      0.0000    661.4125     10.0944    145.7319
  1246.2500      0.0000    659.6370     10.0380    149.3803
  1246.5000      0.0000    660.7415     10.1500    155.7739
  1246.7500      0.0000    663.3206     10.3110    163.7206
  1247.0000      0.0000    665.2170     10.3755    171.5455
  1247.2500      0.0000    665.9873     10.3306    177.7236
  1247.5000      0.0000    665.8707     10.3376    180.5927
  1247.7500      0.0000    663.1015     10.6760    178.3006
  1248.0000      0.0000    649.7596     11.6326    170.0283
  1248.2500      0.0000    609.6035     13.3606    157.2425
  1248.5000      0.0000    531.8050     15.7211    143.1758
  1248.7500      0.0000    434.8383     18.2428    130.8235
  1249.0000      0.0000    357.4219     20.3441    121.3772
  1249.2500      0.0000    319.7133     21.6040    114.2330
  1249.5000      0.0000    317.6633     21.7941    108.1638
  1249.7500      0.0000    350.0240     20.8926    102.5206
  1250.0000      0.0000    422.5627     19.1966     97.4875
  1250.2500      0.0000    524.3284     17.2252     93.5052
  1250.5000      0.0000    622.8378     15.4627     90.8271
  1250.7500      0.0000    691.2681     14.2183     89.5274
  1251.0000      0.0000    726.3282     13.5717     89.6052
  1251.2500      0.0000    739.5013     13.2676     90.9469
  1251.5000      0.0000    742.3538     12.7837     93.2502
  1251.7500      0.0000    740.7656     11.7664     95.9323
  1252.0000      0.0000    737.7852     10.3840     98.1249
  1252.2500      0.0000    737.6359      9.1223     99.1149
  1252.5000      0.0000    744.2070      8.3061     99.1467
  1252.7500      0.0000    756.3728      7.9143     99.5092
  1253.0000      0.0000    767.0290      7.7640    101.2676
  1253.2500      0.0000    767.7462      7.7402    103.7446
  1253.5000      0.0000    757.0214      7.8251    104.6932
  1253.7500      0.0000    742.0588      7.9752    102.2955
  1254.0000      0.0000    727.2740      8.0497     96.8644
  1254.2500      0.0000    709.7056      7.8761     90.5186
  1254.5000      0.0000    690.7310      7.3902     85.5497
  1254.7500      0.0000    677.7930      6.7361     83.3176
  1255.0000      0.0000    674.1356      6.1830     84.1343
  1255.2500      0.0000    676.1620      5.8977     87.3136
  1255.5000      0.0000    677.6323      5.8470     91.2981
  1255.7500      0.0000    675.0530      5.9099     94.3799
  1256.0000      0.0000    670.2433      6.0055     95.6809
  1256.2500      0.0000    666.3023      6.1083     95.5237
  1256.5000      0.0000    663.7213      6.1966     94.9133
  1256.7500      0.0000    660.8152      6.2469     94.5565
  1257.0000      0.0000    654.5369      6.2611     94.4036
  1257.2500      0.0000    641.2754      6.2659     94.2439
  1257.5000      0.0000    619.3377      6.2968     94.3665
  1257.7500      0.0000    592.5567      6.3753     95.0965
  1258.0000      0.0000    572.6880      6.4726     95.9924
  1258.2500      0.0000    572.5963      6.5413     96.1416
  1258.5000      0.0000    592.3104      6.5978     95.1763
  1258.7500      0.0000    619.1155      6.7021     93.6262
  1259.0000      0.0000    641.6338      6.8600     92.3860
  1259.2500      0.0000    657.0399      7.0064     91.9736
  1259.5000      0.0000    668.7239      7.0824     92.0121
  1259.7500      0.0000    680.1395      7.0926     91.4001
  1260.0000      0.0000    689.7636      7.0882     89.4625
  1260.2500      0.0000    693.7574      7.1121     87.0776
  1260.5000      0.0000    690.9878      7.1709     86.2000
  1260.7500      0.0000    684.5652      7.2496     87.9113
  1261.0000      0.0000    681.2796      7.3402     91.0941
  1261.2500      0.0000    685.1067      7.4481     93.3510
  1261.5000      0.0000    691.8715      7.5791     93.3637
  1261.7500      0.0000    694.6644      7.7170     92.0518
  1262.0000      0.0000    689.7275      7.8182     91.1635
  1262.2500      0.0000    676.9846      7.8575     91.3252
  1262.5000      0.0000    660.9050      7.8635     92.0296
  1262.7500      0.0000    647.6284      7.8946     92.7252
  1263.0000      0.0000    639.4626      7.9826     92.9874
  1263.2500      0.0000    636.2188      8.0878     92.2893
  1263.5000      0.0000    637.8302      8.1436     90.5756
  1263.7500      0.0000    638.3574      8.1644     88.8011
  1264.0000      0.0000    625.0457      8.2426     88.3084
  1264.2500      0.0000    596.9373      8.3871     89.6934
  1264.5000      0.0000    577.7879      8.4075     92.2982
  1264.7500      0.0000    589.8508      8.0744     94.6970
  1265.0000      0.0000    624.4826      7.4506     95.6787
  1265.2500      0.0000    657.1419      6.9434     94.8142
  1265.5000      0.0000    672.4359      6.8783     92.3161
  1265.7500      0.0000    670.5494      7.1302     88.6905
  1266.0000      2.0000    666.0181      7.3472     84.5022
  1266.2500      0.0000    675.7383      7.3726     80.2789
  1266.5000     -2.0000    700.6873      7.2611     76.5832
  1266.7500      0.0000    718.0544      7.1014     73.9286
  1267.0000      0.0000    699.9536      7.0351     72.3780
  1267.2500      0.0000    653.3325      7.1588     71.5345
  1267.5000      0.0000    621.7213      7.2601     71.2534
  1267.7500      0.0000    632.4982      7.1284     72.0795
  1268.0000      0.0000    672.2451      6.9773     74.5959
  1268.2500      0.0000    712.4157      7.0225     78.3269
  1268.5000      0.0000    732.1501      7.1309     81.4756
  1268.7500      0.0000    729.7571      7.1287     82.0412
  1269.0000      0.0000    718.4374      7.0213     79.3639
  1269.2500      0.0000    703.4860      6.8955     74.5506
  1269.5000      0.0000    678.8944      6.7963     69.4653
  1269.7500      0.0000    654.0803      6.7199     65.5840
  1270.0000      0.0000    655.8922      6.6579     63.7088
  1270.2500      0.0000    686.4233      6.5948     63.9721
  1270.5000      0.0000    712.6974      6.5137     65.5031
  1270.7500      0.0000    712.7497      6.4500     66.4785
  1271.0000      0.0000    700.5436      6.4703     65.2941
  1271.2500      0.0000    699.2597      6.5557     61.9965
  1271.5000      0.0000    710.1978      6.6031     58.4403
  1271.7500      0.0000    717.7924      6.5499     56.9238
  1272.0000      0.0000    716.0370      6.4185     58.5463
  1272.2500      0.0000    710.5934      6.2920     62.7351
  1272.5000      0.0000    702.2668      6.2620     68.1564
  1272.7500      0.0000    689.2258      6.3302     73.8210
