~Version Information
VERS.                      2.0: CWLS Log ASCII Standard - VERSION 2.0
WRAP.                       NO: One line per depth step
~Well Information Block
STRT.FT                -7.2500: 
STOP.FT              1334.7500: 
STEP.FT                 0.2500: 
NULL.                -999.2500: 
COMP.          Pioneer Natural Resources: COMPANY
WELL.          Buffet 41-36 Tr: WELL
FLD.           Purgatorie River: FIELD
LOC.           119' FNL & 271' FEL--: LOCATION
PROV.                       CO: PROVINCE
CNTY.               Las Animas: COUNTRY
SRVC.          Patterson Wireline: SERVICE COMPANY
DATE.          Tue Jan 03 09:43:31 2006: LOG DATE
UWI.           05 071 08627 00: UNIQUE WELL ID
~Curve Information Block
DEPT.FT            0 000 00 00: Depth
CCL.                          : Casing Collar Locator
TT3.usec                      : CBL 3' Travel Time
AMP3.mV                       : CBL 3' Amplitude
GR.GAPI                       : Gamma Ray
~Parameter Information Block
~A  Depth       CCL         TT3         AMP3         GR     
# ...
   428.2500      0.0000    702.1927      7.5350    119.4478
   428.5000      0.0000    710.8646      7.5399    119.7479
   428.7500      0.0000    718.2282      7.5229    122.7920
   429.0000      0.0000    721.9560      7.4853    126.1722
   429.2500      0.0000    722.6620      7.4430    128.5853
   429.5000      0.0000    723.0755      7.4157    131.1997
   429.7500      0.0000    725.0399      7.4130    136.1261
   430.0000      0.0000    728.2077      7.4279    143.8166
   430.2500      0.0000    731.1448      7.4427    152.3402
   430.5000      0.0000    732.6129      7.4426    158.7779
   430.7500      0.0000    732.2009      7.4294    160.8824
   431.0000      0.0000    730.7157      7.4203    157.8806
   431.2500      0.0000    729.6628      7.4292    150.4332
   431.5000      0.0000    729.4738      7.4530    139.8784
   431.7500      0.0000    728.5487      7.4790    127.4769
   432.0000      0.0000    725.0675      7.5026    114.5787
   432.2500      0.0000    719.5760      7.5307    103.0868
   432.5000      0.0000    714.6420      7.5685     94.7635
   432.7500      0.0000    711.9241      7.6096     89.9471
   433.0000      0.0000    710.6021      7.6402     87.6261
   433.2500      0.0000    708.8385      7.6541     86.9491
   433.5000      0.0000    706.0747      7.6654     88.1702
   433.7500      0.0000    703.5541      7.7041     92.0197
   434.0000      0.0000    702.7126      7.7944     98.6778
   434.2500      0.0000    703.1959      7.9302    107.5984
   434.5000      0.0000    702.9043      8.0744    117.9996
   434.7500      0.0000    700.2558      8.1856    129.0582
   435.0000      0.0000    695.8860      8.2458    139.5029
   435.2500      0.0000    691.7545      8.2672    147.3981
   435.5000      0.0000    689.1834      8.2760    151.0119
   435.7500      0.0000    688.1779      8.2908    150.2896
   436.0000      0.0000    688.0681      8.3124    147.1334
   436.2500      0.0000    688.2266      8.3299    143.7333
   436.5000      0.0000    688.3265      8.3322    140.7229
   436.7500      0.0000    688.3076      8.3148    137.3522
   437.0000      0.0000    688.2442      8.2796    133.1683
   437.2500      0.0000    688.1917      8.2315    128.7711
   437.5000      0.0000    688.1290      8.1752    124.9645
   437.7500      0.0000    688.0067      8.1155    121.9761
   438.0000      0.0000    687.8167      8.0588    119.7675
   438.2500      0.0000    687.5526      8.0070    118.5282
   438.5000      0.0000    687.0872      7.9451    118.4409
   438.7500      0.0000    686.0601      7.8400    119.1524
   439.0000      0.0000    683.9329      7.6608    119.7825
   439.2500      0.0000    680.3152      7.4122    119.5717
   439.5000      0.0000    675.5795      7.1493    118.4529
   439.7500      0.0000    671.4556      6.9391    116.8304
   440.0000      0.0000    671.3474      6.7914    114.8715
   440.2500      0.0000    680.0771      6.6515    112.4705
   440.5000      0.0000    702.6285      6.4892    110.0771
   440.7500      0.0000    741.7855      6.3620    109.0795
   441.0000      0.0000    795.8749      6.3534    110.8558
   441.2500     -2.0000    858.0125      6.4764    115.5203
   441.5000      2.0000    917.1151      6.6707    121.8574
   441.7500      0.0000    960.1216      6.8718    128.2905
   442.0000      0.0000    975.5704      7.0641    133.5414
   442.2500      0.0000    958.7840      7.2802    136.6987
   442.5000      0.0000    916.3586      7.5533    137.6549
   442.7500      0.0000    864.7725      7.8512    137.6852
   443.0000      0.0000    820.9734      8.0748    138.6131
   443.2500      0.0000    791.7791      8.1563    140.9451
   443.5000      0.0000    772.2941      8.1369    143.5485
   443.7500      0.0000    754.2300      8.1084    145.3576
   444.0000      0.0000    734.5100      8.1086    146.4476
   444.2500      0.0000    715.9961      8.1079    146.9596
   444.5000      0.0000    702.3583      8.0728    145.9641
   444.7500      0.0000    694.1827      8.0076    142.4346
   445.0000      0.0000    689.4514      7.9414    136.8505
   445.2500      0.0000    686.0533      7.8995    130.8194
   445.5000      0.0000    683.4118      7.8904    125.3851
   445.7500      0.0000    682.2067      7.9066    120.7348
   446.0000      0.0000    682.9753      7.9298    117.4859
   446.2500      0.0000    685.1654      7.9357    117.0780
   446.5000      0.0000    687.5544      7.9016    120.3564
   446.7500      0.0000    689.2650      7.8168    126.2147
   447.0000      0.0000    690.1663      7.6878    131.9124
   447.2500      0.0000    690.6630      7.5370    134.7489
   447.5000      0.0000    691.4782      7.3914    133.7827
   447.7500      0.0000    693.6575      7.2678    130.3336
   448.0000      0.0000    698.2719      7.1654    126.9006
   448.2500      0.0000    705.2612      7.0737    125.6305
   448.5000      0.0000    712.2448      6.9889    127.6201
   448.7500      0.0000    715.4371      6.9212    132.6611
   449.0000      0.0000    712.8533      6.8892    138.8043
   449.2500      0.0000    706.2688      6.9074    142.8753
   449.5000      0.0000    699.3776      6.9749    142.7298
   449.7500      0.0000    694.6056      7.0732    139.2789
   450.0000      0.0000    692.1439      7.1780    135.7342
   450.2500      0.0000    691.1154      7.2736    134.6948
   450.5000      0.0000    690.7317      7.3536    136.0568
   450.7500      0.0000    690.5634      7.4099    137.4113
   451.0000      0.0000    690.3929      7.4313    135.9778
   451.2500      0.0000    690.1219      7.4178    130.1237
   451.5000      0.0000    689.7528      7.3898    119.8128
   451.7500      0.0000    689.3801      7.3739    106.7599
   452.0000      0.0000    689.1240      7.3834     94.1599
   452.2500      0.0000    689.0518      7.4150     85.2064
   452.5000      0.0000    689.1404      7.4577     81.2003
   452.7500      0.0000    689.3041      7.5008     80.9993
   453.0000      0.0000    689.4551      7.5364     82.0241
   453.2500      0.0000    689.5327      7.5631     81.8524
   453.5000      0.0000    689.5049      7.5853     79.5519
   453.7500      0.0000    689.3774      7.6049     75.9026
   454.0000      0.0000    689.2020      7.6163     72.1252
   454.2500      0.0000    689.0510      7.6127     68.3876
   454.5000      0.0000    688.9760      7.5957     63.8382
   454.7500      0.0000    689.0034      7.5746     58.0944
   455.0000      0.0000    689.1670      7.5575     52.3123
   455.2500      0.0000    689.5782      7.5458     48.5009
   455.5000      0.0000    690.5229      7.5408     47.8705
   455.7500      0.0000    692.5526      7.5502     50.0103
   456.0000      0.0000    696.2688      7.5827     53.4535
   456.2500      0.0000    701.4942      7.6366     56.7128
   456.5000      0.0000    706.4464      7.6942     58.8742
   456.7500      0.0000    708.4340      7.7320     59.7486
   457.0000      0.0000    706.1615      7.7360     59.6189
   457.2500      0.0000    701.0965      7.7114     58.6765
   457.5000      0.0000    696.0637      7.6740     56.8593
   457.7500      0.0000    692.8453      7.6336     54.3858
   458.0000      0.0000    691.4297      7.5868     52.0415
   458.2500      0.0000    690.9349      7.5279     50.5539
   458.5000      0.0000    690.6288      7.4630     49.8275
   458.7500      0.0000    690.2473      7.4102     49.0832
   459.0000      0.0000    689.8366      7.3844     47.7824
   459.2500      0.0000    689.5134      7.3842     46.3138
   459.5000      0.0000    689.3174      7.3943     45.7126
   459.7500      0.0000    689.2079      7.3982     46.6709
   460.0000      0.0000    689.1235      7.3928     48.8226
   460.2500      0.0000    689.0364      7.3893     51.0515
   460.5000      0.0000    688.9567      7.3995     52.4326
   460.7500      0.0000    688.9057      7.4211     52.7354
   461.0000      0.0000    688.8920      7.4430     52.1355
   461.2500      0.0000    688.9012      7.4602     50.8755
   461.5000      0.0000    688.9031      7.4781     49.3923
