~Version Information
VERS.                      2.0: CWLS Log ASCII Standard - VERSION 2.0
WRAP.                       NO: One line per depth step
~Well Information Block
STRT.FT               240.0000: 
STOP.FT              1677.0000: 
STEP.FT                 0.1000: 
NULL.                -999.2500: 
COMP.          Pioneer Natural Resources: COMPANY
WELL.          Lorencito 8-1-34-67: WELL
FLD.           Purgatoire River: FIELD
LOC.           1567' FNL & 500' FEL: LOCATION
STAT.                 Colorado: State
CTRY. USA : Country 
CNTY.               Las Animas: COUNTY
SECT. 1 : Section 
TOWN. 34S : Township
RANG. 67W : Range
SRVC.                Patterson: SERVICE COMPANY
DATE.          Fri Aug 26 09:30:14 2005: LOG DATE
API.           05 071 08506 00: UNIQUE WELL ID
~Curve Information Block
DEPT.FT            0 000 00 00: Depth
DCAL.in                       : CDL Caliper
RHOB.g/cc                     : CDL Bulk Density
RHOC.g/cc                     : CDL Density Correction
DPOR.pu                       : CDL Density Porosity
GR.GAPI                       : Gamma Ray
NPOR.pu                       : Neutron Porosity
~Parameter Information Block
~A  Depth       DCAL        RHOB        RHOC        DPOR         GR         NPOR    
# ...
  1564.8000      8.0199      2.3913      0.0234     15.6776     76.9511     17.4083
  1564.9000      8.0199      2.4199      0.0474     13.9439     72.7086     17.9625
  1565.0000      8.0233      2.4389      0.0455     12.7915     73.1177     18.0916
  1565.1000      8.0233      2.4467      0.0754     12.3238     77.4009     17.6994
  1565.2000      8.0233      2.4499      0.0235     12.1275     81.7209     17.5195
  1565.3000      8.0346      2.4593      0.0681     11.5550     84.4260     17.9092
  1565.4000      8.0346      2.4685      0.1079     10.9988     85.9707     18.4441
  1565.5000      8.0266      2.4723      0.0581     10.7702     86.3235     18.5955
  1565.6000      8.0266      2.4782      0.0980     10.4096     87.8187     18.4827
  1565.7000      8.0266      2.4829      0.0963     10.1279     93.7743     18.7915
  1565.8000      8.0056      2.4841      0.0777     10.0527     98.6601     19.6948
  1565.9000      8.0056      2.4882      0.1172      9.8069     94.5083     20.6203
  1566.0000      7.9707      2.4885      0.0865      9.7880     84.4439     20.8385
  1566.1000      7.9707      2.4726      0.0914     10.7494     78.6361     19.6714
  1566.2000      7.9707      2.4485      0.0225     12.2093     80.8579     17.7191
  1566.3000      7.9470      2.4399      0.0428     12.7322     84.9954     16.4087
  1566.4000      7.9470      2.4507      0.0628     12.0798     87.4263     16.0573
  1566.5000      7.9518      2.4670      0.0996     11.0882     89.3372     16.3423
  1566.6000      7.9518      2.4724      0.1188     10.7637     91.0217     17.1144
  1566.7000      7.9518      2.4630      0.0059     11.3340     91.8600     17.9168
  1566.8000      7.9831      2.4586      0.0079     11.5986     91.0195     18.0295
  1566.9000      7.9831      2.4692      0.0097     10.9565     90.5817     17.9844
  1567.0000      8.0333      2.4790      0.0674     10.3648     92.0550     18.3463
  1567.1000      8.0333      2.4757      0.0715     10.5623     91.7987     18.2515
  1567.2000      8.0333      2.4665      0.0311     11.1217     86.3423     17.2874
  1567.3000      8.0366      2.4605     -0.0002     11.4841     79.0600     16.4322
  1567.4000      8.0366      2.4560      0.0728     11.7556     74.3804     16.6117
  1567.5000      8.0161      2.4477      0.0297     12.2621     71.2843     17.3572
  1567.6000      8.0161      2.4386      0.0252     12.8109     68.1231     17.3848
  1567.7000      8.0161      2.4386      0.0279     12.8097     68.1913     16.5726
  1567.8000      8.0310      2.4504      0.0700     12.0964     73.3677     15.9148
  1567.9000      8.0310      2.4609      0.0653     11.4622     77.8942     15.7682
  1568.0000      8.0342      2.4595      0.0265     11.5452     78.5771     15.7375
  1568.1000      8.0342      2.4538      0.0169     11.8909     78.5721     15.7215
  1568.2000      8.0342      2.4512      0.0397     12.0510     80.3069     16.0734
  1568.3000      8.0527      2.4515      0.0289     12.0314     81.5768     16.5972
  1568.4000      8.0527      2.4537      0.0388     11.8951     79.8923     17.0911
  1568.5000      8.0509      2.4476      0.0385     12.2672     76.8295     17.7829
  1568.6000      8.0509      2.4317      0.0265     13.2331     75.1793     18.2178
  1568.7000      8.0509      2.4243     -0.0090     13.6779     75.6248     17.8767
  1568.8000      8.0457      2.4341      0.0000     13.0818     75.8164     16.9303
  1568.9000      8.0457      2.4440      0.0581     12.4846     73.3150     15.8889
  1569.0000      8.0444      2.4429      0.0335     12.5498     68.1266     15.5596
  1569.1000      8.0444      2.4440     -0.0010     12.4827     63.4154     16.2706
  1569.2000      8.0444      2.4525      0.0245     11.9685     62.1460     17.4970
  1569.3000      8.0431      2.4541      0.0339     11.8722     64.0477     18.3717
  1569.4000      8.0431      2.4458     -0.0294     12.3754     68.0728     18.1421
  1569.5000      8.0437      2.4396      0.0299     12.7503     71.5973     17.0952
  1569.6000      8.0437      2.4317      0.0343     13.2314     69.3158     16.6869
  1569.7000      8.0437      2.4121      0.0214     14.4158     62.0692     17.7249
  1569.8000      8.0398      2.3949     -0.0189     15.4604     59.3562     19.2255
  1569.9000      8.0398      2.4058     -0.0014     14.7974     63.6305     19.6758
  1570.0000      8.0406      2.4462      0.0227     12.3528     69.0673     19.0964
  1570.1000      8.0406      2.4873      0.0599      9.8588     72.1350     18.5458
  1570.2000      8.0406      2.5051      0.0589      8.7830     71.0130     18.1994
  1570.3000      8.0414      2.5087      0.0128      8.5612     65.1918     17.5545
  1570.4000      8.0414      2.5131      0.0951      8.2955     57.9915     17.0107
  1570.5000      8.0220      2.5149      0.0428      8.1854     53.2123     16.8200
  1570.6000      8.0220      2.5167      0.0703      8.0794     52.2924     16.1731
  1570.7000      8.0220      2.5188      0.0724      7.9513     55.3896     15.2782
  1570.8000      7.9877      2.5093      0.0651      8.5302     61.5335     14.9941
  1570.9000      7.9877      2.4942      0.0187      9.4427     68.5184     15.1363
  1571.0000      7.9818      2.4974      0.0124      9.2497     73.0527     15.3088
  1571.1000      7.9818      2.5187      0.0397      7.9551     74.6568     15.7444
  1571.2000      7.9818      2.5328      0.0672      7.1043     75.3069     16.5652
  1571.3000      7.9913      2.5301     -0.0118      7.2689     75.4382     16.9306
  1571.4000      7.9913      2.5254     -0.0001      7.5540     74.4466     16.0522
  1571.5000      8.0233      2.5255      0.0319      7.5478     72.6118     14.4951
  1571.6000      8.0233      2.5235      0.0462      7.6689     71.2309     13.4981
  1571.7000      8.0233      2.5177     -0.0076      8.0183     70.5527     13.6225
  1571.8000      8.0262      2.5078      0.0539      8.6169     71.9553     14.3501
  1571.9000      8.0262      2.4908     -0.0104      9.6493     76.7106     14.8808
  1572.0000      8.0248      2.4791      0.0245     10.3596     81.8722     15.2391
  1572.1000      8.0248      2.4846      0.0319     10.0232     82.8472     15.8602
  1572.2000      8.0248      2.4976      0.0642      9.2382     79.1738     16.5488
  1572.3000      8.0131      2.5030      0.0234      8.9117     75.6186     16.7853
  1572.4000      8.0131      2.5043     -0.0115      8.8290     73.5846     16.4789
  1572.5000      7.9905      2.5099      0.0325      8.4879     70.9586     15.6485
  1572.6000      7.9905      2.5161      0.0427      8.1122     69.6828     14.8060
  1572.7000      7.9905      2.5221      0.0336      7.7494     73.0059     14.7494
  1572.8000      8.0042      2.5300      0.0856      7.2755     78.5055     15.4153
  1572.9000      8.0042      2.5380      0.0483      6.7896     78.9252     16.0783
  1573.0000      7.9756      2.5436      0.0931      6.4504     73.3748     16.2396
  1573.1000      7.9756      2.5398      0.0770      6.6775     67.2603     16.0548
  1573.2000      7.9756      2.5286      0.0413      7.3587     63.4582     15.7288
  1573.3000      7.9854      2.5168      0.0851      8.0698     63.1262     15.2274
  1573.4000      7.9854      2.5048      0.0359      8.8012     67.6283     14.8609
  1573.5000      7.9987      2.4917      0.0345      9.5942     74.3181     15.1933
  1573.6000      7.9987      2.4752      0.0724     10.5921     76.2962     16.0437
  1573.7000      7.9987      2.4595     -0.0033     11.5454     70.2751     16.4916
  1573.8000      8.0234      2.4540     -0.0114     11.8770     61.0048     16.1623
  1573.9000      8.0234      2.4514      0.0300     12.0371     55.2770     15.5069
  1574.0000      8.0316      2.4437     -0.0272     12.5023     52.6828     15.3797
  1574.1000      8.0316      2.4409      0.0069     12.6708     49.9293     16.1434
  1574.2000      8.0316      2.4444      0.0141     12.4590     48.8548     16.9105
  1574.3000      8.0346      2.4478      0.0376     12.2552     51.1541     16.9448
