~Version Information
VERS.                      2.0: CWLS Log ASCII Standard - VERSION 2.0
WRAP.                       NO: One line per depth step
~Well Information Block
STRT.FT               245.0000: 
STOP.FT              1273.7500: 
STEP.FT                 0.2500: 
NULL.                -999.2500: 
COMP.          Pioneer Natural Resources: COMPANY
WELL.                 Ray 34-6: WELL
FLD.           Purgatoire River: FIELD
LOC.           684' FSL & 2254' FEL--: LOCATION
CNTY.               Las Animas: COUNTY
SRVC.                Patterson: SERVICE COMPANY
DATE.          Fri May 26 03:08:09 2006: LOG DATE
UWI.           05 071 08695 00: UNIQUE WELL ID
STAT.                 Colorado: STATE
~Curve Information Block
DEPT.FT            0 000 00 00: Depth
SN.Ohm-m                      : IEL Short Normal
SP.mV                         : IEL Spontaneous Potential
DIR.Ohm-m                     : IEL Induction Resistivity
GR.GAPI                       : Gamma Ray
~Parameter Information Block
~A  Depth        SN          SP         DIR          GR     
# ...
   580.0000    685.7410   -564.6198     10.4702    160.2948
   580.2500    685.7410   -564.6244     10.1995    161.6287
   580.5000    685.7410   -564.6288     10.0268    161.3686
   580.7500    685.7410   -564.6330      9.9537    160.3419
   581.0000    685.7410   -564.6365      9.9836    158.8131
   581.2500    685.7410   -564.6392     10.1191    157.7603
   581.5000    685.7410   -564.6411     10.3591    154.4978
   581.7500    685.7410   -564.6422     10.6947    150.2725
   582.0000    685.7410   -564.6426     11.1078    141.1089
   582.2500    685.7410   -564.6425     11.5748    134.3394
   582.5000    685.7410   -564.6423     12.0714    125.6945
   582.7500    685.7410   -564.6422     12.5755    121.9373
   583.0000    685.7410   -564.6423     13.0656    119.8915
   583.2500    685.7410   -564.6428     13.5171    120.6954
   583.5000    685.7410   -564.6437     13.9059    124.1239
   583.7500    685.7410   -564.6451     14.2205    127.1644
   584.0000    685.7410   -564.6470     14.4738    131.8793
   584.2500    685.7410   -564.6493     14.7030    134.7837
   584.5000    685.7410   -564.6519     14.9539    138.3075
   584.7500    685.7410   -564.6547     15.2616    139.6909
   585.0000    685.7410   -564.6577     15.6400    139.3509
   585.2500    685.7410   -564.6606     16.0844    137.0855
   585.5000    685.7410   -564.6634     16.5834    130.8891
   585.7500    685.7410   -564.6660     17.1265    125.7408
   586.0000    685.7410   -564.6682     17.7029    118.5150
   586.2500    685.7410   -564.6699     18.2899    115.0246
   586.5000    685.7410   -564.6711     18.8440    112.6624
   586.7500    685.7410   -564.6718     19.3089    113.0727
   587.0000    685.7410   -564.6719     19.6387    116.3024
   587.2500    685.7410   -564.6719     19.8216    119.8272
   587.5000    685.7410   -564.6716     19.8823    126.5077
   587.7500    685.7410   -564.6715     19.8632    131.5009
   588.0000    685.7410   -564.6716     19.7999    138.6182
   588.2500    685.7410   -564.6722     19.7083    141.8750
   588.5000    685.7410   -564.6732     19.5903    142.1512
   588.7500    685.7410   -564.6746     19.4515    138.6586
   589.0000    685.7410   -564.6763     19.3171    129.3565
   589.2500    685.7410   -564.6779     19.2350    122.3361
   589.5000    685.7410   -564.6791     19.2624    113.5858
   589.7500    685.7410   -564.6797     19.4452    109.8612
   590.0000    685.7410   -564.6794     19.8012    107.6759
   590.2500    685.7410   -564.6780     20.3091    108.0529
   590.5000    685.7410   -564.6755     20.9028    109.8584
   590.7500    685.7410   -564.6719     21.4728    110.9799
   591.0000    685.7410   -564.6676     21.8828    111.9307
   591.2500    685.7410   -564.6628     22.0094    112.2708
   591.5000    685.7410   -564.6580     21.7919    112.7110
   591.7500    685.7410   -564.6534     21.2594    113.0060
   592.0000    685.7410   -564.6494     20.5094    113.8322
   592.2500    685.7410   -564.6461     19.6591    115.1909
   592.5000    685.7410   -564.6437     18.8045    119.0081
   592.7500    685.7410   -564.6422     18.0049    122.2773
   593.0000    685.7410   -564.6416     17.2870    126.5595
   593.2500    685.7410   -564.6418     16.6533    128.3045
   593.5000    685.7410   -564.6429     16.0919    129.4427
   593.7500    685.7410   -564.6446     15.5853    129.8460
   594.0000    685.7410   -564.6469     15.1175    130.8619
   594.2500    685.7410   -564.6495     14.6769    132.0105
   594.5000    685.7410   -564.6523     14.2552    134.4479
   594.7500    685.7410   -564.6552     13.8481    136.6485
   595.0000    685.7410   -564.6580     13.4568    141.1638
   595.2500    685.7410   -564.6603     13.0903    144.9812
   595.5000    685.7410   -564.6624     12.7633    151.1444
   595.7500    685.7410   -564.6638     12.4915    154.8301
   596.0000    685.7410   -564.6647     12.2874    158.7634
   596.2500    685.7410   -564.6650     12.1591    160.0400
   596.5000    685.7410   -564.6649     12.1125    159.7287
   596.7500    685.7410   -564.6641     12.1522    158.0904
   597.0000    685.7410   -564.6630     12.2820    154.0457
   597.2500    685.7410   -564.6616     12.5049    150.6768
   597.5000    685.7410   -564.6599     12.8218    144.7484
   597.7500    685.7410   -564.6581     13.2335    140.0597
   598.0000    685.7410   -564.6562     13.7420    131.9865
   598.2500    685.7410   -564.6545     14.3505    126.2726
   598.5000    685.7410   -564.6530     15.0605    117.9769
   598.7500    685.7410   -564.6520     15.8668    113.0258
   599.0000    685.7410   -564.6515     16.7543    107.0897
   599.2500    685.7410   -564.6516     17.6968    104.3508
   599.5000    685.7410   -564.6522     18.6613    101.7695
   599.7500    685.7410   -564.6534     19.6150    100.4263
   600.0000    685.7410   -564.6551     20.5325     97.7387
   600.2500    685.7410   -564.6571     21.3986     95.1836
   600.5000    685.7410   -564.6593     22.2079     90.5375
   600.7500    685.7410   -564.6615     22.9615     87.2673
   601.0000    685.7410   -564.6637     23.6700     82.5308
   601.2500    685.7410   -564.6658     24.3582     79.6181
   601.5000    685.7410   -564.6678     25.0652     75.7757
   601.7500    685.7410   -564.6699     25.8327     73.6270
   602.0000    685.7410   -564.6721     26.6844     71.1353
   602.2500    685.7410   -564.6744     27.6010     70.0936
   602.5000    685.7410   -564.6772     28.4974     69.8654
   602.7500    685.7410   -564.6803     29.2115     70.8451
   603.0000    685.7410   -564.6838     29.5252     74.0046
   603.2500    685.7410   -564.6877     29.2318     76.8623
   603.5000    685.7410   -564.6919     28.2368     81.5121
   603.7500    685.7410   -564.6962     26.6263     84.8496
   604.0000    685.7410   -564.7003     24.6382     91.3658
   604.2500    685.7410   -564.7042     22.5504     97.6348
   604.5000    685.7410   -564.7075     20.5769    110.2631
   604.7500    685.7410   -564.7104     18.8299    119.6674
   605.0000    685.7410   -564.7127     17.3399    131.6950
   605.2500    685.7410   -564.7146     16.0919    136.6796
   605.5000    685.7410   -564.7161     15.0541    139.5442
   605.7500    685.7410   -564.7176     14.1926    139.7943
   606.0000    685.7410   -564.7191     13.4800    140.3371
   606.2500    685.7410   -564.7209     12.8984    141.4256
   606.5000    685.7410   -564.7232     12.4382    143.5363
   606.7500    685.7410   -564.7258     12.0945    144.6536
   607.0000    685.7410   -564.7288     11.8628    145.3324
   607.2500    685.7410   -564.7319     11.7364    144.9859
   607.5000    685.7410   -564.7350     11.7058    143.0637
   607.7500    685.7410   -564.7379     11.7588    140.9322
   608.0000    685.7410   -564.7404     11.8821    137.4235
   608.2500    685.7410   -564.7425     12.0625    135.6879
   608.5000    685.7410   -564.7441     12.2882    134.5800
   608.7500    685.7410   -564.7454     12.5490    134.2727
   609.0000    685.7410   -564.7463     12.8368    132.4532
   609.2500    685.7410   -564.7471     13.1459    129.4213
   609.5000    685.7410   -564.7480     13.4726    122.3055
   609.7500    685.7410   -564.7492     13.8106    116.8611
   610.0000    685.7410   -564.7507     14.1458    109.7083
   610.2500    685.7410   -564.7527     14.4532    106.5527
   610.5000    685.7410   -564.7552     14.6997    105.3557
   610.7500    685.7410   -564.7583     14.8491    107.2261
   611.0000    685.7410   -564.7620     14.8679    113.5419
   611.2500    685.7410   -564.7660     14.7342    119.2179
   611.5000    685.7410   -564.7704     14.4492    128.1145
   611.7500    685.7410   -564.7749     14.0453    133.4163
   612.0000    685.7410   -564.7793     13.5814    139.4604
   612.2500    685.7410   -564.7834     13.1263    141.9751
   612.5000    685.7410   -564.7870     12.7384    143.5700
   612.7500    685.7410   -564.7900     12.4541    143.5135
   613.0000    685.7410   -564.7924     12.2860    142.5128
   613.2500    685.7410   -564.7939     12.2288    141.4122
