~Version Information
VERS.                      2.0: CWLS Log ASCII Standard - VERSION 2.0
WRAP.                       NO: One line per depth step
~Well Information Block
STRT.FT                -6.5000: 
STOP.FT              1773.5000: 
STEP.FT                 0.2500: 
NULL.                -999.2500: 
COMP.          Pioneer Natural Resources: COMPANY
WELL.           Lynch 43-30 Tr: WELL
FLD.           Purgatorie River: FIELD
LOC.           1431' FSL & 296' FEL--: LOCATION
PROV.                       CO: PROVINCE
CNTY.               Las Animas: COUNTRY
SRVC.          Patterson Wireline: SERVICE COMPANY
DATE.          Tue Aug 02 09:28:21 2005: LOG DATE
UWI.           05 071 08447 00: UNIQUE WELL ID
~Curve Information Block
DEPT.FT            0 000 00 00: Depth
CCL.                          : Casing Collar Locator
TT3.usec                      : CBL 3' Travel Time
AMP3.mV                       : CBL 3' Amplitude
GR.GAPI                       : Gamma Ray
~Parameter Information Block
MINAMPL.mV              1.0000: Minimum Amplitude
~A  Depth       CCL         TT3         AMP3         GR     
# ...
  1032.0000      0.0000    848.9670     17.1043    145.7082
  1032.2500      0.0000    845.5102     17.0707    148.7192
  1032.5000      0.0000    841.2059     17.0113    147.8312
  1032.7500      0.0000    837.9360     16.9196    144.3961
  1033.0000      0.0000    837.4929     16.7967    139.9137
  1033.2500      0.0000    839.8366     16.6461    135.0082
  1033.5000      0.0000    842.8518     16.4709    130.0578
  1033.7500      0.0000    843.8746     16.2778    125.9619
  1034.0000      0.0000    841.3970     16.0837    123.4426
  1034.2500      0.0000    835.7957     15.9127    122.0213
  1034.5000      0.0000    829.0903     15.7810    120.6476
  1034.7500      0.0000    823.9857     15.6780    119.2968
  1035.0000      0.0000    822.4492     15.5545    119.1175
  1035.2500      0.0000    824.3238     15.3306    120.7465
  1035.5000      0.0000    826.4694     14.9394    123.1197
  1035.7500      0.0000    823.9396     14.3916    124.4643
  1036.0000      0.0000    814.6500     13.7858    124.2105
  1036.2500      0.0000    804.3153     13.2172    123.4248
  1036.5000      0.0000    804.2438     12.6991    123.3221
  1036.7500      0.0000    821.5141     12.2202    123.7783
  1037.0000      0.0000    852.4568     11.8317    123.5702
  1037.2500      0.0000    886.6530     11.6003    121.7417
  1037.5000      0.0000    914.7278     11.5107    118.3907
  1037.7500     -2.0000    931.2599     11.4766    114.4923
  1038.0000      2.0000    933.5880     11.4270    111.4962
  1038.2500      0.0000    920.2202     11.3624    110.7770
  1038.5000      0.0000    890.6341     11.3635    112.9084
  1038.7500      0.0000    848.3583     11.5501    117.4465
  1039.0000      0.0000    805.0905     11.9822    123.4873
  1039.2500      0.0000    777.1972     12.5840    130.0661
  1039.5000      0.0000    773.2830     13.2069    135.8842
  1039.7500      0.0000    786.7703     13.7529    139.2862
  1040.0000      0.0000    803.5444     14.1947    139.1858
  1040.2500      0.0000    814.9573     14.5175    135.9891
  1040.5000      0.0000    821.5448     14.7058    131.3638
  1040.7500      0.0000    827.2723     14.7685    127.0148
  1041.0000      0.0000    833.8710     14.7395    123.6687
  1041.2500      0.0000    840.2844     14.6557    121.1550
  1041.5000      0.0000    845.0250     14.5450    119.3747
  1041.7500      0.0000    847.7310     14.4278    118.8782
  1042.0000      0.0000    849.0225     14.3206    120.1950
  1042.2500      0.0000    849.6716     14.2360    122.7281
  1042.5000      0.0000    850.2087     14.1798    124.8854
  1042.7500      0.0000    851.0282     14.1493    125.4257
  1043.0000      0.0000    852.7065     14.1390    124.1866
  1043.2500      0.0000    856.0741     14.1463    121.4810
  1043.5000      0.0000    861.6689     14.1695    117.5075
  1043.7500      0.0000    868.7231     14.2040    112.6778
  1044.0000      0.0000    875.0521     14.2397    107.9837
  1044.2500      0.0000    878.9965     14.2642    104.4871
  1044.5000      0.0000    881.7155     14.2666    102.5677
  1044.7500      0.0000    886.3072     14.2398    102.0147
  1045.0000      0.0000    894.0518     14.1825    102.7629
  1045.2500      0.0000    902.8010     14.1013    105.2139
  1045.5000      0.0000    909.7310     14.0127    109.7033
  1045.7500      0.0000    914.2650     13.9393    115.5050
  1046.0000      0.0000    917.6119     13.8992    120.5139
  1046.2500      0.0000    920.5581     13.8952    122.4410
  1046.5000      0.0000    922.3755     13.9158    120.5498
  1046.7500      0.0000    921.3206     13.9439    116.0157
  1047.0000      0.0000    916.1743     13.9660    110.7283
  1047.2500      0.0000    908.0436     13.9747    106.1024
  1047.5000      0.0000    900.9458     13.9673    102.7428
  1047.7500      0.0000    899.5996     13.9422    100.7218
  1048.0000      0.0000    905.4192     13.8946    100.1763
  1048.2500      0.0000    914.6767     13.8165    101.7499
  1048.5000      0.0000    921.0437     13.7040    105.9817
  1048.7500      0.0000    919.6012     13.5674    112.0133
  1049.0000      0.0000    908.7051     13.4320    117.6037
  1049.2500      0.0000    889.7942     13.3240    121.2128
  1049.5000      0.0000    866.8125     13.2574    123.6232
  1049.7500      0.0000    845.4117     13.2328    126.6919
  1050.0000      0.0000    831.1724     13.2513    130.8088
  1050.2500      0.0000    826.9049     13.3244    134.3455
  1050.5000      0.0000    830.9510     13.4677    135.3133
  1050.7500      0.0000    838.5270     13.6808    132.9238
  1051.0000      0.0000    845.2298     13.9317    128.0230
  1051.2500      0.0000    849.3173     14.1654    122.7605
  1051.5000      0.0000    851.2913     14.3336    119.5118
  1051.7500      0.0000    852.3718     14.4193    119.4401
  1052.0000      0.0000    853.6168     14.4374    121.9681
  1052.2500      0.0000    855.7409     14.4149    125.6971
  1052.5000      0.0000    858.9135     14.3690    129.6581
  1052.7500      0.0000    862.5327     14.2987    133.5685
  1053.0000      0.0000    865.5404     14.1946    137.1075
  1053.2500      0.0000    867.1745     14.0543    139.4803
  1053.5000      0.0000    867.1563     13.8845    139.8993
  1053.7500      0.0000    865.2109     13.6927    138.3405
  1054.0000      0.0000    860.9785     13.4856    135.7499
  1054.2500      0.0000    854.5997     13.2769    133.4031
  1054.5000      0.0000    847.2275     13.0910    131.8238
  1054.7500      0.0000    840.9989     12.9537    130.4641
  1055.0000      0.0000    838.1525     12.8797    128.6845
  1055.2500      0.0000    839.4161     12.8648    126.6889
  1055.5000      0.0000    843.2617     12.8870    125.1066
  1055.7500      0.0000    847.2104     12.9187    124.0968
  1056.0000      0.0000    849.7523     12.9466    123.3936
  1056.2500      0.0000    850.8438     12.9771    122.8937
  1056.5000      0.0000    851.1116     13.0213    122.6958
  1056.7500      0.0000    851.0949     13.0770    122.6990
  1057.0000      0.0000    851.0482     13.1288    122.5572
  1057.2500      0.0000    851.0353     13.1614    122.2638
  1057.5000      0.0000    851.0372     13.1742    122.4636
  1057.7500      0.0000    851.0497     13.1831    123.5932
  1058.0000      0.0000    851.1454     13.2094    124.8974
  1058.2500      0.0000    851.4931     13.2639    125.0665
  1058.5000      0.0000    852.3609     13.3401    123.6590
  1058.7500      0.0000    854.1896     13.4207    121.0988
  1059.0000      0.0000    857.6566     13.4895    117.6003
  1059.2500      0.0000    863.4072     13.5383    113.0906
  1059.5000      0.0000    871.3149     13.5670    108.0845
  1059.7500      0.0000    879.8532     13.5780    103.7373
  1060.0000      0.0000    886.4117     13.5726    100.9142
  1060.2500      0.0000    888.4472     13.5510     99.8070
  1060.5000      0.0000    884.6833     13.5137    100.4897
  1060.7500      0.0000    875.9464     13.4677    103.1124
  1061.0000      0.0000    865.2661     13.4308    107.3215
  1061.2500      0.0000    856.4944     13.4271    111.9416
  1061.5000      0.0000    851.9175     13.4702    115.3758
  1061.7500      0.0000    851.0191     13.5499    116.2622
  1062.0000      0.0000    851.4902     13.6367    114.0138
  1062.2500      0.0000    850.9538     13.7002    109.0242
  1062.5000      0.0000    847.7936     13.7276    102.5813
  1062.7500      0.0000    841.4821     13.7283     96.6849
  1063.0000      0.0000    833.1452     13.7209     93.3846
  1063.2500      0.0000    825.6099     13.7166     93.5002
  1063.5000      0.0000    821.9928     13.7170     95.9558
  1063.7500      0.0000    823.7460     13.7271     98.8180
  1064.0000      0.0000    829.8966     13.7588    101.0038
  1064.2500      0.0000    837.8611     13.8143    102.6822
  1064.5000      0.0000    844.9857     13.8729    104.2147
  1064.7500      0.0000    849.8085     13.9022    105.3904
  1065.0000      0.0000    852.3305     13.8819    106.0254
  1065.2500      0.0000    853.3175     13.8136    106.8920
