~Version Information
VERS.                      2.0: CWLS Log ASCII Standard - VERSION 2.0
WRAP.                       NO: One line per depth step
~Well Information Block
STRT.FT               325.0000: 
STOP.FT              1013.5000: 
STEP.FT                 0.1000: 
NULL.                -999.2500: 
COMP.          Pioneer Natural Resources: COMPANY
WELL.                Doc 34-30: WELL
FLD.           Purgatoire River: FIELD
LOC.           454' FSL & 1386' FEL: LOCATION
CNTY.               Las Animas: COUNTY
SRVC.                Patterson: SERVICE COMPANY
DATE.          Thu Feb 16 07:19:58 2006: LOG DATE
UWI.           05 071 08694 00: UNIQUE WELL ID
STAT.                 Colorado: STATE
~Curve Information Block
DEPT.FT            0 000 00 00: Depth
DCAL.in                       : CDL Caliper
RHOB.g/cc                     : CDL Bulk Density
RHOC.g/cc                     : CDL Density Correction
DPOR.pu                       : CDL Density Porosity
GR.GAPI                       : Gamma Ray
NPOR.pu                       : Neutron Porosity
~Parameter Information Block
~A  Depth       DCAL        RHOB        RHOC        DPOR         GR         NPOR    
# ...
   507.4000      8.0366      2.3943      0.0438     15.4977     70.5048     18.2260
   507.5000      8.0364      2.3777     -0.0282     16.5005     68.8254     18.6451
   507.6000      8.0364      2.3796      0.0125     16.3868     70.0653     19.0397
   507.7000      8.0364      2.3861      0.0596     15.9913     72.0559     19.5284
   507.8000      8.0362      2.3743      0.0368     16.7093     73.3675     19.8579
   507.9000      8.0362      2.3538     -0.0348     17.9529     74.9573     19.8164
   508.0000      8.0364      2.3515     -0.0111     18.0917     77.7952     19.5173
   508.1000      8.0364      2.3726      0.0097     16.8112     79.7451     19.5891
   508.2000      8.0364      2.4020      0.0496     15.0325     79.8417     20.1813
   508.3000      8.0365      2.4241      0.0486     13.6925     81.5715     20.8228
   508.4000      8.0365      2.4368      0.0347     12.9210     86.2497     21.1203
   508.5000      8.0363      2.4424      0.0778     12.5798     90.7580     21.0134
   508.6000      8.0363      2.4388      0.0849     12.7989     90.8958     20.9930
   508.7000      8.0363      2.4325      0.0480     13.1811     87.3157     21.1226
   508.8000      8.0357      2.4303      0.0647     13.3166     86.6313     21.0722
   508.9000      8.0357      2.4252      0.0370     13.6264     91.5472     21.0977
   509.0000      8.0358      2.4178      0.0003     14.0746     97.4013     21.0243
   509.1000      8.0358      2.4201      0.0077     13.9333     99.3586     20.2948
   509.2000      8.0358      2.4318      0.0534     13.2271     96.0674     19.3911
   509.3000      8.0366      2.4380      0.0634     12.8489     88.5853     19.0201
   509.4000      8.0366      2.4309      0.0763     13.2808     81.4069     18.9554
   509.5000      8.0372      2.4192      0.0938     13.9887     77.8261     19.0039
   509.6000      8.0372      2.4124      0.1142     14.3997     74.8711     19.2117
   509.7000      8.0372      2.4042      0.1174     14.8983     70.9655     19.2412
   509.8000      8.0365      2.3881      0.0507     15.8756     67.6314     18.9450
   509.9000      8.0365      2.3713      0.0268     16.8893     65.8341     18.4675
   510.0000      8.0344      2.3583      0.0528     17.6803     68.9445     18.0221
   510.1000      8.0344      2.3513      0.0114     18.1019     79.2812     17.8509
   510.2000      8.0344      2.3624     -0.0217     17.4275     90.9909     17.9387
   510.3000      8.0329      2.3880      0.0293     15.8772     95.8145     18.0311
   510.4000      8.0329      2.4026      0.0351     14.9948     92.5519     17.9545
   510.5000      8.0338      2.3949      0.0013     15.4581     86.9047     17.6128
   510.6000      8.0338      2.3752      0.0400     16.6557     82.6707     17.1599
   510.7000      8.0338      2.3584     -0.0240     17.6704     79.0505     16.9037
   510.8000      8.0348      2.3579     -0.0132     17.7042     76.9981     17.0815
   510.9000      8.0348      2.3707     -0.0097     16.9300     77.4281     17.5199
   511.0000      8.0348      2.3809      0.0100     16.3066     76.9567     17.8350
   511.1000      8.0348      2.3783      0.0306     16.4677     73.0168     17.8852
   511.2000      8.0348      2.3667     -0.0166     17.1695     69.0623     17.6074
   511.3000      8.0345      2.3598     -0.0221     17.5884     67.5593     17.1748
   511.4000      8.0345      2.3660     -0.0042     17.2148     66.7867     16.9051
   511.5000      8.0346      2.3809      0.0171     16.3099     67.0351     16.9742
   511.6000      8.0346      2.3936      0.0189     15.5422     68.8162     17.4837
   511.7000      8.0346      2.3975     -0.0200     15.3011     68.7741     18.0575
   511.8000      8.0348      2.3916      0.0226     15.6616     65.4729     18.1294
   511.9000      8.0348      2.3769      0.0076     16.5516     62.2617     17.9166
   512.0000      8.0344      2.3600      0.0091     17.5731     62.3052     17.8013
   512.1000      8.0344      2.3490     -0.0216     18.2426     64.9759     17.8445
   512.2000      8.0344      2.3472      0.0232     18.3518     65.2022     18.1532
   512.3000      8.0352      2.3534      0.0215     17.9738     60.7398     18.4283
   512.4000      8.0352      2.3685      0.0133     17.0622     57.6128     18.3571
   512.5000      8.0363      2.3921      0.0187     15.6275     58.1098     17.9934
   512.6000      8.0363      2.4158      0.0622     14.1947     57.5176     17.6454
   512.7000      8.0363      2.4278      0.0436     13.4667     55.8257     17.7020
   512.8000      8.0361      2.4267      0.0257     13.5362     56.1304     18.2170
   512.9000      8.0361      2.4221      0.0310     13.8105     57.5914     18.8686
   513.0000      8.0352      2.4244      0.0492     13.6732     58.4621     19.1098
   513.1000      8.0352      2.4346      0.0441     13.0516     60.3623     18.6534
   513.2000      8.0352      2.4417      0.0953     12.6223     65.5177     17.9283
   513.3000      8.0351      2.4304      0.0598     13.3096     72.8589     17.6264
   513.4000      8.0351      2.4031      0.0344     14.9651     76.9900     18.0566
   513.5000      8.0350      2.3775      0.0211     16.5158     75.0411     19.0736
   513.6000      8.0350      2.3692      0.0223     17.0171     71.5689     19.8349
   513.7000      8.0350      2.3800      0.0236     16.3656     71.9209     19.4488
   513.8000      8.0348      2.4025     -0.0160     14.9982     75.1284     18.3653
   513.9000      8.0348      2.4274      0.0902     13.4930     77.7304     17.7669
   514.0000      8.0354      2.4450      0.0557     12.4256     78.8904     17.9340
   514.1000      8.0354      2.4598      0.0875     11.5300     79.1589     18.2791
   514.2000      8.0354      2.4811      0.0854     10.2393     79.4586     18.4823
   514.3000      8.0361      2.5033      0.1271      8.8881     80.0886     18.8587
   514.4000      8.0361      2.5145      0.0988      8.2105     80.9462     19.3813
   514.5000      8.0359      2.5172      0.1147      8.0506     82.2239     19.4352
   514.6000      8.0359      2.5170      0.0721      8.0633     82.1999     19.1825
   514.7000      8.0359      2.5108      0.0474      8.4374     78.8463     19.4045
   514.8000      8.0346      2.4993      0.0366      9.1320     74.4355     19.9967
   514.9000      8.0346      2.4891      0.0415      9.7517     72.4374     20.3558
   515.0000      8.0331      2.4843      0.0078     10.0419     73.7763     20.5173
   515.1000      8.0331      2.4840      0.0229     10.0631     76.4618     20.6032
   515.2000      8.0331      2.4829     -0.0221     10.1297     77.8795     20.3301
   515.3000      8.0326      2.4776     -0.0177     10.4509     77.1072     19.9721
   515.4000      8.0326      2.4639      0.0194     11.2785     75.3028     20.0015
   515.5000      8.0334      2.4449      0.0011     12.4301     74.5289     20.2233
   515.6000      8.0334      2.4343     -0.0094     13.0712     74.8325     20.7323
   515.7000      8.0334      2.4371      0.0213     12.9003     75.5226     21.6106
   515.8000      8.0346      2.4459      0.0057     12.3669     75.5785     22.2367
   515.9000      8.0346      2.4599     -0.0248     11.5211     75.2548     22.1277
   516.0000      8.0353      2.4801      0.0121     10.2967     76.3809     21.4920
   516.1000      8.0353      2.4968     -0.0169      9.2837     78.9339     21.1846
   516.2000      8.0353      2.5032      0.0348      8.8998     79.6769     21.1527
   516.3000      8.0350      2.4982      0.0102      9.2023     77.2539     20.5095
   516.4000      8.0350      2.4805     -0.0003     10.2730     74.5156     19.7556
   516.5000      8.0339      2.4550     -0.0161     11.8164     74.6413     19.7238
   516.6000      8.0339      2.4366     -0.0333     12.9346     76.9857     20.2707
   516.7000      8.0339      2.4321     -0.0035     13.2066     78.5005     20.8839
   516.8000      8.0329      2.4306      0.0287     13.2943     79.1159     20.9853
   516.9000      8.0329      2.4275     -0.0107     13.4834     78.0319     20.7118
