~Version Information
VERS.                      2.0: CWLS Log ASCII Standard - VERSION 2.0
WRAP.                       NO: One line per depth step
~Well Information Block
STRT.FT               440.0000: 
STOP.FT              1702.7500: 
STEP.FT                 0.2500: 
NULL.                -999.2500: 
COMP.          Pioneer Natural Resources: COMPANY
WELL.          Culver 14-12 Tr: WELL
FLD.           Purgatoire River: FIELD
LOC.           915' FSL & 1048' FWL--: LOCATION
STAT.                 Colorado: State
CNTY.               Las Animas: COUNTY
CTRY. USA : Country
SECT. 12 : Section
TOWN. 32S : Township
RANG. 66W : Range
SRVC.                Patterson: SERVICE COMPANY
DATE.          Tue Sep 27 23:38:23 2005: LOG DATE
API.           05 071 08520 00: UNIQUE WELL ID
~Curve Information Block
DEPT.FT            0 000 00 00: Depth
SN.Ohm-m                      : IEL Short Normal
SP.mV                         : IEL Spontaneous Potential
DIR.Ohm-m                     : IEL Induction Resistivity
GR.GAPI                       : Gamma Ray
~Parameter Information Block
~A  Depth        SN          SP         DIR          GR     
# ...
  1344.5000     11.3824     48.5846     10.8173    146.6395
  1344.7500     11.0600     48.5749     10.5973    148.3771
  1345.0000     10.8565     48.5952     10.4962    150.9231
  1345.2500     10.8151     48.6182     10.5217    152.1100
  1345.5000     10.9508     48.6056     10.6711    152.4310
  1345.7500     11.2364     48.5213     10.9310    151.4985
  1346.0000     11.6117     48.3423     11.2782    148.2618
  1346.2500     12.0152     48.0639     11.6835    144.8897
  1346.5000     12.4158     47.6989     12.1179    138.7376
  1346.7500     12.8207     47.2705     12.5598    135.0089
  1347.0000     13.2568     46.8040     12.9996    132.2296
  1347.2500     13.7437     46.3187     13.4394    132.8084
  1347.5000     14.2779     45.8249     13.8888    135.9311
  1347.7500     14.8372     45.3241     14.3609    137.7965
  1348.0000     15.4001     44.8133     14.8676    137.6528
  1348.2500     15.9627     44.2881     15.4187    135.0162
  1348.5000     16.5400     43.7469     16.0210    128.1077
  1348.7500     17.1590     43.1907     16.6783    122.6920
  1349.0000     17.8517     42.6221     17.3923    115.1934
  1349.2500     18.6457     42.0429     18.1638    111.0756
  1349.5000     19.5528     41.4510     18.9938    105.9175
  1349.7500     20.5645     40.8394     19.8832    102.6778
  1350.0000     21.6617     40.1958     20.8329     97.4597
  1350.2500     22.8243     39.5028     21.8450     93.6996
  1350.5000     24.0293     38.7405     22.9203     88.2743
  1350.7500     25.2419     37.8887     24.0466     85.2971
  1351.0000     26.4127     36.9292     25.1845     82.0117
  1351.2500     27.4896     35.8494     26.2631     80.2615
  1351.5000     28.4377     34.6435     27.1984     77.5949
  1351.7500     29.2531     33.3149     27.9268     75.6493
  1352.0000     29.9614     31.8760     28.4340     72.6730
  1352.2500     30.6044     30.3469     28.7609     70.8703
  1352.5000     31.2227     28.7531     28.9848     68.8384
  1352.7500     31.8422     27.1230     29.1900     68.0514
  1353.0000     32.4711     25.4849     29.4406     67.3860
  1353.2500     33.1085     23.8655     29.7648     66.7925
  1353.5000     33.7534     22.2896     30.1533     64.9675
  1353.7500     34.4001     20.7803     30.5733     63.1706
  1354.0000     35.0242     19.3591     30.9906     60.3538
  1354.2500     35.5817     18.0467     31.3847     58.7855
  1354.5000     36.0301     16.8615     31.7487     57.0250
  1354.7500     36.3588     15.8199     32.0795     56.2023
  1355.0000     36.6022     14.9339     32.3722     55.7136
  1355.2500     36.8251     14.2117     32.6215     56.1351
  1355.5000     37.0872     13.6564     32.8230     58.0269
  1355.7500     37.4045     13.2676     32.9722     59.8382
  1356.0000     37.7337     13.0416     33.0637     62.3319
  1356.2500     37.9974     12.9712     33.0918     63.2289
  1356.5000     38.1346     13.0453     33.0502     63.0986
  1356.7500     38.1382     13.2475     32.9322     62.3941
  1357.0000     38.0468     13.5554     32.7333     61.4667
  1357.2500     37.9044     13.9402     32.4532     61.3577
  1357.5000     37.7257     14.3698     32.0985     61.9457
  1357.7500     37.4963     14.8127     31.6851     62.5052
  1358.0000     37.2034     15.2428     31.2425     63.0507
  1358.2500     36.8641     15.6430     30.8099     63.2263
  1358.5000     36.5193     16.0074     30.4241     63.8105
  1358.7500     36.2046     16.3391     30.1087     64.7155
  1359.0000     35.9303     16.6470     29.8752     66.5238
  1359.2500     35.6909     16.9412     29.7331     67.4179
  1359.5000     35.4901     17.2293     29.6964     67.4239
  1359.7500     35.3546     17.5154     29.7781     66.5372
  1360.0000     35.3227     17.7998     29.9862     64.7071
  1360.2500     35.4140     18.0815     30.3392     63.7962
  1360.5000     35.5988     18.3608     30.9035     63.3944
  1360.7500     35.7900     18.6416     31.8387     63.4202
  1361.0000     35.8664     18.9328     33.4320     62.7337
  1361.2500     35.7132     19.2480     36.1353     61.4786
  1361.5000     35.2522     19.6030     40.6344     59.0938
  1361.7500     34.4536     20.0119     47.9536     57.9281
  1362.0000     33.3415     20.4814     59.4115     57.8385
  1362.2500     31.9982     21.0048     75.5022     59.2691
  1362.5000     30.5508     21.5563     91.6539     64.2874
  1362.7500     29.1279     22.0850     95.1884     69.9163
  1363.0000     27.8069     22.5124     81.1848     81.9725
  1363.2500     26.5879     22.7321     61.8780     91.9158
  1363.5000     25.4156     22.6135     46.4819    107.1728
  1363.7500     24.2355     22.0102     35.9310    115.2482
  1364.0000     23.0439     20.7727     28.6793    120.4628
  1364.2500     21.9029     18.7654     23.3395    118.5301
  1364.5000     20.9184     15.8836     19.0918    109.2600
  1364.7500     20.1962     12.0670     15.5707    100.8787
  1365.0000     19.7865      7.3020     12.6617     88.1066
  1365.2500     19.6352      1.6100     10.3235     80.4864
  1365.5000     19.5649     -4.9807      8.5017     71.1668
  1365.7500     19.3079    -12.4725      7.1186     66.5554
  1366.0000     18.5964    -20.9364      6.0893     62.0421
  1366.2500     17.2895    -30.5303      5.3321     60.3939
  1366.5000     15.4709    -41.4856      4.7674     59.2337
  1366.7500     13.4294    -54.0536      4.3121     58.8897
  1367.0000     11.4982    -68.4223      3.8807     58.5205
  1367.2500      9.8634    -84.6196      3.4068     58.3084
  1367.5000      8.5004   -102.4367      2.8768     58.1500
  1367.7500      7.2795   -121.3960      2.3362     58.1965
  1368.0000      6.1196   -140.7728      1.8492     58.6301
  1368.2500      5.0588   -159.6634      1.4556     59.4178
  1368.5000      4.2164   -177.0750      1.1620     62.0775
  1368.7500      3.7038   -192.0100      0.9567     65.2687
  1369.0000      3.5400   -203.5316      0.8226     72.6243
  1369.2500      3.6107   -210.8111      0.7443     79.0994
  1369.5000      3.7139   -213.1776      0.7092     89.8485
  1369.7500      3.6906   -210.1821      0.7070     96.4550
  1370.0000      3.5523   -201.6809      0.7290    103.7067
  1370.2500      3.5024   -187.9141      0.7680    106.4892
  1370.5000      3.8431   -169.5443      0.8208    108.5251
  1370.7500      4.8306   -147.6255      0.8909    109.3362
  1371.0000      6.5342   -123.4891      0.9906    110.7997
  1371.2500      8.7621    -98.5704      1.1431    112.1497
  1371.5000     11.1322    -74.2161      1.3862    114.7021
  1371.7500     13.2707    -51.5222      1.7817    116.6236
  1372.0000     14.9897    -31.2378      2.4329    119.2811
  1372.2500     16.3125    -13.7455      3.5076    120.4214
  1372.5000     17.3722      0.8930      5.2279    120.5556
  1372.7500     18.2942     12.8516      7.6800    119.5608
  1373.0000     19.1386     22.4461     10.2745    116.9364
  1373.2500     19.9075     30.0515     11.7154    114.8330
  1373.5000     20.5891     36.0414     11.6175    111.5958
  1373.7500     21.1973     40.7519     10.9165    109.4814
  1374.0000     21.7785     44.4653     10.4575    106.6911
  1374.2500     22.3809     47.4081     10.5936    105.4532
  1374.5000     23.0221     49.7557     11.4971    104.8354
  1374.7500     23.6861     51.6414     13.4034    104.8992
  1375.0000     24.3431     53.1659     16.7667    104.6473
  1375.2500     24.9675     54.4059     22.4216    103.9283
  1375.5000     25.5432     55.4195     31.7188    102.5017
  1375.7500     26.0631     56.2516     46.1402    102.0233
  1376.0000     26.5299     56.9372     64.9534    103.0811
  1376.2500     26.9553     57.5032     81.4284    105.0054
  1376.5000     27.3575     57.9699     87.3122    108.3852
  1376.7500     27.7564     58.3515     83.4648    109.7338
  1377.0000     28.1668     58.6574     75.6390    108.8588
  1377.2500     28.5899     58.8929     66.8138    106.3188
  1377.5000     29.0061     59.0601     57.5858    100.9460
  1377.7500     29.3772     59.1592     48.4195     97.4529
