~Version Information
VERS.                      2.0: CWLS Log ASCII Standard - VERSION 2.0
WRAP.                       NO: One line per depth step
~Well Information Block
STRT.FT               245.0000: 
STOP.FT              1273.7500: 
STEP.FT                 0.2500: 
NULL.                -999.2500: 
COMP.          Pioneer Natural Resources: COMPANY
WELL.                 Ray 34-6: WELL
FLD.           Purgatoire River: FIELD
LOC.           684' FSL & 2254' FEL--: LOCATION
CNTY.               Las Animas: COUNTY
SRVC.                Patterson: SERVICE COMPANY
DATE.          Fri May 26 03:08:09 2006: LOG DATE
UWI.           05 071 08695 00: UNIQUE WELL ID
STAT.                 Colorado: STATE
~Curve Information Block
DEPT.FT            0 000 00 00: Depth
SN.Ohm-m                      : IEL Short Normal
SP.mV                         : IEL Spontaneous Potential
DIR.Ohm-m                     : IEL Induction Resistivity
GR.GAPI                       : Gamma Ray
~Parameter Information Block
~A  Depth        SN          SP         DIR          GR     
   245.0000      0.6627   -565.8391 100000.0000    119.2097
   245.2500      1.1966   -565.8399 100000.0000    121.8959
   245.5000      2.2394   -565.8409 100000.0000    128.7445
   245.7500      3.1327   -565.8419 100000.0000    134.0317
   246.0000      3.0330   -565.8430 100000.0000    140.9239
   246.2500      2.0210   -565.8441 100000.0000    144.0424
   246.5000      0.9514   -565.8452 100000.0000    146.5916
   246.7500      0.3856   -565.8464 100000.0000    147.4010
   247.0000      0.2936   -565.8477 100000.0000    147.6651
   247.2500      0.4215   -565.8490 100000.0000    146.9785
   247.5000      0.5015   -565.8504 100000.0000    144.5155
   247.7500      0.3932   -565.8519 100000.0000    142.2758
   248.0000      0.2037   -565.8535 100000.0000    138.6153
   248.2500      0.1214   -565.8552 100000.0000     90.6210
   248.5000      0.2276   -565.8569 100000.0000     87.4768
   248.7500      0.5199   -565.8586 100000.0000     85.1064
   249.0000      0.8815   -565.8604 100000.0000     81.4882
   249.2500      1.0421   -565.8621 100000.0000     79.2519
   249.5000      0.8789   -565.8635 100000.0000     76.4214
   249.7500      0.6479   -565.8647 100000.0000     75.0789
   250.0000      0.6074   -565.8657 100000.0000     74.4578
   250.2500      0.6514   -565.8663 100000.0000     75.2221
   250.5000      0.5699   -565.8668 100000.0000     77.8205
   250.7500      0.4150   -565.8669 100000.0000     80.0130
   251.0000      0.4541   -565.8669 100000.0000     83.3387
   251.2500      1.2288   -565.8669 100000.0000     85.4143
   251.5000      4.1752   -565.8668 100000.0000     87.8898
   251.7500     11.1866   -565.8668 100000.0000     88.7786
   252.0000     20.6242   -565.8669 100000.0000     89.0185
   252.2500     25.1526   -565.8671 100000.0000     89.1168
   252.5000     20.2015   -565.8673 100000.0000     90.7785
   252.7500     11.2583   -565.8676 100000.0000     93.4393
   253.0000      6.1460   -565.8677 100000.0000     99.3412
   253.2500      7.2834   -565.8677 100000.0000    103.7324
   253.5000     14.5729   -565.8674 100000.0000    109.4979
   253.7500     31.0446   -565.8668 100000.0000    112.1786
   254.0000     69.6755   -565.8658 100000.0000    114.1273
   254.2500    155.4255   -565.8645 100000.0000    114.3740
   254.5000    300.2365   -565.8627 100000.0000    114.3149
   254.7500    467.8553   -565.8607 100000.0000    114.5353
   255.0000    596.1163   -565.8583     11.1072    115.3606
   255.2500    660.1125   -565.8558      4.4040    115.9852
   255.5000    680.7972   -565.8533      3.5575    116.7836
   255.7500    685.1119   -565.8509      3.9583    117.3393
   256.0000    685.6914   -565.8489      5.6852    118.6522
   256.2500    685.7410   -565.8474     10.9256    120.0576
   256.5000    685.7410   -565.8466     35.4089    122.8871
   256.7500    685.7410   -565.8466 100000.0000    124.8844
   257.0000    685.7410   -565.8476    477.8833    127.2312
   257.2500    685.7410   -565.8494     30.4053    128.0909
   257.5000    685.7410   -565.8519     12.4597    128.3409
   257.7500    685.7410   -565.8550      7.6768    127.9082
   258.0000    685.7410   -565.8585      5.8338    126.3527
   258.2500    685.7410   -565.8619      5.0461    124.6616
   258.5000    685.7410   -565.8651      4.7428    121.3079
   258.7500    685.7410   -565.8678      4.6904    118.8486
   259.0000    685.7410   -565.8698      4.7664    115.5229
   259.2500    685.7410   -565.8709      4.8922    113.8269
   259.5000    685.7410   -565.8713      5.0153    112.1089
   259.7500    685.7410   -565.8711      5.1083    111.3124
   260.0000    685.7410   -565.8704      5.1727    110.1139
   260.2500    685.7410   -565.8693      5.2395    109.1371
   260.5000    685.7410   -565.8682      5.3597    107.7363
   260.7500    685.7410   -565.8672      5.5858    107.2910
   261.0000    685.7410   -565.8665      5.9515    107.7808
   261.2500    685.7410   -565.8662      6.4486    108.7347
   261.5000    685.7410   -565.8663      7.0014    110.6425
   261.7500    685.7410   -565.8667      7.4718    112.1207
   262.0000    685.7224   -565.8674      7.7312    114.6996
   262.2500    685.4963   -565.8684      7.7542    116.6272
   262.5000    683.7839   -565.8696      7.6257    119.4389
   262.7500    675.3535   -565.8708      7.4629    120.8973
   263.0000    648.3476   -565.8721      7.3537    121.8816
   263.2500    591.9365   -565.8733      7.3442    121.4413
   263.5000    515.1904   -565.8743      7.4460    118.7999
   263.7500    447.8169   -565.8751      7.6437    115.8911
   264.0000    411.0410   -565.8755      7.9032    110.9834
   264.2500    399.3408   -565.8757      8.1813    108.1575
   264.5000    388.1790   -565.8754      8.4378    105.1813
   264.7500    348.4691   -565.8746      8.6427    103.8626
   265.0000    274.5034   -565.8735      8.7775    102.5081
   265.2500    206.8609   -565.8719      8.8363    102.2178
   265.5000    208.2161   -565.8701      8.8249    103.7637
   265.7500    302.6089   -565.8679      8.7583    106.6249
   266.0000    437.1884   -565.8655      8.6527    113.2830
   266.2500    531.5233   -565.8630      8.5176    118.3256
   266.5000    566.6009   -565.8602      8.3524    124.9028
   266.7500    580.7316   -565.8575      8.1499    127.9935
   267.0000    599.8738   -565.8548      7.9056    130.5805
   267.2500    623.5930   -565.8523      7.6250    131.1593
   267.5000    648.1198   -565.8500      7.3243    130.7498
   267.7500    668.6432   -565.8482      7.0259    129.9179
   268.0000    680.3835   -565.8468      6.7513    128.5509
   268.2500    684.6331   -565.8458      6.5169    128.0950
   268.5000    685.5929   -565.8452      6.3315    128.7637
   268.7500    685.7281   -565.8450      6.1978    130.0293
   269.0000    685.7410   -565.8451      6.1127    132.2685
   269.2500    685.7410   -565.8454      6.0678    133.4963
   269.5000    685.7410   -565.8459      6.0512    134.7003
   269.7500    685.7410   -565.8466      6.0489    135.1198
   270.0000    685.7410   -565.8474      6.0493    135.0773
   270.2500    685.7410   -565.8481      6.0456    134.4951
   270.5000    685.7410   -565.8490      6.0372    132.8609
   270.7500    685.7410   -565.8497      6.0276    131.5211
   271.0000    685.7410   -565.8503      6.0221    129.8347
   271.2500    685.7410   -565.8509      6.0262    129.2860
   271.5000    685.7410   -565.8513      6.0455    129.3005
   271.7500    685.7410   -565.8516      6.0864    129.4117
   272.0000    685.7410   -565.8518      6.1558    129.0123
   272.2500    685.7410   -565.8522      6.2600    128.4429
   272.5000    685.7410   -565.8527      6.4040    127.7263
   272.7500    685.7410   -565.8533      6.5909    127.3553
   273.0000    685.7410   -565.8542      6.8217    126.0521
   273.2500    685.7410   -565.8554      7.0968    124.0277
   273.5000    685.7410   -565.8567      7.4165    119.0264
   273.7500    685.7410   -565.8582      7.7826    115.0386
   274.0000    685.7410   -565.8596      8.1991    109.9288
   274.2500    685.7410   -565.8610      8.6729    107.9009
   274.5000    685.7410   -565.8624      9.2118    107.0530
   274.7500    685.7410   -565.8636      9.8204    107.4796
   275.0000    685.7410   -565.8647     10.4932    108.6828
   275.2500    685.7410   -565.8658     11.2082    109.4645
   275.5000    685.7410   -565.8669     11.9230    110.0965
   275.7500    685.7410   -565.8680     12.5803    109.9625
   276.0000    685.7410   -565.8693     13.1202    109.1240
   276.2500    685.7410   -565.8705     13.4952    108.6798
   276.5000    685.7410   -565.8719     13.6813    109.3172
   276.7500    685.7410   -565.8732     13.6803    110.9307
   277.0000    685.7410   -565.8745     13.5161    114.8062
   277.2500    685.7410   -565.8754     13.2280    117.8552
   277.5000    685.7410   -565.8761     12.8605    122.0902
   277.7500    685.7410   -565.8764     12.4564    124.1490
   278.0000    685.7410   -565.8763     12.0518    125.7566
   278.2500    685.7410   -565.8759     11.6763    126.1037
