~Version Information
VERS.                      2.0: CWLS Log ASCII Standard - VERSION 2.0
WRAP.                       NO: One line per depth step
~Well Information Block
STRT.FT                65.0000: 
STOP.FT               998.0000: 
STEP.FT                 0.2500: 
NULL.                -999.2500: 
COMP.          Pioneer Natural Resources: COMPANY
WELL.              Gough 14-29: WELL
FLD.           Purgatorie River: FIELD
LOC.           1199' FSL & 676' FWL: LOCATION
PROV.                 Colorado: PROVINCE
CNTY.               Las Animas: COUNTRY
SRVC.                Patterson: SERVICE COMPANY
DATE.          Wed Dec 28 08:38:26 2005: LOG DATE
UWI.                          : UNIQUE WELL ID
~Curve Information Block
DEPT.FT            0 000 00 00: Depth
CCL.                          : Casing Collar Locator
TT3.usec                      : CBL 3' Travel Time
AMP3.mV                       : CBL 3' Amplitude
GR.GAPI                       : Gamma Ray
~Parameter Information Block
~A  Depth       CCL         TT3         AMP3         GR     
# ...
   668.0000      0.0000    719.6767      9.9125     65.3632
   668.2500      0.0000    715.5861      9.7855     63.6483
   668.5000      0.0000    704.5613      9.7164     61.6895
   668.7500      0.0000    693.8489      9.7241     59.3674
   669.0000      0.0000    691.1091      9.7848     56.2766
   669.2500      0.0000    697.3317      9.8837     52.1138
   669.5000      0.0000    706.4144     10.0313     47.1192
   669.7500      0.0000    711.6371     10.2051     42.1853
   670.0000      0.0000    711.5887     10.3402     38.4783
   670.2500      0.0000    710.3772     10.3993     36.7610
   670.5000      0.0000    710.8981     10.4084     36.9629
   670.7500      0.0000    710.0368     10.4110     38.3222
   671.0000      0.0000    703.7298     10.4093     39.9754
   671.2500      0.0000    693.8240     10.3774     41.5624
   671.5000      0.0000    686.5958     10.3206     43.3336
   671.7500      0.0000    686.5871     10.2663     45.5414
   672.0000      0.0000    693.7087     10.2108     47.7009
   672.2500      0.0000    703.9111     10.1330     48.7250
   672.5000      0.0000    712.1927     10.0453     48.1396
   672.7500      0.0000    716.5302      9.9784     46.9706
   673.0000      0.0000    718.2284      9.9258     46.9000
   673.2500      0.0000    719.1356      9.8525     48.5776
   673.5000      0.0000    719.9729      9.7512     51.2069
   673.7500      0.0000    720.6040      9.6435     53.6129
   674.0000      0.0000    720.8444      9.5459     55.0946
   674.2500      0.0000    720.8446      9.4719     55.3638
   674.5000      0.0000    720.9555      9.4319     54.4403
   674.7500      0.0000    721.4199      9.4104     52.8498
   675.0000      0.0000    722.1355      9.3753     51.4799
   675.2500      0.0000    722.7313      9.2964     50.9656
   675.5000      0.0000    722.9734      9.1542     51.2571
   675.7500      0.0000    722.8071      8.9758     51.7693
   676.0000      0.0000    721.3511      8.8745     52.0121
   676.2500      0.0000    716.1144      8.9395     52.0748
   676.5000      0.0000    707.4338      8.9659     52.2979
   676.7500      0.0000    704.5960      8.5031     52.5052
   677.0000      0.0000    716.4384      7.5155     52.0192
   677.2500      0.0000    737.1673      6.6470     50.4840
   677.5000      0.0000    755.0677      6.4095     48.1573
   677.7500      0.0000    765.3873      6.5933     45.3906
   678.0000     -2.0000    766.9733      6.7429     42.5814
   678.2500      2.0000    760.9987      6.7201     40.8056
   678.5000      0.0000    754.2253      6.6199     41.6197
   678.7500      0.0000    751.5921      6.5264     45.6644
   679.0000      0.0000    749.3358      6.5541     51.8427
   679.2500      0.0000    742.2454      6.7988     58.2386
   679.5000      0.0000    731.8218      7.1060     63.6232
   679.7500      0.0000    723.9813      7.3423     67.9823
   680.0000      0.0000    722.5021      7.7647     72.0039
   680.2500      0.0000    725.5323      8.5784     76.1967
   680.5000      0.0000    726.7367      9.5553     80.1412
   680.7500      0.0000    721.5704     10.3333     82.5765
   681.0000      0.0000    712.9276     10.7071     82.6260
   681.2500      0.0000    707.8282     10.7068     80.9456
   681.5000      0.0000    709.0944     10.5672     79.3318
   681.7500      0.0000    713.1384     10.5268     79.1538
   682.0000      0.0000    715.8357     10.6431     80.4143
   682.2500      0.0000    716.6155     10.8417     82.2074
   682.5000      0.0000    716.6091     11.0731     83.4848
   682.7500      0.0000    716.4599     11.3383     83.1369
   683.0000      0.0000    716.3235     11.6196     80.0017
   683.2500      0.0000    716.3607     11.8896     73.6901
   683.5000      0.0000    716.7325     12.1393     65.4729
   683.7500      0.0000    717.3875     12.3463     57.7850
   684.0000      0.0000    718.0378     12.4847     52.7204
   684.2500      0.0000    718.3237     12.5545     51.2046
   684.5000      0.0000    718.0867     12.5487     53.2121
   684.7500      0.0000    717.5526     12.4598     58.0963
   685.0000      0.0000    717.1522     12.3455     64.7969
   685.2500      0.0000    717.1169     12.2894     72.3040
   685.5000      0.0000    717.3107     12.2993     80.0013
   685.7500      0.0000    717.4296     12.3196     87.3719
   686.0000      0.0000    717.3190     12.3115     93.7142
   686.2500      0.0000    717.0880     12.2601     98.4372
   686.5000      0.0000    716.9213     12.1548    101.4463
   686.7500      0.0000    716.8663     12.0226    103.1889
   687.0000      0.0000    716.8680     11.9262    104.3762
   687.2500      0.0000    716.8867     11.8870    105.2283
   687.5000      0.0000    716.9145     11.8640    104.8642
   687.7500      0.0000    716.9747     11.8177    102.1390
   688.0000      0.0000    717.1034     11.7524     97.2579
   688.2500      0.0000    717.2749     11.6943     91.8324
   688.5000      0.0000    717.4241     11.6536     87.3543
   688.7500      0.0000    717.5667     11.6010     84.2889
   689.0000      0.0000    717.7924     11.4837     82.4732
   689.2500      0.0000    718.1047     11.2825     81.7350
   689.5000      0.0000    718.3783     11.0383     82.0131
   689.7500      0.0000    718.5106     10.8303     82.9480
   690.0000      0.0000    718.5438     10.7360     83.4232
   690.2500      0.0000    718.6524     10.7787     81.8804
   690.5000      0.0000    719.1831     10.9219     77.3586
   690.7500      0.0000    721.0604     11.1185     70.1781
   691.0000      0.0000    726.2022     11.3328     61.7488
   691.2500      0.0000    735.9943     11.5368     53.9640
   691.5000      0.0000    748.1943     11.7020     48.5893
   691.7500      0.0000    757.8730     11.8046     46.6160
   692.0000      0.0000    762.3570     11.8496     47.8616
   692.2500      0.0000    762.0425     11.8703     51.2957
   692.5000      0.0000    757.0313     11.9067     55.9453
   692.7500      0.0000    747.0404     11.9653     61.4793
   693.0000      0.0000    734.6931     11.9833     67.8133
   693.2500      0.0000    724.8386     11.8917     74.2152
   693.5000      0.0000    719.6998     11.7062     79.2261
   693.7500      0.0000    717.8434     11.4988     81.7863
   694.0000      0.0000    717.3231     11.3285     82.1595
   694.2500      0.0000    717.2996     11.2241     81.5135
   694.5000      0.0000    717.4895     11.1825     80.8838
   694.7500      0.0000    717.6672     11.1789     80.7921
   695.0000      0.0000    717.7033     11.1707     81.5571
   695.2500      0.0000    717.5762     11.1093     83.5365
   695.5000      0.0000    717.3225     10.9986     86.8803
   695.7500      0.0000    717.1176     10.9039     91.0481
   696.0000      0.0000    717.1652     10.8879     94.7295
   696.2500      0.0000    717.4019     10.9643     96.4881
   696.5000      0.0000    717.5740     11.0897     95.6116
   696.7500      0.0000    717.5815     11.1925     92.3501
   697.0000      0.0000    717.4865     11.2206     87.5451
   697.2500      0.0000    717.3314     11.1779     82.3654
   697.5000      0.0000    717.1478     11.1300     78.3140
   697.7500      0.0000    717.0126     11.1382     76.8416
   698.0000      0.0000    717.0518     11.1928     78.4428
   698.2500      0.0000    717.3675     11.2416     82.1209
   698.5000      0.0000    717.8481     11.2628     85.7431
   698.7500      0.0000    718.1553     11.2918     87.0890
   699.0000      0.0000    718.0214     11.3622     85.1729
   699.2500      0.0000    717.5138     11.4327     81.0086
   699.5000      0.0000    716.9434     11.4216     76.9704
   699.7500      0.0000    716.5679     11.3207     75.1761
   700.0000      0.0000    716.4594     11.2257     76.2668
   700.2500      0.0000    716.5350     11.2241     79.1748
   700.5000      0.0000    716.6409     11.3114     81.6066
   700.7500      0.0000    716.6824     11.4257     81.1892
   701.0000      0.0000    716.6675     11.5122     76.9568
   701.2500      0.0000    716.6514     11.5572     69.9657
