~Version Information
VERS.                      2.0: CWLS Log ASCII Standard - VERSION 2.0
WRAP.                       NO: One line per depth step
~Well Information Block
STRT.FT               -10.0000: 
STOP.FT              1703.5000: 
STEP.FT                 0.2500: 
NULL.                -999.2500: 
COMP.          Pioneer Natural Resources: COMPANY
WELL.          Parrothead 31-31 Tr: WELL
FLD.           Purgatoire River: FIELD
LOC.           496' FNL & 1546' FEL--: LOCATION
PROV.                       CO: PROVINCE
CNTY.               Las Animas: COUNTRY
SRVC.          Patterson Wireline: SERVICE COMPANY
DATE.          Mon Nov 14 09:44:02 2005: LOG DATE
UWI.           05 071 08610 00: UNIQUE WELL ID
~Curve Information Block
DEPT.FT            0 000 00 00: Depth
CCL.                          : Casing Collar Locator
TT3.usec                      : CBL 3' Travel Time
AMP3.mV                       : CBL 3' Amplitude
GR.GAPI                       : Gamma Ray
~Parameter Information Block
~A  Depth       CCL         TT3         AMP3         GR     
   -10.0000   -999.2500   -999.2500   -999.2500     61.3181
    -9.7500   -999.2500   -999.2500   -999.2500     60.2585
    -9.5000   -999.2500   -999.2500   -999.2500     61.9679
    -9.2500   -999.2500   -999.2500   -999.2500     65.8645
    -9.0000   -999.2500   -999.2500   -999.2500     70.8155
    -8.7500   -999.2500   -999.2500   -999.2500     75.1318
    -8.5000   -999.2500   -999.2500   -999.2500     76.9921
    -8.2500   -999.2500   -999.2500   -999.2500     75.5514
    -8.0000   -999.2500   -999.2500   -999.2500     71.5524
    -7.7500   -999.2500   -999.2500   -999.2500     66.6285
    -7.5000   -999.2500   -999.2500   -999.2500     62.2960
    -7.2500   -999.2500   -999.2500   -999.2500     59.6692
    -7.0000   -999.2500   -999.2500   -999.2500     59.4493
    -6.7500   -999.2500   -999.2500   -999.2500     61.6772
    -6.5000   -999.2500   -999.2500   -999.2500     65.6366
    -6.2500   -999.2500   -999.2500   -999.2500     70.1907
    -6.0000   -999.2500   -999.2500   -999.2500     74.2639
    -5.7500   -999.2500   -999.2500   -999.2500     77.0998
    -5.5000   -999.2500   1158.0000     -1.5886     78.2661
    -5.2500   -999.2500   1158.0000     -1.5988     77.6238
    -5.0000   -999.2500   1158.0000     -1.6099     75.4224
    -4.7500   -999.2500   1158.0000     -1.6173     72.5249
    -4.5000   -999.2500   1158.0000     -1.6189     70.4609
    -4.2500   -999.2500   1158.0000     -1.6163     70.7852
    -4.0000   -999.2500   1158.0000     -1.6127     73.8277
    -3.7500   -999.2500   1158.0000     -1.6105     78.0014
    -3.5000   -999.2500   1158.0000     -1.6107     80.6773
    -3.2500   -999.2500   1158.0000     -1.6135     79.9987
    -3.0000   -999.2500   1158.0000     -1.6192     76.1474
    -2.7500   -999.2500   1158.0000     -1.6266     71.3180
    -2.5000   -999.2500   1158.0000     -1.6341     68.5904
    -2.2500   -999.2500   1158.0000     -1.6398     70.2096
    -2.0000   -999.2500   1158.0000     -1.6430     76.0183
    -1.7500   -999.2500   1158.0000     -1.6438     83.1236
    -1.5000   -999.2500   1158.0000     -1.6422     87.6328
    -1.2500   -999.2500   1158.0000     -1.6371     87.5667
    -1.0000   -999.2500   1158.0000     -1.6272     84.1384
    -0.7500   -999.2500   1158.0000     -1.6127     79.8971
    -0.5000   -999.2500   1158.0000     -1.5968     76.0026
    -0.2500   -999.2500   1158.0000     -1.5851     71.8562
     0.0000     -2.0000   1158.0000     -1.5818     66.8855
     0.2500      0.0000   1158.0000     -1.5940     57.0444
     0.5000      0.0000   1158.0000     -1.6008     53.0834
     0.7500     -2.0000   1158.0000     -1.6043     48.8795
     1.0000      2.0000   1158.0000     -1.6041     43.6019
     1.2500      0.0000   1158.0000     -1.6001     37.3440
     1.5000      0.0000   1158.0000     -1.5918     31.3403
     1.7500      0.0000   1158.0000     -1.5807     27.4664
     2.0000      0.0000   1158.0000     -1.5707     27.1319
     2.2500      2.0000   1158.0000     -1.5672     30.3150
     2.5000      0.0000   1158.0000     -1.5732     35.6456
     2.7500      0.0000   1158.0000     -1.5875     41.3649
     3.0000      0.0000   1158.0000     -1.6056     46.1664
     3.2500      0.0000   1158.0000     -1.6219     49.3567
     3.5000      0.0000   1158.0000     -1.6312     50.7254
     3.7500      0.0000   1158.0000     -1.6304     50.6511
     4.0000      0.0000   1158.0000     -1.6210     50.2414
     4.2500      0.0000   1158.0000     -1.6091     50.7714
     4.5000      0.0000   1158.0000     -1.6016     52.5980
     4.7500      0.0000   1158.0000     -1.6015     54.8777
     5.0000     -2.0000   1158.0000     -1.6066     56.6217
     5.2500      0.0000   1158.0000     -1.6114     57.7112
     5.5000      0.0000   1158.0000     -1.6111     58.6050
     5.7500      0.0000   1158.0000     -1.6051     59.5210
     6.0000      2.0000   1158.0000     -1.5969     60.3167
     6.2500      0.0000   1158.0000     -1.5903     60.7872
     6.5000      0.0000   1158.0000     -1.5875     60.6631
     6.7500      0.0000   1158.0000     -1.5886     59.6386
     7.0000      0.0000   1157.9803     -1.5923     57.7174
     7.2500      0.0000   1157.8129     -1.5929     55.3073
     7.5000      0.0000   1156.9061     -1.5683     52.8918
     7.7500      0.0000   1153.0344     -1.4345     50.8151
     8.0000      0.0000   1139.9785     -0.9206     49.1567
     8.2500      0.0000   1105.1798      0.6303     47.4208
     8.5000      0.0000   1031.8291      4.3360     44.7692
     8.7500      0.0000    909.5507     11.3097     41.1245
     9.0000      0.0000    748.4460     21.5476     37.7616
     9.2500      0.0000    580.9876     33.0596     36.2946
     9.5000      0.0000    444.2886     42.5284     37.1331
     9.7500      0.0000    357.8717     47.3393     39.1376
    10.0000      0.0000    317.7775     47.0950     40.6950
    10.2500      0.0000    308.0890     43.2850     41.0498
    10.5000      0.0000    314.9901     37.8658     40.7273
    10.7500      0.0000    333.5744     32.2295     40.9264
    11.0000      0.0000    367.2712     27.0396     42.6499
    11.2500      0.0000    421.5872     22.5030     46.0700
    11.5000      0.0000    495.0444     18.6481     50.1974
    11.7500      0.0000    574.8223     15.4727     53.3055
    12.0000      0.0000    642.9247     12.9796     54.3080
    12.2500      0.0000    687.5077     11.1580     53.7601
    12.5000      0.0000    708.3389      9.9561     53.1210
    12.7500      0.0000    713.2001      9.2683     53.1804
    13.0000      0.0000    711.1545      8.9486     53.6957
    13.2500      0.0000    708.3884      8.8452     54.2625
    13.5000      0.0000    707.5603      8.8356     54.7413
    13.7500      0.0000    708.8909      8.8468     54.8672
    14.0000      0.0000    711.4377      8.8515     54.1736
    14.2500      0.0000    714.1860      8.8472     52.5570
    14.5000      0.0000    716.6912      8.8305     50.5579
    14.7500      0.0000    718.7481      8.7887     48.9013
    15.0000      0.0000    719.5568      8.7136     47.7917
    15.2500      0.0000    718.0190      8.6206     46.6462
    15.5000      0.0000    714.1221      8.5445     44.8027
    15.7500      0.0000    709.3478      8.5138     42.7754
    16.0000      0.0000    705.3946      8.5288     42.3391
    16.2500      0.0000    702.9002      8.5660     44.6971
    16.5000      0.0000    701.2523      8.5974     48.7381
    16.7500      0.0000    698.8922      8.6076     51.6729
    17.0000      0.0000    693.3726      8.5989     51.4542
    17.2500      0.0000    682.1577      8.5828     48.3360
    17.5000      0.0000    665.4474      8.5671     44.3431
    17.7500      0.0000    649.0516      8.5509     41.6336
    18.0000      0.0000    642.3823      8.5279     41.1990
    18.2500      0.0000    651.2836      8.4951     42.5598
    18.5000      0.0000    673.7606      8.4561     44.3802
    18.7500      0.0000    703.6520      8.4187     45.5389
    19.0000      0.0000    736.0081      8.3899     45.9036
    19.2500      0.0000    767.9999      8.3738     46.1006
    19.5000      0.0000    798.6909      8.3725     46.5613
    19.7500      0.0000    830.2738      8.3844     47.0413
    20.0000      0.0000    865.8289      8.4019     47.1637
    20.2500      0.0000    902.7874      8.4126     47.0765
    20.5000      0.0000    931.3892      8.4087     47.3993
    20.7500      0.0000    942.4135      8.3928     48.8054
    21.0000      0.0000    934.9041      8.3727     51.8169
    21.2500      0.0000    915.2448      8.3522     56.6506
    21.5000      0.0000    890.9762      8.3304     62.9260
    21.7500      0.0000    867.3450      8.3066     69.4761
    22.0000      0.0000    847.7656      8.2802     74.5831
    22.2500      0.0000    834.2575      8.2479     76.7410
    22.5000      0.0000    826.8324      8.2075     75.6306
    22.7500      0.0000    823.7321      8.1627     72.4612
    23.0000      0.0000    822.8261      8.1220     69.1650
    23.2500      0.0000    822.7059      8.0906     67.0655
