~Version Information
 VERS.                                  2.0 : CWLS LAS VERSION
 WRAP.                                   NO : WRAPING MODE
 SWARE .                 MController 2.5.0N : SOFTWARE VERSION
~Well Information
 WELL.                         John K 12-28 : WELL
 COMP.       Pioneer Natural Resources, USA : COMPANY
 FLD.                       Purgatory River : FIELD
 LOC.               SW/NW Sec 28 T32S R 65W : LOCATION
 DATE.                              4/07/06 : DATE(S) LOGGED
 SRVC.       Blanco Geological Services LLC : SERVICE COMPANY
 STAT.                             Colorado : STATE
 CNTY.                           Las Animas : COUNTY
 CTRY.                                  USA : COUNTRY
 API.                       05-071-08723-00 : API NUMBER
 STRT.FT                             321.00 : START DEPTH
 STOP.FT                            1440.00 : STOP DEPTH
 STEP.FT                               1.00 : DEPTH INCREMENT
 NULL.                                -9999 : NULL VALUE
~Curve information
 DEPTH.FT                                   :
 ROP.MIN/FT                                 :
 GAS.UNITS                                  :
~ASCII Log data
# ...
       921.0         0.23        453.0 
       922.0         6.90       4988.2 
       923.0         0.33       1821.9 
       924.0         0.33       1164.2 
       925.0         0.33        998.1 
       926.0         0.20       1029.4 
       927.0         0.23       1072.9 
       928.0         0.27       1084.0 
       929.0         0.23       1042.2 
       930.0         0.25        947.9 
       931.0         0.23        847.5 
       932.0         0.23        713.7 
       933.0         0.23        614.7 
       934.0         0.27        538.9 
       935.0         0.27        462.7 
       936.0         0.27        440.0 
       937.0         0.27        240.2 
       938.0         0.27        229.9 
       939.0         0.23        246.2 
       940.0         0.27        256.4 
       941.0         0.23        256.3 
       942.0         0.27        253.3 
       943.0         0.23        256.3 
       944.0         0.32        257.2 
       945.0         0.30        253.8 
       946.0         0.30        254.4 
       947.0         0.30        250.5 
       948.0         0.27        233.6 
       949.0         0.30        223.7 
       950.0         0.30        217.9 
       951.0         0.30        214.8 
       952.0         3.15        305.7 
       953.0         0.53        887.9 
       954.0         0.27        890.0 
       955.0         0.33        817.9 
       956.0         0.38        759.9 
       957.0         0.33        787.9 
       958.0         0.30        790.2 
       959.0         0.30        825.3 
       960.0         0.27        848.8 
       961.0         0.30        840.8 
       962.0         0.27        767.7 
       963.0         0.27        711.7 
       964.0         0.27        628.8 
       965.0         0.30        532.5 
       966.0         0.27        443.9 
       967.0         0.25        445.9 
       968.0         0.23        456.3 
       969.0         0.27        478.9 
       970.0         0.27        494.8 
       971.0         0.27        497.8 
       972.0         0.23        494.4 
       973.0         0.27        481.3 
       974.0         0.20        466.5 
       975.0         0.20        463.8 
       976.0         0.20        459.0 
       977.0         0.17        452.6 
       978.0         0.17        441.9 
       979.0         0.20        440.0 
       980.0         0.17        247.8 
       981.0         0.23        232.5 
       982.0         4.60       1025.7 
       983.0         0.20        750.5 
       984.0         0.23        808.4 
       985.0         0.23        862.0 
       986.0         0.27        924.7 
       987.0         0.30        948.2 
       988.0         0.23        909.2 
       989.0         0.27        794.3 
       990.0         0.23        672.3 
       991.0         0.27        611.3 
       992.0         0.28        584.0 
       993.0         0.30        562.1 
       994.0         0.20        524.7 
       995.0         0.23        486.7 
       996.0         0.23        448.6 
       997.0         0.23        449.6 
       998.0         0.23        459.0 
       999.0         0.23        463.1 
      1000.0         0.27        456.3 
      1001.0         0.30        442.5 
      1002.0         0.27        242.6 
      1003.0         0.27        238.0 
      1004.0         0.23        241.2 
      1005.0         0.25        250.0 
      1006.0         0.23        264.2 
      1007.0         0.27        267.8 
      1008.0         0.23        263.1 
      1009.0         0.40        241.7 
      1010.0         0.20        208.7 
      1011.0         0.20        213.5 
      1012.0         3.05        972.8 
      1013.0         0.47       1119.4 
      1014.0         0.50       1065.8 
      1015.0         0.43        825.6 
      1016.0         0.27        641.0 
      1017.0         0.30        440.0 
      1018.0         0.28         31.7 
      1019.0         0.27          5.5 
      1020.0         0.27          1.3 
      1021.0         0.30          1.4 
      1022.0         0.33        226.9 
      1023.0         0.27        308.9 
      1024.0         0.23        300.0 
      1025.0         0.23        275.8 
      1026.0         0.23        259.1 
      1027.0         0.23        258.5 
      1028.0         0.20        251.3 
      1029.0         0.23        244.0 
      1030.0         0.55        227.5 
      1031.0         0.40        210.8 
      1032.0         0.40        258.1 
      1033.0         0.40        283.2 
      1034.0         0.43        283.4 
      1035.0         0.37        271.5 
      1036.0         0.20        255.3 
      1037.0         0.20        247.6 
      1038.0         0.17        243.6 
      1039.0         0.17        242.7 
      1040.0         0.17        242.5 
      1041.0         0.17        242.1 
      1042.0         3.28        429.4 
      1043.0         0.25       1014.6 
      1044.0         0.27       1132.9 
      1045.0         0.23       1132.5 
      1046.0         0.33       1039.2 
      1047.0         0.30        807.7 
      1048.0         0.20        706.0 
      1049.0         0.30        730.9 
      1050.0         0.27        834.7 
      1051.0         0.30        951.3 
      1052.0         0.30       1019.0 
      1053.0         0.27       1016.0 
      1054.0         0.23        934.8 
      1055.0         0.28        821.2 
      1056.0         0.23        713.4 
      1057.0         0.27        652.1 
      1058.0         0.27        557.1 
      1059.0         0.27        485.7 
      1060.0         0.20        453.0 
      1061.0         0.23        464.8 
      1062.0         0.23        510.9 
      1063.0         0.23        565.2 
      1064.0         0.23        593.5 
      1065.0         0.23        588.1 
      1066.0         0.20        554.7 
      1067.0         0.23        524.1 
      1068.0         0.30        477.9 
      1069.0         0.28        452.6 
      1070.0         0.23        440.0 
      1071.0         0.23        204.2 
      1072.0         5.35       1326.9 
      1073.0         0.43        951.3 
      1074.0         0.42        668.3 
      1075.0         0.33        827.3 
      1076.0         0.27        943.5 
      1077.0         0.30       1004.8 
      1078.0         0.27       1006.5 
      1079.0         0.27        968.5 
      1080.0         0.20        908.1 
      1081.0         0.23        870.4 
      1082.0         0.23        780.8 
      1083.0         0.23        714.8 
      1084.0         0.27        651.8 
      1085.0         0.23        583.0 
      1086.0         0.23        528.8 
      1087.0         0.25        495.4 
      1088.0         0.23        474.9 
      1089.0         0.20        487.3 
      1090.0         0.23        491.0 
      1091.0         0.20        476.6 
      1092.0         0.23        442.5 
      1093.0         0.23        440.0 
      1094.0         0.23        183.6 
      1095.0         0.23        173.6 
      1096.0         0.23        173.9 
      1097.0         0.23        183.8 
      1098.0         0.27        206.5 
      1099.0         0.23        225.1 
      1100.0         0.23        233.8 
      1101.0         0.25        235.9 
      1102.0         3.98       1572.9 
      1103.0         0.37       1567.5 
      1104.0         0.33       1214.4 
      1105.0         0.20        945.2 
      1106.0         0.23        830.3 
      1107.0         0.23        814.5 
      1108.0         0.20        837.7 
      1109.0         0.17        851.9 
      1110.0         0.20        853.2 
      1111.0         0.23        847.8 
      1112.0         0.17        848.8 
      1113.0         0.23        848.8 
      1114.0         0.22        836.0 
      1115.0         0.17        808.4 
      1116.0         0.17        774.1 
      1117.0         0.17        752.8 
      1118.0         0.23        737.0 
      1119.0         0.30        706.3 
      1120.0         0.30        681.1 
