~Version Information
VERS.                      2.0: CWLS Log ASCII Standard - VERSION 2.0
WRAP.                       NO: One line per depth step
~Well Information Block
STRT.FT               240.0000: 
STOP.FT              1342.0000: 
STEP.FT                 0.1000: 
NULL.                -999.2500: 
COMP.          Pioneer Natural Resources: COMPANY
WELL.          Lorencito 9-4-34-66: WELL
FLD.           Purgatoire River: FIELD
LOC.           2540' FSL & 438' FEL: LOCATION
STAT.                 Colorado: State
CNTY.               Las Animas: COUNTY
CTRY. USA : Country
SECT. 4 : Section
TOWN. 34S : Township
RANG. 68W : range
SRVC.                Patterson: SERVICE COMPANY
DATE.          Thu Sep 15 13:16:59 2005: LOG DATE
API.           05 071 08498 00: UNIQUE WELL ID
~Curve Information Block
DEPT.FT            0 000 00 00: Depth
DCAL.in                       : CDL Caliper
RHOB.g/cc                     : CDL Bulk Density
RHOC.g/cc                     : CDL Density Correction
DPOR.pu                       : CDL Density Porosity
GR.GAPI                       : Gamma Ray
NPOR.pu                       : Neutron Porosity
~Parameter Information Block
~A  Depth       DCAL        RHOB        RHOC        DPOR         GR         NPOR    
# ...
   672.0000      8.1372      2.4959      0.0009      9.3412    141.5813     22.9476
   672.1000      8.1372      2.4876      0.0102      9.8431    147.2341     23.1189
   672.2000      8.1372      2.4754      0.0061     10.5825    151.0945     23.4515
   672.3000      8.1520      2.4579     -0.0283     11.6430    154.6703     23.6641
   672.4000      8.1520      2.4485     -0.0339     12.2129    158.9581     24.0677
   672.5000      8.1393      2.4506     -0.0068     12.0827    159.0766     24.8837
   672.6000      8.1393      2.4566      0.0018     11.7205    154.1830     25.4473
   672.7000      8.1393      2.4698      0.0256     10.9221    151.2248     25.3704
   672.8000      8.1732      2.4921      0.0321      9.5687    153.8117     24.9836
   672.9000      8.1732      2.5081      0.0692      8.5989    158.7287     24.5352
   673.0000      8.1735      2.5081      0.0895      8.5972    160.5006     24.6001
   673.1000      8.1735      2.5080      0.0076      8.6056    161.5182     25.6465
   673.2000      8.1735      2.5162      0.0862      8.1109    168.7501     27.0984
   673.3000      8.1900      2.5160      0.0470      8.1194    176.7360     28.1730
   673.4000      8.1900      2.5084     -0.0063      8.5796    175.8165     28.7828
   673.5000      8.1704      2.5139     -0.0101      8.2461    168.6487     28.9857
   673.6000      8.1704      2.5277      0.0480      7.4102    162.0176     28.4164
   673.7000      8.1704      2.5251      0.0186      7.5726    157.6240     27.4203
   673.8000      8.1767      2.5068     -0.0146      8.6818    153.9430     26.8406
   673.9000      8.1767      2.4922      0.0210      9.5656    149.3355     26.7114
   674.0000      8.1858      2.4910      0.0009      9.6350    142.0341     26.6165
   674.1000      8.1858      2.5073      0.0343      8.6498    133.8810     26.3426
   674.2000      8.1858      2.5333      0.0545      7.0723    130.1598     26.0397
   674.3000      8.1647      2.5540      0.0654      5.8152    132.2215     26.1323
   674.4000      8.1647      2.5656      0.0489      5.1141    137.0083     26.7427
   674.5000      8.1401      2.5720      0.0906      4.7263    142.0313     27.0748
   674.6000      8.1401      2.5740      0.0879      4.6067    145.9046     26.4829
   674.7000      8.1401      2.5742      0.1087      4.5957    150.1154     25.7668
   674.8000      8.1132      2.5763      0.0726      4.4689    154.6179     25.7862
   674.9000      8.1132      2.5734      0.1118      4.6421    158.3369     26.2504
   675.0000      8.1459      2.5590      0.0658      5.5127    163.2677     26.5273
   675.1000      8.1459      2.5484      0.0575      6.1557    165.6380     26.6190
   675.2000      8.1459      2.5578      0.0605      5.5862    162.7041     26.5835
   675.3000      8.1420      2.5772      0.0813      4.4091    162.2052     26.3982
   675.4000      8.1420      2.5866      0.0777      3.8404    164.1879     26.3451
   675.5000      8.1266      2.5791      0.0554      4.2984    158.8267     26.4141
   675.6000      8.1266      2.5579      0.0493      5.5838    149.6860     25.9595
   675.7000      8.1266      2.5277      0.0733      7.4148    147.8645     24.7469
   675.8000      8.1424      2.4935      0.0204      9.4819    153.2081     23.6832
   675.9000      8.1424      2.4618     -0.0033     11.4036    159.2352     23.3403
   676.0000      8.1280      2.4412     -0.0448     12.6528    162.6456     23.1916
   676.1000      8.1280      2.4426     -0.0355     12.5708    162.7579     22.7114
   676.2000      8.1280      2.4667      0.0183     11.1065    161.8106     22.3940
   676.3000      8.1308      2.5001      0.0696      9.0855    164.0956     22.7268
   676.4000      8.1308      2.5301      0.0945      7.2684    169.2935     23.2487
   676.5000      8.1138      2.5494      0.1376      6.0985    175.9028     23.9332
   676.6000      8.1138      2.5507      0.1740      6.0193    180.3698     25.1615
   676.7000      8.1138      2.5408      0.1114      6.6207    177.6061     26.2795
   676.8000      8.1475      2.5369      0.0940      6.8539    171.5171     26.5860
   676.9000      8.1475      2.5368      0.1248      6.8596    167.9184     26.0445
   677.0000      8.1371      2.5276      0.0694      7.4183    166.8486     25.0185
   677.1000      8.1371      2.5205      0.0490      7.8511    169.6519     24.6479
   677.2000      8.1371      2.5343      0.0372      7.0124    173.4027     25.5410
   677.3000      8.1575      2.5641      0.0790      5.2084    170.9610     26.8844
   677.4000      8.1575      2.5960      0.0820      3.2698    162.6099     27.7709
   677.5000      8.1413      2.6246      0.1655      1.5419    154.0809     27.9056
   677.6000      8.1413      2.6319      0.1993      1.0969    146.4683     27.7243
   677.7000      8.1413      2.6141      0.0771      2.1747    140.0313     28.2725
   677.8000      8.1722      2.5999      0.0607      3.0376    135.6913     29.3537
   677.9000      8.1722      2.6012      0.0910      2.9568    135.3295     29.5046
   678.0000      8.1688      2.6032      0.0835      2.8367    138.5079     28.7394
   678.1000      8.1688      2.5982      0.0688      3.1386    137.8296     28.2892
   678.2000      8.1688      2.5949      0.0977      3.3377    129.1702     28.1243
   678.3000      8.1101      2.6103      0.0609      2.4083    118.5558     27.5101
   678.4000      8.1101      2.6475      0.1334      0.1513    111.6699     26.6430
   678.5000      8.0806      2.6781      0.1287     -1.7032    110.2675     25.9172
   678.6000      8.0806      2.6744      0.1272     -1.4784    111.2613     25.1230
   678.7000      8.0806      2.6516      0.0284     -0.0995    109.2066     24.0955
   678.8000      8.0674      2.6435      0.0639      0.3926    104.9074     23.1771
   678.9000      8.0674      2.6444      0.0794      0.3416    101.5274     22.7035
   679.0000      8.0612      2.6291      0.0698      1.2664    100.4181     22.5583
   679.1000      8.0612      2.6033      0.0400      2.8327    102.5082     22.6749
   679.2000      8.0612      2.5895      0.0669      3.6690    105.9195     23.2938
   679.3000      8.0496      2.5880      0.0664      3.7574    109.3249     24.0601
   679.4000      8.0496      2.5906      0.0042      3.5984    113.6251     23.8759
   679.5000      8.0530      2.5950      0.0440      3.3313    117.6806     22.8678
   679.6000      8.0530      2.5888      0.0499      3.7064    118.3948     22.3257
   679.7000      8.0530      2.5711      0.0404      4.7801    116.1082     22.5469
   679.8000      8.0619      2.5590     -0.0124      5.5177    114.5982     22.9296
   679.9000      8.0619      2.5553      0.0504      5.7365    116.1650     23.3472
   680.0000      8.0829      2.5529     -0.0371      5.8836    119.1844     23.9120
   680.1000      8.0829      2.5606      0.0357      5.4204    118.7239     24.4149
   680.2000      8.0829      2.5874      0.0430      3.7922    115.0405     24.8698
   680.3000      8.0876      2.6234      0.0880      1.6147    115.8584     25.4274
   680.4000      8.0876      2.6459      0.0603      0.2514    119.7930     26.0013
   680.5000      8.0743      2.6455      0.0721      0.2752    120.2679     26.8049
   680.6000      8.0743      2.6369      0.0334      0.7952    119.6304     27.5884
   680.7000      8.0743      2.6393      0.0697      0.6474    117.4411     27.5592
   680.8000      8.0909      2.6517      0.0862     -0.1026    111.8160     27.0448
   680.9000      8.0909      2.6592      0.0969     -0.5572    109.7440     26.6719
   681.0000      8.0650      2.6557      0.0919     -0.3439    112.1719     26.1918
   681.1000      8.0650      2.6442      0.0527      0.3543    113.9309     25.7522
   681.2000      8.0650      2.6283      0.0416      1.3135    116.7457     25.6409
   681.3000      8.0742      2.6131     -0.0033      2.2366    122.8116     25.4034
   681.4000      8.0742      2.5975      0.0887      3.1835    129.2345     24.7151
   681.5000      8.0661      2.5790      0.0600      4.3034    134.4389     23.9469
