~Version Information
VERS.                      2.0: CWLS Log ASCII Standard - VERSION 2.0
WRAP.                       NO: One line per depth step
~Well Information Block
STRT.FT                 0.0000: 
STOP.FT              1906.7500: 
STEP.FT                 0.2500: 
NULL.                -999.2500: 
COMP.          Petrogulf Corporation: COMPANY
WELL.             Kraft 17-23R: WELL
FLD.           Purgatorie River: FIELD
LOC.           1509' FSL & 1673' FWL: LOCATION
STAT.                 Colorado: State
CNTY.               Las Animas: COUNTY
CTRY. USA : Country
SECT. 17 : Section
TOWN. 33S : Township
RANG. 67W : Range
SRVC.                Patterson: SERVICE COMPANY
DATE.          Fri Jan 06 08:59:54 2006: LOG DATE
API. 05-071-08560                         : UNIQUE WELL ID
~Curve Information Block
DEPT.FT            0 000 00 00: Depth
CCL.                          : Casing Collar Locator
TT3.usec                      : CBL 3' Travel Time
AMP3.mV                       : CBL 3' Amplitude
AMP3.mV                       : CBL 3' Amplitude
GR.GAPI                       : Gamma Ray
AMP3.mV                       : CBL 3' Amplitude
~Parameter Information Block
~A  Depth       CCL         TT3         AMP3        AMP3         GR        .AMP3    
# ...
  1488.0000      0.0000    640.0715      4.5109      4.5109    143.2806      4.5109
  1488.2500      0.0000    653.4124      4.5198      4.5198    147.9593      4.5198
  1488.5000      0.0000    657.0577      4.5160      4.5160    153.4118      4.5160
  1488.7500      0.0000    651.3061      4.5161      4.5161    156.6868      4.5161
  1489.0000      0.0000    635.1603      4.5197      4.5197    156.7925      4.5197
  1489.2500      0.0000    614.3106      4.5199      4.5199    154.5890      4.5199
  1489.5000      0.0000    604.3055      4.5280      4.5280    151.4307      4.5280
  1489.7500      0.0000    610.4638      4.5571      4.5571    147.6620      4.5571
  1490.0000      0.0000    614.0635      4.5864      4.5864    142.5194      4.5864
  1490.2500      0.0000    595.8849      4.5619      4.5619    135.8466      4.5619
  1490.5000      0.0000    561.9800      4.4602      4.4602    129.3712      4.4602
  1490.7500      0.0000    534.2825      4.3301      4.3301    125.3787      4.3301
  1491.0000      0.0000    526.0420      4.2465      4.2465    124.2368      4.2465
  1491.2500      0.0000    536.2068      4.2425      4.2425    123.8423      4.2425
  1491.5000      0.0000    559.8735      4.2904      4.2904    121.4731      4.2904
  1491.7500      0.0000    592.1234      4.3478      4.3478    115.9618      4.3478
  1492.0000      0.0000    624.0215      4.4262      4.4262    108.3987      4.4262
  1492.2500      0.0000    645.9044      4.5555      4.5555    101.0708      4.5555
  1492.5000      0.0000    654.2810      4.7321      4.7321     95.5565      4.7321
  1492.7500      0.0000    647.1572      4.9710      4.9710     91.6270      4.9710
  1493.0000      0.0000    616.5965      5.2931      5.2931     87.9215      5.2931
  1493.2500      0.0000    562.5142      5.6143      5.6143     83.6409      5.6143
  1493.5000      0.0000    515.8984      5.7637      5.7637     79.6550      5.7637
  1493.7500      0.0000    517.6811      5.6711      5.6711     78.1865      5.6711
  1494.0000      0.0000    565.0994      5.4641      5.4641     81.4095      5.4641
  1494.2500      0.0000    614.9042      5.3296      5.3296     89.9993      5.3296
  1494.5000      0.0000    637.9712      5.3868      5.3868    102.6550      5.3868
  1494.7500      0.0000    640.8016      5.6979      5.6979    116.7271      5.6979
  1495.0000      0.0000    644.4373      6.2297      6.2297    129.2868      6.2297
  1495.2500      0.0000    656.1061      6.7570      6.7570    138.0403      6.7570
  1495.5000      0.0000    662.5354      6.9692      6.9692    141.8156      6.9692
  1495.7500      0.0000    656.0537      6.7960      6.7960    140.5885      6.7960
  1496.0000      0.0000    647.1494      6.5469      6.5469    135.3630      6.5469
  1496.2500      0.0000    640.7115      6.6021      6.6021    128.1434      6.6021
  1496.5000      0.0000    626.0663      6.9860      6.9860    121.5358      6.9860
  1496.7500      0.0000    599.2710      7.3846      7.3846    117.7160      7.3846
  1497.0000     -2.0000    576.3359      7.5632      7.5632    117.5626      7.5632
  1497.2500      0.0000    572.7352      7.5821      7.5821    120.5363      7.5821
  1497.5000      0.0000    588.2784      7.5651      7.5651    125.0698      7.5651
  1497.7500      0.0000    617.0909      7.4528      7.4528    129.3577      7.4528
  1498.0000      0.0000    648.4810      7.0827      7.0827    132.2377      7.0827
  1498.2500      0.0000    667.6599      6.4222      6.4222    133.3490      6.4222
  1498.5000      0.0000    670.9612      5.6771      5.6771    132.6922      5.6771
  1498.7500      0.0000    667.2784      5.2051      5.2051    130.6166      5.2051
  1499.0000      0.0000    664.2722      5.2432      5.2432    128.2187      5.2432
  1499.2500      0.0000    663.1097      5.6412      5.6412    127.0800      5.6412
  1499.5000      0.0000    662.6964      6.0330      6.0330    128.2050      6.0330
  1499.7500      0.0000    662.5723      6.2637      6.2637    131.3228      6.2637
  1500.0000      0.0000    662.6881      6.4275      6.4275    135.4296      6.4275
  1500.2500      0.0000    662.9160      6.6022      6.6022    139.7037      6.6022
  1500.5000      0.0000    663.1132      6.7856      6.7856    143.5132      6.7856
  1500.7500      0.0000    663.2554      7.0044      7.0044    145.9673      7.0044
  1501.0000      0.0000    663.4116      7.3180      7.3180    146.2279      7.3180
  1501.2500      0.0000    663.6652      7.7271      7.7271    144.2929      7.7271
  1501.5000      0.0000    664.2612      8.1556      8.1556    141.0727      8.1556
  1501.7500      0.0000    666.0443      8.5332      8.5332    137.6073      8.5332
  1502.0000      0.0000    670.5169      8.8387      8.8387    134.4088      8.8387
  1502.2500      0.0000    678.2528      9.0611      9.0611    131.5904      9.0611
  1502.5000      0.0000    686.4682      9.1697      9.1697    129.3801      9.1697
  1502.7500      0.0000    689.9476      9.1084      9.1084    128.3705      9.1084
  1503.0000      0.0000    686.0947      8.8545      8.8545    129.2191      8.8545
  1503.2500      0.0000    678.2374      8.5014      8.5014    132.0681      8.5014
  1503.5000      0.0000    673.4094      8.1763      8.1763    136.2813      8.1763
  1503.7500      0.0000    677.7714      7.8880      7.8880    140.6836      7.8880
  1504.0000      0.0000    692.9283      7.5329      7.5329    144.0734      7.5329
  1504.2500      0.0000    713.9708      7.0040      7.0040    145.7741      7.0040
  1504.5000      0.0000    733.3980      6.2894      6.2894    145.9990      6.2894
  1504.7500      0.0000    746.8864      5.4848      5.4848    145.5307      5.4848
  1505.0000      0.0000    750.5446      4.7088      4.7088    144.7951      4.7088
  1505.2500      0.0000    739.3704      4.0328      4.0328    143.3527      4.0328
  1505.5000      0.0000    716.5683      3.4643      3.4643    140.6609      3.4643
  1505.7500      0.0000    696.4858      2.9760      2.9760    137.3795      2.9760
  1506.0000      0.0000    690.6385      2.5613      2.5613    135.4931      2.5613
  1506.2500      0.0000    695.8696      2.2258      2.2258    136.6675      2.2258
  1506.5000      0.0000    700.7095      1.9580      1.9580    140.5621      1.9580
  1506.7500      0.0000    698.3594      1.7375      1.7375    145.1117      1.7375
  1507.0000      0.0000    690.4540      1.5465      1.5465    148.2322      1.5465
  1507.2500      0.0000    682.5620      1.3866      1.3866    148.9756      1.3866
  1507.5000      0.0000    678.1645      1.2771      1.2771    147.3803      1.2771
  1507.7500      0.0000    676.7819      1.2169      1.2169    143.8265      1.2169
  1508.0000      0.0000    676.5965      1.1873      1.1873    138.8402      1.1873
  1508.2500      0.0000    676.6003      1.1742      1.1742    133.3179      1.1742
  1508.5000      0.0000    676.6037      1.1672      1.1672    128.6496      1.1672
  1508.7500      0.0000    676.6762      1.1682      1.1682    126.2943      1.1682
  1509.0000      0.0000    676.8790      1.1809      1.1809    126.9145      1.1809
  1509.2500      0.0000    677.3156      1.2021      1.2021    129.8411      1.2021
  1509.5000      0.0000    678.0870      1.2356      1.2356    133.4151      1.2356
  1509.7500      0.0000    679.0329      1.2741      1.2741    135.8116      1.2741
  1510.0000      0.0000    679.7410      1.3072      1.3072    135.9978      1.3072
  1510.2500      0.0000    679.9246      1.3526      1.3526    134.3736      1.3526
  1510.5000      0.0000    679.6230      1.4120      1.4120    132.4100      1.4120
  1510.7500      0.0000    679.0960      1.4498      1.4498    131.4518      1.4498
  1511.0000      0.0000    678.6916      1.4540      1.4540    131.8637      1.4540
  1511.2500      0.0000    678.5744      1.4492      1.4492    133.0817      1.4492
  1511.5000      0.0000    678.2535      1.4621      1.4621    134.2281      1.4621
  1511.7500      0.0000    676.1897      1.5027      1.5027    134.8918      1.5027
