~Version Information
VERS.                      2.0: CWLS Log ASCII Standard - VERSION 2.0
WRAP.                       NO: One line per depth step
~Well Information Block
STRT.FT                -8.7500: 
STOP.FT              1035.7500: 
STEP.FT                 0.2500: 
NULL.                -999.2500: 
COMP.          Pioneer Natural Resources: COMPANY
WELL.                Mac 22-36: WELL
FLD.           Purgatorie River: FIELD
LOC.           2545' FNL & 1398' FWL--: LOCATION
PROV.                       CO: PROVINCE
CNTY.               Las Animas: COUNTRY
SRVC.          Patterson Wireline: SERVICE COMPANY
DATE.          Thu Dec 08 13:20:05 2005: LOG DATE
UWI.           08 071 08594 00: UNIQUE WELL ID
~Curve Information Block
DEPT.FT            0 000 00 00: Depth
CCL.                          : Casing Collar Locator
TT3.usec                      : CBL 3' Travel Time
AMP3.mV                       : CBL 3' Amplitude
GR.GAPI                       : Gamma Ray
~Parameter Information Block
~A  Depth       CCL         TT3         AMP3         GR     
# ...
   460.2500      0.0000    718.1272      9.8561    136.7799
   460.5000      0.0000    721.2711      9.2694    140.2852
   460.7500      0.0000    737.8942      8.8938    145.0954
   461.0000      0.0000    768.8917      8.7332    149.3772
   461.2500      0.0000    805.9558      8.6731    151.6926
   461.5000      0.0000    836.2006      8.6304    151.9104
   461.7500      0.0000    852.4181      8.6025    150.9969
   462.0000      0.0000    857.6203      8.6055    150.3867
   462.2500     -2.0000    859.1346      8.6348    151.8451
   462.5000      0.0000    861.6395      8.6841    156.9006
   462.7500      0.0000    865.7070      8.7703    165.2715
   463.0000      0.0000    867.6586      8.9281    174.2554
   463.2500      0.0000    860.3151      9.1637    180.7113
   463.5000      0.0000    838.9966      9.4155    183.5446
   463.7500      0.0000    807.7374      9.6040    183.7132
   464.0000      0.0000    776.8081      9.7442    182.3666
   464.2500      0.0000    754.5258      9.9430    180.0588
   464.5000      0.0000    742.9762     10.2495    177.4923
   464.7500      0.0000    739.6034     10.5737    175.5418
   465.0000      0.0000    740.4656     10.7929    174.0562
   465.2500      0.0000    742.4171     10.8771    171.5838
   465.5000      0.0000    743.9169     10.8793    166.8465
   465.7500      0.0000    744.7256     10.8529    160.1467
   466.0000      0.0000    745.1039     10.8152    153.2786
   466.2500      0.0000    745.2802     10.7658    148.3606
   466.5000      0.0000    745.3077     10.7093    146.6556
   466.7500      0.0000    745.0847     10.6573    148.0598
   467.0000      0.0000    744.3151     10.6190    151.4547
   467.2500      0.0000    742.5638     10.5931    155.4788
   467.5000      0.0000    739.6906     10.5698    159.0803
   467.7500      0.0000    736.5745     10.5402    161.7727
   468.0000      0.0000    735.4720     10.5054    163.6561
   468.2500      0.0000    739.3239     10.4747    165.0620
   468.5000      0.0000    750.0652     10.4578    166.1469
   468.7500      0.0000    766.9653     10.4601    167.0416
   469.0000      0.0000    786.5672     10.4841    168.2135
   469.2500      0.0000    804.6849     10.5294    170.0839
   469.5000      0.0000    818.6585     10.5932    172.1403
   469.7500      0.0000    827.9247     10.6704    172.9912
   470.0000      0.0000    833.2114     10.7505    171.7780
   470.2500      0.0000    835.6950     10.8156    169.4182
   470.5000      0.0000    836.5340     10.8519    168.0727
   470.7500      0.0000    836.6108     10.8624    169.2748
   471.0000      0.0000    836.4354     10.8624    172.6446
   471.2500      0.0000    836.2234     10.8601    176.1950
   471.5000      0.0000    836.0349     10.8506    177.6484
   471.7500      0.0000    835.8598     10.8285    175.7369
   472.0000      0.0000    835.6808     10.8005    170.7694
   472.2500      0.0000    835.6005     10.7762    164.1104
   472.5000      0.0000    836.2120     10.7524    156.8982
   472.7500      0.0000    839.0647     10.7157    149.3712
   473.0000      0.0000    846.2896     10.6615    141.5484
   473.2500      0.0000    858.7213     10.6049    133.8680
   473.5000      0.0000    873.7615     10.5709    126.6132
   473.7500      0.0000    885.8709     10.5723    119.5420
   474.0000      0.0000    890.3394     10.5961    112.8435
   474.2500      0.0000    886.8801     10.6143    107.7566
   474.5000      0.0000    878.8438     10.6112    105.4283
   474.7500      0.0000    868.5148     10.5931    105.4894
   475.0000      0.0000    854.3023     10.5708    106.1740
   475.2500      0.0000    833.9401     10.5478    105.5402
   475.5000      0.0000    809.6022     10.5287    102.3146
   475.7500      0.0000    787.8110     10.5280     96.1990
   476.0000      0.0000    774.2570     10.5592     88.2947
   476.2500      0.0000    770.3203     10.6243     81.2160
   476.5000      0.0000    774.6739     10.7183     77.8040
   476.7500      0.0000    786.1188     10.8327     79.0097
   477.0000      0.0000    803.3210     10.9509     83.0586
   477.2500      0.0000    822.4664     11.0479     87.1881
   477.5000      0.0000    837.0748     11.1059     90.5485
   477.7500      0.0000    841.7454     11.1285     95.1666
   478.0000      0.0000    836.3163     11.1329    103.6254
   478.2500      0.0000    825.6904     11.1279    115.9672
   478.5000      0.0000    815.5284     11.1030    129.1532
   478.7500      0.0000    808.8447     11.0396    139.4029
   479.0000      0.0000    806.3006     10.9320    144.6369
   479.2500      0.0000    807.7842     10.7979    144.8389
   479.5000      0.0000    812.7037     10.6717    141.3038
   479.7500      0.0000    819.7614     10.5876    136.3917
   480.0000      0.0000    827.9619     10.5640    133.0516
   480.2500      0.0000    838.2150     10.5985    133.1426
   480.5000      0.0000    852.8888     10.6729    136.0274
   480.7500      0.0000    872.2587     10.7613    138.9048
   481.0000      0.0000    891.2588     10.8380    138.2151
   481.2500      0.0000    901.4925     10.8869    131.3520
   481.5000      0.0000    897.9510     10.9066    118.5733
   481.7500      0.0000    883.4082     10.9014    103.8285
   482.0000      0.0000    865.7211     10.8701     93.0611
   482.2500      0.0000    851.5098     10.8076     91.0005
   482.5000      0.0000    842.6807     10.7203     98.8347
   482.7500      0.0000    837.4521     10.6328    114.0860
   483.0000      0.0000    832.9724     10.5762    132.1812
   483.2500      0.0000    827.1368     10.5676    148.2248
   483.5000      0.0000    819.4393     10.6004    158.3306
   483.7500      0.0000    811.0525     10.6528    160.9934
   484.0000      0.0000    803.9921     10.7050    157.8383
   484.2500      0.0000    799.8307     10.7501    152.3260
   484.5000      0.0000    798.9795     10.7910    147.5486
   484.7500      0.0000    800.8293     10.8323    145.3454
   485.0000      0.0000    804.3495     10.8742    146.2577
   485.2500      0.0000    809.1016     10.9094    149.0280
   485.5000      0.0000    816.1349     10.9283    150.8798
   485.7500      0.0000    827.0747     10.9313    149.5941
   486.0000      0.0000    841.2992     10.9359    145.1870
   486.2500      0.0000    854.5165     10.9675    139.0750
   486.5000      0.0000    861.4688     11.0406    132.1368
   486.7500      0.0000    860.3213     11.1494    124.2607
   487.0000      0.0000    854.9374     11.2744    115.6368
   487.2500      0.0000    853.3708     11.3948    107.8494
   487.5000      0.0000    862.6360     11.4989    103.1826
   487.7500      0.0000    882.1910     11.5844    102.7416
   488.0000      0.0000    902.1710     11.6456    105.5602
   488.2500      0.0000    909.6144     11.6586    109.8309
   488.5000      0.0000    897.6102     11.5962    114.7499
   488.7500      0.0000    869.5604     11.4622    120.7079
   489.0000      0.0000    835.6916     11.3008    127.9437
   489.2500      0.0000    805.4712     11.1643    135.6994
   489.5000      0.0000    782.6652     11.0780    142.8413
   489.7500      0.0000    766.2220     11.0365    148.8853
   490.0000      0.0000    753.6385     11.0172    154.2057
   490.2500      0.0000    742.8544     10.9922    159.4033
   490.5000      0.0000    732.7564     10.9379    164.5534
   490.7500      0.0000    723.3914     10.8444    168.9513
   491.0000      0.0000    715.6841     10.7185    171.4427
   491.2500      0.0000    710.3964     10.5773    171.2719
   491.5000      0.0000    707.4607     10.4387    169.1838
   491.7500      0.0000    706.2067     10.3134    167.7262
   492.0000      0.0000    706.0485     10.2006    169.6564
   492.2500      0.0000    706.9767     10.0943    175.4788
   492.5000      0.0000    709.6015      9.9910    182.6649
   492.7500      0.0000    714.6282      9.8905    187.5578
   493.0000      0.0000    721.9553      9.7936    188.0140
   493.2500      0.0000    730.1945      9.7058    184.3142
   493.5000      0.0000    737.3484      9.6438    178.4025
