~Version Information
VERS.                      2.0: CWLS Log ASCII Standard - VERSION 2.0
WRAP.                       NO: One line per depth step
~Well Information Block
STRT.FT               710.0000: 
STOP.FT              1983.0000: 
STEP.FT                 0.1000: 
NULL.                -999.2500: 
COMP.          Petrogulf Corporation: COMPANY
WELL.           State 16-23R-X: WELL
FLD.           Purgatorie River: FIELD
LOC.           2381' FSL & 2072' FWL: LOCATION
PROV.                 Colorado: PROVINCE
CNTY.               Las Animas: COUNTRY
SRVC.                Patterson: SERVICE COMPANY
DATE.          Mon Aug 08 07:36:34 2005: LOG DATE
UWI.                          : UNIQUE WELL ID
~Curve Information Block
DEPT.FT            0 000 00 00: Depth
DCAL.in                       : CDL Caliper
RHOB.g/cc                     : CDL Bulk Density
RHOC.g/cc                     : CDL Density Correction
DPOR.pu                       : CDL Density Porosity
GR.GAPI                       : Gamma Ray
NPOR.pu                       : Neutron Porosity
~Parameter Information Block
~A  Depth       DCAL        RHOB        RHOC        DPOR         GR         NPOR    
   710.0000      8.1994      2.0943     -0.5391     33.6796    102.1145     46.5667
   710.1000      8.1994      2.0689     -0.5156     35.2208    100.8057     46.6747
   710.2000      8.1994      2.0559     -0.5279     36.0064     95.9872     47.0076
   710.3000      8.1860      2.0607     -0.5777     35.7150     91.1404     47.3395
   710.4000      8.1860      2.0878     -0.5551     34.0754     89.0588     47.5058
   710.5000      8.1786      2.1269     -0.4978     31.7058     88.8500     47.5902
   710.6000      8.1786      2.1695     -0.4954     29.1193     87.6694     47.6431
   710.7000      8.1786      2.2241     -0.5255     25.8128     85.5767     47.4778
   710.8000      8.1817      2.2893     -0.4727     21.8588     84.7844     47.1559
   710.9000      8.1817      2.3404     -0.3910     18.7610     85.7453     47.0847
   711.0000      8.1748      2.3665     -0.4066     17.1796     86.9747     47.2771
   711.1000      8.1748      2.3752     -0.3528     16.6573     87.1522     47.3840
   711.2000      8.1748      2.3660     -0.3456     17.2109     85.3814     47.3279
   711.3000      8.1877      2.3559     -0.4837     17.8216     82.9108     47.1098
   711.4000      8.1877      2.3676     -0.3809     17.1181     81.1810     46.7235
   711.5000      8.2070      2.3846     -0.3547     16.0854     79.6488     46.3853
   711.6000      8.2070      2.3887     -0.3633     15.8365     78.6931     46.2056
   711.7000      8.2070      2.3924     -0.3699     15.6145     78.6041     46.0920
   711.8000      8.2137      2.4068     -0.4011     14.7405     78.7283     45.9949
   711.9000      8.2137      2.4128     -0.3065     14.3755     79.4795     45.7652
   712.0000      8.2061      2.3887     -0.3701     15.8374     80.4779     45.4522
   712.1000      8.2061      2.3567     -0.4434     17.7755     80.8655     45.3236
   712.2000      8.2061      2.3485     -0.3878     18.2723     80.9470     45.4191
   712.3000      8.1944      2.3537     -0.3549     17.9588     82.1251     45.7308
   712.4000      8.1944      2.3504     -0.3495     18.1561     85.2446     46.2076
   712.5000      8.2098      2.3498     -0.4472     18.1941     88.7250     46.6012
   712.6000      8.2098      2.3719     -0.3614     16.8568     90.5950     46.8184
   712.7000      8.2098      2.4020     -0.3339     15.0314     91.4179     47.0555
   712.8000      8.2136      2.4162     -0.3201     14.1711     92.8336     47.4180
   712.9000      8.2136      2.4248     -0.3764     13.6458     93.7790     47.5831
   713.0000      8.2149      2.4599     -0.3803     11.5235     93.4564     47.3371
   713.1000      8.2149      2.5267     -0.3249      7.4740     93.4045     47.0104
   713.2000      8.2149      2.5945     -0.3244      3.3658     92.5675     46.8960
   713.3000      8.2103      2.6480     -0.3796      0.1224     89.0767     46.9618
   713.4000      8.2103      2.6977     -0.3381     -2.8897     84.6962     47.2188
   713.5000      8.1837      2.7370     -0.3008     -5.2713     80.9164     47.5520
   713.6000      8.1837      2.7515     -0.3355     -6.1543     78.4603     47.6396
   713.7000      8.1837      2.7400     -0.3104     -5.4570     78.5038     47.1950
   713.8000      8.1833      2.7069     -0.3753     -3.4478     79.9636     46.4801
   713.9000      8.1833      2.6640     -0.4618     -0.8459     80.7963     46.0522
   714.0000      8.2137      2.6190     -0.4033      1.8806     81.2815     45.8802
   714.1000      8.2137      2.5675     -0.4908      5.0024     82.8515     45.7078
   714.2000      8.2137      2.5124     -0.4081      8.3390     85.7051     45.6858
   714.3000      8.1998      2.4636     -0.4289     11.2990     88.4057     45.9767
   714.4000      8.1998      2.4247     -0.4391     13.6553     89.8439     46.3241
   714.5000      8.1813      2.3877     -0.3993     15.8994     91.3246     46.4332
   714.6000      8.1813      2.3474     -0.4455     18.3417     93.8160     46.3913
   714.7000      8.1813      2.3149     -0.4686     20.3070     95.1785     46.4053
   714.8000      8.2020      2.3002     -0.4980     21.1975     93.9105     46.6043
   714.9000      8.2020      2.3035     -0.5027     21.0006     92.8393     46.9183
   715.0000      8.1918      2.3177     -0.4577     20.1404     94.3682     47.1621
   715.1000      8.1918      2.3283     -0.4193     19.4995     96.1272     47.3115
   715.2000      8.1918      2.3217     -0.4102     19.8949     96.6851     47.3429
   715.3000      8.1812      2.2985     -0.4054     21.3053     97.5254     47.2107
   715.4000      8.1812      2.2756     -0.4520     22.6916     98.7416     47.1312
   715.5000      8.2097      2.2625     -0.4656     23.4853     98.6608     47.3369
   715.6000      8.2097      2.2489     -0.4524     24.3084     96.2759     47.7027
   715.7000      8.2097      2.2366     -0.5320     25.0550     92.3545     48.0080
   715.8000      8.2140      2.2424     -0.4640     24.7003     89.3894     48.1835
   715.9000      8.2140      2.2692     -0.4895     23.0809     89.8750     48.2383
   716.0000      8.2058      2.3073     -0.4270     20.7726     92.3277     48.2504
   716.1000      8.2058      2.3465     -0.4587     18.3948     92.7652     48.2522
   716.2000      8.2058      2.3806     -0.4336     16.3285     90.5248     48.1221
   716.3000      8.2028      2.3986     -0.3224     15.2376     87.2070     47.8414
   716.4000      8.2028      2.3923     -0.3887     15.6203     84.0071     47.6593
   716.5000      8.2161      2.3739     -0.4084     16.7313     82.9161     47.7215
   716.6000      8.2161      2.3593     -0.4472     17.6154     85.0241     47.7178
   716.7000      8.2161      2.3511     -0.4241     18.1174     88.2882     47.5214
   716.8000      8.2110      2.3434     -0.4073     18.5810     90.5801     47.4061
   716.9000      8.2110      2.3343     -0.4171     19.1350     91.4214     47.4979
   717.0000      8.1888      2.3300     -0.4306     19.3930     90.8737     47.6753
   717.1000      8.1888      2.3381     -0.4353     18.9055     89.5959     47.7933
   717.2000      8.1888      2.3544     -0.3907     17.9143     88.5113     47.8118
   717.3000      8.1973      2.3673     -0.4097     17.1311     89.1413     47.8111
   717.4000      8.1973      2.3743     -0.4105     16.7111     92.2860     47.7839
   717.5000      8.1787      2.3832     -0.4989     16.1699     96.6014     47.6926
   717.6000      8.1787      2.3960     -0.3960     15.3929    100.1115     47.7105
   717.7000      8.1787      2.4003     -0.4008     15.1313    100.8678     47.8854
   717.8000      8.1729      2.4038     -0.4406     14.9221    100.9399     47.9793
   717.9000      8.1729      2.4274     -0.3835     13.4930    103.5504     47.8584
   718.0000      8.1973      2.4593     -0.3526     11.5600    106.2244     47.5573
   718.1000      8.1973      2.4766     -0.3887     10.5082    106.6157     47.2223
   718.2000      8.1973      2.4779     -0.4203     10.4298    106.0661     47.0456
   718.3000      8.1997      2.4665     -0.4241     11.1221    105.9783     47.1244
   718.4000      8.1997      2.4395     -0.4009     12.7550    107.1808     47.3428
   718.5000      8.1771      2.4013     -0.3680     15.0744    110.1517     47.4782
   718.6000      8.1771      2.3677     -0.4616     17.1075    113.8527     47.5020
   718.7000      8.1771      2.3504     -0.4222     18.1554    116.5008     47.5905
   718.8000      8.1994      2.3407     -0.3638     18.7468    117.6857     47.7465
   718.9000      8.1994      2.3277     -0.3780     19.5351    118.8175     47.9010
   719.0000      8.2148      2.3142     -0.3986     20.3510    120.5352     48.0573
   719.1000      8.2148      2.3071     -0.4710     20.7795    121.5778     48.2458
   719.2000      8.2148      2.3050     -0.4200     20.9095    120.5938     48.5051
   719.3000      8.1812      2.2997     -0.4306     21.2306    116.6110     48.6831
   719.4000      8.1812      2.2966     -0.4453     21.4153    111.9046     48.7376
   719.5000      8.1769      2.3052     -0.4286     20.8988    110.6600     48.9073
