~Version Information
VERS.                      2.0: CWLS Log ASCII Standard - VERSION 2.0
WRAP.                       NO: One line per depth step
~Well Information Block
STRT.FT                -6.2500: 
STOP.FT              1327.5000: 
STEP.FT                 0.2500: 
NULL.                -999.2500: 
COMP.          Pioneer Natural Resources: COMPANY
WELL.            Avant 14-3 Tr: WELL
FLD.           Purgatorie River: FIELD
LOC.           170' FSL & 1174' FWL--: LOCATION
STAT.                       CO: State
CNTY.               Las Animas: COUNTY
CTRY. USA : Country
SECT. 3 : Section
TOWN. 33S : Township
RANG. 67W : Range
SRVC.          Patterson Wireline: SERVICE COMPANY
DATE.          Tue Aug 23 16:44:25 2005: LOG DATE
API.           05 071 08463 00: UNIQUE WELL ID
~Curve Information Block
DEPT.FT            0 000 00 00: Depth
CCL.                          : Casing Collar Locator
TT3.usec                      : CBL 3' Travel Time
AMP3.mV                       : CBL 3' Amplitude
GR.GAPI                       : Gamma Ray
~Parameter Information Block
~A  Depth       CCL         TT3         AMP3         GR     
# ...
   764.2500      0.0000    819.2402      9.5985    115.4975
   764.5000      0.0000    810.0977      9.5915    110.0646
   764.7500      0.0000    803.8673      9.5667    107.5162
   765.0000      0.0000    804.3871      9.5166    108.7197
   765.2500      0.0000    809.3824      9.4428    112.3761
   765.5000      0.0000    812.9664      9.3608    115.8202
   765.7500      0.0000    811.0422      9.2905    117.0333
   766.0000      0.0000    803.4440      9.2474    116.0355
   766.2500      0.0000    792.5245      9.2401    114.0917
   766.5000      0.0000    781.5638      9.2707    111.7211
   766.7500      0.0000    773.7892      9.3331    108.0115
   767.0000      0.0000    771.2318      9.4122    101.8804
   767.2500      0.0000    774.4376      9.4875     93.5445
   767.5000      0.0000    783.2297      9.5418     84.7099
   767.7500      0.0000    796.5698      9.5685     77.4741
   768.0000      0.0000    811.8066      9.5757     72.8176
   768.2500      0.0000    825.5068      9.5821     69.9648
   768.5000      0.0000    835.4326      9.6091     67.2692
   768.7500      0.0000    841.3691      9.6726     63.7297
   769.0000      0.0000    844.3813      9.7773     59.7046
   769.2500      0.0000    845.7224      9.9120     56.4781
   769.5000      0.0000    846.2674     10.0506     55.2843
   769.7500      0.0000    846.4568     10.1615     56.4425
   770.0000      0.0000    846.4667     10.2244     59.1479
   770.2500      0.0000    846.3821     10.2434     62.0571
   770.5000      0.0000    846.2636     10.2435     64.0138
   770.7500      0.0000    846.1252     10.2499     64.2734
   771.0000      0.0000    845.8052     10.2622     62.5217
   771.2500      0.0000    844.8290     10.2494     59.1627
   771.5000      0.0000    842.4870     10.1746     55.4390
   771.7500      0.0000    838.3867     10.0303     52.9097
   772.0000      0.0000    833.2238      9.8476     52.5650
   772.2500      0.0000    828.7241      9.6702     54.1668
   772.5000      0.0000    826.1782      9.5270     56.2946
   772.7500      0.0000    825.0854      9.4321     57.3397
   773.0000      0.0000    823.7418      9.3982     56.7994
   773.2500      0.0000    820.8906      9.4392     55.5389
   773.5000      0.0000    815.9186      9.5584     54.7312
   773.7500      0.0000    808.0743      9.7388     54.7679
   774.0000      0.0000    797.1833      9.9490     55.2073
   774.2500      0.0000    785.5101     10.1615     55.4086
   774.5000      0.0000    777.7001     10.3638     55.0767
   774.7500      0.0000    778.0489     10.5461     54.4687
   775.0000      0.0000    787.6271     10.6806     54.3230
   775.2500      0.0000    803.4215     10.7272     55.6573
   775.5000      0.0000    819.8757     10.6662     59.5063
   775.7500      0.0000    831.8858     10.5151     66.5017
   776.0000      0.0000    837.0535     10.3113     76.3611
   776.2500      0.0000    835.7251     10.0849     87.8502
   776.5000      0.0000    829.8611      9.8526     99.2679
   776.7500      0.0000    822.1398      9.6290    108.7773
   777.0000      0.0000    815.1466      9.4326    114.5972
   777.2500      0.0000    810.4349      9.2817    115.8845
   777.5000      0.0000    808.1044      9.1840    113.8773
   777.7500      0.0000    807.2199      9.1268    111.4527
   778.0000      0.0000    806.5002      9.0813    110.8307
   778.2500      0.0000    805.2192      9.0282    111.8701
   778.5000      0.0000    804.2967      8.9829    112.8166
   778.7500      0.0000    806.2170      8.9898    112.2481
   779.0000      0.0000    812.6527      9.0879    110.0984
   779.2500      0.0000    822.0226      9.2865    107.4356
   779.5000      0.0000    830.3565      9.5729    105.6905
   779.7500      0.0000    834.7115      9.9306    105.8767
   780.0000      0.0000    835.1891     10.3415    108.3075
   780.2500      0.0000    833.8458     10.7787    112.9705
   780.5000      0.0000    832.4354     11.2135    119.6154
   780.7500      0.0000    831.3640     11.6408    126.9417
   781.0000      0.0000    830.0548     12.0882    132.3110
   781.2500      0.0000    827.6134     12.5795    133.5219
   781.5000      0.0000    823.5804     13.0804    130.9229
   781.7500      0.0000    818.8517     13.4959    126.9884
   782.0000      0.0000    815.7573     13.7383    123.8893
   782.2500      0.0000    816.5729     13.7958    122.1310
   782.5000      0.0000    821.6995     13.7291    121.2281
   782.7500      0.0000    829.2897     13.6145    120.7579
   783.0000      0.0000    836.6138     13.4993    120.6305
   783.2500      0.0000    841.8314     13.4011    120.9357
   783.5000      0.0000    844.6831     13.3231    121.7646
   783.7500      0.0000    845.9058     13.2560    123.0275
   784.0000      0.0000    846.3323     13.1656    124.3745
   784.2500      0.0000    846.4749     12.9937    125.2066
   784.5000      0.0000    846.5634     12.6913    124.7075
   784.7500      0.0000    846.6826     12.2627    122.0900
   785.0000      0.0000    846.8499     11.7742    117.1917
   785.2500      0.0000    847.0582     11.3147    110.9713
   785.5000      0.0000    847.2952     10.9502    105.0891
   785.7500      0.0000    847.5306     10.7109    100.6558
   786.0000      0.0000    847.6984     10.6019     97.4701
   786.2500      0.0000    847.7266     10.6064     94.6513
   786.5000      0.0000    847.5968     10.6772     91.8755
   786.7500      0.0000    847.3691     10.7473     89.8337
   787.0000      0.0000    847.1320     10.7621     89.4994
   787.2500      0.0000    846.9276     10.7051     91.0284
   787.5000      0.0000    846.5986     10.6012     93.3888
   787.7500      0.0000    845.5499     10.4994     95.0878
   788.0000      0.0000    842.5469     10.4506     95.2114
   788.2500      0.0000    836.2084     10.4862     93.7811
   788.5000      0.0000    826.7220     10.6027     91.4371
   788.7500      0.0000    817.4716     10.7593     88.8579
   789.0000      0.0000    813.6458     10.8934     86.1579
   789.2500      0.0000    817.7842     10.9469     82.8894
   789.5000      0.0000    827.2121     10.8854     78.9841
   789.7500      0.0000    836.7337     10.7026     75.5610
   790.0000      0.0000    843.1394     10.4137     74.3167
   790.2500      0.0000    846.6098     10.0455     75.8785
   790.5000      0.0000    849.0748      9.6317     78.8474
   790.7500      0.0000    852.0494      9.2138     80.7734
   791.0000      0.0000    855.0297      8.8357     80.2962
   791.2500      0.0000    855.5163      8.5270     78.1702
   791.5000      0.0000    852.0729      8.2874     76.0915
   791.7500      0.0000    848.4111      8.0935     74.9349
   792.0000      0.0000    852.2095      7.9269     74.3436
   792.2500      0.0000    867.1276      7.7963     73.3761
   792.5000      0.0000    886.5090      7.7323     70.9758
   792.7500      0.0000    897.6515      7.7562     66.3987
   793.0000      0.0000    893.0659      7.8585     60.0480
   793.2500      0.0000    875.9179      8.0121     53.7649
   793.5000      0.0000    854.5865      8.1995     49.6167
   793.7500      0.0000    835.2154      8.4190     48.2599
   794.0000      0.0000    820.7762      8.6640     48.7253
   794.2500      0.0000    813.4363      8.9121     49.6943
   794.5000      0.0000    813.9220      9.1364     50.7109
   794.7500      0.0000    819.1593      9.3239     52.3794
   795.0000      0.0000    823.2769      9.4817     55.6705
   795.2500      0.0000    821.4944      9.6259     60.7673
   795.5000      0.0000    812.5223      9.7515     66.3824
   795.7500      0.0000    798.5729      9.8021     70.6183
   796.0000      0.0000    785.0149      9.6911     72.8456
   796.2500      0.0000    779.2348      9.3867     74.4864
   796.5000      0.0000    786.6419      8.9769     77.7540
   796.7500      0.0000    806.6935      8.6197     83.6385
   797.0000      0.0000    833.9099      8.4166     90.9245
   797.2500      0.0000    861.9881      8.3497     96.9463
   797.5000      0.0000    885.8016      8.3371     99.5671
