~Version Information
VERS.                      2.0: CWLS Log ASCII Standard - VERSION 2.0
WRAP.                       NO: One line per depth step
~Well Information Block
STRT.FT                -7.5000: 
STOP.FT              1336.0000: 
STEP.FT                 0.2500: 
NULL.                -999.2500: 
COMP.          Pioneer Natural Resources: COMPANY
WELL.               LPGC 32-32: WELL
FLD.           Purgatorie River: FIELD
LOC.           1937' FNL & 1661' FEL--: LOCATION
CNTY.               Las Animas: COUNTY
SRVC.          Patterson Wireline: SERVICE COMPANY
DATE.          Fri Feb 03 09:39:42 2006: LOG DATE
UWI.           05 071 08641 00: UNIQUE WELL ID
STAT.                       CO: STATE
~Curve Information Block
DEPT.FT            0 000 00 00: Depth
CCL.                          : Casing Collar Locator
TT3.usec                      : CBL 3' Travel Time
AMP3.mV                       : CBL 3' Amplitude
GR.GAPI                       : Gamma Ray
~Parameter Information Block
~A  Depth       CCL         TT3         AMP3         GR     
# ...
   528.5000      0.0000    312.3630     19.7154    132.5832
   528.7500      0.0000    311.2965     19.6916    125.7117
   529.0000      0.0000    312.2121     19.6095    118.3280
   529.2500      0.0000    315.7741     19.4566    112.8533
   529.5000      0.0000    321.6615     19.2343    111.0037
   529.7500      0.0000    328.5293     18.9619    112.8600
   530.0000      0.0000    334.6143     18.6740    116.9325
   530.2500      0.0000    338.7623     18.4069    121.1856
   530.5000      0.0000    340.9302     18.1896    124.2480
   530.7500      0.0000    341.7866     18.0405    125.9389
   531.0000      0.0000    342.0334     17.9583    126.8600
   531.2500      0.0000    342.0745     17.9186    127.6282
   531.5000      0.0000    342.0621     17.8913    128.4201
   531.7500      0.0000    342.0413     17.8586    128.9967
   532.0000      0.0000    342.0323     17.8098    129.1221
   532.2500      0.0000    342.0540     17.7312    129.1570
   532.5000      0.0000    342.1201     17.6133    130.1698
   532.7500      0.0000    342.2257     17.4659    133.0717
   533.0000      0.0000    342.3343     17.3213    137.5413
   533.2500      0.0000    342.3910     17.2238    142.0932
   533.5000      0.0000    342.3641     17.2090    145.2267
   533.7500      0.0000    342.2803     17.2808    146.1958
   534.0000      0.0000    342.2097     17.4092    144.6877
   534.2500      0.0000    342.2081     17.5594    140.2607
   534.5000      0.0000    342.2762     17.7191    132.5375
   534.7500      0.0000    342.3791     17.8893    122.0062
   535.0000      0.0000    342.4907     18.0552    110.4799
   535.2500      0.0000    342.6060     18.1847    100.5899
   535.5000      0.0000    342.7180     18.2564     94.6706
   535.7500      0.0000    342.8149     18.2779     93.8818
   536.0000      0.0000    342.9164     18.2749     98.0263
   536.2500      0.0000    343.2087     18.2680    105.8793
   536.5000      0.0000    344.3588     18.2533    115.6227
   536.7500      0.0000    348.0003     18.1926    125.2661
   537.0000      0.0000    356.8343     18.0269    133.1481
   537.2500      0.0000    373.3540     17.7141    138.3313
   537.5000      0.0000    397.1758     17.2696    140.5762
   537.7500      0.0000    423.2902     16.7795    140.0796
   538.0000      0.0000    443.6799     16.3794    137.1801
   538.2500      0.0000    451.3325     16.2090    131.9768
   538.5000      0.0000    443.4160     16.3561    124.2124
   538.7500      0.0000    422.1871     16.8187    113.9853
   539.0000      0.0000    393.8960     17.5110    102.8588
   539.2500      0.0000    365.8493     18.3109     93.9840
   539.5000      0.0000    343.0575     19.1085     90.5373
   539.7500      0.0000    327.0153     19.8376     93.5221
   540.0000      0.0000    316.9028     20.5018    100.8572
   540.2500      0.0000    311.1435     21.1976    108.6274
   540.5000      0.0000    308.1235     22.1041    113.4389
   540.7500      0.0000    306.4900     23.4112    114.0785
   541.0000      0.0000    305.3685     25.2069    111.6451
   541.2500      0.0000    304.4007     27.3899    108.4880
   541.5000      0.0000    303.5619     29.6810    106.7369
   541.7500      0.0000    302.9332     31.7457    107.2353
   542.0000      0.0000    302.5476     33.3499    109.4118
   542.2500      0.0000    302.3601     34.4364    112.0834
   542.5000      0.0000    302.2922     35.0883    114.3817
   542.7500      0.0000    302.2763     35.4398    115.9310
   543.0000      0.0000    302.2705     35.6110    116.5925
   543.2500      0.0000    302.2559     35.6816    116.5297
   543.5000      0.0000    302.2334     35.6869    116.2772
   543.7500      0.0000    302.2171     35.6274    116.2586
   544.0000      0.0000    302.2197     35.5005    116.3120
   544.2500      0.0000    302.2396     35.3374    116.0731
   544.5000      0.0000    302.2630     35.2078    115.8003
   544.7500      0.0000    302.2773     35.1767    116.3767
   545.0000      0.0000    302.2816     35.2473    118.2052
   545.2500      0.0000    302.2843     35.3532    120.5097
   545.5000      0.0000    302.2933     35.4130    122.2255
   545.7500      0.0000    302.3106     35.3852    123.0899
   546.0000      0.0000    302.3359     35.2668    123.3420
   546.2500      0.0000    302.3726     35.0626    123.0728
   546.5000      0.0000    302.4263     34.7738    122.5009
   546.7500      0.0000    302.4965     34.4144    122.3511
   547.0000      0.0000    302.5713     34.0240    123.3150
   547.2500      0.0000    302.6336     33.6488    125.2866
   547.5000      0.0000    302.6741     33.3043    127.3509
   547.7500      0.0000    302.6995     32.9515    128.4202
   548.0000      0.0000    302.7261     32.5214    127.9357
   548.2500      0.0000    302.7652     31.9771    126.1340
   548.5000      0.0000    302.8149     31.3503    123.6103
   548.7500      0.0000    302.8703     30.6962    120.7753
   549.0000      0.0000    302.9456     30.0090    118.0201
   549.2500      0.0000    303.0920     29.1951    116.2746
   549.5000      0.0000    303.4248     28.1343    116.9186
   549.7500      0.0000    304.1814     26.7661    120.9938
   550.0000      0.0000    305.8077     25.1367    128.7001
   550.2500      0.0000    308.9529     23.3920    139.4840
   550.5000      0.0000    314.1543     21.7255    151.9258
   550.7500      0.0000    321.2323     20.3136    163.2859
   551.0000      0.0000    328.9703     19.2733    169.9198
   551.2500      0.0000    335.7032     18.6409    169.0911
   551.5000      0.0000    340.4288     18.3572    160.6111
   551.7500      0.0000    343.5887     18.2763    146.7491
   552.0000      0.0000    347.2063     18.2270    130.8575
   552.2500      0.0000    354.7300     18.0970    116.0891
   552.5000      0.0000    369.6920     17.8762    104.7907
   552.7500      0.0000    391.7646     17.6497     98.4211
   553.0000      0.0000    412.7659     17.5735     97.5635
   553.2500      0.0000    419.6021     17.8269    101.6877
   553.5000      0.0000    405.1604     18.5234    108.9065
   553.7500      0.0000    375.6758     19.6217    116.5173
   554.0000      0.0000    345.0591     20.9094    122.3712
   554.2500      0.0000    323.3372     22.0732    125.9400
   554.5000      0.0000    312.0114     22.8221    128.2761
   554.7500      0.0000    307.6473     23.0234    131.0811
   555.0000      0.0000    306.5835     22.7667    135.3676
   555.2500      0.0000    306.6945     22.2844    140.4692
   555.5000      0.0000    307.0934     21.7857    144.4941
   555.7500      0.0000    307.5026     21.3613    146.0136
   556.0000      0.0000    307.8400     21.0199    145.1555
   556.2500      0.0000    308.0904     20.7729    143.1120
   556.5000      0.0000    308.3382     20.6543    141.1187
   556.7500      0.0000    308.9421     20.6682    140.0094
   557.0000      0.0000    310.7634     20.7429    140.0105
   557.2500      0.0000    315.1078     20.7625    140.3585
   557.5000      0.0000    322.9669     20.6523    139.4355
   557.7500      0.0000    333.7956     20.4324    135.9471
   558.0000      0.0000    345.0886     20.1868    130.1172
   558.2500      0.0000    353.9908     19.9839    123.6997
   558.5000      0.0000    360.0343     19.8302    118.8730
   558.7500      0.0000    366.9184     19.6900    116.8425
   559.0000      0.0000    381.3840     19.5328    117.1140
   559.2500      0.0000    408.8076     19.3570    118.1066
   559.5000      0.0000    448.0847     19.1747    118.6197
   559.7500      0.0000    490.3764     18.9887    118.6040
   560.0000      0.0000    523.3069     18.8091    118.5784
   560.2500      0.0000    538.2515     18.6774    118.6264
   560.5000      0.0000    537.9039     18.5995    118.0088
   560.7500      0.0000    538.3201     18.4228    115.6354
   561.0000      0.0000    557.9792     17.8864    111.0974
   561.2500      0.0000    600.4265     16.9037    105.3600
   561.5000      0.0000    650.2946     15.7374    100.1420
   561.7500      0.0000    687.4777     14.8020     96.4313
