~Version Information
VERS.                      2.0: CWLS Log ASCII Standard - VERSION 2.0
WRAP.                       NO: One line per depth step
~Well Information Block
STRT.FT                -7.7500: 
STOP.FT              1519.0000: 
STEP.FT                 0.2500: 
NULL.                -999.2500: 
COMP.          Pioneer Natural Resources: COMPANY
WELL.          Mow 8-14-33-67 Tr: WELL
FLD.           Purgatorie River: FIELD
LOC.           2258' FNL & 929' FEL--: LOCATION
CNTY.               Las Animas: COUNTY
SRVC.          Patterson Wireline: SERVICE COMPANY
DATE.          Thu Feb 02 10:06:28 2006: LOG DATE
UWI.           05 071 08684 00: UNIQUE WELL ID
STAT.                       CO: STATE
~Curve Information Block
DEPT.FT            0 000 00 00: Depth
MINMK.                        : Magnetic Mark Ticks
CCL.                          : Casing Collar Locator
TT3.usec                      : CBL 3' Travel Time
AMP3.mV                       : CBL 3' Amplitude
GR.GAPI                       : Gamma Ray
~Parameter Information Block
~A  Depth      MINMK        CCL         TT3         AMP3         GR     
# ...
  1392.2500      0.0000      0.0000    265.9125     45.1762     84.2884
  1392.5000      0.0000      0.0000    265.9210     44.9741     82.2729
  1392.7500      0.0000      0.0000    265.9236     44.7988     82.3366
  1393.0000      0.0000      0.0000    265.9224     44.6909     82.9758
  1393.2500      0.0000      0.0000    265.9212     44.6592     82.4563
  1393.5000      0.0000      0.0000    265.9236     44.6844     80.5710
  1393.7500      0.0000      0.0000    265.9314     44.7408     78.8909
  1394.0000      0.0000      0.0000    265.9434     44.8108     79.4813
  1394.2500      0.0000      0.0000    265.9572     44.8845     83.5216
  1394.5000      0.0000      0.0000    265.9706     44.9564     90.7950
  1394.7500      0.0000      0.0000    265.9825     45.0251     99.9953
  1395.0000      0.0000      0.0000    265.9906     45.0915    109.5800
  1395.2500      0.0000      0.0000    265.9919     45.1573    118.5875
  1395.5000      0.0000      0.0000    265.9845     45.2264    126.6087
  1395.7500      0.0000      0.0000    265.9689     45.3104    133.1066
  1396.0000      0.0000      0.0000    265.9464     45.4279    137.1015
  1396.2500      0.0000      0.0000    265.9182     45.5924    137.4185
  1396.5000      0.0000      0.0000    265.8846     45.7998    133.1733
  1396.7500      0.0000      0.0000    265.8453     46.0309    124.5324
  1397.0000      0.0000      0.0000    265.8004     46.2679    113.3761
  1397.2500      0.0000      0.0000    265.7504     46.5073    102.9103
  1397.5000      0.0000      0.0000    265.6978     46.7607     96.2170
  1397.7500      0.0000      0.0000    265.6440     47.0518     94.8948
  1398.0000      0.0000      0.0000    265.5862     47.4197     98.5685
  1398.2500      0.0000      0.0000    265.5158     47.9211    105.1541
  1398.5000      0.0000      0.0000    265.4228     48.6136    111.6988
  1398.7500      0.0000      0.0000    265.3028     49.5186    115.8043
  1399.0000      0.0000      0.0000    265.1609     50.6014    116.8473
  1399.2500      0.0000      0.0000    265.0083     51.7924    115.7119
  1399.5000      0.0000      0.0000    264.8548     53.0321    113.4999
  1399.7500      0.0000      0.0000    264.7056     54.2963    111.1730
  1400.0000      0.0000      0.0000    264.5613     55.5874    110.1439
  1400.2500      0.0000      0.0000    264.4215     56.9160    112.0555
  1400.5000      0.0000      0.0000    264.2871     58.2933    117.6702
  1400.7500      0.0000      0.0000    264.1611     59.7253    126.2203
  1401.0000      0.0000      0.0000    264.0477     61.1972    135.6406
  1401.2500      0.0000      0.0000    263.9500     62.6590    143.4996
  1401.5000      0.0000      0.0000    263.8694     64.0374    148.2493
  1401.7500      0.0000      0.0000    263.8045     65.2691    149.6207
  1402.0000      0.0000      0.0000    263.7520     66.3250    147.7912
  1402.2500      0.0000      0.0000    263.7080     67.2088    142.8550
  1402.5000      0.0000      0.0000    263.6688     67.9426    135.4655
  1402.7500      0.0000      0.0000    263.6325     68.5534    127.2375
  1403.0000      0.0000      0.0000    263.5985     69.0665    119.7226
  1403.2500      0.0000      0.0000    263.5673     69.5024    113.2110
  1403.5000      0.0000      0.0000    263.5399     69.8730    107.0041
  1403.7500      0.0000      0.0000    263.5189     70.1758    100.6985
  1404.0000      0.0000      0.0000    263.5119     70.3744     94.8073
  1404.2500      0.0000      0.0000    263.5412     70.3615     90.2159
  1404.5000      0.0000      0.0000    263.6592     69.9206     87.3786
  1404.7500      0.0000      0.0000    263.9638     68.7703     86.1817
  1405.0000      0.0000      0.0000    264.5828     66.7955     86.4763
  1405.2500      0.0000      0.0000    265.6115     64.2801     88.6394
  1405.5000      0.0000      0.0000    267.0344     61.6882     93.4846
  1405.7500      0.0000      0.0000    268.6880     59.0678    101.3600
  1406.0000      0.0000      0.0000    270.2932     55.9806    111.1861
  1406.2500      0.0000      0.0000    271.5594     52.2777    120.3944
  1406.5000      0.0000      0.0000    272.3364     48.5996    126.0415
  1406.7500      0.0000      0.0000    272.7266     45.8050    126.5201
  1407.0000      0.0000      0.0000    273.0907     44.1632    122.6706
  1407.2500      0.0000     -2.0000    273.9920     43.3167    117.2496
  1407.5000      1.0000      0.0000    276.0598     42.8147    113.1066
  1407.7500      0.0000      0.0000    279.5242     42.6030    111.8365
  1408.0000      0.0000      0.0000    283.4941     43.1594    113.9361
  1408.2500      0.0000      0.0000    285.8968     45.1043    119.4925
  1408.5000      0.0000      0.0000    284.8419     48.4672    128.0775
  1408.7500      0.0000      0.0000    280.3553     52.4643    138.0430
  1409.0000      0.0000      0.0000    274.4518     56.2243    146.4951
  1409.2500      0.0000      0.0000    269.4142     59.4680    150.7810
  1409.5000      0.0000      0.0000    266.2684     62.2505    150.5715
  1409.7500      0.0000      0.0000    264.7622     64.4453    148.3120
  1410.0000      0.0000      0.0000    264.1982     65.8344    147.1670
  1410.2500      0.0000      0.0000    264.0381     66.4536    148.4411
  1410.5000      0.0000      0.0000    264.0150     66.5941    151.0346
  1410.7500      0.0000      0.0000    264.0310     66.5587    153.0171
  1411.0000      0.0000      0.0000    264.0557     66.5189    153.3306
  1411.2500      0.0000      0.0000    264.0782     66.5290    152.2461
  1411.5000      0.0000      0.0000    264.0936     66.5789    150.7213
  1411.7500      0.0000      0.0000    264.0990     66.6373    149.4963
  1412.0000      0.0000      0.0000    264.0948     66.6756    148.6807
  1412.2500      0.0000      0.0000    264.0834     66.6828    148.0044
  1412.5000      0.0000      0.0000    264.0681     66.6672    147.3025
  1412.7500      0.0000      0.0000    264.0515     66.6451    146.6207
  1413.0000      0.0000      0.0000    264.0357     66.6320    145.7602
  1413.2500      0.0000      0.0000    264.0234     66.6363    143.7383
  1413.5000      0.0000      0.0000    264.0182     66.6561    139.1679
  1413.7500      0.0000      0.0000    264.0226     66.6795    131.8360
  1414.0000      0.0000      0.0000    264.0362     66.6898    123.7719
  1414.2500      0.0000      0.0000    264.0562     66.6701    117.9683
  1414.5000      0.0000      0.0000    264.0788     66.6055    115.9274
  1414.7500      0.0000      0.0000    264.1013     66.4868    116.8606
  1415.0000      0.0000      0.0000    264.1216     66.3170    119.0577
  1415.2500      0.0000      0.0000    264.1383     66.1155    121.6053
  1415.5000      0.0000      0.0000    264.1501     65.9134    124.9461
  1415.7500      0.0000      0.0000    264.1573     65.7429    130.1277
  1416.0000      0.0000      0.0000    264.1606     65.6254    137.4455
  1416.2500      0.0000      0.0000    264.1608     65.5686    145.8118
  1416.5000      0.0000      0.0000    264.1578     65.5679    153.5916
  1416.7500      0.0000      0.0000    264.1516     65.6115    159.7375
  1417.0000      0.0000      0.0000    264.1430     65.6857    163.7560
  1417.2500      0.0000      0.0000    264.1335     65.7833    165.0808
  1417.5000      0.0000      0.0000    264.1243     65.9073    163.3424
  1417.7500      0.0000      0.0000    264.1150     66.0643    159.3998
  1418.0000      0.0000      0.0000    264.1051     66.2492    155.5127
  1418.2500      0.0000      0.0000    264.0945     66.4313    153.7208
  1418.5000      0.0000      0.0000    264.0853     66.5586    153.8740
  1418.7500      0.0000      0.0000    264.0827     66.5880    153.9003
  1419.0000      0.0000      0.0000    264.0981     66.5216    152.4822
  1419.2500      0.0000      0.0000    264.1518     66.4099    150.8538
  1419.5000      0.0000      0.0000    264.2666     66.3149    151.2921
  1419.7500      0.0000      0.0000    264.4385     66.2655    154.2182
  1420.0000      0.0000      0.0000    264.6084     66.2445    157.4976
