~Version Information
VERS.                      2.0: CWLS Log ASCII Standard - VERSION 2.0
WRAP.                       NO: One line per depth step
~Well Information Block
STRT.FT               240.0000: 
STOP.FT              1185.5000: 
STEP.FT                 0.2500: 
NULL.                -999.2500: 
COMP.          Pioneer Natural Resources: COMPANY
WELL.          Whitecoat 14-36: WELL
FLD.           Purgatorie River: FIELD
LOC.           606' FSL & 260' FWL: LOCATION
PROV.                 Colorado: PROVINCE
CNTY.               Las Animas: COUNTRY
SRVC.                Patterson: SERVICE COMPANY
DATE.          Mon Dec 05 16:51:12 2005: LOG DATE
UWI.                          : UNIQUE WELL ID
~Curve Information Block
DEPT.FT            0 000 00 00: Depth
DIR.Ohm-m                     : IEL Induction Resistivity
GR.GAPI                       : Gamma Ray
~Parameter Information Block
~A  Depth       DIR          GR     
# ...
  1020.5000     27.2733     73.0189
  1020.7500     27.3495     72.9686
  1021.0000     27.5628     72.6725
  1021.2500     27.8997     72.4066
  1021.5000     28.3111     71.9980
  1021.7500     28.7330     71.7020
  1022.0000     29.1012     71.2472
  1022.2500     29.3573     71.0538
  1022.5000     29.4524     71.0225
  1022.7500     29.3531     70.9888
  1023.0000     29.0513     70.4772
  1023.2500     28.5749     69.8689
  1023.5000     27.9870     69.2306
  1023.7500     27.3588     69.3461
  1024.0000     26.7262     70.2583
  1024.2500     26.0601     71.0148
  1024.5000     25.2871     71.8932
  1024.7500     24.3604     72.2797
  1025.0000     23.3224     72.7530
  1025.2500     22.2917     73.0476
  1025.5000     21.3864     73.3150
  1025.7500     20.6524     73.2752
  1026.0000     20.0501     72.9377
  1026.2500     19.4929     72.7281
  1026.5000     18.9027     72.9862
  1026.7500     18.2471     73.8674
  1027.0000     17.5395     76.5603
  1027.2500     16.8181     79.2042
  1027.5000     16.1271     83.9697
  1027.7500     15.5083     87.3378
  1028.0000     14.9964     92.2823
  1028.2500     14.6148     95.4369
  1028.5000     14.3696     99.8741
  1028.7500     14.2484    102.4762
  1029.0000     14.2276    105.5109
  1029.2500     14.2852    106.9108
  1029.5000     14.4099    108.3700
  1029.7500     14.5964    109.1853
  1030.0000     14.8355    110.5176
  1030.2500     15.1151    111.5127
  1030.5000     15.4344    112.8607
  1030.7500     15.8197    113.2910
  1031.0000     16.3215    112.4754
  1031.2500     16.9914    110.6414
  1031.5000     17.8532    105.9762
  1031.7500     18.8829    102.0171
  1032.0000     20.0052     96.0812
  1032.2500     21.1117     92.9159
  1032.5000     22.0951     90.1687
  1032.7500     22.8848     89.6477
  1033.0000     23.4698     90.0273
  1033.2500     23.8988     90.3333
  1033.5000     24.2557     89.6908
  1033.7500     24.6225     88.1771
  1034.0000     25.0465     84.5663
  1034.2500     25.5245     81.8016
  1034.5000     26.0055     78.0705
  1034.7500     26.4174     76.2256
  1035.0000     26.7155     74.5786
  1035.2500     26.9173     74.0369
  1035.5000     27.0876     73.5423
  1035.7500     27.2858     73.2869
  1036.0000     27.5299     73.2208
  1036.2500     27.8012     73.5644
  1036.5000     28.0599     74.6571
  1036.7500     28.2450     75.5462
  1037.0000     28.2797     76.6149
  1037.2500     28.1109     76.9957
  1037.5000     27.7574     77.2002
  1037.7500     27.2985     77.2545
  1038.0000     26.8027     77.2622
  1038.2500     26.2750     77.0809
  1038.5000     25.6780     76.2206
  1038.7500     25.0026     75.1335
  1039.0000     24.3043     72.7122
  1039.2500     23.6654     70.7498
  1039.5000     23.1279     68.0968
  1039.7500     22.6593     67.2119
  1040.0000     22.1738     68.1090
  1040.2500     21.5882     70.1556
  1040.5000     20.8776     74.2209
  1040.7500     20.0971     76.6240
  1041.0000     19.3577     78.6304
  1041.2500     18.7734     78.8220
  1041.5000     18.4126     78.0154
  1041.7500     18.2752     77.3073
  1042.0000     18.2974     76.9163
  1042.2500     18.3768     77.4132
  1042.5000     18.4181     79.1671
  1042.7500     18.3778     80.6681
  1043.0000     18.2834     82.8519
  1043.2500     18.2080     84.0570
  1043.5000     18.2219     85.2590
  1043.7500     18.3581     85.5425
  1044.0000     18.6079     85.0758
  1044.2500     18.9418     84.2030
  1044.5000     19.3374     82.3612
  1044.7500     19.7902     81.0668
  1045.0000     20.3009     79.4503
  1045.2500     20.8493     78.6625
  1045.5000     21.3785     77.7387
  1045.7500     21.8067     77.1309
  1046.0000     22.0626     76.0563
  1046.2500     22.1198     75.2166
  1046.5000     22.0097     73.8895
  1046.7500     21.8095     73.1089
  1047.0000     21.6170     72.4159
  1047.2500     21.5234     72.4179
  1047.5000     21.5829     73.1362
  1047.7500     21.7883     73.9707
  1048.0000     22.0635     75.5098
  1048.2500     22.2870     76.6640
  1048.5000     22.3496     78.5098
  1048.7500     22.2166     79.6547
  1049.0000     21.9479     80.8122
  1049.2500     21.6590     81.0549
  1049.5000     21.4555     80.6693
  1049.7500     21.3858     80.0396
  1050.0000     21.4342     78.8353
  1050.2500     21.5459     78.0995
  1050.5000     21.6661     77.4373
  1050.7500     21.7679     77.2675
  1051.0000     21.8561     77.0576
  1051.2500     21.9485     76.8297
  1051.5000     22.0505     76.6517
  1051.7500     22.1419     76.9530
  1052.0000     22.1832     78.2565
  1052.2500     22.1375     79.5045
  1052.5000     21.9939     81.2602
  1052.7500     21.7792     81.9677
  1053.0000     21.5504     82.1022
  1053.2500     21.3726     81.7675
  1053.5000     21.2927     81.2355
  1053.7500     21.3257     81.0840
  1054.0000     21.4580     81.0704
  1054.2500     21.6639     80.9980
  1054.5000     21.9219     80.5178
  1054.7500     22.2192     79.9186
  1055.0000     22.5414     78.8109
  1055.2500     22.8618     78.1549
  1055.5000     23.1417     77.5901
  1055.7500     23.3451     77.5293
  1056.0000     23.4557     77.8397
  1056.2500     23.4829     78.2924
  1056.5000     23.4548     79.3670
  1056.7500     23.4031     80.3279
  1057.0000     23.3527     81.8436
  1057.2500     23.3169     82.6000
  1057.5000     23.3009     83.0229
  1057.7500     23.3059     82.9615
  1058.0000     23.3302     82.9426
  1058.2500     23.3657     83.1869
  1058.5000     23.3928     83.7267
  1058.7500     23.3796     83.9319
  1059.0000     23.2869     83.8785
  1059.2500     23.0746     83.8205
  1059.5000     22.7109     84.2310
  1059.7500     22.1879     84.9603
  1060.0000     21.5465     86.2673
  1060.2500     20.8852     86.6494
  1060.5000     20.3292     85.4724
  1060.7500     19.9701     83.4080
  1061.0000     19.8178     79.1787
  1061.2500     19.7958     76.3125
  1061.5000     19.7906     72.9756
  1061.7500     19.7311     71.8424
  1062.0000     19.6373     72.3114
  1062.2500     19.5923     74.0292
  1062.5000     19.6640     77.7064
  1062.7500     19.8449     80.0385
  1063.0000     20.0538     82.4320
  1063.2500     20.1971     83.2179
  1063.5000     20.2410     83.3242
  1063.7500     20.2278     82.6913
  1064.0000     20.2255     80.7155
  1064.2500     20.2681     78.8633
  1064.5000     20.3436     75.7131
  1064.7500     20.4286     73.6218
  1065.0000     20.5257     70.8702
  1065.2500     20.6634     69.4749
  1065.5000     20.8628     68.2458
  1065.7500     21.1114     68.0001
  1066.0000     21.3675     68.3390
  1066.2500     21.5882     69.0175
  1066.5000     21.7505     70.9405
  1066.7500     21.8475     72.9538
  1067.0000     21.8717     76.9221
  1067.2500     21.8051     79.8786
  1067.5000     21.6273     93.7824
  1067.7500     21.3366     95.7160
  1068.0000     20.9710     95.6231
  1068.2500     20.6074     93.1368
  1068.5000     20.3346     95.4475
  1068.7500     20.2079     89.3158
  1069.0000     20.2198     80.4713
  1069.2500     20.3126     75.5136
  1069.5000     20.4295     79.5896
  1069.7500     20.5604     76.0718
  1070.0000     20.7352     71.9290
  1070.2500     20.9750     69.8852
  1070.5000     21.2542     67.9247
  1070.7500     21.5098     67.3625
  1071.0000     21.6815     67.5523
  1071.2500     21.7454     68.2837
  1071.5000     21.7180     70.2532
  1071.7500     21.6380     72.1396
  1072.0000     21.5445     75.3680
  1072.2500     21.4565     77.1853
  1072.5000     21.3650     78.4560
  1072.7500     21.2492     78.2466
  1073.0000     21.1140     77.0232
  1073.2500     21.0139     76.1215
  1073.5000     21.0322     75.2065
  1073.7500     21.2229     75.0112
  1074.0000     21.5638     75.2794
  1074.2500     21.9504     75.5954
  1074.5000     22.2409     75.6731
  1074.7500     22.3305     75.2946
  1075.0000     22.2072     74.4493
  1075.2500     21.9523     74.0669
  1075.5000     21.6894     73.9741
  1075.7500     21.5157     74.0232
  1076.0000     21.4553     73.7563
