~Version Information
VERS.                      2.0: CWLS Log ASCII Standard - VERSION 2.0
WRAP.                       NO: One line per depth step
~Well Information Block
STRT.FT               240.0000: 
STOP.FT              1252.5000: 
STEP.FT                 0.2500: 
NULL.                -999.2500: 
COMP.          Pioneer Natural Resources: COMPANY
WELL.             Margaux 11-1: WELL
FLD.           Purgatoire River: FIELD
LOC.           1154' FNL & 472' FWL: LOCATION
PROV.                 Colorado: PROVINCE
CNTY.               Las Animas: COUNTRY
SRVC.                Patterson: SERVICE COMPANY
DATE.          Mon Dec 19 04:21:59 2005: LOG DATE
UWI.           05 071 08639 00: UNIQUE WELL ID
~Curve Information Block
DEPT.FT            0 000 00 00: Depth
SN.Ohm-m                      : IEL Short Normal
SP.mV                         : IEL Spontaneous Potential
DIR.Ohm-m                     : IEL Induction Resistivity
GR.GAPI                       : Gamma Ray
~Parameter Information Block
~A  Depth        SN          SP         DIR          GR     
# ...
  1211.5000     12.0714     46.8537     10.5331    112.0501
  1211.7500     12.0253     46.9431     10.6273    112.1641
  1212.0000     12.0015     47.0669     10.7209    114.2785
  1212.2500     12.2729     47.2146     10.8190    115.7232
  1212.5000     12.8699     47.3682     10.9204    116.4807
  1212.7500     13.4865     47.5131     11.0207    116.1283
  1213.0000     13.8039     47.6425     11.1153    115.7437
  1213.2500     13.7530     47.7555     11.2015    116.5873
  1213.5000     13.4986     47.8532     11.2773    120.3583
  1213.7500     13.2077     47.9342     11.3389    124.2321
  1214.0000     12.8621     47.9923     11.3802    130.5343
  1214.2500     12.4382     48.0163     11.3935    134.0027
  1214.5000     12.1256     47.9949     11.3729    136.6176
  1214.7500     12.0600     47.9262     11.3180    136.1838
  1215.0000     12.0645     47.8245     11.2345    132.5546
  1215.2500     11.9816     47.7186     11.1308    128.8809
  1215.5000     11.9197     47.6405     11.0136    123.0848
  1215.7500     11.9860     47.6135     10.8856    119.9028
  1216.0000     12.1163     47.6464     10.7478    117.4236
  1216.2500     12.2086     47.7311     10.6032    117.7508
  1216.5000     12.1939     47.8413     10.4579    120.9777
  1216.7500     12.0182     47.9400     10.3206    124.2183
  1217.0000     11.7164     48.0006     10.2006    129.2494
  1217.2500     11.4123     48.0224     10.1058    132.2374
  1217.5000     11.1372     48.0271     10.0402    136.0262
  1217.7500     10.8235     48.0411     10.0027    137.9818
  1218.0000     10.5601     48.0819      9.9874    139.2554
  1218.2500     10.5443     48.1534      9.9855    138.3385
  1218.5000     10.7200     48.2466      9.9883    133.8665
  1218.7500     10.8371     48.3451      9.9889    129.4878
  1219.0000     10.8263     48.4318      9.9840    123.4454
  1219.2500     10.8052     48.4919      9.9723    121.2510
  1219.5000     10.8138     48.5132      9.9518    121.0447
  1219.7500     10.8026     48.4883      9.9159    121.6237
  1220.0000     10.8117     48.4221      9.8536    120.6433
  1220.2500     10.9608     48.3363      9.7535    118.1614
  1220.5000     11.2822     48.2606      9.6088    113.3791
  1220.7500     11.6598     48.2156      9.4194    111.1523
  1221.0000     11.8823     48.2037      9.1905    111.1612
  1221.2500     11.7664     48.2180      8.9299    113.6883
  1221.5000     11.3442     48.2567      8.6470    121.3648
  1221.7500     10.8603     48.3241      8.3537    129.2623
  1222.0000     10.5040     48.4183      8.0640    144.9434
  1222.2500     10.2375     48.5215      7.7933    156.7425
  1222.5000      9.9303     48.6042      7.5565    173.5022
  1222.7500      9.5676     48.6381      7.3662    183.2331
  1223.0000      9.2026     48.6074      7.2303    197.0862
  1223.2500      8.8323     48.5121      7.1506    207.1565
  1223.5000      8.5260     48.3624      7.1225    223.1608
  1223.7500      8.4458     48.1745      7.1363    231.9750
  1224.0000      8.5733     47.9730      7.1809    236.3747
  1224.2500      8.7423     47.7908      7.2477    230.7887
  1224.5000      8.9271     47.6607      7.3338    209.4062
  1224.7500      9.2047     47.6034      7.4418    189.0816
  1225.0000      9.5980     47.6192      7.5786    156.5196
  1225.2500     10.1511     47.6875      7.7528    137.2616
  1225.5000     10.9400     47.7729      7.9742    115.8975
  1225.7500     11.9189     47.8373      8.2534    107.1075
  1226.0000     12.9250     47.8560      8.5999    100.6009
  1226.2500     13.7792     47.8299      9.0188     99.2240
  1226.5000     14.3490     47.7866      9.5048     99.2249
  1226.7500     14.6435     47.7656     10.0367     99.7374
  1227.0000     14.7834     47.7978     10.5764    100.7942
  1227.2500     14.8318     47.8907     11.0745    101.7635
  1227.5000     14.7373     48.0279     11.4828    103.6854
  1227.7500     14.4602     48.1763     11.7659    105.0457
  1228.0000     14.0596     48.2990     11.9076    106.4981
  1228.2500     13.6272     48.3689     11.9112    106.8465
  1228.5000     13.2123     48.3811     11.7970    106.8778
  1228.7500     12.8262     48.3551     11.5984    107.1917
  1229.0000     12.4522     48.3240     11.3563    109.0308
  1229.2500     12.0883     48.3125     11.1108    111.2947
  1229.5000     11.8333     48.3217     10.8925    115.6882
  1229.7500     11.7978     48.3315     10.7175    118.7512
  1230.0000     11.9169     48.3171     10.5879    122.9335
  1230.2500     11.9946     48.2628     10.4951    125.3845
  1230.5000     11.8942     48.1662     10.4243    128.5228
  1230.7500     11.6051     48.0360     10.3590    130.0179
  1231.0000     11.2130     47.8874     10.2841    130.6824
  1231.2500     10.8721     47.7357     10.1893    129.8081
  1231.5000     10.6992     47.5877     10.0710    126.7579
  1231.7500     10.6884     47.4347      9.9333    124.0619
  1232.0000     10.7917     47.2542      9.7864    119.5429
  1232.2500     10.9876     47.0258      9.6422    115.6663
  1232.5000     11.2109     46.7539      9.5085    105.9579
  1232.7500     11.3712     46.4775      9.3855     95.1798
  1233.0000     11.4892     46.2542      9.2659     71.8964
  1233.2500     11.6096     46.1272      9.1391     53.6208
  1233.5000     11.5945     46.1025      8.9954     28.3246
  1233.7500     11.2525     46.1519      8.8301     15.9356
  1234.0000     10.6564     46.2332      8.6444      5.2560
  1234.2500     10.1435     46.3103      8.4442      2.1096
  1234.5000      9.9743     46.3654      8.2370      0.4078
  1234.7500     10.0268     46.4019      8.0292      0.1123
  1235.0000      9.9270     46.4349      7.8252      0.0103
  1235.2500      9.5174     46.4753      7.6269      0.0000
  1235.5000      9.0185     46.5187      7.4336   -999.2500
  1235.7500      8.6949     46.5492      7.2406   -999.2500
  1236.0000      8.5428     46.5505      7.0404   -999.2500
  1236.2500      8.4001     46.5132      6.8275   -999.2500
  1236.5000      8.2130     46.4359      6.6044   -999.2500
  1236.7500      8.0399     46.3209      6.3833   -999.2500
  1237.0000      7.9339     46.1739      6.1817   -999.2500
  1237.2500      7.9572     46.0075      6.0164   -999.2500
  1237.5000      8.1225     45.8406      5.8978   -999.2500
  1237.7500      8.2712     45.6907      5.8286   -999.2500
  1238.0000      8.2463     45.5660      5.8061   -999.2500
  1238.2500      8.1148     45.4685      5.8247   -999.2500
  1238.5000      8.0497     45.4044      5.8772   -999.2500
  1238.7500      8.0975     45.3874      5.9564   -999.2500
  1239.0000      8.1208     45.4267      6.0555   -999.2500
  1239.2500      8.0055     45.5127      6.1692   -999.2500
  1239.5000      7.8908     45.6144      6.3010   -999.2500
  1239.7500      7.9779     45.6918      6.4459   -999.2500
  1240.0000      8.2344     45.7142      6.6161   -999.2500
  1240.2500      8.5704     45.6715      6.8196   -999.2500
  1240.5000      9.0133     45.5713      7.0592   -999.2500
  1240.7500      9.5257     45.4288      7.3306   -999.2500
  1241.0000      9.9835     45.2604      7.6239   -999.2500
  1241.2500     10.3108     45.0853      7.9259   -999.2500
  1241.5000     10.4291     44.9279      8.2248   -999.2500
  1241.7500     10.3106     44.8127      8.5170   -999.2500
  1242.0000     10.1185     44.7532      8.8220   -999.2500
  1242.2500     10.0165     44.7432      9.2051   -999.2500
  1242.5000      9.9671     44.7589      9.8040   -999.2500
  1242.7500      9.8870     44.7740     10.8604   -999.2500
  1243.0000      9.8391     44.7728     12.7684   -999.2500
  1243.2500      9.9147     44.7522     16.3376   -999.2500
  1243.5000      9.9661     44.7118     23.2060   -999.2500
  1243.7500      9.7508     44.6485     37.4464   -999.2500
  1244.0000      9.3692     44.5607     71.2442   -999.2500
  1244.2500      9.1754     44.4592    177.1691   -999.2500
  1244.5000      9.2504     44.3693   1154.8756   -999.2500
  1244.7500      9.3198     44.3174 100000.0000   -999.2500
