~Version Information
VERS.                      2.0: CWLS Log ASCII Standard - VERSION 2.0
WRAP.                       NO: One line per depth step
~Well Information Block
STRT.FT                -8.7500: 
STOP.FT              2331.5000: 
STEP.FT                 0.2500: 
NULL.                -999.2500: 
COMP.          Pioneer Natural Resources: COMPANY
WELL.          Sparrowhawk 22-12: WELL
FLD.           Purgatorie River: FIELD
LOC.           2049' FNL & 2060' FWL--: LOCATION
CNTY.               Las Animas: COUNTY
SRVC.          Patterson Wireline: SERVICE COMPANY
DATE.          Wed Apr 12 08:53:41 2006: LOG DATE
UWI.           05 071 08484 00: UNIQUE WELL ID
STAT.                       CO: STATE
~Curve Information Block
DEPT.FT            0 000 00 00: Depth
CCL.                          : Casing Collar Locator
TT3.usec                      : CBL 3' Travel Time
AMP3.mV                       : CBL 3' Amplitude
GR.GAPI                       : Gamma Ray
~Parameter Information Block
MAXAMPL.mV              0.0000: Maximum Amplitude
~A  Depth       CCL         TT3         AMP3         GR     
    -8.7500   -999.2500   -999.2500   -999.2500     77.7013
    -8.5000   -999.2500   -999.2500   -999.2500     80.0739
    -8.2500   -999.2500   -999.2500   -999.2500     81.8648
    -8.0000   -999.2500   -999.2500   -999.2500     82.0058
    -7.7500   -999.2500   -999.2500   -999.2500     80.3309
    -7.5000   -999.2500   -999.2500   -999.2500     77.4517
    -7.2500   -999.2500   -999.2500   -999.2500     74.5466
    -7.0000   -999.2500   -999.2500   -999.2500     73.0829
    -6.7500   -999.2500   -999.2500   -999.2500     74.2100
    -6.5000   -999.2500   -999.2500   -999.2500     77.8738
    -6.2500   -999.2500   -999.2500   -999.2500     82.3650
    -6.0000   -999.2500   -999.2500   -999.2500     85.1195
    -5.7500   -999.2500   -999.2500   -999.2500     84.4494
    -5.5000   -999.2500   -999.2500   -999.2500     80.7316
    -5.2500   -999.2500   -999.2500   -999.2500     75.9772
    -5.0000   -999.2500   -999.2500   -999.2500     72.1985
    -4.7500   -999.2500   -999.2500   -999.2500     70.0051
    -4.5000   -999.2500   -999.2500   -999.2500     68.6373
    -4.2500   -999.2500   -999.2500   -999.2500     67.2588
    -4.0000   -999.2500   -999.2500   -999.2500     65.9069
    -3.7500   -999.2500   1161.0000      0.9815     65.1405
    -3.5000   -999.2500   1161.0000      0.9788     65.3366
    -3.2500   -999.2500   1161.0000      0.9807     66.4566
    -3.0000   -999.2500   1161.0000      0.9859     67.8467
    -2.7500   -999.2500   1161.0000      0.9914     68.1642
    -2.5000   -999.2500   1161.0000      0.9947     66.2148
    -2.2500   -999.2500   1161.0000      0.9951     62.2340
    -2.0000   -999.2500   1161.0000      0.9936     57.8954
    -1.7500   -999.2500   1161.0000      0.9915     54.7316
    -1.5000   -999.2500   1161.0000      0.9894     52.8781
    -1.2500   -999.2500   1161.0000      0.9879     51.5320
    -1.0000   -999.2500   1161.0000      0.9883     49.9969
    -0.7500   -999.2500   1161.0000      0.9919     47.7745
    -0.5000   -999.2500   1161.0000      0.9982     44.2279
    -0.2500   -999.2500   1161.0000      1.0055     39.0392
     0.0000   -999.2500   1161.0000      1.0163     27.9830
     0.2500   -999.2500   1161.0000      1.0174     25.6068
     0.5000   -999.2500   1161.0000      1.0152     26.4182
     0.7500   -999.2500   1161.0000      1.0116     29.7261
     1.0000   -999.2500   1161.0000      1.0096     34.3275
     1.2500   -999.2500   1161.0000      1.0115     39.2313
     1.5000      0.0000   1161.0000      1.0166     43.8240
     1.7500      0.0000   1161.0000      1.0230     47.6089
     2.0000      0.0000   1161.0000      1.0297     50.0778
     2.2500      0.0000   1161.0000      1.0370     51.0268
     2.5000      0.0000   1161.0000      1.0439     50.9038
     2.7500      0.0000   1161.0000      1.0483     50.4966
     3.0000      0.0000   1161.0000      1.0489     50.1134
     3.2500      0.0000   1161.0000      1.0472     49.4102
     3.5000      0.0000   1161.0000      1.0460     48.2637
     3.7500      0.0000   1161.0000      1.0465     47.2980
     4.0000      0.0000   1161.0000      1.0476     47.1499
     4.2500      0.0000   1161.0000      1.0469     47.7050
     4.5000      0.0000   1161.0000      1.0435     48.5520
     4.7500      0.0000   1161.0000      1.0380     49.7941
     5.0000      0.0000   1161.0000      1.0309     51.8191
     5.2500      0.0000   1161.0000      1.0227     54.4134
     5.5000      0.0000   1161.0000      1.0161     56.6249
     5.7500      0.0000   1161.0000      1.0145     57.6429
     6.0000      0.0000   1161.0000      1.0190     57.5470
     6.2500      0.0000   1160.9856      1.0271     57.0706
     6.5000      0.0000   1160.9026      1.0360     56.7210
     6.7500      0.0000   1160.4980      1.0441     56.1898
     7.0000      0.0000   1158.9637      1.0508     54.6287
     7.2500      0.0000   1154.5012      1.0553     51.5511
     7.5000      0.0000   1144.4501      1.0616     47.4562
     7.7500      0.0000   1126.6187      1.0904     43.5354
     8.0000      0.0000   1100.1971      1.2376     40.7821
     8.2500      0.0000   1063.2006      1.8251     39.4012
     8.5000      0.0000   1007.8212      3.6368     39.0198
     8.7500      0.0000    921.7256      7.9799     39.2937
     9.0000      0.0000    799.1250     16.0890     40.1477
     9.2500      0.0000    651.9524     27.8880     41.5748
     9.5000      0.0000    507.7112     41.2649     43.4002
     9.7500     -2.0000    393.6439     53.0780     45.2376
    10.0000      0.0000    321.3659     61.2017     46.6565
    10.2500      0.0000    284.8978     65.5556     47.4548
    10.5000      0.0000    270.3331     67.3927     47.7751
    10.7500      0.0000    265.7535     68.0351     47.9617
    11.0000      0.0000    264.6394     68.2147     48.4155
    11.2500      0.0000    264.4702     68.0632     49.4886
    11.5000      0.0000    264.5610     67.3267     51.1907
    11.7500      0.0000    264.8528     65.6811     52.9730
    12.0000      0.0000    265.4394     63.1288     54.0408
    12.2500      0.0000    266.4055     60.1455     53.8548
    12.5000      0.0000    267.6935     57.3021     52.3281
    12.7500      0.0000    269.0779     54.7967     49.8289
    13.0000      0.0000    270.2722     52.5542     47.0602
    13.2500      0.0000    271.0957     50.6328     44.7450
    13.5000      0.0000    271.5507     49.2411     43.4759
    13.7500      0.0000    271.7607     48.4438     43.8984
    14.0000      0.0000    271.8623     48.0767     46.6770
    14.2500      2.0000    271.9478     47.9200     51.8525
    14.5000      0.0000    272.0479     47.8875     58.2373
    14.7500      0.0000    272.0983     48.1414     63.7646
    15.0000      0.0000    271.9157     49.0656     66.7751
    15.2500      0.0000    271.2849     51.0251     67.1806
    15.5000      0.0000    270.1454     54.0831     66.3954
    15.7500      0.0000    268.6891     57.9801     66.0524
    16.0000      0.0000    267.2410     62.2770     66.7900
    16.2500      0.0000    266.0601     66.4171     68.3096
    16.5000      0.0000    265.2487     69.8235     70.2666
    16.7500      0.0000    264.7806     72.1703     72.8002
    17.0000      0.0000    264.5617     73.5467     76.2444
    17.2500      0.0000    264.4856     74.2876     80.3253
    17.5000      0.0000    264.4717     74.6945     83.6171
    17.7500      0.0000    264.4789     74.9287     84.1787
    18.0000      0.0000    264.4940     75.0691     81.1966
    18.2500      0.0000    264.5142     75.1748     75.9176
    18.5000      0.0000    264.5363     75.2910     70.8216
    18.7500      0.0000    264.5552     75.4285     67.9545
    19.0000      0.0000    264.5670     75.5597     67.8536
    19.2500      0.0000    264.5710     75.6405     69.6557
    19.5000      0.0000    264.5697     75.6411     72.0281
    19.7500      0.0000    264.5665     75.5704     73.9943
    20.0000      0.0000    264.5630     75.4759     75.1734
    20.2500      0.0000    264.5600     75.4166     75.7787
    20.5000      0.0000    264.5594     75.4319     76.4070
    20.7500      0.0000    264.5648     75.5272     77.4025
    21.0000      0.0000    264.5792     75.6804     78.3871
    21.2500      0.0000    264.6021     75.8646     78.7582
    21.5000      0.0000    264.6298     76.0697     78.4871
    21.7500      0.0000    264.6568     76.3013     78.1619
    22.0000      0.0000    264.6784     76.5554     78.5799
    22.2500      0.0000    264.6935     76.8020     80.5188
    22.5000      0.0000    264.7037     77.0006     84.3361
    22.7500      0.0000    264.7107     77.1319     89.1960
    23.0000      0.0000    264.7139     77.2092     92.9819
    23.2500      0.0000    264.7136     77.2608     93.6780
    23.5000      0.0000    264.7132     77.3028     91.0696
    23.7500      0.0000    264.7178     77.3326     86.9837
    24.0000      0.0000    264.7298     77.3432     83.9187
    24.2500      0.0000    264.7469     77.3398     83.4892
    24.5000      0.0000    264.7638     77.3391     85.8618
