~Version Information
VERS.                      2.0: CWLS Log ASCII Standard - VERSION 2.0
WRAP.                       NO: One line per depth step
~Well Information Block
STRT.FT               330.0000: 
STOP.FT              2874.7000: 
STEP.FT                 0.1000: 
NULL.                -999.2500: 
COMP.          Pioneer Natural Resources: COMPANY
WELL.                AMX 13-13: WELL
FLD.           Purgatoire River: FIELD
LOC.           2316' FSL & 865' FWL--: LOCATION
PROV.                 Colorado: PROVINCE
CNTY.               Las Animas: COUNTRY
SRVC.                Patterson: SERVICE COMPANY
DATE.          Tue Dec 20 09:57:28 2005: LOG DATE
UWI.           05 071 08630 00: UNIQUE WELL ID
~Curve Information Block
DEPT.FT            0 000 00 00: Depth
DCAL.in                       : CDL Caliper
RHOB.g/cc                     : CDL Bulk Density
RHOC.g/cc                     : CDL Density Correction
DPOR.pu                       : CDL Density Porosity
NPOR.pu                       : Neutron Porosity
GR.GAPI                       : Gamma Ray
~Parameter Information Block
~A  Depth       DCAL        RHOB        RHOC        DPOR        NPOR         GR     
# ...
  1674.0000      7.9297      2.5775      0.0469      4.3932     25.3777    147.7451
  1674.1000      7.9297      2.5778      0.0597      4.3762     25.6021    148.2574
  1674.2000      7.9297      2.5579      0.0704      5.5795     25.9246    144.1118
  1674.3000      7.9324      2.5166     -0.0046      8.0855     26.1063    141.2668
  1674.4000      7.9324      2.4778     -0.0135     10.4338     26.1412    141.5624
  1674.5000      7.9339      2.4576      0.0006     11.6609     26.0212    140.8912
  1674.6000      7.9339      2.4501     -0.0061     12.1157     25.6295    141.4923
  1674.7000      7.9339      2.4407      0.0291     12.6860     24.9713    147.3156
  1674.8000      7.9340      2.4182      0.0076     14.0508     24.2346    153.6868
  1674.9000      7.9340      2.3821     -0.0193     16.2336     23.2604    153.6426
  1675.0000      7.9280      2.3345     -0.0130     19.1241     21.7690    147.3595
  1675.1000      7.9280      2.2806     -0.0647     22.3905     19.9346    139.3254
  1675.2000      7.9280      2.2389     -0.0393     24.9161     17.9183    133.6908
  1675.3000      7.9084      2.2341     -0.0776     25.2046     15.8427    131.3422
  1675.4000      7.9084      2.2776      0.0185     22.5723     14.2378    127.0763
  1675.5000      7.8751      2.3531      0.0963     17.9955     13.2431    118.4802
  1675.6000      7.8751      2.4445      0.1355     12.4560     12.3795    110.0920
  1675.7000      7.8751      2.5491      0.1948      6.1146     11.3685    103.5461
  1675.8000      7.8427      2.6513      0.2869     -0.0765     10.3694     96.6819
  1675.9000      7.8427      2.7283      0.3102     -4.7443      9.5898     89.2904
  1676.0000      7.8288      2.7732      0.2722     -7.4655      9.0772     83.3342
  1676.1000      7.8288      2.7879      0.2641     -8.3566      8.8807     79.1026
  1676.2000      7.8288      2.7818      0.2047     -7.9881      8.9753     73.2669
  1676.3000      7.8305      2.7760      0.1091     -7.6361      9.3002     64.2185
  1676.4000      7.8305      2.7770      0.1118     -7.6972     10.0486     57.8761
  1676.5000      7.8432      2.7645      0.0784     -6.9421     11.4851     59.5840
  1676.6000      7.8432      2.7319      0.0290     -4.9660     13.5170     66.6514
  1676.7000      7.8432      2.6978      0.0002     -2.8971     15.9301     70.9115
  1676.8000      7.8623      2.6767     -0.0002     -1.6202     18.7976     67.9824
  1676.9000      7.8623      2.6721     -0.0026     -1.3407     21.7360     62.8179
  1677.0000      7.8661      2.6890      0.0476     -2.3621     23.8748     60.5643
  1677.1000      7.8661      2.7344      0.0078     -5.1174     25.4190     61.9395
  1677.2000      7.8661      2.8017      0.0464     -9.1944     27.1854     63.1658
  1677.3000      7.8550      2.8648      0.1412    -13.0160     28.8941     60.3375
  1677.4000      7.8550      2.9078      0.1588    -15.6254     30.0435     57.3642
  1677.5000      7.8474      2.9335      0.1495    -17.1826     30.7317     58.8591
  1677.6000      7.8474      2.9374      0.1382    -17.4161     30.8563     62.6116
  1677.7000      7.8474      2.9005      0.1480    -15.1845     30.3513     64.5107
  1677.8000      7.8468      2.8061      0.1303     -9.4594     29.6686     63.0517
  1677.9000      7.8468      2.6713      0.0085     -1.2884     29.1864     59.6089
  1678.0000      7.8483      2.5436     -0.0302      6.4503     28.6423     58.7502
  1678.1000      7.8483      2.4551     -0.1496     11.8144     27.7153     62.1104
  1678.2000      7.8483      2.3942     -0.0743     15.5033     26.3975     65.2802
  1678.3000      7.8481      2.3263     -0.1166     19.6171     24.5119     65.7647
  1678.4000      7.8481      2.2468     -0.1422     24.4351     22.2135     64.2547
  1678.5000      7.8386      2.1669     -0.1160     29.2782     19.8674     62.0430
  1678.6000      7.8386      2.0765     -0.0319     34.7574     17.2709     60.8014
  1678.7000      7.8386      1.9856     -0.0908     40.2655     14.2985     59.8718
  1678.8000      7.8138      1.9519     -0.0925     42.3064     11.5849     57.5556
  1678.9000      7.8138      2.0095      0.0784     38.8185      9.4917     54.3499
  1679.0000      7.7810      2.1282      0.1968     31.6224      7.8831     50.8651
  1679.1000      7.7810      2.2631      0.2625     23.4488      6.7861     48.3808
  1679.2000      7.7810      2.3953      0.3145     15.4344      6.1288     48.0035
  1679.3000      7.7564      2.5276      0.3724      7.4168      5.8535     49.0461
  1679.4000      7.7564      2.6526      0.4063     -0.1559      6.2695     49.4922
  1679.5000      7.7519      2.7422      0.4264     -5.5884      7.3796     48.7879
  1679.6000      7.7519      2.7810      0.3798     -7.9370      8.6996     48.1884
  1679.7000      7.7519      2.7919      0.2833     -8.6010     10.2236     48.0640
  1679.8000      7.7656      2.7999      0.2597     -9.0877     12.4402     49.5773
  1679.9000      7.7656      2.7907      0.2455     -8.5256     15.0734     52.2009
  1680.0000      7.7977      2.7410      0.1376     -5.5133     17.1603     53.7156
  1680.1000      7.7977      2.6629      0.0046     -0.7795     18.4524     54.4022
  1680.2000      7.7977      2.5832      0.0029      4.0508     19.2845     55.0698
  1680.3000      7.8448      2.5069     -0.0580      8.6727     19.6602     56.2922
  1680.4000      7.8448      2.4357     -0.0961     12.9849     19.4491     57.6182
  1680.5000      7.8831      2.3853     -0.1350     16.0395     18.8088     57.4244
  1680.6000      7.8831      2.3649     -0.1155     17.2777     18.1698     57.0320
  1680.7000      7.8831      2.3589     -0.0143     17.6432     17.8463     57.6374
  1680.8000      7.8831      2.3364      0.0265     19.0042     17.6104     57.9687
  1680.9000      7.8831      2.2824      0.0097     22.2785     17.0468     60.0511
  1681.0000      7.8546      2.2174     -0.0172     26.2202     15.9630     66.6087
  1681.1000      7.8546      2.1763      0.0253     28.7071     14.6397     72.6884
  1681.2000      7.8546      2.1771      0.0190     28.6636     13.7672     75.2690
  1681.3000      7.8272      2.2176      0.0923     26.2043     13.6757     78.5188
  1681.4000      7.8272      2.2774      0.1495     22.5815     13.9448     82.1794
  1681.5000      7.8091      2.3292      0.2356     19.4413     13.9951     82.5624
  1681.6000      7.8091      2.3575      0.2511     17.7282     13.6726     81.8467
  1681.7000      7.8091      2.3593      0.2455     17.6159     13.3348     84.3205
  1681.8000      7.8015      2.3382      0.2282     18.8982     13.2184     89.1714
  1681.9000      7.8015      2.3033      0.1405     21.0131     13.1105     93.2270
  1682.0000      7.8106      2.2653      0.1234     23.3171     12.9716     95.1086
  1682.1000      7.8106      2.2247      0.0778     25.7765     12.9150     95.5199
  1682.2000      7.8106      2.1826      0.0104     28.3288     12.8216     95.4968
  1682.3000      7.8425      2.1468     -0.0181     30.4977     12.3997     97.0431
  1682.4000      7.8425      2.1163      0.0474     32.3470     11.7781    100.8493
  1682.5000      7.8815      2.0914      0.0329     33.8535     11.4638    103.2857
  1682.6000      7.8815      2.0904      0.0443     33.9129     11.5671    101.3840
  1682.7000      7.8815      2.1209      0.0846     32.0656     11.7080     95.6298
  1682.8000      7.9035      2.1636      0.1543     29.4783     11.7216     88.6819
  1682.9000      7.9035      2.2044      0.1268     27.0035     11.8245     83.4921
  1683.0000      7.9096      2.2499      0.1429     24.2464     11.9215     81.6176
  1683.1000      7.9096      2.2931      0.2299     21.6293     11.7789     82.6443
  1683.2000      7.9096      2.3166      0.2251     20.2079     11.5137     83.2287
  1683.3000      7.9103      2.3279      0.1963     19.5226     11.3133     81.7753
  1683.4000      7.9103      2.3389      0.1905     18.8551     11.1857     80.4070
  1683.5000      7.9098      2.3430      0.1510     18.6050     11.1199     81.6423
