~Version Information
VERS.                      2.0: CWLS Log ASCII Standard - VERSION 2.0
WRAP.                       NO: One line per depth step
~Well Information Block
STRT.FT               742.7000: 
STOP.FT              1614.5000: 
STEP.FT                 0.1000: 
NULL.                -999.2500: 
COMP.          Pioneer Natural Resources: COMPANY
WELL.           Kermit 32-7 Tr: WELL
FLD.           Purgatoire River: FIELD
LOC.           2009' FNL & 2196' FEL: LOCATION
PROV.                 Colorado: PROVINCE
CNTY.               Las Animas: COUNTRY
SRVC.                Patterson: SERVICE COMPANY
DATE.          Mon Jan 16 13:19:56 2006: LOG DATE
UWI.           05 071 08664 00: UNIQUE WELL ID
~Curve Information Block
DEPT.FT            0 000 00 00: Depth
DCAL.in                       : CDL Caliper
RHOB.g/cc                     : CDL Bulk Density
RHOC.g/cc                     : CDL Density Correction
DPOR.pu                       : CDL Density Porosity
GR.GAPI                       : Gamma Ray
~Parameter Information Block
~A  Depth       DCAL        RHOB        RHOC        DPOR         GR     
# ...
  1112.3000      7.8791      1.6809     -0.1385     58.7341     68.0134
  1112.4000      7.8791      1.5806     -0.1772     64.8116     65.0219
  1112.5000      7.9057      1.4981     -0.0764     69.8145     63.3003
  1112.6000      7.9057      1.4448      0.0271     73.0427     62.1312
  1112.7000      7.9057      1.4259      0.0694     74.1908     60.4482
  1112.8000      8.0335      1.4309      0.0960     73.8851     60.4743
  1112.9000      8.0335      1.4402      0.1118     73.3193     59.9527
  1113.0000      8.2976      1.4401      0.1014     73.3293     55.5662
  1113.1000      8.2976      1.4363      0.0451     73.5549     51.7661
  1113.2000      8.2976      1.4492      0.0048     72.7787     52.7747
  1113.3000      8.3982      1.4806      0.0817     70.8727     55.3437
  1113.4000      8.3982      1.5105      0.0792     69.0583     54.2245
  1113.5000      8.2775      1.5265      0.0739     68.0893     52.8102
  1113.6000      8.2775      1.5278      0.0965     68.0144     55.0545
  1113.7000      8.2775      1.5159      0.0915     68.7358     57.2583
  1113.8000      8.4436      1.4947      0.0728     70.0157     55.4841
  1113.9000      8.4436      1.4661      0.0598     71.7538     51.3620
  1114.0000      8.5238      1.4334      0.0413     73.7348     48.7240
  1114.1000      8.5238      1.4169     -0.0154     74.7336     49.3354
  1114.2000      8.5238      1.4494     -0.0632     72.7617     51.9453
  1114.3000      8.4299      1.5432      0.0392     67.0781     53.3530
  1114.4000      8.4299      1.6799      0.0689     58.7960     53.2831
  1114.5000      8.2170      1.8443      0.1012     48.8278     53.9707
  1114.6000      8.2170      2.0197      0.2084     38.2015     55.7471
  1114.7000      8.2170      2.1774      0.2863     28.6436     57.6788
  1114.8000      8.2089      2.3103      0.2713     20.5852     60.7242
  1114.9000      8.2089      2.4216      0.3242     13.8394     65.7379
  1115.0000      8.2838      2.4957      0.2859      9.3530     71.9828
  1115.1000      8.2838      2.5266      0.2547      7.4790     78.9986
  1115.2000      8.2838      2.5364      0.0760      6.8870     85.9722
  1115.3000      8.4441      2.5467      0.0573      6.2585     91.0985
  1115.4000      8.4441      2.5514      0.0955      5.9738     93.6655
  1115.5000      8.2740      2.5415      0.1066      6.5756     93.9028
  1115.6000      8.2740      2.5308      0.0898      7.2245     92.8187
  1115.7000      8.2740      2.5362      0.0741      6.8963     92.2621
  1115.8000      8.0036      2.5589      0.0512      5.5232     93.8439
  1115.9000      8.0036      2.5809      0.1524      4.1853     99.8763
  1116.0000      7.9933      2.5857      0.1163      3.8977    108.1618
  1116.1000      7.9933      2.5718      0.1492      4.7393    111.7221
  1116.2000      7.9933      2.5447      0.1101      6.3821    110.7279
  1116.3000      8.0070      2.5183      0.1193      7.9824    112.0124
  1116.4000      8.0070      2.5105      0.1265      8.4535    116.1482
  1116.5000      7.9909      2.5204      0.1450      7.8567    118.1875
  1116.6000      7.9909      2.5215      0.1414      7.7881    116.2501
  1116.7000      7.9909      2.5016      0.0982      8.9965    110.7177
  1116.8000      7.9416      2.4800      0.0875     10.3046    106.4182
  1116.9000      7.9416      2.4746      0.0792     10.6275    109.2883
  1117.0000      7.9254      2.4795      0.0793     10.3320    113.1210
  1117.1000      7.9254      2.4724      0.1458     10.7627    109.6711
  1117.2000      7.9254      2.4295      0.0875     13.3634    103.6255
  1117.3000      7.9276      2.3541      0.0090     17.9309    100.0967
  1117.4000      7.9276      2.2772      0.0166     22.5918     99.0297
  1117.5000      7.9868      2.2097      0.0355     26.6846    100.0748
  1117.6000      7.9868      2.1330      0.0888     31.3317    104.1943
  1117.7000      7.9868      2.0476     -0.0127     36.5103    111.9232
  1117.8000      8.0107      1.9803     -0.0038     40.5868    119.8759
  1117.9000      8.0107      1.9489     -0.0295     42.4890    119.2977
  1118.0000      8.0511      1.9586      0.0020     41.9056    111.3350
  1118.1000      8.0511      2.0096      0.0636     38.8110    108.5089
  1118.2000      8.0511      2.0943      0.1496     33.6785    111.3891
  1118.3000      8.0306      2.1901      0.2812     27.8739    112.6420
  1118.4000      8.0306      2.2655      0.3223     23.3029    111.5601
  1118.5000      8.0354      2.3126      0.2520     20.4512    110.9168
  1118.6000      8.0354      2.3496      0.1772     18.2070    113.8146
  1118.7000      8.0354      2.3829      0.2045     16.1865    118.4074
  1118.8000      8.1323      2.4099      0.1537     14.5533    118.8842
  1118.9000      8.1323      2.4409      0.1485     12.6700    118.2015
  1119.0000      8.1838      2.4801      0.1487     10.2983    119.6072
  1119.1000      8.1838      2.5216      0.1467      7.7812    117.7159
  1119.2000      8.1838      2.5637      0.1352      5.2315    110.2287
  1119.3000      8.0764      2.5965      0.0936      3.2454    102.7607
  1119.4000      8.0764      2.6087      0.0573      2.5059    103.1271
  1119.5000      7.9525      2.6082      0.0740      2.5326    111.4246
  1119.6000      7.9525      2.6105      0.0458      2.3932    120.6550
  1119.7000      7.9525      2.6153      0.0839      2.1054    125.0269
  1119.8000      7.9797      2.6077      0.0892      2.5644    122.1379
  1119.9000      7.9797      2.5946      0.0135      3.3594    114.6405
  1120.0000      7.9621      2.6001      0.0606      3.0258    109.2116
  1120.1000      7.9621      2.6188      0.1000      1.8908    111.1448
  1120.2000      7.9621      2.6249      0.0963      1.5229    117.9071
  1120.3000      7.9687      2.6153      0.0484      2.1037    120.9736
  1120.4000      7.9687      2.6155      0.0290      2.0921    117.8312
  1120.5000      7.9653      2.6344      0.0877      0.9457    112.1205
  1120.6000      7.9653      2.6428      0.1032      0.4358    105.5906
  1120.7000      7.9653      2.6279      0.0435      1.3405     97.9125
  1120.8000      7.9404      2.6213      0.0417      1.7370     91.0228
  1120.9000      7.9404      2.6399      0.1247      0.6150     88.0183
  1121.0000      7.9359      2.6530      0.0956     -0.1812     88.4367
  1121.1000      7.9359      2.6347      0.0822      0.9301     89.1366
  1121.2000      7.9359      2.5992      0.0221      3.0789     90.9596
  1121.3000      7.8781      2.5765      0.0486      4.4544     94.7871
  1121.4000      7.8781      2.5754      0.0781      4.5185     95.0839
  1121.5000      7.8730      2.5951      0.0646      3.3254     90.2286
  1121.6000      7.8730      2.6408      0.0944      0.5592     86.8232
  1121.7000      7.8730      2.7018      0.1527     -3.1401     89.1316
  1121.8000      7.8405      2.7387      0.2312     -5.3751     93.6140
  1121.9000      7.8405      2.7209      0.1946     -4.2982     95.9072
  1122.0000      7.8000      2.6652      0.1250     -0.9234     96.3840
  1122.1000      7.8000      2.6124      0.0856      2.2806     96.0555
  1122.2000      7.8000      2.5807      0.0819      4.1995     96.0695
  1122.3000      7.7382      2.5603      0.0609      5.4390     99.3489
  1122.4000      7.7382      2.5401      0.0238      6.6603    105.6179
  1122.5000      7.7828      2.5248      0.0062      7.5908    109.9001
  1122.6000      7.7828      2.5224     -0.0332      7.7311    110.3116
  1122.7000      7.7828      2.5305      0.0157      7.2415    108.5341
  1122.8000      7.8754      2.5397      0.0161      6.6875    105.8690
  1122.9000      7.8754      2.5516      0.0487      5.9632    104.8250
  1123.0000      7.9221      2.5774      0.0399      4.4019    106.7621
  1123.1000      7.9221      2.6150      0.1030      2.1200    111.0756
  1123.2000      7.9221      2.6498      0.0587      0.0104    116.4701
  1123.3000      7.9315      2.6761      0.0925     -1.5846    117.2439
  1123.4000      7.9315      2.6866      0.1276     -2.2180    113.4591
