~Version Information
VERS.                      2.0: CWLS Log ASCII Standard - VERSION 2.0
WRAP.                       NO: One line per depth step
~Well Information Block
STRT.FT               -12.0000: 
STOP.FT              1728.0000: 
STEP.FT                 0.2500: 
NULL.                -999.2500: 
COMP.          XTO Energy Inc.: COMPANY
WELL.          Apache Canyon 35-06: WELL
FLD.              Vermejo Coal: FIELD
LOC.           2422' FNL & 1889' FWL--: LOCATION
STAT.                       CO: State
CNTY.               Las Animas: COUNTY
CTRY. USA : Country
SECT.  : Section
TOWN.  : Township
RANG.  : Range
SRVC.          Patterson Wireline: SERVICE COMPANY
DATE.          Fri Jan 06 08:11:44 2006: LOG DATE
API.              05 071 08540: UNIQUE WELL ID
~Curve Information Block
DEPT.FT            0 000 00 00: Depth
CCL.                          : Casing Collar Locator
TT3.usec                      : CBL 3' Travel Time
AMP3.mV                       : CBL 3' Amplitude
GR.GAPI                       : Gamma Ray
~Parameter Information Block
~A  Depth       CCL         TT3         AMP3         GR     
# ...
  1127.0000      0.0000    771.7823      5.4123    129.9980
  1127.2500      0.0000    776.7415      5.3711    135.2868
  1127.5000      0.0000    772.9619      5.3088    140.1866
  1127.7500      0.0000    760.8676      5.2352    144.3357
  1128.0000      0.0000    741.2401      5.1649    147.2513
  1128.2500      0.0000    713.8178      5.1032    148.1501
  1128.5000      0.0000    678.3967      5.0454    146.5542
  1128.7500      0.0000    637.9246      4.9902    143.2934
  1129.0000      0.0000    598.6849      4.9491    140.1262
  1129.2500      0.0000    565.1637      4.9385    138.0291
  1129.5000      0.0000    536.1097      4.9647    136.5370
  1129.7500      0.0000    508.2615      5.0147    134.9371
  1130.0000      0.0000    482.2527      5.0619    133.2487
  1130.2500      0.0000    461.9432      5.0834    131.6174
  1130.5000      0.0000    449.4254      5.0751    129.5392
  1130.7500      0.0000    443.1787      5.0520    126.3387
  1131.0000      0.0000    440.2385      5.0339    122.0747
  1131.2500      0.0000    438.4352      5.0318    117.4525
  1131.5000      0.0000    436.8649      5.0452    113.1290
  1131.7500      0.0000    435.4086      5.0688    109.4494
  1132.0000      0.0000    434.1891      5.0991    106.4585
  1132.2500      0.0000    433.2328      5.1337    103.8960
  1132.5000      0.0000    432.4031      5.1675    101.6669
  1132.7500      0.0000    431.4817      5.1916    100.5079
  1133.0000      0.0000    430.3116      5.2002    101.6917
  1133.2500      0.0000    428.8869      5.1966    105.8471
  1133.5000      0.0000    427.3658      5.1930    112.1748
  1133.7500      0.0000    426.0219      5.2045    118.6237
  1134.0000      0.0000    425.3857      5.2395    122.6626
  1134.2500      0.0000    426.8765      5.2958    122.2828
  1134.5000      0.0000    433.9135      5.3677    116.8927
  1134.7500      0.0000    452.2607      5.4544    107.6460
  1135.0000      0.0000    487.4023      5.5643     96.9691
  1135.2500      0.0000    539.0134      5.7099     87.4025
  1135.5000      0.0000    597.7325      5.8983     80.2900
  1135.7500      0.0000    649.6857      6.1256     75.2396
  1136.0000      0.0000    685.7047      6.3794     70.8488
  1136.2500      0.0000    706.0517      6.6439     65.9514
  1136.5000      0.0000    717.2529      6.8959     60.1561
  1136.7500      0.0000    726.0405      7.1007     53.5984
  1137.0000      0.0000    735.7116      7.2250     46.8740
  1137.2500      0.0000    745.9692      7.2592     41.1840
  1137.5000      0.0000    754.8646      7.2213     37.7741
  1137.7500      0.0000    760.6877      7.1354     36.9604
  1138.0000      0.0000    762.4619      7.0120     38.0798
  1138.2500      0.0000    759.9923      6.8511     40.3311
  1138.5000      0.0000    754.6555      6.6558     43.2269
  1138.7500      0.0000    749.5526      6.4366     46.3579
  1139.0000      0.0000    747.7063      6.2029     49.1546
  1139.2500      0.0000    749.8280      5.9593     50.9824
  1139.5000      0.0000    753.7274      5.7124     51.3924
  1139.7500      0.0000    755.6241      5.4772     50.3749
  1140.0000      0.0000    752.6002      5.2692     48.3870
  1140.2500      0.0000    744.9162      5.0956     46.0373
  1140.5000      0.0000    736.2848      4.9651     43.8719
  1140.7500      0.0000    731.4648      4.8960     42.7180
  1141.0000      0.0000    733.2806      4.8948     44.0305
  1141.2500      0.0000    741.2848      4.9319     49.2561
  1141.5000      0.0000    752.2161      4.9633     58.5777
  1141.7500      0.0000    761.5986      4.9753     70.6018
  1142.0000      0.0000    766.7192      4.9902     83.4132
  1142.2500      0.0000    769.2673      5.0308     95.6510
  1142.5000     -2.0000    773.7355      5.0923    106.6813
  1142.7500      0.0000    781.9758      5.1434    116.2583
  1143.0000      0.0000    790.5934      5.1483    124.0817
  1143.2500      0.0000    794.6335      5.0936    129.5186
  1143.5000      0.0000    792.0681      4.9970    131.8482
  1143.7500      0.0000    783.6922      4.8844    130.7754
  1144.0000      0.0000    770.7373      4.7679    126.5542
  1144.2500      0.0000    753.9949      4.6576    119.8118
  1144.5000      0.0000    733.0780      4.5783    111.5215
  1144.7500      0.0000    704.5374      4.5515    102.9767
  1145.0000      0.0000    662.6396      4.5715     95.3845
  1145.2500      0.0000    605.5386      4.6145     89.3203
  1145.5000      0.0000    540.9838      4.6633     84.6249
  1145.7500      0.0000    483.1092      4.7125     80.8689
  1146.0000      0.0000    442.5222      4.7588     77.8473
  1146.2500      0.0000    420.4107      4.7979     75.6472
  1146.5000      0.0000    411.2859      4.8260     74.4793
  1146.7500      0.0000    408.8272      4.8411     74.6858
  1147.0000      0.0000    408.9878      4.8449     76.6535
  1147.2500      0.0000    409.9750      4.8436     80.2456
  1147.5000      0.0000    411.2242      4.8436     84.4574
  1147.7500      0.0000    412.6233      4.8450     88.2231
  1148.0000      0.0000    414.1593      4.8425     91.5006
  1148.2500      0.0000    415.8644      4.8297     94.9312
  1148.5000      0.0000    417.9689      4.8039     98.2229
  1148.7500      0.0000    421.4397      4.7669     99.3332
  1149.0000      0.0000    428.9917      4.7234     95.7665
  1149.2500      0.0000    445.8177      4.6759     86.8719
  1149.5000      0.0000    478.1615      4.6237     74.7802
  1149.7500      0.0000    528.6821      4.5673     63.0178
  1150.0000      0.0000    591.7324      4.5127     54.2854
  1150.2500      0.0000    654.4217      4.4693     49.4825
  1150.5000      0.0000    704.2549      4.4434     48.3503
  1150.7500      0.0000    736.0421      4.4354     50.5936
  1151.0000      0.0000    751.6763      4.4419     56.3618
  1151.2500      0.0000    755.4655      4.4608     65.8782
  1151.5000      0.0000    751.3486      4.4920     78.6802
  1151.7500      0.0000    743.1822      4.5353     93.0602
  1152.0000      0.0000    735.0812      4.5895    106.3551
  1152.2500      0.0000    730.3228      4.6525    116.4036
  1152.5000      0.0000    730.0285      4.7175    123.0102
  1152.7500      0.0000    733.1066      4.7724    127.5926
  1153.0000      0.0000    737.3400      4.8040    131.2879
  1153.2500      0.0000    740.4012      4.8072    134.1276
  1153.5000      0.0000    740.4485      4.7906    136.2516
  1153.7500      0.0000    736.8574      4.7725    138.9403
  1154.0000      0.0000    730.7762      4.7703    143.5880
  1154.2500      0.0000    724.4645      4.7872    149.9465
  1154.5000      0.0000    719.7371      4.8108    156.0022
  1154.7500      0.0000    717.0897      4.8256    159.5746
  1155.0000      0.0000    716.1197      4.8280    159.7388
  1155.2500      0.0000    716.4014      4.8290    156.8932
  1155.5000      0.0000    717.8094      4.8425    152.0262
  1155.7500      0.0000    720.1413      4.8763    146.1982
  1156.0000      0.0000    722.6521      4.9296    140.3415
  1156.2500      0.0000    724.3983      4.9956    135.0625
  1156.5000      0.0000    725.2704      5.0625    130.5955
  1156.7500      0.0000    726.3160      5.1168    127.1563
  1157.0000      0.0000    728.6166      5.1471    125.1344
  1157.2500      0.0000    731.9892      5.1496    124.6570
  1157.5000      0.0000    734.9116      5.1295    125.0429
  1157.7500      0.0000    735.4952      5.0982    124.9067
  1158.0000      0.0000    732.7234      5.0660    122.7546
  1158.2500      0.0000    727.2468      5.0383    117.5912
  1158.5000      0.0000    720.9421      5.0182    109.3365
  1158.7500      0.0000    715.3732      5.0102     98.8727
  1159.0000      0.0000    710.7955      5.0155     87.6144
  1159.2500      0.0000    706.8240      5.0292     76.9409
  1159.5000      0.0000    703.7295      5.0439     67.8105
  1159.7500      0.0000    702.5445      5.0563     60.5770
  1160.0000      0.0000    703.7902      5.0692     55.1144
  1160.2500      0.0000    706.6060      5.0874     51.3697
