~Version Information
VERS.                      2.0: CWLS Log ASCII Standard - VERSION 2.0
WRAP.                       NO: One line per depth step
~Well Information Block
STRT.FT               410.0000: 
STOP.FT              1252.0000: 
STEP.FT                 0.2500: 
NULL.                -999.2500: 
COMP.          Petrogulf Corporation: COMPANY
WELL.           Parsons 15-23R: WELL
FLD.           Purgatorie River: FIELD
LOC.           2244' FSL & 1932' FWL: LOCATION
PROV.                 Colorado: PROVINCE
CNTY.               Las Animas: COUNTRY
SRVC.                Patterson: SERVICE COMPANY
DATE.          Mon Sep 12 10:30:11 2005: LOG DATE
UWI.                          : UNIQUE WELL ID
~Curve Information Block
DEPT.FT            0 000 00 00: Depth
SP.mV                         : DIL Spontaneous Potential
RILD.Ohm-m                    : DIL Deep Resistivity
RILM.Ohm-m                    : DIL Medium Resistivity
RLL3.Ohm-m                    : DIL Shallow Resistivity
GR.GAPI                       : Gamma Ray
~Parameter Information Block
~A  Depth        SP         RILD        RILM        RLL3         GR     
# ...
   466.0000    203.6595     11.6813     11.7775     11.9674    133.9247
   466.2500    203.2806     11.2841     12.1101     13.1407    133.7864
   466.5000    202.7581     10.9288     12.1159     15.7376    130.1750
   466.7500    202.2068     10.6657     12.3081     17.2909    119.4297
   467.0000    201.8148     10.6865     12.5345     19.8610    134.1334
   467.2500    201.4872     10.7722     12.4727     19.8071    157.0324
   467.5000    201.2374     10.4541     12.4109     16.6901    136.7893
   467.7500    201.1913     10.7147     11.6617     14.1476    148.4135
   468.0000    201.4263     11.0258     11.6220     12.8686    150.7094
   468.2500    201.8740     10.9895     11.2725     13.0386    143.6187
   468.5000    202.1289     11.1333     11.0443     13.0573    152.5814
   468.7500    202.1949     11.3007     10.7724     11.5520    164.9072
   469.0000    202.0747     11.4255     10.8318     11.0097    148.7380
   469.2500    201.6564     11.2383     10.7280     11.2831    146.6724
   469.5000    201.1418     11.1281     10.8636     10.7160    146.5810
   469.7500    200.5321     11.1739     10.8721      9.9446    131.0576
   470.0000    199.7661     11.1326     11.0399     11.0453    137.1156
   470.2500    199.1229     11.1331     11.5750     11.5836    132.7060
   470.5000    198.2094     11.0561     11.9908     13.1830    137.1280
   470.7500    197.3036     10.9134     12.1669     16.7229    120.9908
   471.0000    196.4144     11.2615     12.4735     21.4756    105.8970
   471.2500    195.7229     11.1604     12.6289     22.7173    124.4459
   471.5000    195.1852     11.2975     12.3269     18.6190    126.5723
   471.7500    194.6107     11.5959     12.0868     14.6657    124.8890
   472.0000    194.3837     11.4455     12.0115     13.1157    129.6894
   472.2500    194.0605     11.3304     12.1755     13.5908    124.2196
   472.5000    193.6665     11.2793     12.3626     14.0783    138.9648
   472.7500    193.0914     11.4147     12.5295     16.1290    117.9089
   473.0000    192.4210     11.6157     12.4544     18.8842     96.1336
   473.2500    191.8339     11.5377     12.3283     17.3962    116.6992
   473.5000    191.2035     11.2342     11.7556     14.3581    135.7479
   473.7500    190.4703     11.0358     11.4771     11.8962    137.5768
   474.0000    189.7551     11.0070     11.1037     11.2767    131.0598
   474.2500    188.9845     10.9251     11.0658     12.3439    145.1486
   474.5000    187.6385     10.8328     11.1020     13.9837    139.9958
   474.7500    186.3597     10.6728     10.6831     14.6799    151.4302
   475.0000    185.1242     10.7838     10.6896     14.4164    150.0333
   475.2500    183.9093     10.7518     10.4927     13.8902    146.0920
   475.5000    183.1038     10.7546     10.1309     12.6519    139.3951
   475.7500    182.5694     10.6791     10.1866     10.7018    143.6176
   476.0000    182.3096     11.1239     10.2643     10.9300    158.1940
   476.2500    182.2547     11.3090     10.4534     11.8787    157.3365
   476.5000    182.4658     11.3743     10.8381     12.1672    175.2160
   476.7500    182.4951     11.6566     11.1695     13.7483    152.7895
   477.0000    182.3044     11.8662     11.7029     16.9032    133.6490
   477.2500    181.9583     12.1591     11.9044     20.0005    157.0508
   477.5000    181.3860     12.5557     12.1570     20.4210    134.3356
   477.7500    180.8754     12.9045     12.5861     16.4547    122.3664
   478.0000    180.4994     13.6384     12.8995     14.4521    133.1030
   478.2500    180.4031     14.1696     13.7077     16.2813    134.1630
   478.5000    180.6525     14.9756     14.8809     21.1382    127.7373
   478.7500    180.9209     15.4584     15.7091     26.7395    120.1268
   479.0000    181.4321     16.9042     17.1858     30.8506    109.3154
   479.2500    181.6963     18.0132     18.4318     30.5215    108.1374
   479.5000    182.2343     18.8650     20.0832     28.3972    115.3579
   479.7500    183.1664     19.3045     21.6567     29.0534     87.7817
   480.0000    184.3690     20.3229     23.8155     41.5144     70.3382
   480.2500    185.5322     21.4565     27.4367     74.6053     47.1630
   480.5000    187.1154     21.4526     29.4981    124.8701     44.5591
   480.7500    188.5601     21.7562     33.0894    173.8050     51.7837
   481.0000    190.4218     21.5841     33.6753    202.0460     50.4551
   481.2500    191.8926     20.8413     33.4175    194.1508     55.9973
   481.5000    193.7676     20.5643     30.9797    149.8911     54.9176
   481.7500    195.3677     20.4594     26.8075     95.1966     79.3357
   482.0000    197.0883     20.5217     23.3356     43.9147    113.1022
   482.2500    198.8785     20.5407     20.6156     22.6039    149.9368
   482.5000    200.3684     19.9804     18.9198     17.3486    158.3724
   482.7500    201.5499     20.1889     17.7232     16.0477    165.8101
   483.0000    202.4096     20.2975     17.5254     15.6235    155.6685
   483.2500    203.2213     19.7541     17.5819     16.0236    148.8277
   483.5000    203.6670     19.1021     18.7139     17.2821    134.5829
   483.7500    203.6986     19.0365     18.5618     22.0668    162.8525
   484.0000    203.4595     18.8048     18.9455     26.9706    161.4634
   484.2500    202.8884     18.8819     19.5904     29.1801    160.3613
   484.5000    202.3899     18.8599     19.8765     28.7444    151.6986
   484.7500    201.8461     18.6717     20.2341     30.2515    146.3853
   485.0000    201.1627     19.6650     21.0076     34.2961    133.2191
   485.2500    200.4765     20.2328     21.8054     36.1673    139.2288
   485.5000    199.7655     21.4069     22.5470     36.6079    122.1161
   485.7500    199.1513     21.8607     24.1560     38.8024    117.5053
   486.0000    198.4864     23.5018     25.2721     41.4755    107.8520
   486.2500    198.0124     24.4936     26.2169     41.8828    100.2549
   486.5000    197.5595     25.0057     27.3218     40.0751    106.7917
   486.7500    196.9378     25.0576     28.3266     39.0757    101.9234
   487.0000    196.1145     25.2603     29.2782     37.9301    104.7370
   487.2500    194.9375     26.2180     30.5018     36.0675    103.9887
   487.5000    193.2641     27.1400     31.1357     35.5772     96.2622
   487.7500    191.3840     26.5057     31.4869     37.0273    103.1037
   488.0000    189.1138     26.2667     31.2446     39.1651     93.1144
   488.2500    186.8442     27.0878     30.6041     40.2105     74.9133
   488.5000    184.2876     27.0535     30.7650     38.9244     84.8192
   488.7500    181.2755     26.4474     28.5991     37.7271     80.9798
   489.0000    178.0524     26.9010     28.7841     36.6311     59.2000
   489.2500    175.0512     26.7197     28.9655     35.7693     68.3092
   489.5000    171.9563     26.4500     29.4934     34.3122     69.7152
   489.7500    169.2432     26.5126     28.7392     34.7773     74.6632
   490.0000    166.5658     26.9383     28.4202     34.9205     76.4512
   490.2500    164.3032     26.6927     29.7849     36.4341     78.6694
   490.5000    162.0827     25.7744     30.0454     37.3228     76.6357
   490.7500    160.1086     25.3574     30.2659     37.4392     73.9045
   491.0000    158.1611     26.2575     29.0737     37.1281     76.3668
   491.2500    156.1331     26.0437     27.9617     37.3871     69.2970
   491.5000    154.2908     27.2460     28.4990     37.6238     63.5581
   491.7500    152.5630     25.9875     29.0165     38.1271     81.7282
   492.0000    151.2085     26.6879     28.6693     38.8044     78.8981
   492.2500    150.2318     26.5244     28.9307     38.6440     60.7784
   492.5000    149.8631     26.1134     30.0850     38.1302     69.6068
   492.7500    150.2723     26.4169     28.8791     38.1166     73.7833
   493.0000    151.7322     26.9966     28.1620     37.8323     61.3345
   493.2500    154.8177     26.5690     28.3641     38.4502     66.0609
   493.5000    158.8442     27.5490     29.4553     38.2068     70.2658
   493.7500    159.3808     27.0587     28.5974     38.2196     76.0411
