~Version Information
VERS.                      2.0: CWLS Log ASCII Standard - VERSION 2.0
WRAP.                       NO: One line per depth step
~Well Information Block
STRT.FT               350.0000: 
STOP.FT              2808.2500: 
STEP.FT                 0.2500: 
NULL.                -999.2500: 
COMP.          Pioneer Natural Resources: COMPANY
WELL.          Grey Goose 33-30: WELL
FLD.           Purgatoire River: FIELD
LOC.           2136' FSL & 2065' FEL--: LOCATION
STAT.                 Colorado: State
CNTY.               Las Animas: COUNTY
CTRY. USA : Country
SECT. 30 : Section
TOWN. 32S : Township
RANG. 67W : Range
SRVC.                Patterson: SERVICE COMPANY
DATE.          Fri Nov 04 09:00:45 2005: LOG DATE
API.           05 071 08546 00: UNIQUE WELL ID
~Curve Information Block
DEPT.FT            0 000 00 00: Depth
DIR.Ohm-m                     : IEL Induction Resistivity
SN.Ohm-m                      : IEL Short Normal
SP.mV                         : IEL Spontaneous Potential
GR.GAPI                       : Gamma Ray
~Parameter Information Block
~A  Depth       DIR          SN          SP          GR     
   350.0000 100000.0000   2000.0000   2000.0000     74.7976
   350.2500 100000.0000   2000.0000   2000.0000     74.4960
   350.5000 100000.0000   2000.0000   2000.0000     73.8252
   350.7500 100000.0000   2000.0000   2000.0000     73.7907
   351.0000 100000.0000   2000.0000   2000.0000     74.8201
   351.2500 100000.0000   2000.0000   2000.0000     75.9457
   351.5000 100000.0000   2000.0000   2000.0000     77.3960
   351.7500 100000.0000   2000.0000   2000.0000     77.9911
   352.0000 100000.0000   2000.0000   2000.0000     78.6847
   352.2500 100000.0000   2000.0000   2000.0000     79.1444
   352.5000 100000.0000   2000.0000   2000.0000     79.2539
   352.7500 100000.0000   2000.0000   2000.0000     78.4929
   353.0000 100000.0000   2000.0000   2000.0000     76.2717
   353.2500 100000.0000   2000.0000   2000.0000     74.7539
   353.5000 100000.0000   2000.0000   2000.0000     73.5370
   353.7500 100000.0000   2000.0000   2000.0000     73.5105
   354.0000 100000.0000   2000.0000   2000.0000     73.8565
   354.2500 100000.0000   2000.0000   2000.0000     73.8969
   354.5000 100000.0000   2000.0000   2000.0000     73.8049
   354.7500 100000.0000   2000.0000   2000.0000     74.1610
   355.0000 100000.0000   2000.0000   2000.0000     76.1218
   355.2500 100000.0000   2000.0000   2000.0000     78.4591
   355.5000 100000.0000   2000.0000   2000.0000     82.8792
   355.7500 100000.0000   2000.0000   2000.0000     85.7127
   356.0000 100000.0000   2000.0000   2000.0000     88.3597
   356.2500 100000.0000   2000.0000   2000.0000     88.4881
   356.5000 100000.0000   2000.0000   2000.0000     86.3970
   356.7500 100000.0000   2000.0000   2000.0000     84.3133
   357.0000 100000.0000   2000.0000   2000.0000     81.9755
   357.2500 100000.0000   2000.0000   2000.0000     81.4406
   357.5000 100000.0000   2000.0000   2000.0000     81.3516
   357.7500 100000.0000   2000.0000   2000.0000     80.8454
   358.0000 100000.0000   2000.0000   2000.0000     52.5248
   358.2500 100000.0000   2000.0000   2000.0000     51.3569
   358.5000 100000.0000   2000.0000   2000.0000     50.0285
   358.7500 100000.0000   2000.0000   2000.0000     49.5608
   359.0000 100000.0000   2000.0000   2000.0000     49.1350
   359.2500 100000.0000   2000.0000   2000.0000     48.8368
   359.5000 100000.0000   2000.0000   2000.0000     48.3387
   359.7500 100000.0000   2000.0000   2000.0000     47.9938
   360.0000 100000.0000   2000.0000   2000.0000     47.3953
   360.2500 100000.0000   2000.0000   2000.0000     46.9647
   360.5000 100000.0000   2000.0000   2000.0000     46.5240
   360.7500 100000.0000   2000.0000   2000.0000     46.5093
   361.0000 100000.0000   2000.0000   2000.0000     46.8621
   361.2500 100000.0000   2000.0000   2000.0000     47.1488
   361.5000 100000.0000   2000.0000   2000.0000     47.2932
   361.7500 100000.0000   2000.0000   2000.0000     47.1900
   362.0000 100000.0000   2000.0000   2000.0000     47.2616
   362.2500 100000.0000   2000.0000   2000.0000     47.9346
   362.5000 100000.0000   2000.0000   2000.0000     50.4368
   362.7500 100000.0000   2000.0000   2000.0000     53.1296
   363.0000 100000.0000   2000.0000   2000.0000     58.4248
   363.2500 100000.0000   2000.0000   2000.0000     62.5592
   363.5000 100000.0000   2000.0000   2000.0000     69.1529
   363.7500 100000.0000   2000.0000   2000.0000     73.4028
   364.0000 100000.0000   2000.0000   2000.0000     78.8126
   364.2500 100000.0000   2000.0000   2000.0000     81.4884
   364.5000 100000.0000   2000.0000   2000.0000     84.0935
   364.7500 100000.0000   2000.0000   2000.0000     85.1494
   365.0000 100000.0000   2000.0000   2000.0000     86.3244
   365.2500 100000.0000   2000.0000   2000.0000     87.0833
   365.5000 100000.0000   2000.0000   2000.0000     88.1905
   365.7500 100000.0000   2000.0000   2000.0000     88.7406
   366.0000 100000.0000   2000.0000   2000.0000     88.9980
   366.2500     24.4244   2000.0000   2000.0000     88.6606
   366.5000      6.2154   2000.0000   2000.0000     87.0871
   366.7500      4.2921   2000.0000   2000.0000     85.1673
   367.0000      4.3073   2000.0000   2000.0000     81.0984
   367.2500      5.9076   2000.0000   2000.0000     77.8957
   367.5000     12.6943   2000.0000   2000.0000     72.7885
   367.7500 100000.0000   2000.0000   2000.0000     69.2435
   368.0000 100000.0000   2000.0000   2000.0000     63.8956
   368.2500 100000.0000   2000.0000   2000.0000     60.6642
   368.5000 100000.0000   2000.0000   2000.0000     57.0609
   368.7500 100000.0000   2000.0000   2000.0000     55.6827
   369.0000 100000.0000   2000.0000   2000.0000     54.9602
   369.2500     40.4517   2000.0000   2000.0000     55.1332
   369.5000     18.0257   2000.0000   2000.0000     55.9264
   369.7500     13.4289   2000.0000   2000.0000     56.5217
   370.0000     12.1930   2000.0000   2000.0000     57.0663
   370.2500     12.3284   2000.0000   2000.0000     57.0706
   370.5000     13.2620   2000.0000   2000.0000     56.6235
   370.7500     14.7124   2000.0000   2000.0000     56.1784
   371.0000     16.4035   2000.0000   2000.0000     55.4774
   371.2500     17.9872   2000.0000   2000.0000     54.9407
   371.5000     19.1600   2000.0000   2000.0000     53.8520
   371.7500     19.9332   2000.0000   2000.0000     53.0071
   372.0000     20.7276   2000.0000   2000.0000     52.0323
   372.2500     22.1889   2000.0000   2000.0000     51.7839
   372.5000     24.9701   2000.0000   2000.0000     51.8788
   372.7500     29.4962   2000.0000   2000.0000     52.0350
   373.0000     35.2355   2000.0000   2000.0000     52.2978
   373.2500     39.5541   2000.0000   2000.0000     52.6522
   373.5000     39.2253   2000.0000   2000.0000     53.8958
   373.7500     34.8654   2000.0000   2000.0000     55.4972
   374.0000     29.7116   2000.0000   2000.0000     59.7117
   374.2500     25.6435   2000.0000   2000.0000     64.0881
   374.5000     22.9711   2000.0000   2000.0000     72.9785
   374.7500     21.4554   2000.0000   2000.0000     79.8933
   375.0000     20.7714   2000.0000   2000.0000     90.3155
   375.2500     20.5971   2000.0000   2000.0000     96.6358
   375.5000     20.6245   2000.0000   2000.0000    104.6636
   375.7500     20.6035   2000.0000   2000.0000    108.9667
   376.0000     20.4035   2000.0000   2000.0000    113.7932
   376.2500     20.0262   2000.0000   2000.0000    115.9411
   376.5000     19.5525   2000.0000   2000.0000    117.6403
   376.7500     19.0742   2000.0000   2000.0000    117.7399
   377.0000     18.6563   2000.0000   2000.0000    116.2559
   377.2500     18.3320   2000.0000   2000.0000    114.3640
   377.5000     18.1090   2000.0000   2000.0000    111.1905
   377.7500     17.9767   2000.0000   2000.0000    109.6756
   378.0000     17.9112   2000.0000   2000.0000    109.4561
   378.2500     17.8798   2000.0000   2000.0000    110.8796
   378.5000     17.8515   2000.0000   2000.0000    114.5816
   378.7500     17.8104   2000.0000   2000.0000    117.1237
   379.0000     17.7627   2000.0000   2000.0000    119.5648
   379.2500     17.7305   2000.0000   2000.0000    120.0912
   379.5000     17.7353   2000.0000   2000.0000    119.9765
   379.7500     17.7838   2000.0000   2000.0000    119.7909
   380.0000     17.8674   2000.0000   2000.0000    119.5534
   380.2500     17.9718   2000.0000   2000.0000    119.2317
   380.5000     18.0873   2000.0000   2000.0000    118.1603
   380.7500     18.2120   2000.0000   2000.0000    117.0637
   381.0000     18.3460   2000.0000   2000.0000    115.3921
   381.2500     18.4852   2000.0000   2000.0000    114.7616
   381.5000     18.6186   2000.0000   2000.0000    115.1270
   381.7500     18.7298   2000.0000   2000.0000    116.1827
   382.0000     18.8054   2000.0000   2000.0000    118.3587
   382.2500     18.8445   2000.0000   2000.0000    119.8800
   382.5000     18.8627   2000.0000   2000.0000    122.0867
   382.7500     18.8831   2000.0000   2000.0000    123.4802
   383.0000     18.9224   2000.0000   2000.0000    125.3800
   383.2500     18.9831   2000.0000   2000.0000    126.5847
