~Version Information
VERS.                      2.0: CWLS Log ASCII Standard - VERSION 2.0
WRAP.                       NO: One line per depth step
~Well Information Block
STRT.FT                10.0000: 
STOP.FT              1044.5000: 
STEP.FT                 0.1000: 
NULL.                -999.2500: 
COMP.          Pioneer Natural Resources: COMPANY
WELL.          Stags Leap 13-30: WELL
FLD.           Purgatorie River: FIELD
LOC.           1813' FSL & 117' FWL: LOCATION
PROV.                 Colorado: PROVINCE
CNTY.               Las Animas: COUNTRY
SRVC.                Patterson: SERVICE COMPANY
DATE.          Fri Dec 09 09:46:17 2005: LOG DATE
UWI.                          : UNIQUE WELL ID
~Curve Information Block
DEPT.FT            0 000 00 00: Depth
DCAL.in                       : CDL Caliper
RHOB.g/cc                     : CDL Bulk Density
RHOC.g/cc                     : CDL Density Correction
DPOR.pu                       : CDL Density Porosity
GR.GAPI                       : Gamma Ray
NPOR.pu                       : Neutron Porosity
~Parameter Information Block
~A  Depth       DCAL        RHOB        RHOC        DPOR         GR         NPOR    
# ...
   624.4000      8.0996      2.5071      0.0510      8.6601    152.2283     24.6068
   624.5000      8.1210      2.5103      0.1099      8.4693    150.7135     24.5044
   624.6000      8.1210      2.5079      0.0608      8.6138    146.2790     24.0246
   624.7000      8.1210      2.4961      0.1265      9.3270    146.5321     23.3548
   624.8000      8.1061      2.4637      0.1129     11.2916    149.4051     22.9334
   624.9000      8.1061      2.4036      0.0986     14.9306    147.7634     22.6697
   625.0000      8.1338      2.3343     -0.0126     19.1353    141.6329     22.2391
   625.1000      8.1338      2.2869      0.0263     22.0055    135.5023     21.5849
   625.2000      8.1338      2.2660      0.0359     23.2712    131.8067     20.9229
   625.3000      8.1216      2.2549      0.0149     23.9441    130.4339     20.5391
   625.4000      8.1216      2.2470      0.0349     24.4236    131.8426     20.5891
   625.5000      8.1330      2.2515      0.0173     24.1535    136.3396     21.2414
   625.6000      8.1330      2.2839      0.0670     22.1890    140.1550     22.4402
   625.7000      8.1330      2.3410      0.1412     18.7303    138.4174     23.6496
   625.8000      8.1338      2.3977      0.1488     15.2934    133.6084     24.4609
   625.9000      8.1338      2.4376      0.1316     12.8753    131.4675     25.0981
   626.0000      8.1598      2.4624      0.1129     11.3721    131.9910     25.6423
   626.1000      8.1598      2.4747      0.1082     10.6246    132.7623     25.8706
   626.2000      8.1598      2.4720      0.0963     10.7849    131.1948     25.8814
   626.3000      8.1330      2.4614      0.0270     11.4333    126.7037     25.7785
   626.4000      8.1330      2.4535      0.0472     11.9085    123.6373     25.4681
   626.5000      8.1082      2.4458      0.0818     12.3733    124.5944     25.0840
   626.6000      8.1082      2.4387      0.0392     12.8068    127.4606     24.7717
   626.7000      8.1082      2.4426      0.0905     12.5726    131.1409     24.4250
   626.8000      8.1181      2.4596      0.1063     11.5400    134.9354     24.0431
   626.9000      8.1181      2.4813      0.1197     10.2243    135.5660     23.8571
   627.0000      8.1406      2.4924      0.1922      9.5534    132.0999     23.9022
   627.1000      8.1406      2.4883      0.1525      9.8014    128.8047     24.0225
   627.2000      8.1406      2.4870      0.1260      9.8780    129.3802     24.0770
   627.3000      8.1963      2.4956      0.1745      9.3583    133.1245     24.1396
   627.4000      8.1963      2.4960      0.1660      9.3311    137.0050     24.5073
   627.5000      8.3896      2.4831      0.0824     10.1175    139.2143     25.1130
   627.6000      8.3896      2.4772      0.0423     10.4744    140.5415     25.6865
   627.7000      8.3896      2.4870      0.0794      9.8777    141.9102     26.2057
   627.8000      8.4046      2.4964      0.0468      9.3072    143.3606     26.5982
   627.9000      8.4046      2.4965      0.0432      9.3017    144.4823     26.8811
   628.0000      8.2679      2.4932      0.0104      9.5031    143.9091     27.1040
   628.1000      8.2679      2.4910     -0.0006      9.6345    141.7840     27.1669
   628.2000      8.2679      2.4918      0.0106      9.5875    139.5388     27.0384
   628.3000      8.2384      2.4991      0.0068      9.1455    136.8559     26.8164
   628.4000      8.2384      2.5152      0.0247      8.1681    133.8286     26.8105
   628.5000      8.2077      2.5328      0.0558      7.1028    132.7867     27.0602
   628.6000      8.2077      2.5401      0.0621      6.6601    134.3825     27.2926
   628.7000      8.2077      2.5343      0.0287      7.0098    135.7491     27.4586
   628.8000      8.1475      2.5220      0.0334      7.7592    133.6793     27.5828
   628.9000      8.1475      2.5103      0.0363      8.4694    128.8811     27.6349
   629.0000      8.0990      2.4995      0.0215      9.1207    124.8502     27.7245
   629.1000      8.0990      2.4846     -0.0117     10.0240    122.4064     27.8718
   629.2000      8.0990      2.4676      0.0007     11.0555    119.8551     27.8084
   629.3000      8.0807      2.4643     -0.0008     11.2518    117.0792     27.3701
   629.4000      8.0807      2.4895      0.0130      9.7273    114.5887     26.9868
   629.5000      8.0703      2.5303      0.0885      7.2562    112.9802     27.1146
   629.6000      8.0703      2.5601      0.1037      5.4509    112.3121     27.4639
   629.7000      8.0703      2.5764      0.1209      4.4622    111.6686     27.5308
   629.8000      8.0556      2.5890      0.1828      3.6977    112.2714     27.2479
   629.9000      8.0556      2.5911      0.2283      3.5702    115.9872     26.6139
   630.0000      8.0719      2.5722      0.1802      4.7174    121.6619     25.5484
   630.1000      8.0719      2.5356      0.1486      6.9353    126.3355     24.3147
   630.2000      8.0719      2.4847      0.1114     10.0184    127.2150     23.2493
   630.3000      8.0945      2.4142      0.0519     14.2886    124.5437     22.3104
   630.4000      8.0945      2.3301     -0.0062     19.3900    122.2090     21.2877
   630.5000      8.1297      2.2584      0.0035     23.7353    122.3505     20.1598
   630.6000      8.1297      2.2115      0.0946     26.5741    124.1107     19.2056
   630.7000      8.1297      2.1791      0.0621     28.5364    126.1362     18.5929
   630.8000      8.2833      2.1611      0.1016     29.6294    126.6705     18.1403
   630.9000      8.2833      2.1619      0.1254     29.5820    126.5825     17.9839
   631.0000      8.3569      2.1747      0.1183     28.8088    128.1742     18.4259
   631.1000      8.3569      2.1880      0.1143     28.0006    129.8287     19.2375
   631.2000      8.3569      2.1977      0.1196     27.4131    129.2909     20.2102
   631.3000      8.2914      2.2181      0.0817     26.1780    129.4293     21.4673
   631.4000      8.2914      2.2655      0.1250     23.3049    132.8212     22.7974
   631.5000      8.1944      2.3272      0.1086     19.5647    137.4481     23.8684
   631.6000      8.1944      2.3770      0.0489     16.5476    140.9870     24.6028
   631.7000      8.1944      2.4109      0.0225     14.4933    143.1538     24.9915
   631.8000      8.2463      2.4401      0.0777     12.7196    144.7771     25.0250
   631.9000      8.2463      2.4679      0.1114     11.0357    146.0894     24.8577
   632.0000      8.3557      2.4875      0.1757      9.8466    146.5287     24.7953
   632.1000      8.3557      2.4967      0.1785      9.2887    146.1110     24.9170
   632.2000      8.3557      2.5012      0.1977      9.0172    144.5978     25.0789
   632.3000      8.3435      2.4965      0.2227      9.3049    142.6365     25.1307
   632.4000      8.3435      2.4760      0.1505     10.5471    143.1355     25.0073
   632.5000      8.3473      2.4574      0.0710     11.6726    147.8569     24.8493
   632.6000      8.3473      2.4617      0.1374     11.4111    153.2773     24.8351
   632.7000      8.3473      2.4822      0.1538     10.1719    152.8267     25.0338
   632.8000      8.3936      2.5043      0.1458      8.8296    147.9710     25.3167
   632.9000      8.3936      2.5264      0.1715      7.4922    146.2895     25.4800
   633.0000      8.3424      2.5470      0.1956      6.2443    148.6519     25.6143
   633.1000      8.3424      2.5632      0.1755      5.2630    151.9381     25.8568
   633.2000      8.3424      2.5797      0.1910      4.2621    153.7076     26.2925
   633.3000      8.3437      2.5998      0.2250      3.0448    150.6418     26.7811
   633.4000      8.3437      2.6133      0.2118      2.2249    143.9848     26.9334
   633.5000      8.3521      2.6092      0.1818      2.4736    139.6423     26.6957
   633.6000      8.3521      2.5916      0.1266      3.5380    140.4725     26.3731
   633.7000      8.3521      2.5707      0.0986      4.8070    143.3596     26.3495
   633.8000      8.3205      2.5565      0.0362      5.6668    144.0414     26.8872
   633.9000      8.3205      2.5543      0.1091      5.8027    142.4750     27.7149
