~Version Information
VERS.                      2.0: CWLS Log ASCII Standard - VERSION 2.0
WRAP.                       NO: One line per depth step
~Well Information Block
STRT.FT               710.0000: 
STOP.FT              1983.0000: 
STEP.FT                 0.1000: 
NULL.                -999.2500: 
COMP.          Petrogulf Corporation: COMPANY
WELL.           State 16-23R-X: WELL
FLD.           Purgatorie River: FIELD
LOC.           2381' FSL & 2072' FWL: LOCATION
PROV.                 Colorado: PROVINCE
CNTY.               Las Animas: COUNTRY
SRVC.                Patterson: SERVICE COMPANY
DATE.          Mon Aug 08 07:36:34 2005: LOG DATE
UWI.                          : UNIQUE WELL ID
~Curve Information Block
DEPT.FT            0 000 00 00: Depth
DCAL.in                       : CDL Caliper
RHOB.g/cc                     : CDL Bulk Density
RHOC.g/cc                     : CDL Density Correction
DPOR.pu                       : CDL Density Porosity
GR.GAPI                       : Gamma Ray
NPOR.pu                       : Neutron Porosity
~Parameter Information Block
~A  Depth       DCAL        RHOB        RHOC        DPOR         GR         NPOR    
# ...
  1862.0000      7.8509      2.5630      0.0418      5.2755    160.5682     29.1846
  1862.1000      7.8509      2.5749      0.0456      4.5499    157.7366     29.6231
  1862.2000      7.8509      2.5746      0.1125      4.5710    152.3663     29.8336
  1862.3000      7.8308      2.5566      0.0625      5.6615    145.8824     29.4045
  1862.4000      7.8308      2.5351      0.0557      6.9616    143.6037     28.5279
  1862.5000      7.7819      2.5264      0.0961      7.4930    147.6109     27.6152
  1862.6000      7.7819      2.5257      0.0601      7.5345    153.0358     26.7300
  1862.7000      7.7819      2.5236      0.0610      7.6597    153.9189     26.0229
  1862.8000      7.7856      2.5081      0.0978      8.5993    151.7615     25.6307
  1862.9000      7.7856      2.4712      0.0830     10.8356    150.5385     25.1841
  1863.0000      7.7649      2.4285      0.0557     13.4222    150.7381     24.3109
  1863.1000      7.7649      2.4008      0.0679     15.1059    152.2275     23.2392
  1863.2000      7.7649      2.3883      0.0472     15.8586    155.0471     22.5868
  1863.3000      7.7515      2.3802      0.0834     16.3518    157.4328     22.5092
  1863.4000      7.7515      2.3718      0.0572     16.8603    158.3553     22.8199
  1863.5000      7.7610      2.3653      0.1055     17.2568    160.3831     23.4037
  1863.6000      7.7610      2.3602      0.1024     17.5624    164.5547     24.1440
  1863.7000      7.7610      2.3597      0.0840     17.5962    169.1655     25.0389
  1863.8000      7.8575      2.3701      0.0769     16.9630    172.7900     25.9350
  1863.9000      7.8575      2.3946      0.0609     15.4796    172.1663     26.4549
  1864.0000      7.9080      2.4268      0.0432     13.5250    165.8246     26.7698
  1864.1000      7.9080      2.4519      0.0627     12.0050    158.6901     27.3606
  1864.2000      7.9080      2.4561      0.0747     11.7527    156.2454     28.1761
  1864.3000      7.8529      2.4420      0.0325     12.6088    159.0616     28.9516
  1864.4000      7.8529      2.4387     -0.0309     12.8074    163.5509     29.3238
  1864.5000      7.8073      2.4703      0.0074     10.8897    166.4703     29.2038
  1864.6000      7.8073      2.5238      0.0681      7.6496    165.9693     29.0840
  1864.7000      7.8073      2.5679      0.1147      4.9788    161.8432     29.2602
  1864.8000      7.7947      2.5803      0.1295      4.2251    156.5330     29.5462
  1864.9000      7.7947      2.5586      0.0912      5.5392    151.6462     29.6017
  1865.0000      7.8053      2.5220      0.0460      7.7547    147.8185     29.3312
  1865.1000      7.8053      2.4971      0.0117      9.2646    145.4417     28.9179
  1865.2000      7.8053      2.4957     -0.0063      9.3504    143.8726     28.6617
  1865.3000      7.8147      2.5101      0.0053      8.4782    143.0012     28.5880
  1865.4000      7.8147      2.5247      0.0652      7.5909    141.6435     28.2768
  1865.5000      7.8715      2.5305      0.0682      7.2406    137.4693     27.6545
  1865.6000      7.8715      2.5319      0.0606      7.1583    130.7493     27.2525
  1865.7000      7.8715      2.5330      0.0932      7.0926    124.7874     27.2791
  1865.8000      7.8623      2.5326      0.0896      7.1180    121.7272     27.3341
  1865.9000      7.8623      2.5339      0.1009      7.0364    120.9911     27.1856
  1866.0000      7.7859      2.5427      0.0958      6.5044    119.7624     26.9238
  1866.1000      7.7859      2.5600      0.1138      5.4533    115.6441     26.6849
  1866.2000      7.7859      2.5779      0.2078      4.3717    111.5583     26.4345
  1866.3000      7.7727      2.5879      0.2049      3.7632    110.1919     26.0210
  1866.4000      7.7727      2.5966      0.2008      3.2366    108.3379     25.3794
  1866.5000      7.6485      2.6091      0.2314      2.4779    104.2359     24.6135
  1866.6000      7.6485      2.6163      0.2046      2.0415    101.3812     24.0000
  1866.7000      7.6485      2.6131      0.1955      2.2392    101.9137     23.6478
  1866.8000      7.6427      2.6016      0.2100      2.9343    104.1139     23.5007
  1866.9000      7.6427      2.5842      0.1671      3.9868    107.5881     23.3906
  1867.0000      7.6728      2.5677      0.1151      4.9889    113.2375     22.9915
  1867.1000      7.6728      2.5585      0.1365      5.5483    120.0514     22.3329
  1867.2000      7.6728      2.5540      0.1466      5.8175    125.4827     21.9112
  1867.3000      7.6986      2.5503      0.1276      6.0449    128.4819     21.9653
  1867.4000      7.6986      2.5465      0.1322      6.2700    129.2036     22.1722
  1867.5000      7.7193      2.5413      0.1128      6.5854    128.2506     22.1246
  1867.6000      7.7193      2.5388      0.0857      6.7378    128.0857     21.9874
  1867.7000      7.7193      2.5395      0.1158      6.6979    129.4803     22.1991
  1867.8000      7.7850      2.5296      0.1164      7.2970    129.9918     22.6485
  1867.9000      7.7850      2.5136      0.0215      8.2686    127.3160     22.8557
  1868.0000      7.7993      2.5147      0.0272      8.1992    121.6004     22.8020
  1868.1000      7.7993      2.5309      0.0989      7.2195    115.0565     22.8971
  1868.2000      7.7993      2.5397      0.0720      6.6841    111.1134     23.2813
  1868.3000      7.8343      2.5326      0.0745      7.1134    112.1294     23.6996
  1868.4000      7.8343      2.5138      0.0521      8.2535    115.8131     23.8362
  1868.5000      7.8560      2.4857      0.1016      9.9551    118.4126     23.6070
  1868.6000      7.8560      2.4542      0.0101     11.8640    120.6807     23.3128
  1868.7000      7.8560      2.4340      0.0709     13.0929    122.8128     23.2154
  1868.8000      7.8041      2.4275      0.0644     13.4859    123.3206     23.1418
  1868.9000      7.8041      2.4341      0.0719     13.0875    123.0690     22.9835
  1869.0000      7.7943      2.4652      0.0687     11.1999    123.7436     22.6933
  1869.1000      7.7943      2.5230      0.1271      7.6985    123.4947     22.1181
  1869.2000      7.7943      2.5853      0.1734      3.9224    119.5455     21.4820
  1869.3000      7.7875      2.6263      0.2350      1.4341    112.7551     21.2212
  1869.4000      7.7875      2.6345      0.2397      0.9419    105.8219     21.5799
  1869.5000      7.7898      2.6092      0.2400      2.4727    101.1048     22.2915
  1869.6000      7.7898      2.5650      0.1587      5.1526     99.8187     22.6620
  1869.7000      7.7898      2.5347      0.0760      6.9850     99.9451     22.5117
  1869.8000      7.7525      2.5352      0.0765      6.9582     97.6216     22.1888
  1869.9000      7.7525      2.5470      0.0848      6.2419     93.1282     21.7862
  1870.0000      7.7901      2.5515      0.0662      5.9703     89.2855     21.4889
  1870.1000      7.7901      2.5495      0.0780      6.0906     86.7509     21.5132
  1870.2000      7.7901      2.5496      0.0256      6.0877     85.5638     21.6211
  1870.3000      7.8466      2.5562      0.0585      5.6876     85.4441     21.7657
  1870.4000      7.8466      2.5628      0.0833      5.2819     84.7763     21.9534
  1870.5000      7.8049      2.5667      0.0253      5.0508     82.8121     21.8254
  1870.6000      7.8049      2.5738      0.0487      4.6173     80.9747     21.3723
  1870.7000      7.8049      2.5805      0.0875      4.2149     80.5455     20.9972
  1870.8000      7.8225      2.5778      0.0931      4.3743     81.1113     20.8910
  1870.9000      7.8225      2.5703      0.0606      4.8299     80.0111     20.9008
  1871.0000      7.7893      2.5661      0.0474      5.0852     78.3597     20.8319
  1871.1000      7.7893      2.5665      0.0391      5.0604     80.5199     20.6296
  1871.2000      7.7893      2.5667      0.0765      5.0496     85.6798     20.3781
  1871.3000      7.8047      2.5608      0.0614      5.4079     92.0419     19.9661
  1871.4000      7.8047      2.5523      0.0573      5.9182     99.2675     19.3617
  1871.5000      7.8416      2.5513      0.0168      5.9794    106.0627     19.0998
