~Version Information
VERS.                      2.0: CWLS Log ASCII Standard - VERSION 2.0
WRAP.                       NO: One line per depth step
~Well Information Block
STRT.FT               660.0000: 
STOP.FT              2491.0000: 
STEP.FT                 0.2500: 
NULL.                -999.2500: 
COMP.          Petrogulf Corporation: COMPANY
WELL.          Montoya 18-11V-B: WELL
FLD.           Purgatorie River: FIELD
LOC.           848' FNL & 619' FWL: LOCATION
PROV.                 Colorado: PROVINCE
CNTY.               Las Animas: COUNTRY
SRVC.                Patterson: SERVICE COMPANY
DATE.          Wed Oct 05 04:34:17 2005: LOG DATE
UWI.                          : UNIQUE WELL ID
~Curve Information Block
DEPT.FT            0 000 00 00: Depth
SP.mV                         : DIL Spontaneous Potential
RILD.Ohm-m                    : DIL Deep Resistivity
RILM.Ohm-m                    : DIL Medium Resistivity
RLL3.Ohm-m                    : DIL Shallow Resistivity
GR.GAPI                       : Gamma Ray
~Parameter Information Block
~A  Depth        SP         RILD        RILM        RLL3         GR     
# ...
  1500.0000    161.9769     12.0197     10.2680     15.4425    177.6409
  1500.2500    162.0685     12.3000     10.6337     19.9194    175.4352
  1500.5000    162.3490     12.6082     11.0992     27.6303    167.1902
  1500.7500    162.7647     12.9502     11.6501     37.7058    158.7318
  1501.0000    163.2319     13.3427     12.2669     47.0168    142.8635
  1501.2500    163.6518     13.8080     12.9283     51.5886    131.1440
  1501.5000    163.9356     14.3686     13.6177     49.4433    113.9786
  1501.7500    164.0252     15.0433     14.3293     42.1625    104.4202
  1502.0000    163.8977     15.8421     15.0711     33.5203     95.8701
  1502.2500    163.5567     16.7588     15.8631     26.7623     95.0496
  1502.5000    163.0250     17.7598     16.7307     23.1495    100.3415
  1502.7500    162.3432     18.7781     17.6965     22.3627    106.4658
  1503.0000    161.5654     19.7270     18.7711     23.5290    116.2121
  1503.2500    160.7498     20.5359     19.9469     25.8471    121.8381
  1503.5000    159.9471     21.1866     21.1937     28.7727    128.1057
  1503.7500    159.1946     21.7154     22.4597     32.0597    130.5291
  1504.0000    158.5167     22.1781     23.6764     35.6885    131.0041
  1504.2500    157.9301     22.6124     24.7704     39.5622    129.2904
  1504.5000    157.4494     23.0291     25.6766     43.1267    124.8517
  1504.7500    157.0876     23.4294     26.3519     45.3760    121.5094
  1505.0000    156.8511     23.8234     26.7838     45.4160    116.8241
  1505.2500    156.7353     24.2285     26.9921     43.1096    114.2012
  1505.5000    156.7231     24.6502     27.0221     39.2143    111.6209
  1505.7500    156.7856     25.0639     26.9326     34.9800    111.1772
  1506.0000    156.8840     25.4153     26.7814     31.5761    112.6406
  1506.2500    156.9716     25.6421     26.6132     29.6566    114.7841
  1506.5000    156.9968     25.7039     26.4525     29.2209    118.7715
  1506.7500    156.9090     25.6017     26.3028     29.8043    121.2844
  1507.0000    156.6696     25.3794     26.1526     30.8184    124.0762
  1507.2500    156.2668     25.1062     25.9847     31.7774    125.1099
  1507.5000    155.7225     24.8522     25.7876     32.3365    125.2589
  1507.7500    155.0836     24.6687     25.5619     32.2892    124.4466
  1508.0000    154.4037     24.5795     25.3223     31.6219    122.6581
  1508.2500    153.7269     24.5845     25.0932     30.5506    122.0145
  1508.5000    153.0848     24.6686     24.9022     29.4295    123.1190
  1508.7500    152.5026     24.8104     24.7741     28.5624    125.0064
  1509.0000    152.0073     24.9880     24.7271     28.0707    127.5990
  1509.2500    151.6303     25.1825     24.7718     27.9029    128.0087
  1509.5000    151.4048     25.3804     24.9110     27.9308    126.0132
  1509.7500    151.3586     25.5739     25.1402     28.0424    123.2514
  1510.0000    151.5082     25.7570     25.4489     28.1980    117.8980
  1510.2500    151.8523     25.9190     25.8224     28.4508    114.2052
  1510.5000    152.3694     26.0421     26.2427     28.9261    109.7519
  1510.7500    153.0194     26.1073     26.6914     29.7564    107.9706
  1511.0000    153.7497     26.1104     27.1505     30.9895    106.9901
  1511.2500    154.5021     26.0791     27.6042     32.5195    107.1108
  1511.5000    155.2197     26.0738     28.0402     34.1022    107.9599
  1511.7500    155.8546     26.1660     28.4500     35.4635    108.6911
  1512.0000    156.3755     26.4018     28.8301     36.4268    109.1265
  1512.2500    156.7699     26.7752     29.1808     36.9668    108.2174
  1512.5000    157.0387     27.2306     29.5057     37.1662    103.9245
  1512.7500    157.1910     27.6932     29.8102     37.1419     98.9641
  1513.0000    157.2426     28.1084     30.1011     37.0094     89.6433
  1513.2500    157.2155     28.4651     30.3864     36.8855     83.6275
  1513.5000    157.1349     28.7935     30.6759     36.8780     77.0595
  1513.7500    157.0250     29.1451     30.9814     37.0430     74.7362
  1514.0000    156.9082     29.5662     31.3162     37.3433     73.8997
  1514.2500    156.8068     30.0749     31.6928     37.6505     74.6095
  1514.5000    156.7446     30.6520     32.1184     37.8064     76.6519
  1514.7500    156.7413     31.2487     32.5923     37.7297     78.1761
  1515.0000    156.8068     31.8081     33.1044     37.5027     80.0505
  1515.2500    156.9370     32.2888     33.6389     37.3616     80.6919
  1515.5000    157.1143     32.6814     34.1797     37.5813     80.3407
  1515.7500    157.3123     33.0114     34.7181     38.3624     79.2626
  1516.0000    157.5031     33.3254     35.2546     39.8250     76.7964
  1516.2500    157.6652     33.6654     35.7955     42.0578     74.8368
  1516.5000    157.7920     34.0498     36.3424     45.0575     71.8720
  1516.7500    157.8943     34.4674     36.8823     48.5459     70.2583
  1517.0000    157.9961     34.8848     37.3820     51.8998     68.9300
  1517.2500    158.1215     35.2556     37.7931     54.3844     68.7411
  1517.5000    158.2842     35.5334     38.0656     55.5396     69.1018
  1517.7500    158.4865     35.6928     38.1670     55.3796     69.7958
  1518.0000    158.7255     35.7506     38.0950     54.2558     71.9735
  1518.2500    158.9997     35.7657     37.8775     52.5462     74.0394
  1518.5000    159.3145     35.8154     37.5580     50.4583     76.5158
  1518.7500    159.6846     35.9616     37.1765     48.0924     76.8583
  1519.0000    160.1301     36.2145     36.7556     45.6239     75.7829
  1519.2500    160.6664     36.4950     36.2973     43.3333     75.2809
  1519.5000    161.2944     36.6237     35.7916     41.4372     76.7439
  1519.7500    161.9975     36.3856     35.2295     39.9527     79.2760
  1520.0000    162.7488     35.6759     34.6139     38.7570     84.2618
  1520.2500    163.5170     34.6019     33.9643     37.7336     87.6945
  1520.5000    164.2678     33.4216     33.3130     36.8353     92.2323
  1520.7500    164.9633     32.3833     32.6968     36.0597     94.3643
  1521.0000    165.5677     31.6212     32.1480     35.4202     95.2081
  1521.2500    166.0584     31.1540     31.6883     34.9431     93.9450
  1521.5000    166.4328     30.9337     31.3250     34.6572     90.1024
  1521.7500    166.7076     30.8914     31.0512     34.5640     87.1226
  1522.0000    166.9104     30.9615     30.8490     34.6210     83.1814
  1522.2500    167.0712     31.0872     30.6969     34.7743     81.1143
  1522.5000    167.2157     31.2213     30.5781     35.0114     78.6044
  1522.7500    167.3620     31.3295     30.4877     35.3683     77.0668
  1523.0000    167.5215     31.3955     30.4359     35.8658     74.8574
  1523.2500    167.7034     31.4240     30.4443     36.4445     73.7011
  1523.5000    167.9198     31.4366     30.5369     36.9872     73.0026
  1523.7500    168.1845     31.4615     30.7299     37.4196     73.4193
  1524.0000    168.5051     31.5237     31.0244     37.7813     75.6024
  1524.2500    168.8760     31.6395     31.4043     38.1701     78.1811
  1524.5000    169.2769     31.8142     31.8405     38.6063     83.2240
  1524.7500    169.6781     32.0422     32.2997     38.9766     86.4618
  1525.0000    170.0476     32.3055     32.7534     39.1376     89.0305
  1525.2500    170.3579     32.5765     33.1831     39.0747     88.3541
  1525.5000    170.5924     32.8233     33.5792     38.9545     84.1048
  1525.7500    170.7493     33.0200     33.9363     39.0348     80.5509
  1526.0000    170.8391     33.1528     34.2454     39.5196     77.4380
  1526.2500    170.8765     33.2224     34.4903     40.4509     77.9475
  1526.5000    170.8749     33.2401     34.6487     41.6735     81.4562
  1526.7500    170.8472     33.2248     34.6984     42.8842     83.7134
  1527.0000    170.8096     33.1970     34.6268     43.7713     84.4627
  1527.2500    170.7809     33.1715     34.4375     44.1732     83.2511
  1527.5000    170.7784     33.1498     34.1527     44.1062     80.7236
  1527.7500    170.8154     33.1197     33.8082     43.6368     79.5061
