~Version Information
VERS.                      2.0: CWLS Log ASCII Standard - VERSION 2.0
WRAP.                       NO: One line per depth step
~Well Information Block
STRT.FT               390.0000: 
STOP.FT               825.0000: 
STEP.FT                 0.1000: 
NULL.                -999.2500: 
COMP.          Pioneer Natural Resources: COMPANY
WELL.             Veedol 34-28: WELL
FLD.           Purgatoire River: FIELD
LOC.           357' FSL & 2520' FEL: LOCATION
PROV.                 Colorado: PROVINCE
CNTY.               Las Animas: COUNTRY
SRVC.                Patterson: SERVICE COMPANY
DATE.          Thu Dec 22 14:38:20 2005: LOG DATE
UWI.           05 071 08628 00: UNIQUE WELL ID
~Curve Information Block
DEPT.FT            0 000 00 00: Depth
DCAL.in                       : CDL Caliper
RHOB.g/cc                     : CDL Bulk Density
RHOC.g/cc                     : CDL Density Correction
DPOR.pu                       : CDL Density Porosity
GR.GAPI                       : Gamma Ray
NPOR.pu                       : Neutron Porosity
~Parameter Information Block
~A  Depth       DCAL        RHOB        RHOC        DPOR         GR         NPOR    
   390.0000      3.2812      2.1805      0.1439     28.4537     53.4262     15.6708
   390.1000      3.2812      2.1867      0.1881     28.0772     55.2734     16.3905
   390.2000      3.2812      2.1842      0.1762     28.2302     53.7264     16.3183
   390.3000      3.2785      2.1709      0.1355     29.0359     53.2583     15.5760
   390.4000      3.2785      2.1622      0.1455     29.5618     60.3105     15.2850
   390.5000      3.2772      2.1681      0.1303     29.2080     70.9321     15.9755
   390.6000      3.2772      2.1868      0.1247     28.0752     77.6521     16.9471
   390.7000      3.2772      2.2063      0.1843     26.8927     79.6562     17.7925
   390.8000      3.2771      2.2170      0.1667     26.2394     81.2166     18.2377
   390.9000      3.2771      2.2208      0.1879     26.0108     82.8561     17.6212
   391.0000      3.2771      2.2181      0.1774     26.1781     84.1104     16.7889
   391.1000      3.2771      2.2102      0.1492     26.6567     86.5077     16.9112
   391.2000      3.2771      2.2063      0.1330     26.8920     87.6342     17.6972
   391.3000      3.2771      2.2143      0.1347     26.4091     89.3577     18.3486
   391.4000      3.2771      2.2299      0.1434     25.4620     97.8393     18.3809
   391.5000      3.2773      2.2427      0.1648     24.6837    107.3941     18.3437
   391.6000      3.2773      2.2508      0.1762     24.1910    105.2350     18.9490
   391.7000      3.2773      2.2558      0.1888     23.8886     93.1092     19.5996
   391.8000      3.2768      2.2539      0.1724     24.0045     83.7787     19.6153
   391.9000      3.2768      2.2430      0.1726     24.6684     83.0960     19.6514
   392.0000      3.2743      2.2270      0.1547     25.6375     86.1208     20.1967
   392.1000      3.2743      2.2123      0.1274     26.5261     87.3284     20.3303
   392.2000      3.2743      2.2031      0.1197     27.0848     88.4516     19.5424
   392.3000      3.2735      2.2044      0.1087     27.0091     89.6658     18.4898
   392.4000      3.2735      2.2183      0.1498     26.1656     87.9796     17.5965
   392.5000      3.2745      2.2377      0.1850     24.9877     84.2513     17.1241
   392.6000      3.2745      2.2527      0.1780     24.0796     81.2008     17.3814
   392.7000      3.2745      2.2579      0.1874     23.7650     80.3161     18.2191
   392.8000      3.2747      2.2510      0.1739     24.1811     83.3040     18.9736
   392.9000      3.2747      2.2404      0.1451     24.8233     90.8168     19.1705
   393.0000      3.2749      2.2392      0.1530     24.8979     96.6311     18.5754
   393.1000      3.2749      2.2405      0.1922     24.8203     93.2864     17.3482
   393.2000      3.2749      2.2337      0.1426     25.2313     81.1718     16.2113
   393.3000      3.2760      2.2293      0.1328     25.4963     74.5521     15.5107
   393.4000      3.2760      2.2317      0.1870     25.3526     73.3471     15.2342
   393.5000      3.2764      2.2292      0.1755     25.5060     73.9072     15.7563
   393.6000      3.2764      2.2202      0.1570     26.0513     71.5313     16.9016
   393.7000      3.2764      2.2166      0.1174     26.2678     69.0725     17.3953
   393.8000      3.2750      2.2241      0.1547     25.8151     74.3562     16.8652
   393.9000      3.2750      2.2343      0.1826     25.1964     87.1094     16.3462
   394.0000      3.2739      2.2423      0.1342     24.7119     95.4007     16.5170
   394.1000      3.2739      2.2474      0.1785     24.4011     92.0154     17.1597
   394.2000      3.2739      2.2380      0.1799     24.9710     75.1718     17.7446
   394.3000      3.2741      2.2152      0.1358     26.3496     67.5908     17.9236
   394.4000      3.2741      2.2004      0.1184     27.2457     58.3306     17.5262
   394.5000      3.2736      2.2011      0.1327     27.2056     52.5191     16.7038
   394.6000      3.2736      2.2089      0.1475     26.7322     55.8239     15.9853
   394.7000      3.2736      2.2148      0.1701     26.3764     62.6503     15.6437
   394.8000      3.2746      2.2156      0.1250     26.3264     66.0622     15.5084
   394.9000      3.2746      2.2185      0.1333     26.1543     67.5203     15.3748
   395.0000      3.2776      2.2272      0.1533     25.6247     69.3001     15.1496
   395.1000      3.2776      2.2334      0.1932     25.2470     71.6732     14.8269
   395.2000      3.2776      2.2306      0.1535     25.4204     65.0145     14.4252
   395.3000      3.2780      2.2192      0.1819     26.1065     64.2228     14.2018
   395.4000      3.2780      2.2021      0.1429     27.1444     60.5066     14.4634
   395.5000      3.2758      2.1883      0.1194     27.9830     56.3690     15.0504
   395.6000      3.2758      2.1861      0.1302     28.1129     56.8570     15.7570
   395.7000      3.2758      2.1956      0.1462     27.5415     60.4652     16.4588
   395.8000      3.2749      2.2102      0.1524     26.6565     58.7717     16.6557
   395.9000      3.2749      2.2201      0.1709     26.0521     51.3180     15.8805
   396.0000      3.2747      2.2202      0.1680     26.0514     45.4160     14.9706
   396.1000      3.2747      2.2175      0.1260     26.2121     42.5554     15.0862
   396.2000      3.2747      2.2216      0.1713     25.9662     35.9528     15.9727
   396.3000      3.2744      2.2298      0.1895     25.4676     37.5475     16.4760
   396.4000      3.2744      2.2397      0.1512     24.8650     39.7470     16.2743
   396.5000      3.2754      2.2492      0.1870     24.2904     39.2125     16.0509
   396.6000      3.2754      2.2480      0.1833     24.3641     37.9913     16.1700
   396.7000      3.2754      2.2383      0.1633     24.9542     38.1480     16.5265
   396.8000      3.2771      2.2311      0.1673     25.3864     39.5375     16.8685
   396.9000      3.2771      2.2270      0.1499     25.6358     41.9396     16.8401
   397.0000      3.2773      2.2238      0.1474     25.8275     44.0258     16.4365
   397.1000      3.2773      2.2234      0.1213     25.8570     44.3352     16.0663
   397.2000      3.2773      2.2223      0.1752     25.9187     43.2811     15.9857
   397.3000      3.2767      2.2169      0.1453     26.2467     42.6908     16.1376
   397.4000      3.2767      2.2118      0.1641     26.5563     43.0423     16.2967
   397.5000      3.2766      2.2121      0.1489     26.5415     43.9749     16.6299
   397.6000      3.2766      2.2223      0.1091     25.9192     45.2388     17.5440
   397.7000      3.2766      2.2415      0.1851     24.7605     46.4139     18.5329
   397.8000      3.2777      2.2542      0.1896     23.9890     48.5763     18.6824
   397.9000      3.2777      2.2539      0.1366     24.0058     54.0880     17.9647
   398.0000      3.2791      2.2512      0.1463     24.1720     59.3336     16.8640
   398.1000      3.2791      2.2458      0.1847     24.4961     57.6140     16.0082
   398.2000      3.2791      2.2305      0.1589     25.4237     52.2190     15.6826
   398.3000      3.2792      2.2193      0.1132     26.1049     51.3013     15.8132
   398.4000      3.2792      2.2307      0.1418     25.4100     54.4604     16.4625
   398.5000      3.2788      2.2535      0.1768     24.0317     55.2972     17.6669
   398.6000      3.2788      2.2632      0.1824     23.4412     53.0568     18.8028
   398.7000      3.2788      2.2541      0.1798     23.9969     53.1179     19.0409
   398.8000      3.2780      2.2301      0.1876     25.4507     56.0971     18.9266
   398.9000      3.2780      2.1965      0.1485     27.4874     58.0911     19.2226
   399.0000      3.2769      2.1618      0.1659     29.5874     59.3285     19.6718
   399.1000      3.2769      2.1341      0.0972     31.2681     61.7264     19.9846
   399.2000      3.2769      2.1196      0.1113     32.1430     63.0178     20.3875
   399.3000      3.2766      2.1191      0.0994     32.1774     60.9547     21.2884
   399.4000      3.2766      2.1317      0.1148     31.4142     57.0821     22.0281
   399.5000      3.2774      2.1584      0.1106     29.7930     53.8454     21.9380
