~Version Information
VERS.                      2.0: CWLS Log ASCII Standard - VERSION 2.0
WRAP.                       NO: One line per depth step
~Well Information Block
STRT.FT                -4.0000: 
STOP.FT              1544.0000: 
STEP.FT                 0.2500: 
NULL.                -999.2500: 
COMP.          Pioneer Natural Resources: COMPANY
WELL.           Screamin 12-29: WELL
FLD.           Purgatoire River: FIELD
LOC.           2038' FNL & 612' FWL--: LOCATION
CNTY.               Las Animas: COUNTY
SRVC.                Patterson: SERVICE COMPANY
DATE.          Fri Apr 14 00:36:42 2006: LOG DATE
UWI.           05 071 08661 00: UNIQUE WELL ID
STAT.                 Colorado: STATE
~Curve Information Block
DEPT.FT            0 000 00 00: Depth
GR.GAPI                       : Gamma Ray
CCL.                          : Casing Collar Locator
TT3.usec                      : CBL 3' Travel Time
AMP3.mV                       : CBL 3' Amplitude
~Parameter Information Block
~A  Depth        GR         CCL         TT3         AMP3    
    -4.0000   -999.2500   -999.2500   -999.2500   -999.2500
    -3.7500   -999.2500   -999.2500   -999.2500   -999.2500
    -3.5000   -999.2500   -999.2500   -999.2500   -999.2500
    -3.2500   -999.2500   -999.2500   -999.2500   -999.2500
    -3.0000   -999.2500   -999.2500   1470.0000      2.3673
    -2.7500   -999.2500   -999.2500   1470.0000      2.4172
    -2.5000   -999.2500   -999.2500   1470.0000      2.4477
    -2.2500   -999.2500   -999.2500   1470.0000      2.4794
    -2.0000   -999.2500   -999.2500   1470.0000      2.4880
    -1.7500   -999.2500   -999.2500   1470.0000      2.4810
    -1.5000   -999.2500   -999.2500   1470.0000      2.4672
    -1.2500   -999.2500   -999.2500   1470.0000      2.4465
    -1.0000   -999.2500   -999.2500   1470.0000      2.4387
    -0.7500   -999.2500   -999.2500   1470.0000      2.4357
    -0.5000   -999.2500   -999.2500   1470.0000      2.4356
    -0.2500   -999.2500      0.0000   1470.0000      2.4364
     0.0000   -999.2500      0.0000   1470.0000      2.4411
     0.2500   -999.2500      0.0000   1470.0000      2.4596
     0.5000   -999.2500     -2.0000   1470.0000      2.4834
     0.7500   -999.2500     -2.0000   1470.0000      2.4925
     1.0000   -999.2500      2.0000   1470.0000      2.4873
     1.2500   -999.2500     -2.0000   1470.0000      2.4734
     1.5000   -999.2500     -2.0000   1470.0000      2.4474
     1.7500   -999.2500     -2.0000   1470.0000      2.4331
     2.0000   -999.2500      0.0000   1470.0000      2.4254
     2.2500   -999.2500      0.0000   1470.0000      2.4326
     2.5000   -999.2500      0.0000   1470.0000      2.4574
     2.7500   -999.2500      0.0000   1470.0000      2.4732
     3.0000   -999.2500      0.0000   1470.0000      2.4762
     3.2500   -999.2500      0.0000   1470.0000      2.4616
     3.5000   -999.2500      0.0000   1470.0000      2.4315
     3.7500   -999.2500      0.0000   1470.0000      2.4193
     4.0000   -999.2500      0.0000   1470.0000      2.4198
     4.2500   -999.2500      0.0000   1470.0000      2.4273
     4.5000   -999.2500      0.0000   1470.0000      2.4408
     4.7500   -999.2500      0.0000   1470.0000      2.4523
     5.0000   -999.2500      0.0000   1470.0000      2.4767
     5.2500     76.7871      0.0000   1470.0000      2.4939
     5.5000     74.6069      0.0000   1470.0000      2.5057
     5.7500     73.6307      0.0000   1470.0000      2.4978
     6.0000     72.9908      0.0000   1470.0000      2.4655
     6.2500     72.9632      0.0000   1470.0000      2.4394
     6.5000     73.5193      0.0000   1470.0000      2.4120
     6.7500     74.3106      0.0000   1470.0000      2.4080
     7.0000     75.9907      0.0000   1470.0000      2.4196
     7.2500     77.4200      0.0000   1470.0000      2.4299
     7.5000     80.1459      0.0000   1470.0000      2.4338
     7.7500     82.2433      0.0000   1470.0000      2.4259
     8.0000     85.2850      0.0000   1470.0000      2.4059
     8.2500     87.1168      0.0000   1470.0000      2.3947
     8.5000     89.8399      0.0000   1470.0000      2.3891
     8.7500     91.7205      0.0000   1470.0000      2.3931
     9.0000     94.2538      0.0000   1470.0000      2.4075
     9.2500     95.3858      0.0000   1470.0000      2.4220
     9.5000     95.6813      0.0000   1470.0000      2.4496
     9.7500     94.7866      0.0000   1469.9517      2.4669
    10.0000     92.3677      0.0000   1469.4147      2.4807
    10.2500     90.8618      0.0000   1467.7740      2.4928
    10.5000     89.9797      0.0000   1457.7813      2.6538
    10.7500     90.4426      0.0000   1438.1256      3.1285
    11.0000     92.3224      0.0000   1365.2059      5.5206
    11.2500     94.1617      0.0000   1271.9443      9.3444
    11.5000     97.4402     -2.0000   1056.2473     20.2978
    11.7500     99.5460      0.0000    877.8707     31.1805
    12.0000    101.7565      0.0000    615.7575     50.0957
    12.2500    102.4159      0.0000    477.2037     61.7169
    12.5000    102.5450      0.0000    346.3093     74.1187
    12.7500    102.3641      0.0000    302.9116     78.6648
    13.0000    101.8882      0.0000    276.4392     81.5300
    13.2500    101.3277      0.0000    271.1628     82.0321
    13.5000     99.7716      0.0000    269.6565     81.9408
    13.7500     98.2297      0.0000    270.6133     81.4305
    14.0000     96.0025      0.0000    274.8949     79.4425
    14.2500     95.5036      0.0000    280.1599     76.9007
    14.5000     97.3733      0.0000    291.2272     71.1787
    14.7500    100.1122      0.0000    299.1712     66.5612
    15.0000    104.5600      0.0000    308.4070     59.6930
    15.2500    106.5306      0.0000    311.5982     55.7797
    15.5000    107.0971      0.0000    312.5245     51.4858
    15.7500    106.2497      0.0000    311.7865     49.7208
    16.0000    104.6393      0.0000    310.4334     48.3823
    16.2500    104.2097      2.0000    309.8098     48.0507
    16.5000    105.2535      0.0000    309.2389     48.0323
    16.7500    106.8855      0.0000    308.8447     48.3416
    17.0000    109.8785      0.0000    307.6400     49.6292
    17.2500    111.7729      0.0000    306.0703     51.3046
    17.5000    113.5041      0.0000    302.1878     55.2142
    17.7500    113.1096      0.0000    298.6208     58.5318
    18.0000    109.2873      0.0000    292.1576     63.9132
    18.2500    104.9612      0.0000    287.3805     67.4716
    18.5000     97.7743      0.0000    280.2523     72.4426
    18.7500     93.8179      0.0000    276.1475     75.2974
    19.0000     90.7126      0.0000    271.8083     78.5390
    19.2500     90.8155      0.0000    270.1758     79.9801
    19.5000     93.6285      0.0000    269.0492     81.3776
    19.7500     96.5670      0.0000    268.7767     82.0472
    20.0000    101.4760      0.0000    268.6377     82.9284
    20.2500    104.7203      0.0000    268.6059     83.4895
    20.5000    109.1485      0.0000    268.5753     84.3050
    20.7500    111.4667      0.0000    268.5574     84.8233
    21.0000    113.4395      0.0000    268.5958     85.4567
    21.2500    113.7658      0.0000    268.7947     85.6119
    21.5000    113.0803      0.0000    269.8796     84.8683
    21.7500    111.7574      0.0000    271.6750     83.2326
    22.0000    108.3093      0.0000    277.2450     78.2826
    22.2500    105.5517      0.0000    283.9775     73.1887
    22.5000    102.3576      0.0000    302.7488     63.5264
    22.7500    101.4309      0.0000    326.0633     56.4908
    23.0000    101.6291      0.0000    388.7458     46.2879
    23.2500    102.2586      0.0000    452.3375     40.1691
    23.5000    102.5101      0.0000    569.4525     32.3116
    23.7500    101.2523      0.0000    646.8331     27.9514
    24.0000     96.3821      0.0000    737.8457     22.5714
    24.2500     91.6362      0.0000    777.2578     19.6340
    24.5000     84.5687      0.0000    811.4294     16.0186
    24.7500     81.4292      0.0000    823.8763     14.0617
    25.0000     80.7030      0.0000    834.2384     11.7301
    25.2500     82.7866      0.0000    837.7574     10.5553
    25.5000     87.9251      0.0000    840.2288      9.3376
    25.7500     91.2526      0.0000    840.9360      8.8574
    26.0000     94.5174      0.0000    841.5555      8.5200
    26.2500     95.4498      0.0000    841.8988      8.4590
    26.5000     95.5047      0.0000    842.3962      8.4667
    26.7500     94.9270      0.0000    842.6939      8.4795
    27.0000     93.7235      0.0000    843.0170      8.4668
    27.2500     93.2156      0.0000    843.1122      8.4401
    27.5000     93.5978      0.0000    843.0704      8.4035
    27.7500     94.5138      0.0000    842.9630      8.3954
    28.0000     95.9835      0.0000    842.7980      8.4018
    28.2500     96.7620      0.0000    842.7377      8.4025
    28.5000     98.5076      0.0000    842.7444      8.3819
    28.7500    100.7898      0.0000    842.7994      8.3614
    29.0000    105.6597      0.0000    842.9246      8.3557
    29.2500    108.8203      0.0000    843.0101      8.3908
