~Version Information
VERS.                      2.0: CWLS Log ASCII Standard - VERSION 2.0
WRAP.                       NO: One line per depth step
~Well Information Block
STRT.FT               545.0000: 
STOP.FT              2200.7000: 
STEP.FT                 0.1000: 
NULL.                -999.2500: 
COMP.          Pioneer Natural Resources: COMPANY
WELL.               Erin 21-15: WELL
FLD.           Purgatoire River: FIELD
LOC.           1217' FNL & 2284' FWL--: LOCATION
CNTY.               Las Animas: COUNTY
SRVC.                Patterson: SERVICE COMPANY
DATE.          Thu Mar 02 09:55:43 2006: LOG DATE
UWI.           05 071 08713 00: UNIQUE WELL ID
STAT.                 Colorado: STATE
~Curve Information Block
DEPT.FT            0 000 00 00: Depth
DCAL.in                       : CDL Caliper
RHOB.g/cc                     : CDL Bulk Density
RHOC.g/cc                     : CDL Density Correction
DPOR.pu                       : CDL Density Porosity
NPOR.pu                       : Neutron Porosity
GR.GAPI                       : Gamma Ray
~Parameter Information Block
~A  Depth       DCAL        RHOB        RHOC        DPOR        NPOR         GR     
# ...
  1514.6000      7.9797      2.6235      0.0151      1.6073     27.0882    117.3518
  1514.7000      7.9797      2.6195      0.0124      1.8480     27.4041    117.2453
  1514.8000      7.9804      2.6302      0.0384      1.2018     27.8762    109.9874
  1514.9000      7.9804      2.6280      0.0799      1.3355     28.0819     99.3422
  1515.0000      7.9796      2.5870      0.0187      3.8184     27.9004     97.6674
  1515.1000      7.9796      2.5324     -0.0917      7.1267     27.4691    109.2626
  1515.2000      7.9796      2.5085     -0.0839      8.5753     26.9991    122.8740
  1515.3000      7.9790      2.5134      0.0021      8.2786     26.5537    128.5627
  1515.4000      7.9790      2.5244      0.0051      7.6095     26.2453    130.1432
  1515.5000      7.9782      2.5422      0.0273      6.5312     26.4863    131.2611
  1515.6000      7.9782      2.5674      0.0423      5.0039     27.0369    129.0995
  1515.7000      7.9782      2.5885      0.0458      3.7250     27.0695    125.5680
  1515.8000      7.9773      2.6103      0.0225      2.4088     26.6147    123.7329
  1515.9000      7.9773      2.6419      0.0798      0.4883     26.2458    123.3103
  1516.0000      7.9767      2.6755      0.0434     -1.5482     25.6254    122.6070
  1516.1000      7.9767      2.7108      0.0651     -3.6857     24.4116    118.2497
  1516.2000      7.9767      2.7550      0.0709     -6.3624     23.4131    112.3758
  1516.3000      7.9782      2.8002      0.0660     -9.1007     23.1361    112.6084
  1516.4000      7.9782      2.8314      0.1236    -10.9910     23.2136    116.0433
  1516.5000      7.9800      2.8407      0.1253    -11.5582     23.4256    111.7405
  1516.6000      7.9800      2.8292      0.0950    -10.8618     23.6559    101.0968
  1516.7000      7.9800      2.8030      0.0645     -9.2698     23.7654     93.7836
  1516.8000      7.9807      2.7671      0.0035     -7.0992     23.8972     90.6480
  1516.9000      7.9807      2.7249      0.0067     -4.5408     24.1907     88.7611
  1517.0000      7.9816      2.6785      0.0059     -1.7300     24.3578     89.4623
  1517.1000      7.9816      2.6333     -0.0005      1.0145     24.0683     92.1023
  1517.2000      7.9816      2.6079     -0.0740      2.5503     23.4030     92.9524
  1517.3000      7.9815      2.6180     -0.0045      1.9413     22.8446     91.8345
  1517.4000      7.9815      2.6430      0.0391      0.4228     22.7916     92.0388
  1517.5000      7.9803      2.6485      0.0931      0.0929     23.3244     95.4053
  1517.6000      7.9803      2.6321      0.0202      1.0866     24.2929     99.0933
  1517.7000      7.9803      2.6159      0.0710      2.0637     25.1894    101.4320
  1517.8000      7.9802      2.6054      0.0452      2.7039     25.7475    105.6292
  1517.9000      7.9802      2.5967      0.0669      3.2293     26.1908    111.4011
  1518.0000      7.9799      2.5876      0.0376      3.7839     26.4129    114.4840
  1518.1000      7.9799      2.5649      0.0638      5.1546     26.4537    115.0542
  1518.2000      7.9799      2.5235     -0.0202      7.6650     26.7114    115.6083
  1518.3000      7.9796      2.4909     -0.0272      9.6410     27.1930    118.3961
  1518.4000      7.9796      2.4892      0.0014      9.7449     27.7516    125.8475
  1518.5000      7.9810      2.5016      0.0600      8.9938     28.3126    136.1686
  1518.6000      7.9810      2.5069      0.0312      8.6733     28.7211    144.8552
  1518.7000      7.9810      2.5066      0.0482      8.6884     29.0866    150.5389
  1518.8000      7.9814      2.5110      0.0329      8.4227     29.5323    154.5242
  1518.9000      7.9814      2.5249      0.0265      7.5842     29.8668    155.3125
  1519.0000      7.9816      2.5397      0.0611      6.6830     29.8336    150.2058
  1519.1000      7.9816      2.5418      0.0742      6.5556     29.4693    142.2701
  1519.2000      7.9816      2.5281      0.0871      7.3876     28.9105    136.9980
  1519.3000      7.9837      2.5053      0.0344      8.7669     28.1526    132.8970
  1519.4000      7.9837      2.4839      0.0552     10.0680     27.3997    125.6188
  1519.5000      7.9840      2.4695      0.0180     10.9365     26.9442    118.1337
  1519.6000      7.9840      2.4664      0.0159     11.1294     26.5933    116.2896
  1519.7000      7.9840      2.4737      0.0655     10.6856     26.0262    120.2976
  1519.8000      7.9757      2.4823      0.0506     10.1664     25.4449    125.6387
  1519.9000      7.9757      2.4925      0.0086      9.5482     25.0812    124.8061
  1520.0000      7.9624      2.5171      0.0183      8.0525     24.7986    116.0276
  1520.1000      7.9624      2.5609      0.0099      5.3995     24.0992    107.0863
  1520.2000      7.9624      2.6074      0.0818      2.5820     23.0138    104.4128
  1520.3000      7.9543      2.6416      0.1037      0.5082     22.4880    104.2817
  1520.4000      7.9543      2.6717      0.1262     -1.3162     23.0579    100.3348
  1520.5000      7.9580      2.6970      0.1456     -2.8479     24.1225     94.0988
  1520.6000      7.9580      2.6995      0.1233     -2.9987     24.8625     90.3558
  1520.7000      7.9580      2.6754      0.0532     -1.5387     25.2446     90.3403
  1520.8000      7.9739      2.6407      0.0004      0.5608     25.6466     93.6989
  1520.9000      7.9739      2.6161     -0.0751      2.0574     26.1417     98.5547
  1521.0000      7.9902      2.6097     -0.0945      2.4421     26.7078    102.1345
  1521.1000      7.9902      2.6069     -0.0419      2.6112     27.2956    105.1928
  1521.2000      7.9902      2.5835     -0.0176      4.0281     27.7132    109.7596
  1521.3000      7.9999      2.5413     -0.0638      6.5866     27.9194    115.1248
  1521.4000      7.9999      2.5115     -0.0322      8.3951     27.9075    119.2841
  1521.5000      8.0040      2.5131     -0.0347      8.2992     27.7591    124.6962
  1521.6000      8.0040      2.5332      0.0508      7.0790     27.8828    134.7512
  1521.7000      8.0040      2.5477      0.0579      6.1992     28.1541    142.8180
  1521.8000      8.0035      2.5554      0.0556      5.7358     28.0091    142.1285
  1521.9000      8.0035      2.5704      0.0299      4.8263     27.7825    139.5211
  1522.0000      8.0029      2.5917      0.0888      3.5353     28.0007    137.2984
  1522.1000      8.0029      2.6086      0.0665      2.5099     28.2537    130.1133
  1522.2000      8.0029      2.6184      0.0724      1.9171     28.1233    125.5059
  1522.3000      8.0026      2.6177      0.0823      1.9571     27.7289    133.8333
  1522.4000      8.0026      2.6053      0.0740      2.7068     27.1930    148.5325
  1522.5000      8.0026      2.5942      0.0382      3.3811     26.3074    156.6659
  1522.6000      8.0026      2.5926      0.0819      3.4794     25.1562    153.4766
  1522.7000      8.0026      2.5927      0.0352      3.4732     24.6221    142.4870
  1522.8000      8.0043      2.5912      0.0481      3.5652     25.0289    131.7350
  1522.9000      8.0043      2.5863      0.0512      3.8621     25.4048    127.3038
  1523.0000      8.0042      2.5790      0.0110      4.3051     25.2126    126.5448
  1523.1000      8.0042      2.5796      0.0175      4.2696     25.0030    122.8177
  1523.2000      8.0042      2.5823      0.0711      4.1029     25.1047    116.5667
  1523.3000      8.0027      2.5748      0.0311      4.5559     25.1815    111.0798
  1523.4000      8.0027      2.5719     -0.0133      4.7356     25.2310    108.0906
  1523.5000      8.0040      2.5846      0.0497      3.9640     25.6173    110.8933
  1523.6000      8.0040      2.5906      0.0549      3.5989     26.2378    117.2993
  1523.7000      8.0040      2.5745      0.0330      4.5751     26.7381    120.7894
  1523.8000      8.0070      2.5495      0.0084      6.0882     26.9988    121.2217
  1523.9000      8.0070      2.5284      0.0028      7.3717     26.8089    121.5991
  1524.0000      8.0078      2.5031      0.0164      8.9054     26.3584    125.7439
  1524.1000      8.0078      2.4728     -0.0404     10.7420     26.1502    134.0334
