~Version Information
VERS.                      2.0: CWLS Log ASCII Standard - VERSION 2.0
WRAP.                       NO: One line per depth step
~Well Information Block
STRT.FT                 0.0000: 
STOP.FT              1507.7500: 
STEP.FT                 0.2500: 
NULL.                -999.2500: 
COMP.          Pioneer Natural Resources: COMPANY
WELL.          Pioneer 34-27 Tr: WELL
FLD.           Purgatorie River: FIELD
LOC.           243' FSL & 1593' FEL: LOCATION
STAT.                 Colorado: State
CNTY.               Las Animas: COUNTY
CTRY. USA : Country
SECT. 27 : Section
TOWN. 32S : Township
RANG. 67W : Range
SRVC.                Patterson: SERVICE COMPANY
DATE.          Wed Oct 12 09:30:25 2005: LOG DATE
API.                          : UNIQUE WELL ID
~Curve Information Block
DEPT.FT            0 000 00 00: Depth
GR.GAPI                       : Gamma Ray
CCL.                          : Casing Collar Locator
TT3.usec                      : CBL 3' Travel Time
AMP3.mV                       : CBL 3' Amplitude
~Parameter Information Block
~A  Depth        GR         CCL         TT3         AMP3    
# ...
  1172.5000     86.1865      0.0000    739.5721     10.7146
  1172.7500     86.4130      0.0000    715.4495     10.6958
  1173.0000     84.1684      0.0000    657.6426     11.3578
  1173.2500     80.0196      0.0000    573.5125     12.0230
  1173.5000     75.4086      0.0000    486.8799     12.4128
  1173.7500     71.8207      0.0000    424.8418     12.9431
  1174.0000     70.0353      0.0000    394.8948     13.7105
  1174.2500     70.1410      0.0000    385.2112     14.3499
  1174.5000     71.8588      0.0000    383.0370     14.6353
  1174.7500     74.5767      0.0000    382.8018     14.6268
  1175.0000     77.4396      0.0000    383.0989     14.4703
  1175.2500     79.6967      0.0000    383.6536     14.2555
  1175.5000     80.7862      0.0000    384.6767     14.0107
  1175.7500     80.1645      0.0000    387.8228     13.7613
  1176.0000     77.4666      0.0000    399.4275     13.5353
  1176.2500     73.0252      0.0000    432.5558     13.3262
  1176.5000     68.1167      0.0000    495.9392     13.0883
  1176.7500     64.4453      0.0000    574.6082     12.7931
  1177.0000     63.0845      0.0000    637.4570     12.4856
  1177.2500     63.6712      0.0000    669.7104     12.2356
  1177.5000     64.6023      0.0000    680.3371     12.0615
  1177.7500     64.3440      0.0000    682.5427     11.9369
  1178.0000     62.8676      0.0000    682.7053     11.8273
  1178.2500     61.6838      0.0000    682.5100     11.7073
  1178.5000     62.2550      0.0000    682.3145     11.5742
  1178.7500     64.4863      0.0000    682.2368     11.4535
  1179.0000     66.8714      0.0000    682.2955     11.3788
  1179.2500     67.9257      0.0000    682.4015     11.3589
  1179.5000     67.3322      0.0000    682.1046     11.3742
  1179.7500     65.8421      0.0000    679.3719     11.4085
  1180.0000     64.4023      0.0000    667.9193     11.4620
  1180.2500     63.6024      0.0000    637.0463     11.5352
  1180.5000     63.7656      0.0000    581.8555     11.6262
  1180.7500     65.0708      0.0000    515.9035     11.7503
  1181.0000     67.3527      0.0000    461.4618     11.9268
  1181.2500     69.9842      0.0000    426.6577     12.1478
  1181.5000     72.1704      0.0000    405.2983     12.3882
  1181.7500     73.4632      0.0000    391.0935     12.6244
  1182.0000     74.0386      0.0000    380.3257     12.8384
  1182.2500     74.4091      0.0000    369.6769     13.0279
  1182.5000     74.7007      0.0000    358.6990     13.2055
  1182.7500     74.2175      0.0000    350.0669     13.3692
  1183.0000     72.0215      0.0000    345.4777     13.4864
  1183.2500     68.2100      0.0000    344.1333     13.5262
  1183.5000     64.4178      0.0000    345.1035     13.4841
  1183.7500     62.5848      0.0000    349.0493     13.3303
  1184.0000     63.1084      0.0000    356.9736     12.9556
  1184.2500     64.4152      0.0000    368.3035     12.2391
  1184.5000     64.5173      0.0000    383.8210     11.1847
  1184.7500     62.9238      0.0000    410.3856     10.0327
  1185.0000     60.8562      0.0000    452.7953      9.2905
  1185.2500     59.6649      0.0000    496.7891      9.2431
  1185.5000     59.4388      0.0000    514.3712      9.4064
  1185.7500     59.2962      0.0000    493.3156      9.2889
  1186.0000     58.5770      0.0000    450.8030      9.2158
  1186.2500     57.3928      0.0000    414.2173      9.5894
  1186.5000     56.2323      0.0000    395.8503     10.2287
  1186.7500     55.4226      0.0000    392.0270     10.7866
  1187.0000     54.9794      0.0000    400.8015     11.1190
  1187.2500     54.6821      0.0000    432.0162     11.2767
  1187.5000     54.1594      0.0000    495.8938     11.6226
  1187.7500     53.0540      0.0000    581.7789     12.8628
  1188.0000     51.2867      0.0000    660.2551     15.1728
  1188.2500     49.1724      0.0000    708.8213     17.3134
  1188.5000     47.2296      0.0000    725.5732     17.9793
  1188.7500     45.8537      0.0000    723.6797     17.6318
  1189.0000     45.2063      0.0000    716.6923     17.4634
  1189.2500     45.4090      0.0000    707.4373     17.7067
  1189.5000     46.7313      0.0000    692.4946     17.9614
  1189.7500     49.4440      0.0000    670.5922     18.0136
  1190.0000     53.5047      0.0000    648.0385     17.8828
  1190.2500     58.5107      0.0000    639.8459     17.6430
  1190.5000     63.8723      0.0000    652.2253     17.3660
  1190.7500     68.8259      0.0000    670.5964     17.0934
  1191.0000     72.4112      0.0000    679.8625     16.8262
  1191.2500     73.8843      0.0000    679.1456     16.5499
  1191.5000     73.5100      0.0000    673.5153     16.2735
  1191.7500     72.7892      0.0000    667.9632     16.0451
  1192.0000     73.4214      0.0000    665.2327     15.9071
  1192.2500     75.9143      0.0000    658.7848     15.8400
  1192.5000     79.4208      0.0000    630.9167     15.7871
  1192.7500     82.8938      0.0000    569.1664     15.7160
  1193.0000     85.9890      0.0000    489.4863     15.6284
  1193.2500     88.6318      0.0000    429.0102     15.5343
  1193.5000     90.1999      0.0000    410.1543     15.4344
  1193.7500     90.0540      0.0000    427.8258     15.3204
  1194.0000     88.9719      0.0000    465.1748     15.1893
  1194.2500     89.0353      0.0000    501.2859     15.0491
  1194.5000     91.4072      0.0000    513.9919     14.9119
  1194.7500     94.7460      0.0000    499.8399     14.7782
  1195.0000     96.5245      0.0000    483.0260     14.6351
  1195.2500     95.7566      0.0000    483.2599     14.4875
  1195.5000     93.9579      0.0000    488.2860     14.3592
  1195.7500     93.4786      0.0000    473.8945     14.2583
  1196.0000     95.3514      0.0000    439.2392     14.1838
  1196.2500     98.8992      0.0000    405.5931     14.1455
  1196.5000    102.9317      0.0000    387.2519     14.1459
  1196.7500    106.8031      0.0000    381.7025     14.1632
  1197.0000    110.6049      0.0000    382.0098     14.1667
  1197.2500    114.9752      0.0000    385.5257     14.1364
  1197.5000    120.5683      0.0000    393.7952     14.0641
  1197.7500    127.0999      0.0000    409.7888     13.9620
  1198.0000    133.0532      0.0000    434.9530     13.8555
  1198.2500    136.8514      0.0000    467.0651     13.7239
  1198.5000    138.1300      0.0000    501.7504     13.4544
  1198.7500    137.4072      0.0000    540.6805     12.8935
  1199.0000    134.8522      0.0000    591.7435     11.9909
  1199.2500    129.9767      0.0000    649.3047     10.8818
  1199.5000    122.4635      0.0000    689.6190      9.7694
  1199.7500    112.8544      0.0000    699.6413      8.7773
  1200.0000    102.2749      0.0000    692.8535      7.9709
  1200.2500     91.6988      0.0000    689.2518      7.4209
  1200.5000     81.7561      0.0000    693.2572      7.1372
  1200.7500     73.2244      0.0000    696.5435      6.9982
  1201.0000     67.3306      0.0000    695.5137      6.8421
  1201.2500     65.1278      0.0000    694.5938      6.5800
  1201.5000     66.4939      0.0000    692.4929      6.2062
  1201.7500     69.9789      0.0000    681.1201      5.7972
  1202.0000     73.7199      0.0000    659.9977      5.5281
  1202.2500     76.3795      0.0000    639.8230      5.6400
  1202.5000     77.2823      0.0000    631.4147      6.3325
  1202.7500     76.1190      0.0000    632.8361      7.6203
  1203.0000     73.0339      0.0000    624.7964      9.2776
  1203.2500     69.0492      0.0000    587.6709     10.9807
  1203.5000     66.1421      0.0000    532.8526     12.4743
  1203.7500     66.6251      0.0000    504.3793     13.5931
  1204.0000     71.9817      0.0000    531.6553     14.2718
  1204.2500     81.7747      0.0000    588.4001     14.5840
  1204.5000     93.6002      0.0000    624.0626     14.7803
  1204.7500    104.4788      0.0000    624.7101     15.3264
  1205.0000    112.7216      0.0000    603.2842     16.6027
  1205.2500    118.6486      0.0000    562.7177     18.2925
  1205.5000    123.3516      0.0000    518.8783     19.4820
  1205.7500    126.7579      0.0000    513.0699     19.6332
