~Version Information
VERS.                      2.0: CWLS Log ASCII Standard - VERSION 2.0
WRAP.                       NO: One line per depth step
~Well Information Block
STRT.FT                -1.5000: 
STOP.FT              2898.5000: 
STEP.FT                 0.2500: 
NULL.                -999.2500: 
COMP.          Pioneer Natural Resources: COMPANY
WELL.          Hanginstone 21-27: WELL
FLD.           Purgatoire River: FIELD
LOC.           1186' FNL & 1606' FWL--: LOCATION
PROV.                 Colorado: PROVINCE
CNTY.               Las Animas: COUNTRY
SRVC.                Patterson: SERVICE COMPANY
DATE.          Mon Jan 23 11:03:53 2006: LOG DATE
UWI.           05 071 08632 00: UNIQUE WELL ID
~Curve Information Block
DEPT.FT            0 000 00 00: Depth
CCL.                          : Casing Collar Locator
TT3.usec                      : CBL 3' Travel Time
AMP3.mV                       : CBL 3' Amplitude
GR.GAPI                       : Gamma Ray
~Parameter Information Block
~A  Depth       CCL         TT3         AMP3         GR     
# ...
  2678.5000      0.0000    647.2200      3.6556     61.8646
  2678.7500      0.0000    643.1875      3.4413     57.6421
  2679.0000      0.0000    642.8612      3.1996     54.2977
  2679.2500      0.0000    648.1603      2.9906     51.2707
  2679.5000      0.0000    656.5290      2.8733     48.4356
  2679.7500      0.0000    664.0787      2.8824     46.1438
  2680.0000      0.0000    668.7050      3.0090     44.6023
  2680.2500      0.0000    670.2966      3.1977     43.7214
  2680.5000      0.0000    669.0338      3.3671     43.5834
  2680.7500      0.0000    663.8911      3.4511     44.4370
  2681.0000      0.0000    653.0220      3.4409     46.0127
  2681.2500      0.0000    636.6240      3.3950     47.4062
  2681.5000      0.0000    619.8868      3.3958     47.8578
  2681.7500      0.0000    611.0909      3.4810     47.2976
  2682.0000      0.0000    614.5231      3.6080     46.1822
  2682.2500      0.0000    626.2205      3.6913     45.2180
  2682.5000      0.0000    638.0283      3.6779     45.1301
  2682.7500      0.0000    644.1253      3.5910     46.1723
  2683.0000      0.0000    642.0805      3.5065     47.7590
  2683.2500      0.0000    630.0760      3.4903     48.8799
  2683.5000      0.0000    607.5456      3.5506     49.0655
  2683.7500      0.0000    580.0232      3.6334     48.8252
  2684.0000      0.0000    560.0192      3.6606     48.9582
  2684.2500      0.0000    557.8764      3.5831     49.5761
  2684.5000      0.0000    571.2277      3.4184     50.0542
  2684.7500      0.0000    587.5604      3.2391     49.8940
  2685.0000      0.0000    598.1164      3.1188     49.2969
  2685.2500      0.0000    604.9694      3.0852     48.7363
  2685.5000      0.0000    613.5760      3.1248     48.2204
  2685.7500      0.0000    623.6068      3.2183     47.4321
  2686.0000      0.0000    629.8475      3.3551     46.7076
  2686.2500      0.0000    628.1537      3.5192     47.2981
  2686.5000      0.0000    617.7322      3.6834     50.0196
  2686.7500      0.0000    600.8516      3.8173     53.8456
  2687.0000      0.0000    583.3013      3.8886     56.5471
  2687.2500      0.0000    572.4477      3.8564     56.9070
  2687.5000      0.0000    570.3981      3.6905     55.8927
  2687.7500      0.0000    569.1119      3.4128     55.4633
  2688.0000      0.0000    555.6935      3.1098     56.5130
  2688.2500      0.0000    524.0554      2.8835     58.1297
  2688.5000      0.0000    480.7653      2.7836     58.5774
  2688.7500      0.0000    439.2789      2.7850     56.7402
  2689.0000      0.0000    409.4080      2.8238     52.7424
  2689.2500      0.0000    392.3110      2.8554     47.6824
  2689.5000      0.0000    383.5858      2.8811     43.0087
  2689.7500      0.0000    379.2278      2.9259     39.7760
  2690.0000      0.0000    379.4842      2.9933     38.1143
  2690.2500      0.0000    388.5359      3.0500     37.4535
  2690.5000      0.0000    410.3282      3.0599     37.3285
  2690.7500      0.0000    444.0067      3.0303     37.8936
  2691.0000      0.0000    484.2466      3.0126     39.6778
  2691.2500      0.0000    526.1245      3.0483     42.8806
  2691.5000      0.0000    567.3671      3.1210     46.9239
  2691.7500      0.0000    605.5134      3.1745     50.9406
  2692.0000      0.0000    636.3271      3.1812     54.9038
  2692.2500      0.0000    656.9480      3.1828     59.9234
  2692.5000      0.0000    668.5923      3.2471     67.0217
  2692.7500      0.0000    674.5409      3.3861     75.7655
  2693.0000      0.0000    676.5885      3.5293     84.4049
  2693.2500      0.0000    674.6231      3.5926     91.2569
  2693.5000      0.0000    669.1213      3.5648     95.8447
  2693.7500      0.0000    662.9449      3.5118     98.9402
  2694.0000      0.0000    660.2908      3.4924    101.7345
  2694.2500      0.0000    663.7591      3.4869    104.7745
  2694.5000      0.0000    672.5424      3.4181    107.4804
  2694.7500      0.0000    683.2676      3.2404    108.6286
  2695.0000      0.0000    692.3320      2.9983    107.3396
  2695.2500      0.0000    697.8328      2.7908    103.8320
  2695.5000      0.0000    700.2173      2.6845     99.4172
  2695.7500      0.0000    701.3812      2.6641     95.6709
  2696.0000      0.0000    702.5173      2.6631     93.4832
  2696.2500      0.0000    702.6147      2.6323     92.7733
  2696.5000      0.0000    699.6305      2.5732     92.9188
  2696.7500      0.0000    692.9984      2.5123     93.3310
  2697.0000      0.0000    684.0652      2.4643     93.6393
  2697.2500      0.0000    674.3173      2.4311     93.4705
  2697.5000      0.0000    664.4123      2.4167     92.4501
  2697.7500      0.0000    654.9882      2.4200     90.5966
  2698.0000      0.0000    647.4418      2.4234     88.3549
  2698.2500      0.0000    643.5942      2.4083     85.8641
  2698.5000      0.0000    644.8860      2.3793     82.6639
  2698.7500      0.0000    651.6380      2.3568     78.6351
  2699.0000      0.0000    662.4202      2.3538     74.7172
  2699.2500      0.0000    674.0231      2.3714     72.0562
  2699.5000      0.0000    682.6346      2.4059     70.8895
  2699.7500      0.0000    685.8879      2.4407     70.8140
  2700.0000      0.0000    684.2028      2.4417     71.6945
  2700.2500      0.0000    680.0261      2.3825     73.6187
  2700.5000      0.0000    675.6786      2.2753     76.1667
  2700.7500      0.0000    671.9443      2.1645     78.3392
  2701.0000      0.0000    668.4258      2.0917     79.2653
  2701.2500      0.0000    664.7890      2.0777     78.8241
  2701.5000      0.0000    661.5244      2.1289     77.6860
  2701.7500      0.0000    659.5269      2.2369     76.9228
  2702.0000      0.0000    658.9262      2.3659     77.5747
  2702.2500      0.0000    658.5546      2.4663     80.2119
  2702.5000      0.0000    656.8466      2.5142     84.4633
  2702.7500      0.0000    653.1359      2.5268     88.8740
  2703.0000      0.0000    647.8943      2.5330     91.6319
  2703.2500      0.0000    642.0347      2.5386     91.9623
  2703.5000      0.0000    636.4116      2.5277     90.9673
  2703.7500      0.0000    631.7804      2.4922     90.7780
  2704.0000      0.0000    628.6382      2.4454     92.5147
  2704.2500      0.0000    626.9431      2.4060     95.1182
  2704.5000      0.0000    626.2292      2.3846     96.3879
  2704.7500      0.0000    626.0693      2.3832     94.9414
  2705.0000      0.0000    626.4536      2.3943     90.8896
  2705.2500      0.0000    627.9384      2.4014     85.1124
  2705.5000      0.0000    631.6540      2.3989     78.7385
  2705.7500      0.0000    638.8753      2.4063     73.1715
  2706.0000      0.0000    649.7764      2.4468     69.4906
  2706.2500      0.0000    662.2886      2.5153     67.4676
  2706.5000      0.0000    672.9265      2.5794     66.0080
  2706.7500     -2.0000    679.4202      2.6103     64.5990
  2707.0000      2.0000    682.2274      2.6010     63.5844
  2707.2500      2.0000    683.3093      2.5600     63.3405
  2707.5000      0.0000    683.9884      2.5041     64.1790
  2707.7500      0.0000    684.0604      2.4548     66.6369
  2708.0000      0.0000    682.5811      2.4259     70.6115
  2708.2500      0.0000    679.7845      2.4062     74.2956
  2708.5000      0.0000    678.1843      2.3665     75.1605
  2708.7500      0.0000    681.0305      2.2902     72.4422
  2709.0000      0.0000    689.3080      2.1916     68.0595
  2709.2500      0.0000    700.2753      2.0986     64.5814
  2709.5000      0.0000    708.6591      2.0261     62.6660
  2709.7500      0.0000    709.5425      1.9713     61.0294
  2710.0000      0.0000    701.5848      1.9282     58.4491
  2710.2500      0.0000    688.3877      1.8950     54.8695
  2710.5000      0.0000    676.2394      1.8713     50.7494
  2710.7500      0.0000    669.9826      1.8616     46.2241
  2711.0000      0.0000    670.5522      1.8766     41.3504
  2711.2500      0.0000    675.2280      1.9194     36.9206
  2711.5000      0.0000    679.6065      1.9764     34.5007
  2711.7500      0.0000    680.3506      2.0310     35.3187
