~Version Information
VERS.                      2.0: CWLS Log ASCII Standard - VERSION 2.0
WRAP.                       NO: One line per depth step
~Well Information Block
STRT.FT               655.0000: 
STOP.FT              2623.7000: 
STEP.FT                 0.1000: 
NULL.                -999.2500: 
COMP.          Pioneer Natural Resources: COMPANY
WELL.             Aviator 12-4: WELL
FLD.           Purgatoire River: FIELD
LOC.           1969' FNL & 732' FWL--: LOCATION
CNTY.               Las Animas: COUNTY
SRVC.                Patterson: SERVICE COMPANY
DATE.          Mon Apr 10 07:35:20 2006: LOG DATE
UWI.           05 071 08714 00: UNIQUE WELL ID
STAT.                 Colorado: STATE
~Curve Information Block
DEPT.FT            0 000 00 00: Depth
DCAL.in                       : CDL Caliper
RHOB.g/cc                     : CDL Bulk Density
RHOC.g/cc                     : CDL Density Correction
DPOR.pu                       : CDL Density Porosity
NPOR.pu                       : Neutron Porosity
GR.GAPI                       : Gamma Ray
~Parameter Information Block
~A  Depth       DCAL        RHOB        RHOC        DPOR        NPOR         GR     
# ...
  1432.6000      8.0215      2.5699      0.0534      4.8535     26.4250    103.1543
  1432.7000      8.0215      2.5700      0.0280      4.8514     26.6149    103.0961
  1432.8000      8.0208      2.5868     -0.0031      3.8276     26.3623    103.2206
  1432.9000      8.0208      2.6096      0.0975      2.4473     26.0772    104.1867
  1433.0000      8.0253      2.6072      0.0759      2.5943     26.1524    109.0569
  1433.1000      8.0253      2.5772      0.0436      4.4093     26.4992    115.3200
  1433.2000      8.0253      2.5534      0.0004      5.8575     26.6592    119.4569
  1433.3000      8.0371      2.5532      0.0623      5.8660     26.6171    120.1508
  1433.4000      8.0371      2.5609      0.0430      5.3992     26.5763    118.4539
  1433.5000      8.0469      2.5559      0.0778      5.7046     26.6790    118.7514
  1433.6000      8.0469      2.5317      0.0112      7.1707     26.9779    119.7605
  1433.7000      8.0469      2.5026      0.0203      8.9319     27.1122    114.6685
  1433.8000      8.0518      2.4898      0.0119      9.7067     27.0651    107.2684
  1433.9000      8.0518      2.5015      0.0423      9.0005     27.2723    107.6841
  1434.0000      8.0571      2.5251      0.0635      7.5690     27.6095    112.6678
  1434.1000      8.0571      2.5465      0.0741      6.2734     27.8031    113.1043
  1434.2000      8.0571      2.5681      0.0823      4.9624     27.7857    111.4586
  1434.3000      8.0652      2.5953      0.0933      3.3145     27.4838    116.0735
  1434.4000      8.0652      2.6162      0.1316      2.0471     27.1928    126.5937
  1434.5000      8.0698      2.6069      0.1528      2.6119     27.0838    133.4147
  1434.6000      8.0698      2.5687      0.0439      4.9289     27.0136    131.2733
  1434.7000      8.0698      2.5336      0.0455      7.0539     27.1075    126.0475
  1434.8000      8.0668      2.5186      0.0499      7.9624     27.2653    122.7901
  1434.9000      8.0668      2.5175      0.0517      8.0280     27.2349    120.8170
  1435.0000      8.0584      2.5186      0.0892      7.9637     27.1944    119.9047
  1435.1000      8.0584      2.5109      0.0280      8.4326     27.1967    121.3248
  1435.2000      8.0584      2.4959      0.0429      9.3392     27.0397    124.8686
  1435.3000      8.0516      2.4903      0.0194      9.6762     26.6791    128.3922
  1435.4000      8.0516      2.5039      0.0402      8.8521     26.3307    128.8584
  1435.5000      8.0460      2.5204      0.0737      7.8544     26.3730    125.5745
  1435.6000      8.0460      2.5259      0.0390      7.5194     26.7536    119.9185
  1435.7000      8.0460      2.5305      0.0444      7.2398     27.1894    113.6137
  1435.8000      8.0428      2.5415      0.0267      6.5767     27.3698    111.6172
  1435.9000      8.0428      2.5526      0.0886      5.9026     26.9816    118.6345
  1436.0000      8.0420      2.5567      0.0796      5.6543     26.3235    129.2998
  1436.1000      8.0420      2.5584      0.0689      5.5541     25.9632    134.6412
  1436.2000      8.0420      2.5749      0.0169      4.5506     25.9095    131.5864
  1436.3000      8.0366      2.6004      0.0955      3.0057     25.8860    124.8570
  1436.4000      8.0366      2.5992      0.0865      3.0785     25.7855    121.6910
  1436.5000      8.0275      2.5720      0.0106      4.7262     25.5973    119.4020
  1436.6000      8.0275      2.5590      0.0178      5.5143     25.2235    113.3844
  1436.7000      8.0275      2.5700      0.0530      4.8470     24.7292    106.6952
  1436.8000      8.0219      2.5779      0.0630      4.3667     24.3141    102.4938
  1436.9000      8.0219      2.5744     -0.0037      4.5835     23.8945     98.2838
  1437.0000      8.0199      2.5729      0.0124      4.6715     23.4384     89.9761
  1437.1000      8.0199      2.5749      0.0275      4.5496     23.0310     80.4281
  1437.2000      8.0199      2.5761      0.0003      4.4763     22.7358     78.4562
  1437.3000      8.0203      2.5758      0.0307      4.4980     22.6095     82.4299
  1437.4000      8.0203      2.5739      0.0726      4.6127     22.5805     83.1996
  1437.5000      8.0203      2.5815      0.0348      4.1525     22.1019     81.4428
  1437.6000      8.0203      2.6092      0.0567      2.4745     20.8918     78.3705
  1437.7000      8.0203      2.6392      0.1075      0.6529     19.4128     70.4360
  1437.8000      8.0192      2.6494      0.0734      0.0380     18.0751     61.1538
  1437.9000      8.0192      2.6487      0.0574      0.0773     17.4270     57.5564
  1438.0000      8.0202      2.6577      0.0406     -0.4688     17.7321     60.2741
  1438.1000      8.0202      2.6794      0.0601     -1.7814     18.2165     63.1564
  1438.2000      8.0202      2.6983      0.0963     -2.9259     18.3639     61.7416
  1438.3000      8.0209      2.6960      0.0904     -2.7899     18.3797     57.2517
  1438.4000      8.0209      2.6681      0.0445     -1.0999     18.3577     52.7692
  1438.5000      8.0169      2.6313      0.0324      1.1360     18.4513     51.7578
  1438.6000      8.0169      2.6066      0.0159      2.6323     18.7838     56.1796
  1438.7000      8.0169      2.5986      0.0568      3.1146     19.0766     62.8044
  1438.8000      8.0094      2.6022      0.0164      2.8955     19.1356     67.4879
  1438.9000      8.0094      2.6181      0.0436      1.9364     19.1975     70.1656
  1439.0000      8.0037      2.6345      0.0868      0.9390     19.7504     72.3265
  1439.1000      8.0037      2.6310      0.0794      1.1517     20.8899     73.3728
  1439.2000      8.0037      2.6037      0.0762      2.8089     21.6679     73.2737
  1439.3000      8.0050      2.5682      0.0152      4.9586     21.7140     74.1708
  1439.4000      8.0050      2.5511      0.0353      5.9911     22.1499     79.4784
  1439.5000      8.0121      2.5611      0.0515      5.3886     23.4650     88.1279
  1439.6000      8.0121      2.5749      0.0936      4.5510     24.6701     93.3933
  1439.7000      8.0121      2.5728      0.0596      4.6806     24.8146     94.3522
  1439.8000      8.0204      2.5634      0.0264      5.2505     24.2475     93.0089
  1439.9000      8.0204      2.5517      0.1154      5.9569     23.6809     90.5436
  1440.0000      8.0280      2.5361     -0.0102      6.9012     23.3897     89.4191
  1440.1000      8.0280      2.5337      0.0537      7.0486     23.0612     88.0860
  1440.2000      8.0280      2.5457      0.0625      6.3217     22.5076     85.6354
  1440.3000      8.0351      2.5583      0.0417      5.5571     22.2224     84.4823
  1440.4000      8.0351      2.5698      0.0698      4.8591     22.5174     82.6665
  1440.5000      8.0332      2.5814      0.0292      4.1568     23.0938     77.0183
  1440.6000      8.0332      2.5863      0.0768      3.8629     22.9791     72.4938
  1440.7000      8.0332      2.5831      0.0102      4.0551     21.6581     77.1727
  1440.8000      8.0237      2.5841      0.0598      3.9915     20.2377     87.6328
  1440.9000      8.0237      2.5900      0.0716      3.6342     20.0622     93.3397
  1441.0000      8.0147      2.5912      0.0386      3.5615     20.9874     91.5757
  1441.1000      8.0147      2.5821      0.0667      4.1134     21.7382     87.8862
  1441.2000      8.0147      2.5666      0.0448      5.0540     21.7554     85.9617
  1441.3000      8.0096      2.5682      0.0088      4.9564     21.3215     86.1132
  1441.4000      8.0096      2.6088      0.0875      2.4962     20.8376     86.9883
  1441.5000      8.0137      2.6857      0.1048     -2.1660     20.9085     85.8019
  1441.6000      8.0137      2.7880      0.0773     -8.3614     21.4468     83.4017
  1441.7000      8.0137      2.8882      0.2242    -14.4336     21.7673     81.5755
  1441.8000      8.0283      2.9504      0.1796    -18.2048     21.9026     77.4056
  1441.9000      8.0283      2.9747      0.1860    -19.6785     22.2616     69.7432
  1442.0000      8.0481      2.9787      0.2143    -19.9225     22.7499     62.7529
  1442.1000      8.0481      2.9749      0.1785    -19.6913     22.7754     60.6545
