~Version Information
VERS.                      2.0: CWLS Log ASCII Standard - VERSION 2.0
WRAP.                       NO: One line per depth step
~Well Information Block
STRT.FT               239.2000: 
STOP.FT              1618.0000: 
STEP.FT                 0.1000: 
NULL.                -999.2500: 
COMP.          Pioneer Natural Resources: COMPANY
WELL.          Daytona 31-14 Tr: WELL
FLD.           Purgatoire River: FIELD
LOC.           683' FNL & 1943' FEL: LOCATION
CNTY.               Las Animas: COUNTY
SRVC.                         : SERVICE COMPANY
DATE.          Fri Jan 27 14:32:28 2006: LOG DATE
UWI.           05 071 08681 00: UNIQUE WELL ID
STAT.                 Colorado: STATE
~Curve Information Block
DEPT.FT            0 000 00 00: Depth
DCAL.in                       : CDL Caliper
RHOB.g/cc                     : CDL Bulk Density
RHOC.g/cc                     : CDL Density Correction
DPOR.pu                       : CDL Density Porosity
GR.GAPI                       : Gamma Ray
~Parameter Information Block
~A  Depth       DCAL        RHOB        RHOC        DPOR         GR     
# ...
  1516.0000      7.9551      2.6501      0.1966     -0.0061    148.0776
  1516.1000      7.9551      2.6605      0.2509     -0.6387    147.2137
  1516.2000      7.9551      2.6566      0.1884     -0.3980    145.1336
  1516.3000      7.9533      2.6467      0.1926      0.2010    143.8669
  1516.4000      7.9533      2.6360      0.1894      0.8494    146.1530
  1516.5000      7.9500      2.6240      0.1370      1.5749    149.4230
  1516.6000      7.9500      2.6120      0.1040      2.3003    152.0685
  1516.7000      7.9500      2.5970      0.0904      3.2137    155.2315
  1516.8000      7.9540      2.5773      0.0282      4.4032    157.7643
  1516.9000      7.9540      2.5614      0.0276      5.3672    161.1137
  1517.0000      7.9557      2.5495      0.0825      6.0898    167.3871
  1517.1000      7.9557      2.5344      0.0772      7.0040    174.5767
  1517.2000      7.9557      2.5228      0.0440      7.7070    176.8558
  1517.3000      7.9529      2.5234      0.0565      7.6716    171.3589
  1517.4000      7.9529      2.5302      0.0871      7.2602    166.4845
  1517.5000      7.9554      2.5371      0.0955      6.8440    168.6014
  1517.6000      7.9554      2.5494      0.0715      6.0971    172.8163
  1517.7000      7.9554      2.5680      0.1196      4.9698    175.5158
  1517.8000      7.9548      2.5750      0.2021      4.5438    178.1888
  1517.9000      7.9548      2.5614      0.1496      5.3675    180.1350
  1518.0000      7.9586      2.5463      0.1370      6.2837    182.7686
  1518.1000      7.9586      2.5437      0.0922      6.4416    187.3352
  1518.2000      7.9586      2.5461      0.1203      6.2946    190.7570
  1518.3000      7.9562      2.5455      0.1361      6.3355    188.9550
  1518.4000      7.9562      2.5481      0.1043      6.1771    179.4743
  1518.5000      7.9523      2.5596      0.1074      5.4794    168.2066
  1518.6000      7.9523      2.5722      0.1087      4.7142    163.8596
  1518.7000      7.9523      2.5810      0.1025      4.1838    166.4585
  1518.8000      7.9553      2.5902      0.1203      3.6259    168.7834
  1518.9000      7.9553      2.6043      0.1391      2.7711    168.8401
  1519.0000      7.9562      2.6180      0.1771      1.9375    170.8715
  1519.1000      7.9562      2.6209      0.1545      1.7660    175.2199
  1519.2000      7.9562      2.6147      0.1267      2.1402    177.7796
  1519.3000      7.9544      2.6062      0.1171      2.6515    174.9494
  1519.4000      7.9544      2.5960      0.1437      3.2737    171.7136
  1519.5000      7.9614      2.5907      0.0772      3.5953    174.0286
  1519.6000      7.9614      2.5947      0.1307      3.3528    177.0609
  1519.7000      7.9614      2.5913      0.1067      3.5556    177.0680
  1519.8000      7.9561      2.5721      0.0673      4.7221    177.6720
  1519.9000      7.9561      2.5526      0.0395      5.9011    179.7810
  1520.0000      7.9585      2.5483      0.0460      6.1610    178.6842
  1520.1000      7.9585      2.5538      0.0759      5.8329    175.8049
  1520.2000      7.9585      2.5593      0.0654      5.4995    175.7288
  1520.3000      7.9600      2.5745      0.0984      4.5759    175.9798
  1520.4000      7.9600      2.6108      0.1150      2.3767    172.7426
  1520.5000      7.9572      2.6549      0.1968     -0.2989    170.7583
  1520.6000      7.9572      2.6780      0.2125     -1.6971    174.5083
  1520.7000      7.9572      2.6659      0.2051     -0.9613    176.9975
  1520.8000      7.9611      2.6294      0.1511      1.2506    174.8373
  1520.9000      7.9611      2.5919      0.1044      3.5233    172.6639
  1521.0000      7.9585      2.5655      0.0943      5.1237    170.9629
  1521.1000      7.9585      2.5434      0.0666      6.4631    166.9182
  1521.2000      7.9585      2.5224      0.0447      7.7329    161.8923
  1521.3000      7.9587      2.5097      0.0606      8.5046    158.3319
  1521.4000      7.9587      2.5125      0.0297      8.3342    157.3507
  1521.5000      7.9590      2.5299      0.0463      7.2774    162.1486
  1521.6000      7.9590      2.5487      0.0629      6.1387    171.6038
  1521.7000      7.9590      2.5573      0.0775      5.6208    177.1475
  1521.8000      7.9587      2.5538      0.1081      5.8313    177.7373
  1521.9000      7.9587      2.5420      0.1057      6.5460    182.0309
  1522.0000      7.9605      2.5324      0.0727      7.1290    190.1125
  1522.1000      7.9605      2.5328      0.0871      7.1036    194.3097
  1522.2000      7.9605      2.5400      0.0876      6.6643    195.3860
  1522.3000      7.9587      2.5461      0.1274      6.2964    194.7284
  1522.4000      7.9587      2.5434      0.1384      6.4624    189.0351
  1522.5000      7.9565      2.5305      0.1112      7.2404    181.3601
  1522.6000      7.9565      2.5156      0.0543      8.1469    174.3356
  1522.7000      7.9565      2.5128      0.0554      8.3134    168.8957
  1522.8000      7.9578      2.5269      0.0586      7.4604    168.9496
  1522.9000      7.9578      2.5445      0.0809      6.3942    175.4555
  1523.0000      7.9582      2.5507      0.0809      6.0211    185.4498
  1523.1000      7.9582      2.5459      0.0760      6.3111    193.1873
  1523.2000      7.9582      2.5403      0.0712      6.6463    193.4624
  1523.3000      7.9560      2.5343      0.0864      7.0098    186.8089
  1523.4000      7.9560      2.5167      0.0879      8.0791    180.1003
  1523.5000      7.9457      2.4846      0.0710     10.0247    180.5573
  1523.6000      7.9457      2.4541      0.0220     11.8757    186.0272
  1523.7000      7.9457      2.4393      0.0450     12.7723    188.2707
  1523.8000      7.9578      2.4328      0.0991     13.1614    182.2014
  1523.9000      7.9578      2.4285      0.0360     13.4267    169.3643
  1524.0000      7.9602      2.4356      0.0472     12.9949    158.9286
  1524.1000      7.9602      2.4587      0.0637     11.5929    158.6784
  1524.2000      7.9602      2.4856      0.1120      9.9664    165.3886
  1524.3000      7.9602      2.4993      0.1162      9.1344    168.8503
  1524.4000      7.9602      2.5025      0.1359      8.9390    162.9950
  1524.5000      7.9598      2.5071      0.1601      8.6631    153.1601
  1524.6000      7.9598      2.5118      0.1588      8.3772    149.3532
  1524.7000      7.9598      2.5199      0.1426      7.8867    150.6463
  1524.8000      7.9591      2.5382      0.1546      6.7744    148.7525
  1524.9000      7.9591      2.5612      0.1312      5.3821    145.3214
  1525.0000      7.9252      2.5800      0.2001      4.2422    145.8198
  1525.1000      7.9252      2.5842      0.1989      3.9855    147.8041
  1525.2000      7.9252      2.5714      0.1843      4.7652    148.3861
  1525.3000      7.9365      2.5500      0.1832      6.0579    149.7807
  1525.4000      7.9365      2.5296      0.1085      7.2984    152.2334
  1525.5000      7.9360      2.5205      0.1005      7.8463    153.3912
  1525.6000      7.9360      2.5248      0.1052      7.5858    154.5192
  1525.7000      7.9360      2.5352      0.1059      6.9556    158.0449
  1525.8000      7.9382      2.5474      0.0966      6.2154    161.3099
  1525.9000      7.9382      2.5519      0.1593      5.9479    163.3488
  1526.0000      7.9375      2.5339      0.1315      7.0392    166.2216
  1526.1000      7.9375      2.4991      0.0914      9.1476    168.0276
  1526.2000      7.9375      2.4743      0.0723     10.6488    166.1753
  1526.3000      7.9382      2.4752      0.0931     10.5935    163.9282
  1526.4000      7.9382      2.4952      0.0682      9.3838    165.4594
  1526.5000      7.9364      2.5220      0.1231      7.7593    169.8292
  1526.6000      7.9364      2.5485      0.1158      6.1528    172.4554
  1526.7000      7.9364      2.5743      0.1617      4.5904    172.1302
  1526.8000      7.9391      2.5952      0.1464      3.3225    172.9852
  1526.9000      7.9391      2.5992      0.1873      3.0758    176.4903
  1527.0000      7.9437      2.5809      0.1543      4.1870    180.2675
  1527.1000      7.9437      2.5539      0.1378      5.8252    184.6879
