~Version Information
VERS.                      2.0: CWLS Log ASCII Standard - VERSION 2.0
WRAP.                       NO: One line per depth step
~Well Information Block
STRT.FT               330.0000: 
STOP.FT              1923.5000: 
STEP.FT                 0.1000: 
NULL.                -999.2500: 
COMP.          Pioneer Natural Resources: COMPANY
WELL.          State Wildlife 32-16 Tr: WELL
FLD.           Purgatoire River: FIELD
LOC.           1838' FNL & 1850' FEL: LOCATION
STAT.                 Colorado: State
CNTY.               Las Animas: COUNTY
CTRY. USA : Country
SECT. 16 : Section
TOWN. 32S : Township
RANG. 66W : Range
SRVC.                Patterson: SERVICE COMPANY
DATE.          Mon Nov 14 07:20:48 2005: LOG DATE
API.           05 071 08568 00: UNIQUE WELL ID
~Curve Information Block
DEPT.FT            0 000 00 00: Depth
DCAL.in                       : CDL Caliper
RHOB.g/cc                     : CDL Bulk Density
RHOC.g/cc                     : CDL Density Correction
DPOR.pu                       : CDL Density Porosity
GR.GAPI                       : Gamma Ray
NPOR.pu                       : Neutron Porosity
~Parameter Information Block
~A  Depth       DCAL        RHOB        RHOC        DPOR         GR         NPOR    
# ...
  1693.2000      7.8984      2.5918      0.0378      3.5244    101.1322     18.3301
  1693.3000      7.8829      2.5905      0.0690      3.6060     97.8777     18.5175
  1693.4000      7.8829      2.5911      0.0118      3.5723    103.3815     19.0916
  1693.5000      7.8708      2.6048      0.0886      2.7396    111.8884     19.7191
  1693.6000      7.8708      2.6186      0.0815      1.9025    112.1152     19.8267
  1693.7000      7.8708      2.6140      0.0650      2.1833    105.0649     19.2878
  1693.8000      7.8658      2.5986      0.0540      3.1135    100.0312     18.6196
  1693.9000      7.8658      2.5993      0.0343      3.0697    103.1584     18.2552
  1694.0000      7.8349      2.6196      0.0931      1.8403    113.5921     18.2503
  1694.1000      7.8349      2.6306      0.0846      1.1786    122.7242     18.3968
  1694.2000      7.8349      2.6171      0.0839      1.9916    122.4030     18.3504
  1694.3000      7.8308      2.5928      0.1169      3.4650    115.7396     18.3684
  1694.4000      7.8308      2.5703      0.0635      4.8332    113.1830     18.9626
  1694.5000      7.8324      2.5636      0.0083      5.2393    118.5016     19.5649
  1694.6000      7.8324      2.5870      0.0241      3.8190    125.2032     19.2847
  1694.7000      7.8324      2.6292      0.0652      1.2626    126.4999     18.7997
  1694.8000      7.8408      2.6663      0.0646     -0.9891    122.2108     19.0442
  1694.9000      7.8408      2.6916      0.0890     -2.5236    116.5638     19.7766
  1695.0000      7.8721      2.7046      0.0944     -3.3116    110.6435     20.3478
  1695.1000      7.8721      2.6991      0.0546     -2.9780    103.2341     20.3055
  1695.2000      7.8721      2.6745      0.0257     -1.4871     99.4016     19.4256
  1695.3000      7.9107      2.6408      0.0336      0.5579    100.9452     18.2596
  1695.4000      7.9107      2.6123      0.0097      2.2850    102.0051     17.6106
  1695.5000      7.9373      2.5993     -0.0133      3.0711    100.4171     17.3410
  1695.6000      7.9373      2.5956     -0.0002      3.2974     98.6404     16.9233
  1695.7000      7.9373      2.5828      0.0323      4.0751     97.8921     16.6457
  1695.8000      7.9553      2.5678     -0.0736      4.9819     95.9151     16.9385
  1695.9000      7.9553      2.5733      0.0002      4.6494     93.7329     17.5621
  1696.0000      7.9564      2.5932      0.0293      3.4428     95.6796     17.8191
  1696.1000      7.9564      2.6141      0.0228      2.1733     99.1920     17.6815
  1696.2000      7.9564      2.6296      0.0995      1.2381     99.5104     17.9736
  1696.3000      7.9689      2.6241      0.0856      1.5678     98.3805     18.6909
  1696.4000      7.9689      2.6022      0.0579      2.8960    100.1936     18.9451
  1696.5000      7.9619      2.5929     -0.0019      3.4586    104.3709     18.4194
  1696.6000      7.9619      2.6037      0.0744      2.8037    105.8544     17.9729
  1696.7000      7.9619      2.6147      0.0490      2.1382    102.4390     18.2090
  1696.8000      7.9211      2.6205      0.0561      1.7901    100.0196     18.4407
  1696.9000      7.9211      2.6314      0.0633      1.1301    104.6791     18.2637
  1697.0000      7.9128      2.6432      0.1007      0.4124    113.3050     18.4002
  1697.1000      7.9128      2.6393      0.1295      0.6476    117.8574     18.6964
  1697.2000      7.9128      2.6172      0.0664      1.9900    114.3988     18.4988
  1697.3000      7.8814      2.5966      0.0225      3.2393    107.6446     18.6364
  1697.4000      7.8814      2.5951      0.0426      3.3244    101.9143     19.6985
  1697.5000      7.8785      2.6089      0.0496      2.4938     98.6124     20.7805
  1697.6000      7.8785      2.6237      0.0581      1.5956     99.2066     20.7407
  1697.7000      7.8785      2.6325      0.0668      1.0600    103.7148     19.6280
  1697.8000      7.8721      2.6330      0.1058      1.0314    112.7110     18.6382
  1697.9000      7.8721      2.6219      0.0808      1.7021    121.3799     18.5940
  1698.0000      7.8991      2.6020      0.0533      2.9075    122.5912     19.1817
  1698.1000      7.8991      2.5878      0.0222      3.7707    116.8816     19.7466
  1698.2000      7.8991      2.5882      0.0369      3.7452    109.1088     19.9291
  1698.3000      7.8857      2.5912      0.0694      3.5656    102.8857     19.7261
  1698.4000      7.8857      2.5854      0.0361      3.9145     99.6668     19.5162
  1698.5000      7.8917      2.5745      0.0448      4.5765     99.2052     19.3966
  1698.6000      7.8917      2.5654      0.0370      5.1280    100.6370     18.9945
  1698.7000      7.8917      2.5627      0.0484      5.2898    100.9547     18.1370
  1698.8000      7.8979      2.5661      0.0474      5.0857     95.9396     17.0739
  1698.9000      7.8979      2.5786      0.0426      4.3252     88.3180     16.3312
  1699.0000      7.8865      2.6039      0.0580      2.7943     87.2960     16.2190
  1699.1000      7.8865      2.6353      0.1146      0.8913     95.7566     16.8729
  1699.2000      7.8865      2.6625      0.0992     -0.7594    106.1495     18.2367
  1699.3000      7.8785      2.6755      0.1281     -1.5476    108.7286     19.2978
  1699.4000      7.8785      2.6665      0.0956     -0.9997    101.9206     18.9974
  1699.5000      7.8752      2.6401      0.0876      0.6010     94.1759     18.1079
  1699.6000      7.8752      2.6091      0.0457      2.4765     92.6194     17.9573
  1699.7000      7.8752      2.5897      0.0006      3.6525     96.3267     18.7337
  1699.8000      7.8702      2.5910      0.0610      3.5783    101.9184     19.5314
  1699.9000      7.8702      2.6021      0.0777      2.9040    106.9133     19.4176
  1700.0000      7.8670      2.6148      0.0498      2.1315    108.3867     18.7628
  1700.1000      7.8670      2.6297      0.0356      1.2331    110.0018     18.6104
  1700.2000      7.8670      2.6365      0.1052      0.8171    113.7633     19.2406
  1700.3000      7.8719      2.6248      0.0877      1.5271    114.3008     20.5616
  1700.4000      7.8719      2.6051      0.0791      2.7217    110.1734     21.9011
  1700.5000      7.8731      2.5911      0.0898      3.5679    105.5430     22.4909
  1700.6000      7.8731      2.5849      0.0697      3.9444    105.3041     22.6001
  1700.7000      7.8731      2.5844      0.0425      3.9728    112.9168     22.8233
  1700.8000      7.8653      2.5858      0.0448      3.8907    123.9070     23.0222
  1700.9000      7.8653      2.5867      0.0595      3.8386    126.7984     22.7741
  1701.0000      7.8606      2.5869      0.0692      3.8245    122.0123     22.1011
  1701.1000      7.8606      2.5844      0.0466      3.9736    122.9346     21.4761
  1701.2000      7.8606      2.5758      0.0574      4.4947    129.4863     21.6269
  1701.3000      7.8772      2.5614      0.0401      5.3699    132.5988     22.0672
  1701.4000      7.8772      2.5518      0.0286      5.9537    134.5318     22.0519
  1701.5000      7.8758      2.5499      0.0979      6.0652    138.1440     21.9658
  1701.6000      7.8758      2.5471      0.0498      6.2392    141.4935     22.0766
  1701.7000      7.8758      2.5460      0.0599      6.3008    142.9782     22.0831
  1701.8000      7.8860      2.5530      0.0567      5.8806    142.6609     21.7296
  1701.9000      7.8860      2.5630      0.0524      5.2751    143.6459     21.1586
  1702.0000      7.8923      2.5663      0.0910      5.0735    146.9850     20.9398
  1702.1000      7.8923      2.5597      0.0874      5.4746    148.4536     21.3740
  1702.2000      7.8923      2.5570      0.0268      5.6353    145.9949     21.9016
  1702.3000      7.8996      2.5717      0.0968      4.7449    142.5436     22.1732
  1702.4000      7.8996      2.5908      0.1037      3.5906    139.4823     22.8145
  1702.5000      7.8685      2.5970      0.0905      3.2094    137.8247     23.8334
  1702.6000      7.8685      2.5874      0.0900      3.7969    139.3927     24.4930
  1702.7000      7.8685      2.5666      0.0423      5.0535    142.4248     24.7026
