~Version Information
VERS.                      2.0: CWLS Log ASCII Standard - VERSION 2.0
WRAP.                       NO: One line per depth step
~Well Information Block
STRT.FT                 0.0000: 
STOP.FT              1193.0000: 
STEP.FT                 0.1000: 
NULL.                -999.2500: 
COMP.          Pioneer Natural Resources: COMPANY
WELL.          Big Pine 32-15 Tr: WELL
FLD.           Purgatorie River: FIELD
LOC.           2546' FNL & 1451' FEL: LOCATION
STAT.                 Colorado: State
CNTY.               Las Animas: COUNTY
CTRY. USA : Country
SECT. 15 : Section
TOWN. 33S : Township
RANG. 67W : Range
SRVC.                Patterson: SERVICE COMPANY
DATE.          Tue Nov 08 07:11:35 2005: LOG DATE
API. 05-071-08604                         : UNIQUE WELL ID
~Curve Information Block
DEPT.FT            0 000 00 00: Depth
DCAL.in                       : CDL Caliper
RHOB.g/cc                     : CDL Bulk Density
RHOC.g/cc                     : CDL Density Correction
DPOR.pu                       : CDL Density Porosity
GR.GAPI                       : Gamma Ray
NPOR.pu                       : Neutron Porosity
~Parameter Information Block
~A  Depth       DCAL        RHOB        RHOC        DPOR         GR         NPOR    
# ...
   470.4000     -2.8029      0.0000      2.0000     -0.0530    170.9744     26.9989
   470.5000     -2.8029      0.0000      2.0000     -0.0530    172.0663     26.9720
   470.6000     -2.8029      0.0000      2.0000     -0.0530    171.1595     26.9322
   470.7000     -2.8029      0.0000      2.0000     -0.0530    170.0622     26.9265
   470.8000     -2.8029      0.0000      2.0000     -0.0530    170.6814     26.8795
   470.9000     -2.8029      0.0000      2.0000     -0.0530    172.9274     26.6931
   471.0000     -2.8029      0.0000      2.0000     -0.0530    173.4337     26.4024
   471.1000     -2.8029      0.0000      2.0000     -0.0530    170.3641     26.1406
   471.2000     -2.8029      0.0000      2.0000     -0.0530    166.1349     26.0967
   471.3000     -2.8029      0.0000      2.0000     -0.0530    164.4416     26.3290
   471.4000     -2.8029      0.0000      2.0000     -0.0530    167.6897     26.6063
   471.5000     -2.8029      0.0000      2.0000     -0.0530    174.3436     26.6341
   471.6000     -2.8029      0.0000      2.0000     -0.0530    178.0898     26.4674
   471.7000     -2.8029      0.0000      2.0000     -0.0530    174.8810     26.4520
   471.8000     -2.8029      0.0000      2.0000     -0.0530    168.8555     26.6837
   471.9000     -2.8029      0.0000      2.0000     -0.0530    167.6874     26.7762
   472.0000     -2.8029      0.0000      2.0000     -0.0530    172.4810     26.6887
   472.1000     -2.8029      0.0000      2.0000     -0.0530    177.8362     26.8567
   472.2000     -2.8029      0.0000      2.0000     -0.0530    180.7553     27.2355
   472.3000     -2.8029      0.0000      2.0000     -0.0530    181.3033     27.3971
   472.4000     -2.8029      0.0000      2.0000     -0.0530    180.5976     26.9998
   472.5000     -2.8029      0.0000      2.0000     -0.0530    179.4749     26.2607
   472.6000     -2.8029      0.0000      2.0000     -0.0530    177.7568     25.9065
   472.7000     -2.8029      0.0000      2.0000     -0.0530    176.8855     26.1492
   472.8000     -2.8029      0.0000      2.0000     -0.0530    176.1091     26.6350
   472.9000     -2.8029      0.0000      2.0000     -0.0530    173.0323     26.9880
   473.0000     -2.8029      0.0000      2.0000     -0.0530    170.9019     27.0233
   473.1000     -2.8029      0.0000      2.0000     -0.0530    170.5517     27.0397
   473.2000     -2.8029      0.0000      2.0000     -0.0530    169.5863     27.3482
   473.3000     -2.8029      0.0000      2.0000     -0.0530    170.3720     27.6746
   473.4000     -2.8029      0.0000      2.0000     -0.0530    173.9510     27.6637
   473.5000     -2.8029      0.0000      2.0000     -0.0530    175.4942     27.3118
   473.6000     -2.8029      0.0000      2.0000     -0.0530    173.7260     26.8732
   473.7000     -2.8029      0.0000      2.0000     -0.0530    174.7789     26.7987
   473.8000     -2.8029      0.0000      2.0000     -0.0530    181.0582     27.0272
   473.9000     -2.8029      0.0000      2.0000     -0.0530    187.6499     26.8859
   474.0000     -2.8029      0.0000      2.0000     -0.0530    191.6083     26.1444
   474.1000     -2.8029      0.0000      2.0000     -0.0530    193.2897     25.4587
   474.2000     -2.8029      0.0000      2.0000     -0.0530    191.7247     25.5306
   474.3000     -2.8029      0.0000      2.0000     -0.0530    185.3840     26.2169
   474.4000     -2.8029      0.0000      2.0000     -0.0530    177.0848     26.7761
   474.5000     -2.8029      0.0000      2.0000     -0.0530    173.6242     27.0415
   474.6000     -2.8029      0.0000      2.0000     -0.0530    175.2636     27.4034
   474.7000     -2.8029      0.0000      2.0000     -0.0530    174.7605     27.9486
   474.8000     -2.8029      0.0000      2.0000     -0.0530    170.6018     28.6156
   474.9000     -2.8029      0.0000      2.0000     -0.0530    168.6072     29.2600
   475.0000     -2.8029      0.0000      2.0000     -0.0530    169.0672     29.4839
   475.1000     -2.8029      0.0000      2.0000     -0.0530    167.7893     28.9968
   475.2000     -2.8029      0.0000      2.0000     -0.0530    167.3905     28.6212
   475.3000     -2.8029      0.0000      2.0000     -0.0530    170.7183     29.5547
   475.4000     -2.8029      0.0000      2.0000     -0.0530    174.7866     31.4558
   475.5000     -2.8029      0.0000      2.0000     -0.0530    178.2198     33.0535
   475.6000     -2.8029      0.0000      2.0000     -0.0530    180.1164     33.8696
   475.7000     -2.8029      0.0000      2.0000     -0.0530    175.8083     34.2326
   475.8000     -2.8029      0.0000      2.0000     -0.0530    166.2809     34.5869
   475.9000     -2.8029      0.0000      2.0000     -0.0530    160.0064     35.0371
   476.0000     -2.8029      0.0000      2.0000     -0.0530    158.4716     35.3358
   476.1000     -2.8029      0.0000      2.0000     -0.0530    157.8496     35.2655
   476.2000     -2.8029      0.0000      2.0000     -0.0530    159.0987     34.8184
   476.3000     -2.8029      0.0000      2.0000     -0.0530    163.4169     34.1171
   476.4000     -2.8029      0.0000      2.0000     -0.0530    167.8234     33.3151
   476.5000     -2.8029      0.0000      2.0000     -0.0530    168.1734     32.3748
   476.6000     -2.8029      0.0008      2.0000     -0.0530    165.6226     31.2337
   476.7000     -2.8029      0.0150      2.0000     -0.0527    167.9584     30.2093
   476.8000     -2.8029      0.1471      2.0000     -0.0501    176.5331     29.5810
   476.9000     -2.8029      0.7868      2.0000     -0.0373    183.4002     29.1940
   477.0000     -2.8029      2.3896      2.0000     -0.0052    183.7290     28.7604
   477.1000     -2.8029      4.3910      2.0000      0.0348    182.6377     28.0736
   477.2000     -2.8029      5.2937      2.0000      0.0529    184.9244     27.2972
   477.3000     -2.8029      4.3683      2.0000      0.0344    186.0654     26.8723
   477.4000     -2.8029      2.3686      2.0000     -0.0056    181.6100     26.9421
   477.5000     -2.8029      0.7783      2.0000     -0.0375    176.7656     27.4133
   477.6000     -2.8029      0.1453      2.0000     -0.0501    177.4777     28.0598
   477.7000     -2.8029      0.0148      2.0000     -0.0527    179.0086     28.5680
   477.8000     -2.8029      0.0008      2.0000     -0.0530    178.0041     28.6969
   477.9000     -2.8029      0.0000      2.0000     -0.0530    181.8698     28.3771
   478.0000     -2.8029      0.0000      2.0000     -0.0530    191.4895     27.8781
   478.1000     -2.8029      0.0000      2.0000     -0.0530    198.3997     27.5614
   478.2000     -2.8029      0.0000      2.0000     -0.0530    197.9303     27.5202
   478.3000     -2.8029      0.0000      2.0000     -0.0530    191.4489     27.7044
   478.4000     -2.8029      0.0000      2.0000     -0.0530    183.6672     27.9530
   478.5000     -2.8029      0.0000      2.0000     -0.0530    180.3803     28.1613
   478.6000     -2.8029      0.0000      2.0000     -0.0530    183.4752     28.3531
   478.7000     -2.8029      0.0000      2.0000     -0.0530    187.0789     28.6367
   478.8000     -2.8029      0.0000      2.0000     -0.0530    186.4668     29.0728
   478.9000     -2.8029      0.0000      2.0000     -0.0530    182.9993     29.3595
   479.0000     -2.8029      0.0000      2.0000     -0.0530    179.7337     29.1944
   479.1000     -2.8029      0.0000      2.0000     -0.0530    178.2560     29.0081
   479.2000     -2.8029      0.0000      2.0000     -0.0530    179.2469     29.3258
   479.3000     -2.8029      0.0000      2.0000     -0.0530    183.8774     29.7870
   479.4000     -2.8029      0.0000      2.0000     -0.0530    188.4856     29.7759
   479.5000     -2.8029      0.0000      2.0000     -0.0530    188.0314     29.3069
   479.6000     -2.8029      0.0000      2.0000     -0.0530    185.0905     28.8228
   479.7000     -2.8029      0.0000      2.0000     -0.0530    185.7975     28.5103
   479.8000     -2.8029      0.0000      2.0000     -0.0530    189.6420     28.3779
   479.9000     -2.8029      0.0000      2.0000     -0.0530    190.4451     28.4893
