~Version Information
VERS.                      2.0: CWLS Log ASCII Standard - VERSION 2.0
WRAP.                       NO: One line per depth step
~Well Information Block
STRT.FT               555.0000: 
STOP.FT              1158.0000: 
STEP.FT                 0.1000: 
NULL.                -999.2500: 
COMP.          Pioneer Natural Resources: COMPANY
WELL.              Draco 31-21: WELL
FLD.           Purgatoire River: FIELD
LOC.           491' FNL & 2446' FEL: LOCATION
CNTY.               Las Animas: COUNTY
SRVC.                Patterson: SERVICE COMPANY
DATE.          Wed Feb 01 07:01:32 2006: LOG DATE
UWI.           05 071 08672 00: UNIQUE WELL ID
STAT.                 Colorado: STATE
~Curve Information Block
DEPT.FT            0 000 00 00: Depth
DCAL.in                       : CDL Caliper
RHOB.g/cc                     : CDL Bulk Density
RHOC.g/cc                     : CDL Density Correction
DPOR.pu                       : CDL Density Porosity
GR.GAPI                       : Gamma Ray
NPOR.pu                       : Neutron Porosity
~Parameter Information Block
~A  Depth       DCAL        RHOB        RHOC        DPOR         GR         NPOR    
# ...
   747.0000      7.8843      2.4730      0.0443     10.7276     71.6062     18.8883
   747.1000      7.8843      2.4592      0.0056     11.5609     73.8267     19.2413
   747.2000      7.8843      2.4420     -0.0166     12.6046     72.5613     19.4611
   747.3000      7.8761      2.4341     -0.0057     13.0877     69.8604     18.9332
   747.4000      7.8761      2.4373     -0.0157     12.8893     67.8365     17.9753
   747.5000      7.8849      2.4488     -0.0125     12.1940     66.8821     17.3554
   747.6000      7.8849      2.4630      0.0286     11.3324     69.4913     17.4009
   747.7000      7.8849      2.4736     -0.0081     10.6898     75.7292     18.0726
   747.8000      7.8847      2.4799      0.0304     10.3080     80.1209     19.0521
   747.9000      7.8847      2.4797      0.0181     10.3225     78.7160     19.5223
   748.0000      7.8860      2.4725     -0.0028     10.7562     74.6472     19.1032
   748.1000      7.8860      2.4647      0.0103     11.2294     72.3943     19.1142
   748.2000      7.8860      2.4604      0.0043     11.4928     70.6830     20.3734
   748.3000      7.8863      2.4591      0.0006     11.5693     68.1012     20.9237
   748.4000      7.8863      2.4587      0.0056     11.5966     64.5305     19.4138
   748.5000      7.8869      2.4572      0.0344     11.6840     60.8067     17.7020
   748.6000      7.8869      2.4579      0.0202     11.6416     58.8427     17.5066
   748.7000      7.8869      2.4620      0.0358     11.3949     60.1377     18.4929
   748.8000      7.8874      2.4654      0.0257     11.1860     64.7201     19.4836
   748.9000      7.8874      2.4685      0.0029     10.9995     68.8274     19.8488
   749.0000      7.8879      2.4732      0.0281     10.7140     70.7243     19.9366
   749.1000      7.8879      2.4759      0.0241     10.5540     71.6956     20.2383
   749.2000      7.8879      2.4740      0.0043     10.6675     70.7161     20.3573
   749.3000      7.8864      2.4686      0.0352     10.9952     69.6860     19.9963
   749.4000      7.8864      2.4589      0.0329     11.5825     71.1233     20.0722
   749.5000      7.8862      2.4504     -0.0100     12.0959     72.9780     20.8779
   749.6000      7.8862      2.4511      0.0156     12.0538     76.3126     21.4838
   749.7000      7.8862      2.4607      0.0142     11.4700     81.6524     21.4451
   749.8000      7.8867      2.4767     -0.0069     10.5056     81.7346     21.1724
   749.9000      7.8867      2.4963      0.0351      9.3177     75.3763     20.9645
   750.0000      7.8881      2.5143      0.0604      8.2237     69.9228     20.8262
   750.1000      7.8881      2.5233      0.0362      7.6815     67.4798     20.5778
   750.2000      7.8881      2.5173      0.0685      8.0445     66.0449     20.0753
   750.3000      7.8860      2.5003      0.0403      9.0724     63.6811     19.8957
   750.4000      7.8860      2.4842      0.0158     10.0511     60.7676     20.4055
   750.5000      7.8855      2.4735      0.0366     10.6976     61.0985     20.6815
   750.6000      7.8855      2.4603      0.0437     11.4975     63.5101     20.1454
   750.7000      7.8855      2.4399      0.0370     12.7330     62.1517     19.7925
   750.8000      7.8863      2.4216      0.0093     13.8416     57.5355     20.0140
   750.9000      7.8863      2.4076      0.0496     14.6914     55.5304     20.2224
   751.0000      7.8877      2.3885      0.0101     15.8497     59.2690     20.5864
   751.1000      7.8877      2.3734      0.0111     16.7637     64.9482     21.4618
   751.2000      7.8877      2.3814      0.0011     16.2781     65.0288     22.3744
   751.3000      7.8860      2.4111      0.0479     14.4802     59.4987     22.4009
   751.4000      7.8860      2.4398      0.1177     12.7386     55.8938     21.6664
   751.5000      7.8876      2.4517      0.0817     12.0195     56.0751     21.1971
   751.6000      7.8876      2.4574      0.0287     11.6703     56.3840     21.3665
   751.7000      7.8876      2.4653      0.0619     11.1912     55.1245     21.7168
   751.8000      7.8858      2.4663      0.0389     11.1305     52.2746     21.7475
   751.9000      7.8858      2.4640      0.0349     11.2748     51.7355     21.7980
   752.0000      7.8864      2.4727      0.0310     10.7462     57.3546     22.0593
   752.1000      7.8864      2.4942      0.0361      9.4417     68.2861     22.1249
   752.2000      7.8864      2.5160      0.0462      8.1183     81.3155     22.1192
   752.3000      7.8888      2.5289      0.0259      7.3375     91.6492     21.9321
   752.4000      7.8888      2.5325      0.0527      7.1210     96.2030     21.2286
   752.5000      7.8873      2.5311      0.0465      7.2076     94.9083     20.8068
   752.6000      7.8873      2.5278      0.0759      7.4071     91.2770     21.1484
   752.7000      7.8873      2.5204      0.0407      7.8535     89.3317     21.3982
   752.8000      7.8875      2.5091      0.0291      8.5382     88.8011     20.9057
   752.9000      7.8875      2.4962      0.0033      9.3216     88.5647     20.2027
   753.0000      7.8862      2.4840     -0.0179     10.0598     91.7805     20.0870
   753.1000      7.8862      2.4709      0.0275     10.8548    100.5346     20.8446
   753.2000      7.8862      2.4592     -0.0298     11.5611    108.9417     21.9183
   753.3000      7.8869      2.4652     -0.0087     11.1988    111.6746     22.2501
   753.4000      7.8869      2.4872      0.0368      9.8686    112.5672     22.0516
   753.5000      7.8850      2.4980      0.0677      9.2136    116.4170     22.2703
   753.6000      7.8850      2.4893      0.0134      9.7415    117.1300     22.7019
   753.7000      7.8850      2.4834      0.0032     10.0975    109.4744     23.0386
   753.8000      7.8838      2.4885      0.0384      9.7877    104.6432     23.2731
   753.9000      7.8838      2.4896      0.0386      9.7198    112.9048     23.4106
   754.0000      7.8877      2.4826      0.0434     10.1441    126.5893     23.5806
   754.1000      7.8877      2.4754      0.0121     10.5830    133.6640     23.5515
   754.2000      7.8877      2.4726      0.0067     10.7510    131.9778     23.4392
   754.3000      7.8838      2.4782     -0.0292     10.4145    127.4547     23.5437
   754.4000      7.8838      2.4959      0.0106      9.3364    127.9343     23.5538
   754.5000      7.8844      2.5136      0.0363      8.2670    129.8233     23.3769
   754.6000      7.8844      2.5161      0.0257      8.1121    124.9265     23.7689
   754.7000      7.8844      2.5121      0.0114      8.3559    117.5116     24.8159
   754.8000      7.8839      2.5093      0.0467      8.5290    117.3290     25.1182
   754.9000      7.8839      2.5007      0.0444      9.0482    124.7101     24.1645
   755.0000      7.8796      2.4898      0.0299      9.7108    128.8198     23.2355
   755.1000      7.8796      2.4865      0.0310      9.9106    123.9418     23.0626
   755.2000      7.8796      2.4890      0.0397      9.7586    115.7110     23.1385
   755.3000      7.8844      2.4955      0.0206      9.3626    109.2139     23.0500
   755.4000      7.8844      2.5143      0.0100      8.2213    104.6092     22.9503
   755.5000      7.8856      2.5382      0.0816      6.7765    101.9818     23.2137
   755.6000      7.8856      2.5457      0.0413      6.3189    102.8001     23.7531
   755.7000      7.8856      2.5429      0.0413      6.4889    105.0179     24.2325
   755.8000      7.8851      2.5498      0.0946      6.0701    103.1458     24.5152
   755.9000      7.8851      2.5651      0.0859      5.1458     98.8491     24.6866
   756.0000      7.8854      2.5762      0.1065      4.4698     97.8104     24.8391
   756.1000      7.8854      2.5836      0.0714      4.0215     99.5602     24.8585
   756.2000      7.8854      2.5970      0.0697      3.2127    101.4496     24.6464
   756.3000      7.8858      2.6088      0.1196      2.4998    100.6989     24.3593
   756.4000      7.8858      2.6041      0.0558      2.7841     97.8050     24.2783
   756.5000      7.8840      2.5907      0.0233      3.5916     98.8442     24.5725
