~Version Information
VERS.                      2.0: CWLS Log ASCII Standard - VERSION 2.0
WRAP.                       NO: One line per depth step
~Well Information Block
STRT.FT                -7.7500: 
STOP.FT              1793.5000: 
STEP.FT                 0.2500: 
NULL.                -999.2500: 
COMP.          Pioneer Natural Resources: COMPANY
WELL.           Loews 41-32 Tr: WELL
FLD.           Purgatorie River: FIELD
LOC.           706' FNL & 224' FEL--: LOCATION
CNTY.               Las Animas: COUNTY
SRVC.          Patterson Wireline: SERVICE COMPANY
DATE.          Fri Feb 24 11:31:48 2006: LOG DATE
UWI.           05 071 08690 00: UNIQUE WELL ID
STAT.                       CO: STATE
~Curve Information Block
DEPT.FT            0 000 00 00: Depth
CCL.                          : Casing Collar Locator
TT3.usec                      : CBL 3' Travel Time
AMP3.mV                       : CBL 3' Amplitude
GR.GAPI                       : Gamma Ray
~Parameter Information Block
~A  Depth       CCL         TT3         AMP3         GR     
# ...
  1164.7500      0.0000    526.6330     17.3795    115.1778
  1165.0000      0.0000    501.7419     17.7837    121.8934
  1165.2500      0.0000    487.4790     18.1913    129.9311
  1165.5000      0.0000    481.4994     18.5454    137.0529
  1165.7500      0.0000    478.6210     18.8157    141.4217
  1166.0000      0.0000    474.6373     19.0100    142.4507
  1166.2500      0.0000    468.1823     19.1584    141.0598
  1166.5000      0.0000    460.4445     19.2860    139.2515
  1166.7500      0.0000    453.6482     19.3876    138.9632
  1167.0000      0.0000    449.6099     19.4134    140.7466
  1167.2500      0.0000    449.5295     19.2672    143.4476
  1167.5000      0.0000    454.9948     18.8226    145.2624
  1167.7500      0.0000    468.5265     17.9723    145.0058
  1168.0000      0.0000    491.5809     16.7267    142.5018
  1168.2500      0.0000    521.2341     15.2969    138.5535
  1168.5000      0.0000    551.0621     14.0162    134.8367
  1168.7500      0.0000    578.4202     13.0953    132.9377
  1169.0000      0.0000    608.8108     12.4801    132.7436
  1169.2500      0.0000    648.2377     12.0094    132.1548
  1169.5000      0.0000    692.5685     11.6387    128.8877
  1169.7500      0.0000    729.1340     11.4354    122.6075
  1170.0000      0.0000    747.8640     11.4335    115.5665
  1170.2500      0.0000    747.4194     11.5829    111.4192
  1170.5000     -2.0000    731.7123     11.8104    112.9264
  1170.7500      0.0000    703.5084     12.0966    119.9797
  1171.0000      0.0000    662.5974     12.5135    129.3377
  1171.2500      0.0000    610.9446     13.1663    136.3313
  1171.5000      0.0000    558.2661     14.0436    137.6714
  1171.7500      0.0000    518.1470     14.9589    133.5635
  1172.0000      0.0000    497.5356     15.7199    127.1650
  1172.2500      0.0000    492.8694     16.3059    121.6734
  1172.5000      0.0000    494.9956     16.8045    117.9559
  1172.7500      0.0000    494.8065     17.2513    114.8386
  1173.0000      0.0000    486.9979     17.6213    111.1235
  1173.2500      0.0000    471.9948     17.9153    106.9987
  1173.5000      0.0000    453.1432     18.1785    103.5612
  1173.7500      0.0000    431.6070     18.4494    101.3512
  1174.0000      0.0000    406.1548     18.7242     99.9933
  1174.2500      0.0000    377.6173     18.9670     99.2603
  1174.5000      0.0000    350.8752     19.1385     99.5013
  1174.7500      0.0000    331.7344     19.2202    100.6099
  1175.0000      0.0000    323.4693     19.2171    101.5258
  1175.2500      0.0000    326.6689     19.1516    101.3838
  1175.5000      0.0000    340.1704     19.0561    100.4741
  1175.7500      0.0000    360.0428     18.9679     99.5748
  1176.0000      0.0000    378.3158     18.9224     98.8656
  1176.2500      0.0000    385.7522     18.9433     98.0668
  1176.5000      0.0000    378.0965     19.0329     97.5257
  1176.7500      0.0000    359.5174     19.1670     98.6772
  1177.0000      0.0000    339.1877     19.3006    102.9737
  1177.2500      0.0000    324.6673     19.3856    110.2341
  1177.5000      0.0000    318.5268     19.3897    118.2646
  1177.7500      0.0000    319.5687     19.3061    124.1002
  1178.0000      0.0000    325.3470     19.1501    125.5024
  1178.2500      0.0000    333.7125     18.9514    121.8071
  1178.5000      0.0000    343.8955     18.7453    114.2890
  1178.7500      0.0000    357.2686     18.5596    105.8552
  1179.0000      0.0000    376.3242     18.4010     99.6235
  1179.2500      0.0000    401.5601     18.2562     97.1083
  1179.5000      0.0000    429.2270     18.1112     97.6007
  1179.7500      0.0000    453.0795     17.9677     99.3375
  1180.0000      0.0000    468.6125     17.8399    101.2513
  1180.2500      0.0000    475.3630     17.7430    103.5185
  1180.5000      0.0000    475.5001     17.6906    106.5247
  1180.7500      0.0000    470.6765     17.6960    109.6726
  1181.0000      0.0000    459.9653     17.7645    111.6369
  1181.2500      0.0000    441.1450     17.8849    111.8049
  1181.5000      0.0000    414.7318     18.0353    110.9092
  1181.7500      0.0000    385.7804     18.1974    110.0848
  1182.0000      0.0000    360.4253     18.3643    109.8241
  1182.2500      0.0000    341.5634     18.5377    110.0297
  1182.5000      0.0000    328.6993     18.7221    110.5520
  1182.7500      0.0000    320.3715     18.9221    111.2203
  1183.0000      0.0000    315.4286     19.1410    111.5366
  1183.2500      0.0000    312.8659     19.3778    110.7550
  1183.5000      0.0000    311.6944     19.6221    108.4099
  1183.7500      0.0000    311.1868     19.8531    104.6509
  1184.0000      0.0000    310.9679     20.0482     99.9263
  1184.2500      0.0000    310.8961     20.1963     94.6304
  1184.5000      0.0000    310.8945     20.3053     89.4348
  1184.7500      0.0000    310.9139     20.3974     85.6091
  1185.0000      0.0000    311.0611     20.4933     84.4395
  1185.2500      0.0000    311.8131     20.5954     86.3567
  1185.5000      0.0000    314.1631     20.6811     90.6290
  1185.7500      0.0000    319.2106     20.7169     95.6433
  1186.0000      0.0000    326.8105     20.6862     99.6071
  1186.2500      0.0000    334.2982     20.6088    101.5999
  1186.5000      0.0000    337.5639     20.5309    102.1326
  1186.7500      0.0000    334.5325     20.4933    102.4200
  1187.0000      0.0000    327.2138     20.5047    103.1377
  1187.2500      0.0000    319.6593     20.5437    104.0543
  1187.5000      0.0000    314.5143     20.5808    104.5973
  1187.7500      0.0000    311.9759     20.5984    104.3780
  1188.0000      0.0000    311.0559     20.5925    103.1993
  1188.2500      0.0000    310.8664     20.5633    100.9745
  1188.5000      0.0000    310.9530     20.5090     98.0939
  1188.7500      0.0000    311.1329     20.4290     95.8067
  1189.0000      0.0000    311.3578     20.3295     95.5498
  1189.2500      0.0000    311.7721     20.2230     97.4907
  1189.5000      0.0000    313.0233     20.1228    100.1236
  1189.7500      0.0000    316.7352     20.0360    101.7001
  1190.0000      0.0000    325.6351     19.9611    101.7334
  1190.2500      0.0000    342.4599     19.8868    100.8956
  1190.5000      0.0000    367.7540     19.7948     99.9334
  1190.7500      0.0000    398.8717     19.6684     99.1487
  1191.0000      0.0000    432.0182     19.5025     98.6966
  1191.2500      0.0000    464.7305     19.3073     98.9924
  1191.5000      0.0000    494.5818     19.1045    100.6691
  1191.7500      0.0000    515.5268     18.9227    103.9277
  1192.0000      0.0000    518.3876     18.7925    107.8652
  1192.2500      0.0000    497.7100     18.7343    110.7348
  1192.5000      0.0000    458.8755     18.7458    111.1494
  1192.7500      0.0000    417.5509     18.8012    108.9978
  1193.0000      0.0000    390.3317     18.8647    105.3302
  1193.2500      0.0000    383.9322     18.9104    101.6493
  1193.5000      0.0000    391.8319     18.9382     99.2631
  1193.7500      0.0000    400.3730     18.9761     98.8531
  1194.0000      0.0000    398.3939     19.0653    100.2996
  1194.2500      0.0000    383.2839     19.2323    102.8789
  1194.5000      0.0000    360.5551     19.4691    105.8237
  1194.7500      0.0000    338.6186     19.7330    108.7468
  1195.0000      0.0000    323.1009     19.9721    111.3765
  1195.2500      0.0000    314.7535     20.1600    112.9799
  1195.5000      0.0000    311.2858     20.3083    112.6122
  1195.7500      0.0000    310.1288     20.4468    110.0828
  1196.0000      0.0000    309.7510     20.5954    106.2184
  1196.2500      0.0000    309.5357     20.7601    102.1220
  1196.5000      0.0000    309.2890     20.9446     98.7145
  1196.7500      0.0000    308.9618     21.1513     96.9658
  1197.0000      0.0000    308.5933     21.3603     97.7401
  1197.2500      0.0000    308.3203     21.5172    100.8449
  1197.5000      0.0000    308.3471     21.5548    104.5985
  1197.7500      0.0000    308.9470     21.4407    106.9619
  1198.0000      0.0000    310.8198     21.2056    107.1682
