~Version Information
VERS.                      2.0: CWLS Log ASCII Standard - VERSION 2.0
WRAP.                       NO: One line per depth step
~Well Information Block
STRT.FT               505.0000: 
STOP.FT               772.0000: 
STEP.FT                 0.2500: 
NULL.                -999.2500: 
COMP.          Pioneer Natural Resources: COMPANY
WELL.                Zed 11-23: WELL
FLD.           Purgatoire River: FIELD
LOC.           641' FNL & 952' FWL: LOCATION
CNTY.               Las Animas: COUNTY
SRVC.                Patterson: SERVICE COMPANY
DATE.          Sun Feb 26 18:39:19 2006: LOG DATE
UWI.           05 071 08702 00: UNIQUE WELL ID
STAT.                 Colorado: STATE
~Curve Information Block
DEPT.FT            0 000 00 00: Depth
SN.Ohm-m                      : IEL Short Normal
SP.mV                         : IEL Spontaneous Potential
DIR.Ohm-m                     : IEL Induction Resistivity
GR.GAPI                       : Gamma Ray
~Parameter Information Block
~A  Depth        SN          SP         DIR          GR     
# ...
   739.5000     23.9825     55.3801     19.3716     94.5863
   739.7500     23.5583     54.8492     19.0467     98.0545
   740.0000     22.9277     54.3356     18.7799    104.7505
   740.2500     22.1082     53.8442     18.5253    109.7643
   740.5000     21.2575     53.3888     18.2366    117.0811
   740.7500     20.5002     52.9938     17.8899    121.2980
   741.0000     19.7758     52.6770     17.4905    126.1172
   741.2500     19.0368     52.4303     17.0640    128.2454
   741.5000     18.4140     52.2258     16.6435    130.0627
   741.7500     18.0449     52.0420     16.2619    130.6973
   742.0000     17.9107     51.8862     15.9501    131.3319
   742.2500     17.9023     51.7889     15.7347    131.6044
   742.5000     17.9260     51.7760     15.6335    131.3789
   742.7500     17.9320     51.8452     15.6486    130.4863
   743.0000     17.9314     51.9648     15.7617    127.8598
   743.2500     17.9840     52.0917     15.9365    125.4515
   743.5000     18.0940     52.1891     16.1287    121.4552
   743.7500     18.1706     52.2331     16.3020    118.8659
   744.0000     18.1824     52.2128     16.4393    115.4844
   744.2500     18.2231     52.1344     16.5407    113.6995
   744.5000     18.3924     52.0256     16.6131    111.9166
   744.7500     18.7044     51.9248     16.6642    111.4674
   745.0000     19.0906     51.8538     16.7061    111.9723
   745.2500     19.4672     51.7987     16.7588    112.8492
   745.5000     19.7796     51.7198     16.8437    114.2795
   745.7500     19.9787     51.5859     16.9705    115.1183
   746.0000     20.0342     51.3981     17.1294    116.5548
   746.2500     19.9951     51.1852     17.2918    117.9870
   746.5000     19.9477     50.9800     17.4190    121.0418
   746.7500     19.9280     50.8047     17.4753    123.4109
   747.0000     19.9474     50.6686     17.4391    126.7830
   747.2500     19.9955     50.5686     17.3093    128.7354
   747.5000     20.0091     50.4876     17.1020    131.3298
   747.7500     19.9421     50.3993     16.8400    132.8134
   748.0000     19.7804     50.2826     16.5445    134.1831
   748.2500     19.4979     50.1365     16.2339    134.2652
   748.5000     19.0815     49.9853     15.9255    133.3836
   748.7500     18.5328     49.8691     15.6350    132.5459
   749.0000     17.8608     49.8231     15.3725    131.1957
   749.2500     17.1497     49.8579     15.1405    129.9524
   749.5000     16.5390     49.9525     14.9364    127.1884
   749.7500     16.0764     50.0631     14.7575    125.1032
   750.0000     15.7220     50.1382     14.6058    122.6956
   750.2500     15.4687     50.1322     14.4887    121.6071
   750.5000     15.3661     50.0144     14.4163    119.3537
   750.7500     15.4807     49.7768     14.3983    116.7461
   751.0000     15.7962     49.4419     14.4409    112.0001
   751.2500     16.1428     49.0663     14.5479    109.5052
   751.5000     16.3752     48.7320     14.7206    107.4046
   751.7500     16.6509     48.5214     14.9580    105.7115
   752.0000     17.2880     48.4846     15.2528     98.4147
   752.2500     18.2651     48.6163     15.5859     88.3568
   752.5000     19.2245     48.8541     15.9230     65.7112
   752.7500     20.0004     49.1036     16.2178     48.2363
   753.0000     20.7613     49.2773     16.4280     24.8497
   753.2500     21.6449     49.3232     16.5369     13.7709
   753.5000     22.5169     49.2300     16.5661      4.4590
   753.7500     23.1262     49.0191     16.5635      1.7723
   754.0000     23.3410     48.7340     16.5749      0.3385
   754.2500     23.1771     48.4286     16.6205      0.0926
   754.5000     22.6884     48.1464     16.6898      0.0085
   754.7500     21.9042     47.9030     16.7552      0.0000
   755.0000     20.8927     47.6890     16.7883   -999.2500
   755.2500     19.8370     47.4932     16.7687   -999.2500
   755.5000     18.9682     47.3175     16.6861   -999.2500
   755.7500     18.3640     47.1687     16.5433   -999.2500
   756.0000     17.8772     47.0372     16.3585   -999.2500
   756.2500     17.4275     46.8900     16.1624   -999.2500
   756.5000     17.1647     46.6843     15.9853   -999.2500
   756.7500     17.1864     46.3897     15.8457   -999.2500
   757.0000     17.3811     46.0043     15.7479   -999.2500
   757.2500     17.5802     45.5568     15.6875   -999.2500
   757.5000     17.7556     45.0983     15.6580   -999.2500
   757.7500     18.0461     44.6827     15.6504   -999.2500
   758.0000     18.5402     44.3471     15.6508   -999.2500
   758.2500     19.1522     44.1028     15.6415   -999.2500
   758.5000     19.6997     43.9391     15.6110   -999.2500
   758.7500     20.0216     43.8326     15.5669   -999.2500
   759.0000     20.0959     43.7617     15.4601   -999.2500
   759.2500     20.0009     43.7190     15.5007   -999.2500
   759.5000     19.7845     43.7115     15.6400   -999.2500
   759.7500     19.4315     43.7455     15.8748   -999.2500
   760.0000     18.9041     43.8103     16.1580   -999.2500
   760.2500     18.2458     43.8790     16.4158   -999.2500
   760.5000     17.6391     43.9285     16.5832   -999.2500
   760.7500     17.2592     43.9541     16.6328   -999.2500
   761.0000     17.1054     43.9634     16.5801   -999.2500
   761.2500     17.0965     43.9583     16.4725   -999.2500
   761.5000     17.2617     43.9275     16.3908   -999.2500
   761.7500     17.6880     43.8620     16.4705   -999.2500
   762.0000     18.3442     43.7721     16.9292   -999.2500
   762.2500     19.0128     43.6840     18.0910   -999.2500
   762.5000     19.3882     43.6108     20.6030   -999.2500
   762.7500     19.3065     43.5329     24.9441   -999.2500
   763.0000     18.8584     43.4119     32.4767   -999.2500
   763.2500     18.2881     43.2249     45.0274   -999.2500
   763.5000     17.8361     42.9813     64.4758   -999.2500
   763.7500     17.6289     42.7088     90.3449   -999.2500
   764.0000     17.6495     42.4337    116.7212   -999.2500
   764.2500     17.7081     42.1775    135.5815   -999.2500
   764.5000     17.5302     41.9623    145.0505   -999.2500
   764.7500     17.1016     41.8089    149.1734   -999.2500
   765.0000     16.7523     41.7211    152.4976   -999.2500
   765.2500     16.7033     41.6750    158.0816   -999.2500
   765.5000     16.8344     41.6305 100000.0000   -999.2500
   765.7500     16.9729     41.5621 100000.0000   -999.2500
   766.0000     17.0800     41.4790 100000.0000   -999.2500
   766.2500     17.1550     41.4156 100000.0000   -999.2500
   766.5000     17.1717     41.4032 100000.0000   -999.2500
   766.7500     17.1822     41.4499 100000.0000   -999.2500
   767.0000     17.3927     41.5405 100000.0000   -999.2500
   767.2500     17.9560     41.6138 100000.0000   -999.2500
   767.5000     18.7994     41.4668 100000.0000   -999.2500
   767.7500     19.8063     40.5890 100000.0000   -999.2500
   768.0000     20.9056     38.1094 100000.0000   -999.2500
   768.2500     21.8787     33.1812 100000.0000   -999.2500
   768.5000     22.0980     25.8007 100000.0000   -999.2500
   768.7500     20.3535     17.3047 100000.0000   -999.2500
   769.0000     15.7159      9.7340 100000.0000   -999.2500
   769.2500      9.3324      4.4968 100000.0000   -999.2500
   769.5000      3.9853      1.6806 100000.0000   -999.2500
   769.7500      1.1706      0.5026 100000.0000   -999.2500
   770.0000      0.2301      0.1192 100000.0000   -999.2500
   770.2500      0.0297      0.0221 100000.0000   -999.2500
   770.5000      0.0024      0.0030 100000.0000   -999.2500
   770.7500   -999.2500   -999.2500 100000.0000   -999.2500
   771.0000   -999.2500   -999.2500 100000.0000   -999.2500
   771.2500   -999.2500   -999.2500 100000.0000   -999.2500
   771.5000   -999.2500   -999.2500 100000.0000   -999.2500
   771.7500   -999.2500   -999.2500 100000.0000   -999.2500
   772.0000   -999.2500   -999.2500 100000.0000   -999.2500
