~Version Information
VERS.                      2.0: CWLS Log ASCII Standard - VERSION 2.0
WRAP.                       NO: One line per depth step
~Well Information Block
STRT.FT               575.0000: 
STOP.FT              1558.5000: 
STEP.FT                 0.2500: 
NULL.                -999.2500: 
COMP.          Pioneer Natural Resources: COMPANY
WELL.          McClaren 13-34 Tr: WELL
FLD.           Purgatoire River: FIELD
LOC.           1934' FSL & 826' FWL: LOCATION
PROV.                 Colorado: PROVINCE
CNTY.               Las Animas: COUNTRY
SRVC.                Patterson: SERVICE COMPANY
DATE.          Mon Jul 11 20:01:13 2005: LOG DATE
UWI.           05 071 08437 00: UNIQUE WELL ID
~Curve Information Block
DEPT.FT            0 000 00 00: Depth
SN.Ohm-m                      : IEL Short Normal
SP.mV                         : IEL Spontaneous Potential
DIR.Ohm-m                     : IEL Induction Resistivity
GR.GAPI                       : Gamma Ray
~Parameter Information Block
~A  Depth        SN          SP         DIR          GR     
# ...
   776.0000   2000.0000   2000.0000     17.4093    135.4991
   776.2500   2000.0000   2000.0000     17.5446    133.3869
   776.5000   2000.0000   2000.0000     17.7137    130.4995
   776.7500   2000.0000   2000.0000     17.8961    128.1260
   777.0000   2000.0000   2000.0000     18.0601    123.2647
   777.2500   2000.0000   2000.0000     18.1796    119.4951
   777.5000   2000.0000   2000.0000     18.2473    114.6439
   777.7500   2000.0000   2000.0000     18.2764    112.8518
   778.0000   2000.0000   2000.0000     18.2898    112.9185
   778.2500   2000.0000   2000.0000     18.3022    114.6680
   778.5000   2000.0000   2000.0000     18.3113    119.3282
   778.7500   2000.0000   2000.0000     18.3009    123.2722
   779.0000   2000.0000   2000.0000     18.2556    128.9418
   779.2500   2000.0000   2000.0000     18.1737    131.5322
   779.5000   2000.0000   2000.0000     18.0678    132.4060
   779.7500   2000.0000   2000.0000     17.9541    130.9034
   780.0000   2000.0000   2000.0000     17.8394    126.5724
   780.2500   2000.0000   2000.0000     17.7174    123.3019
   780.5000   2000.0000   2000.0000     17.5778    119.2922
   780.7500   2000.0000   2000.0000     17.4198    117.6466
   781.0000   2000.0000   2000.0000     17.2611    116.8840
   781.2500   2000.0000   2000.0000     17.1324    117.4840
   781.5000   2000.0000   2000.0000     17.0646    119.8162
   781.7500   2000.0000   2000.0000     17.0776    121.9748
   782.0000   2000.0000   2000.0000     17.1769    125.3590
   782.2500   2000.0000   2000.0000     17.3604    127.5008
   782.5000   2000.0000   2000.0000     17.6261    130.6256
   782.7500   2000.0000   2000.0000     17.9768    132.5969
   783.0000   2000.0000   2000.0000     18.4187    134.6909
   783.2500   2000.0000   2000.0000     18.9595    135.0224
   783.5000   2000.0000   2000.0000     19.6082    133.6014
   783.7500   2000.0000   2000.0000     20.3784    131.4178
   784.0000   2000.0000   2000.0000     21.2879    125.9829
   784.2500   2000.0000   2000.0000     22.3522    120.4427
   784.5000   2000.0000   2000.0000     23.5719    108.8224
   784.7500   2000.0000   2000.0000     24.9231     99.2725
   785.0000   2000.0000   2000.0000     26.3615     83.8235
   785.2500   2000.0000   2000.0000     27.8452     73.8533
   785.5000   2000.0000   2000.0000     29.3692     61.0837
   785.7500   2000.0000   2000.0000     30.9875     54.7071
   786.0000   2000.0000   2000.0000     32.8024     48.5252
   786.2500   2000.0000   2000.0000     34.9096     46.2076
   786.5000   2000.0000   2000.0000     37.3162     44.3292
   786.7500   2000.0000   2000.0000     39.8800     43.5984
   787.0000   2000.0000   2000.0000     42.3370     42.7002
   787.2500   2000.0000   2000.0000     44.4343     42.0847
   787.5000   2000.0000   2000.0000     46.0660     41.1392
   787.7500   2000.0000   2000.0000     47.2787     40.5418
   788.0000   2000.0000   2000.0000     48.1594     39.6969
   788.2500   2000.0000   2000.0000     48.7464     39.1329
   788.5000   2000.0000   2000.0000     49.0411     38.2572
   788.7500   2000.0000   2000.0000     49.0674     37.6609
   789.0000   2000.0000   2000.0000     48.8931     36.8833
   789.2500   2000.0000   2000.0000     48.5948     36.6742
   789.5000   2000.0000   2000.0000     48.2282     37.3003
   789.7500   2000.0000   2000.0000     47.8410     38.3742
   790.0000   2000.0000   2000.0000     47.4960     40.3582
   790.2500   2000.0000   2000.0000     47.2447     41.4379
   790.5000   2000.0000   2000.0000     47.0661     42.2632
   790.7500   2000.0000   2000.0000     46.8444     42.3814
   791.0000   2000.0000   2000.0000     46.4261     42.3708
   791.2500   2000.0000   2000.0000     45.7231     42.4778
   791.5000   2000.0000   2000.0000     44.7707     43.1093
   791.7500   2000.0000   2000.0000     43.6962     44.0673
   792.0000   2000.0000   2000.0000     42.6221     46.8725
   792.2500   2000.0000   2000.0000     41.5700     49.9375
   792.5000   2000.0000   2000.0000     40.4138     56.1982
   792.7500   2000.0000   2000.0000     38.9222     60.8646
   793.0000   2000.0000   2000.0000     36.9036     67.0295
   793.2500   2000.0000   2000.0000     34.3689     69.9913
   793.5000   2000.0000   2000.0000     31.5454     73.1478
   793.7500   2000.0000   2000.0000     28.7253     75.2880
   794.0000   2000.0000   2000.0000     26.1131     79.8556
   794.2500   2000.0000   2000.0000     23.7902     83.9690
   794.5000   2000.0000   2000.0000     21.7603     91.4117
   794.7500   2000.0000   2000.0000     19.9993     97.1572
   795.0000   2000.0000   2000.0000     18.4764    107.1219
   795.2500   2000.0000   2000.0000     17.1559    114.4779
   795.5000   2000.0000   2000.0000     15.9985    125.2340
   795.7500   2000.0000   2000.0000     14.9687    131.1599
   796.0000   2000.0000   2000.0000     14.0428    137.1000
   796.2500   2000.0000   2000.0000     13.2111    139.2332
   796.5000   2000.0000   2000.0000     12.4726    140.6842
   796.7500   2000.0000   2000.0000     11.8270    140.9173
   797.0000   2000.0000   2000.0000     11.2709    140.3756
   797.2500   2000.0000   2000.0000     10.7986    139.5511
   797.5000   2000.0000   2000.0000     10.4048    138.1976
   797.7500   2000.0000   2000.0000     10.0843    137.5058
   798.0000   2000.0000   2000.0000      9.8309    136.7442
   798.2500   2000.0000   2000.0000      9.6376    136.2236
   798.5000   2000.0000   2000.0000      9.4977    135.3975
   798.7500   2000.0000   2000.0000      9.4064    135.1289
   799.0000   2000.0000   2000.0000      9.3602    135.8201
   799.2500   2000.0000   2000.0000      9.3545    137.1014
   799.5000   2000.0000   2000.0000      9.3815    139.7140
   799.7500   2000.0000   2000.0000      9.4281    141.4787
   800.0000   2000.0000   2000.0000      9.4778    143.7015
   800.2500   2000.0000   2000.0000      9.5175    144.8068
   800.5000   2000.0000   2000.0000      9.5449    145.8772
   800.7500   2000.0000   2000.0000      9.5724    146.2693
   801.0000   2000.0000   2000.0000      9.6218    146.6280
   801.2500   2000.0000   2000.0000      9.7150    146.8464
   801.5000   2000.0000   2000.0000      9.8667    147.1179
   801.7500   2000.0000   2000.0000     10.0823    147.1077
   802.0000   2000.0000   2000.0000     10.3624    146.6882
   802.2500   2000.0000   2000.0000     10.7066    146.2933
   802.5000   2000.0000   2000.0000     11.1136    145.7578
   802.7500   2000.0000   2000.0000     11.5786    145.2052
   803.0000   2000.0000   2000.0000     12.0933    143.0229
   803.2500   2000.0000   2000.0000     12.6529    140.0031
   803.5000   2000.0000   2000.0000     13.2631    132.6798
   803.7500   2000.0000   2000.0000     13.9403    126.3581
   804.0000   2000.0000   2000.0000     14.7015    116.5269
   804.2500   2000.0000   2000.0000     15.5533    110.9022
   804.5000   2000.0000   2000.0000     16.4855    104.8888
   804.7500   2000.0000   2000.0000     17.4697    102.4288
   805.0000   2000.0000   2000.0000     18.4580    100.4885
   805.2500   2000.0000   2000.0000     19.3884    100.0131
   805.5000   2000.0000   2000.0000     20.2053     99.9722
   805.7500   2000.0000   2000.0000     20.8835    100.1965
   806.0000   2000.0000   2000.0000     21.4294    101.0295
   806.2500   2000.0000   2000.0000     21.8516    102.1055
   806.5000   2000.0000   2000.0000     22.1332    104.5531
   806.7500   2000.0000   2000.0000     22.2364    106.5770
   807.0000   2000.0000   2000.0000     22.1323    109.8758
   807.2500   2000.0000   2000.0000     21.8230    112.0693
   807.5000   2000.0000   2000.0000     21.3417    115.0060
   807.7500   2000.0000   2000.0000     20.7414    116.6624
   808.0000   2000.0000   2000.0000     20.0833    119.0842
   808.2500   2000.0000   2000.0000     19.4248    120.9862
   808.5000   2000.0000   2000.0000     18.8059    124.4119
   808.7500   2000.0000   2000.0000     18.2458    126.8633
   809.0000   2000.0000   2000.0000     17.7470    130.1983
   809.2500   2000.0000   2000.0000     17.3042    131.8403
