~Version Information
VERS.                      2.0: CWLS Log ASCII Standard - VERSION 2.0
WRAP.                       NO: One line per depth step
~Well Information Block
STRT.FT               325.0000: 
STOP.FT              1014.5000: 
STEP.FT                 0.2500: 
NULL.                -999.2500: 
COMP.          Pioneer Natural Resources: COMPANY
WELL.                Doc 34-30: WELL
FLD.           Purgatoire River: FIELD
LOC.           454' FSL & 1386' FEL: LOCATION
CNTY.               Las Animas: COUNTY
SRVC.                Patterson: SERVICE COMPANY
DATE.          Wed Feb 15 20:26:19 2006: LOG DATE
UWI.           05 071 08694 00: UNIQUE WELL ID
STAT.                 Colorado: STATE
~Curve Information Block
DEPT.FT            0 000 00 00: Depth
SN.Ohm-m                      : IEL Short Normal
SP.mV                         : IEL Spontaneous Potential
DIR.Ohm-m                     : IEL Induction Resistivity
GR.GAPI                       : Gamma Ray
~Parameter Information Block
~A  Depth        SN          SP         DIR          GR     
# ...
   593.0000     26.1339    -64.8871     23.7261     40.7801
   593.2500     26.1703    -64.8627     23.9461     39.9867
   593.5000     26.3296    -64.8278     24.1286     38.3006
   593.7500     26.5211    -64.7851     24.2811     37.1930
   594.0000     26.6154    -64.7400     24.4344     36.1246
   594.2500     26.6275    -64.6972     24.6396     35.8481
   594.5000     26.7250    -64.6591     24.9555     35.6731
   594.7500     26.9977    -64.6283     25.4260     35.5347
   595.0000     27.3645    -64.6088     26.0506     35.4232
   595.2500     27.7547    -64.6029     26.7549     35.5051
   595.5000     28.1428    -64.6099     27.3811     35.5803
   595.7500     28.4154    -64.6276     27.7349     35.3181
   596.0000     28.5196    -64.6492     27.6879     34.4151
   596.2500     28.6308    -64.6585     27.2642     33.8019
   596.5000     28.8750    -64.6351     26.6232     33.4848
   596.7500     29.1297    -64.5703     25.9569     33.7027
   597.0000     29.2604    -64.4720     25.4057     34.0840
   597.2500     29.2839    -64.3571     25.0404     33.9924
   597.5000     29.2675    -64.2428     24.8835     33.2279
   597.7500     29.2573    -64.1444     24.9273     32.5331
   598.0000     29.3171    -64.0762     25.1366     31.6198
   598.2500     29.4830    -64.0505     25.4486     31.2015
   598.5000     29.6880    -64.0706     25.7870     30.9749
   598.7500     29.8546    -64.1252     26.0909     31.1546
   599.0000     30.0109    -64.1902     26.3440     31.8023
   599.2500     30.2518    -64.2388     26.5769     32.2820
   599.5000     30.6233    -64.2543     26.8434     32.8380
   599.7500     31.1329    -64.2367     27.1854     33.1277
   600.0000     31.7995    -64.2013     27.6123     33.5585
   600.2500     32.5114    -64.1716     28.1013     33.8423
   600.5000     33.0658    -64.1699     28.6056     34.1272
   600.7500     33.5172    -64.2074     29.0686     34.0614
   601.0000     34.1344    -64.2821     29.4451     33.2510
   601.2500     35.0353    -64.3838     29.7290     32.2227
   601.5000     36.1266    -64.5043     29.9662     30.4612
   601.7500     37.1929    -64.6473     30.2349     29.5677
   602.0000     37.9975    -64.8317     30.5995     29.0177
   602.2500     38.5006    -65.0840     31.0744     29.0740
   602.5000     38.8596    -65.4209     31.6168     29.3349
   602.7500     39.1700    -65.8326     32.1435     29.4040
   603.0000     39.4089    -66.2798     32.5545     29.2818
   603.2500     39.5647    -66.7114     32.7544     29.1932
   603.5000     39.6196    -67.0912     32.6695     29.4368
   603.7500     39.5025    -67.4111     32.2526     30.0143
   604.0000     39.1498    -67.6838     31.4667     31.4362
   604.2500     38.5408    -67.9279     30.2727     32.4794
   604.5000     37.6916    -68.1586     28.6557     33.5779
   604.7500     36.6478    -68.3822     26.6791     33.8305
   605.0000     35.4314    -68.5913     24.5020     33.9008
   605.2500     33.9770    -68.7633     22.3221     34.3376
   605.5000     32.1725    -68.8664     20.2948     36.6717
   605.7500     29.9684    -68.8726     18.4941     39.7531
   606.0000     27.4145    -68.7702     16.9254     46.8905
   606.2500     24.6574    -68.5717     15.5636     53.2804
   606.5000     21.9702    -68.3110     14.3853     64.9033
   606.7500     19.6406    -68.0321     13.3815     80.8216
   607.0000     17.7633    -67.7712     12.5488     94.7237
   607.2500     16.2344    -67.5442     11.8739    102.7894
   607.5000     14.9262    -67.3438     11.3266    111.8104
   607.7500     13.8349    -67.1477     10.8673    126.0901
   608.0000     13.0449    -66.9328     10.4634    129.1107
   608.2500     12.5671    -66.6867     10.1003    129.5483
   608.5000     12.3083    -66.4091      9.7797    128.7952
   608.7500     12.1886    -66.1071      9.5086    138.5381
   609.0000     12.1680    -65.7891      9.2897    137.1418
   609.2500     12.1794    -65.4653      9.1190    136.5311
   609.5000     12.1585    -65.1503      8.9899    136.3775
   609.7500     12.1186    -64.8650      8.8972    147.3653
   610.0000     12.1187    -64.6302      8.8384    148.5499
   610.2500     12.1743    -64.4535      8.8109    149.0363
   610.5000     12.2357    -64.3240      8.8112    148.6962
   610.7500     12.2301    -64.2191      8.8346    148.0199
   611.0000     12.1372    -64.1186      8.8778    147.2480
   611.2500     12.0284    -64.0112      8.9390    147.1194
   611.5000     11.9712    -63.8925      9.0164    147.2561
   611.7500     11.9320    -63.7608      9.1071    147.4219
   612.0000     11.8484    -63.6153      9.2076    147.8911
   612.2500     11.7570    -63.4569      9.3171    148.4355
   612.5000     11.7548    -63.2893      9.4398    149.4228
   612.7500     11.8451    -63.1205      9.5839    150.0174
   613.0000     11.9420    -62.9615      9.7590    150.7168
   613.2500     12.0039    -62.8243      9.9718    150.9547
   613.5000     12.0751    -62.7191     10.2254    150.1603
   613.7500     12.2505    -62.6506     10.5191    148.1006
   614.0000     12.5941    -62.6145     10.8473    141.8033
   614.2500     13.0426    -62.5965     11.1961    135.6020
   614.5000     13.4910    -62.5765     11.5413    124.8441
   614.7500     13.9711    -62.5356     11.8541    118.1161
   615.0000     14.6108    -62.4587     12.1140    111.1366
   615.2500     15.4511    -62.3363     12.3190    109.5610
   615.5000     16.3343    -62.1681     12.4825    112.1711
   615.7500     16.9366    -61.9664     12.6199    116.4782
   616.0000     17.0478    -61.7527     12.7351    124.4047
   616.2500     16.8023    -61.5480     12.8160    129.3064
   616.5000     16.4693    -61.3648     12.8397    134.7230
   616.7500     16.1502    -61.2042     12.7827    136.8123
   617.0000     15.7936    -61.0559     12.6307    137.8828
   617.2500     15.3329    -60.8991     12.3837    137.6035
   617.5000     14.7451    -60.7090     12.0567    136.6960
   617.7500     14.0967    -60.4690     11.6777    136.4692
   618.0000     13.5330    -60.1827     11.2834    137.7893
   618.2500     13.1600    -59.8767     10.9115    140.0955
   618.5000     12.9542    -59.5924     10.5901    145.3395
   618.7500     12.7903    -59.3673     10.3319    149.3290
   619.0000     12.5595    -59.2174     10.1337    154.5396
   619.2500     12.2632    -59.1298      9.9815    156.8303
   619.5000     11.9676    -59.0728      9.8581    158.1932
   619.7500     11.7302    -59.0178      9.7494    157.9764
   620.0000     11.6044    -58.9559      9.6472    156.6401
   620.2500     11.6037    -58.8992      9.5493    155.3802
   620.5000     11.6638    -58.8705      9.4573    153.1365
   620.7500     11.7247    -58.8909      9.3743    151.3944
   621.0000     11.7767    -58.9720      9.3034    148.5414
   621.2500     11.8066    -59.1132      9.2469    146.7820
   621.5000     11.7906    -59.3019      9.2064    144.8845
   621.7500     11.7426    -59.5184      9.1830    144.0951
   622.0000     11.7091    -59.7449      9.1782    143.2592
   622.2500     11.7011    -59.9743      9.1947    142.9684
   622.5000     11.6989    -60.2113      9.2343    143.3485
   622.7500     11.7448    -60.4639      9.2962    144.1629
   623.0000     11.8933    -60.7324      9.3758    145.8397
   623.2500     12.0595    -61.0024      9.4665    147.1123
   623.5000     12.1208    -61.2471      9.5622    149.0352
   623.7500     12.1081    -61.4366      9.6607    149.9674
   624.0000     12.0939    -61.5496      9.7632    150.1701
   624.2500     12.0648    -61.5818      9.8735    149.4514
   624.5000     12.0276    -61.5494      9.9970    147.4272
   624.7500     12.0300    -61.4822     10.1399    145.5470
   625.0000     12.0913    -61.4095     10.3072    141.9645
   625.2500     12.2684    -61.3450     10.5010    139.3443
   625.5000     12.6936    -61.2845     10.7196    136.0841
   625.7500     13.3903    -61.2140     10.9610    134.8956
   626.0000     14.1508    -61.1198     11.2274    134.7590
   626.2500     14.7326    -60.9937     11.5269    135.5003
