~Version Information
VERS.                      2.0: CWLS Log ASCII Standard - VERSION 2.0
WRAP.                       NO: One line per depth step
~Well Information Block
STRT.FT                -6.5000: 
STOP.FT              1467.0000: 
STEP.FT                 0.2500: 
NULL.                -999.2500: 
COMP.          Pioneer Natural Resources: COMPANY
WELL.          Surtees 23-34 Tr: WELL
FLD.           Purgatorie River: FIELD
LOC.           1559' FSL & 1997' FWL--: LOCATION
PROV.                       CO: PROVINCE
CNTY.               Las Animas: COUNTRY
SRVC.          Patterson Wireline: SERVICE COMPANY
DATE.          Tue Aug 02 13:04:45 2005: LOG DATE
UWI.           05 071 08449 00: UNIQUE WELL ID
~Curve Information Block
DEPT.FT            0 000 00 00: Depth
CCL.                          : Casing Collar Locator
TT3.usec                      : CBL 3' Travel Time
AMP3.mV                       : CBL 3' Amplitude
GR.GAPI                       : Gamma Ray
~Parameter Information Block
~A  Depth       CCL         TT3         AMP3         GR     
# ...
   462.5000      0.0000    769.7081      7.5676     72.5255
   462.7500      0.0000    775.2195      7.8009     75.7732
   463.0000      0.0000    777.9769      8.0110     79.2757
   463.2500      0.0000    778.4786      8.1776     82.0840
   463.5000      0.0000    777.2340      8.2972     84.1810
   463.7500      0.0000    774.8265      8.3867     85.6936
   464.0000      0.0000    772.3947      8.4701     86.1052
   464.2500      0.0000    771.4218      8.5616     84.7733
   464.5000      0.0000    772.6512      8.6572     82.0092
   464.7500      0.0000    775.4073      8.7412     79.0326
   465.0000      0.0000    778.2092      8.7979     76.9193
   465.2500      0.0000    779.8580      8.8216     76.0412
   465.5000      0.0000    779.7742      8.8211     76.4046
   465.7500      0.0000    777.6937      8.8181     78.0026
   466.0000      0.0000    773.5435      8.8357     80.6906
   466.2500      0.0000    767.6895      8.8795     84.0865
   466.5000      0.0000    761.0668      8.9284     87.7744
   466.7500      0.0000    754.9857      8.9490     91.2308
   467.0000      0.0000    750.8651      8.9208     93.3430
   467.2500      0.0000    749.6837      8.8472     92.6601
   467.5000      0.0000    750.9635      8.7484     88.6461
   467.7500      0.0000    752.4299      8.6502     82.5049
   468.0000      0.0000    751.5720      8.5755     76.6435
   468.2500      0.0000    747.8171      8.5373     73.4037
   468.5000      0.0000    742.7895      8.5349     73.9172
   468.7500      0.0000    738.5212      8.5571     77.4575
   469.0000      0.0000    735.8806      8.5891     81.7617
   469.2500      0.0000    734.5816      8.6176     84.4893
   469.5000      0.0000    734.0052      8.6337     84.6032
   469.7500      0.0000    733.7300      8.6346     82.2711
   470.0000      0.0000    733.5634      8.6221     77.9143
   470.2500      0.0000    733.4157      8.5995     72.1631
   470.5000      0.0000    733.2352      8.5712     66.5251
   470.7500      0.0000    733.0134      8.5443     62.9761
   471.0000      0.0000    732.8019      8.5255     62.4085
   471.2500      0.0000    732.6960      8.5125     63.9402
   471.5000      0.0000    732.7917      8.4936     66.0291
   471.7500      0.0000    733.1331      8.4582     67.9852
   472.0000      0.0000    733.7144      8.4076     70.1544
   472.2500      0.0000    734.6009      8.3583     72.8001
   472.5000      0.0000    736.1756      8.3386     75.2232
   472.7500      0.0000    739.2422      8.3752     76.1908
   473.0000      0.0000    744.5118      8.4724     75.0020
   473.2500      0.0000    751.4715      8.6031     71.9077
   473.5000      0.0000    757.7655      8.7263     67.7894
   473.7500      0.0000    760.4357      8.8137     63.8037
   474.0000      0.0000    758.5646      8.8618     61.0228
   474.2500      0.0000    754.9218      8.8826     59.8816
   474.5000      0.0000    754.6656      8.8872     59.9811
   474.7500      0.0000    761.3719      8.8763     60.6480
   475.0000      0.0000    772.5027      8.8414     61.4580
   475.2500      0.0000    777.9871      8.7706     62.0163
   475.5000      0.0000    765.6464      8.6552     61.6832
   475.7500      0.0000    731.6441      8.4998     60.1209
   476.0000      0.0000    686.2766      8.3322     58.1725
   476.2500      0.0000    647.4861      8.2005     57.6797
   476.5000      0.0000    628.0913      8.1506     59.9472
   476.7500      0.0000    629.5793      8.1988     64.3473
   477.0000      0.0000    646.0767      8.3256     68.6570
   477.2500      0.0000    671.0734      8.4924     70.9110
   477.5000      0.0000    700.4078      8.6645     70.8851
   477.7500      0.0000    731.4647      8.8221     69.7718
   478.0000      0.0000    761.2539      8.9594     68.6874
   478.2500      0.0000    785.9448      9.0780     67.7789
   478.5000      0.0000    802.8842      9.1779     66.5879
   478.7500      0.0000    812.8773      9.2559     64.8052
   479.0000      0.0000    819.6550      9.3101     62.5446
   479.2500      0.0000    826.7913      9.3441     60.1638
   479.5000      0.0000    835.1953      9.3609     57.8702
   479.7500      0.0000    843.4221      9.3516     55.4238
   480.0000      0.0000    849.7007      9.2961     52.4521
   480.2500      0.0000    853.0385      9.1794     49.1356
   480.5000      0.0000    853.3798      9.0054     46.2355
   480.7500      0.0000    852.3723      8.7957     44.3833
   481.0000      0.0000    853.7984      8.5773     43.7238
   481.2500      0.0000    861.2295      8.3690     44.2415
   481.5000      0.0000    874.3248      8.1765     45.9467
   481.7500      0.0000    888.2096      7.9988     48.6808
   482.0000      0.0000    896.6900      7.8402     52.0550
   482.2500      0.0000    895.4660      7.7128     55.5707
   482.5000      0.0000    883.1465      7.6230     58.5281
   482.7500      0.0000    861.2314      7.5601     59.9132
   483.0000      0.0000    833.2410      7.5068     58.8306
   483.2500      0.0000    802.4282      7.4645     55.3259
   483.5000      0.0000    771.0262      7.4613     50.6435
   483.7500      0.0000    743.8812      7.5090     46.4727
   484.0000      0.0000    731.3928      7.5478     43.8983
   484.2500      0.0000    744.1722      7.4717     43.0226
   484.5000      0.0000    783.2018      7.2424     43.2103
   484.7500      0.0000    837.6078      6.9476     43.4064
   485.0000      0.0000    892.5469      6.7175     42.6039
   485.2500      0.0000    937.2242      6.6105     40.6046
   485.5000      2.0000    967.1914      6.6020     38.3284
   485.7500      0.0000    984.1475      6.6558     37.0728
   486.0000      0.0000    994.1399      6.7863     37.3989
   486.2500      0.0000   1000.7993      7.0637     38.8216
   486.5000      0.0000    998.5161      7.5475     40.5288
   486.7500      0.0000    975.6251      8.1850     42.2544
   487.0000      0.0000    926.0780      8.7878     44.4320
   487.2500      0.0000    856.4575      9.1596     47.7410
   487.5000      0.0000    781.6150      9.2511     52.7128
   487.7500      0.0000    715.6921      9.1614     59.5386
   488.0000      0.0000    666.9935      9.0209     67.7961
   488.2500      0.0000    637.5152      8.9071     76.1994
   488.5000      0.0000    624.6292      8.8438     82.9152
   488.7500      0.0000    623.6221      8.8267     86.4542
   489.0000      0.0000    629.8130      8.8404     86.4388
   489.2500      0.0000    639.3716      8.8689     83.8101
   489.5000      0.0000    649.5447      8.9040     80.3973
   489.7500      0.0000    658.7861      8.9438     77.9456
   490.0000      0.0000    666.5117      8.9881     77.1034
   490.2500      0.0000    672.4537      9.0341     77.0907
   490.5000      0.0000    676.6027      9.0787     76.3971
   490.7500      0.0000    679.6709      9.1208     74.2774
   491.0000      0.0000    683.4287      9.1568     71.8090
   491.2500      0.0000    690.4112      9.1745     70.9673
   491.5000      0.0000    702.7604      9.1569     72.4827
   491.7500      0.0000    720.4018      9.0950     75.2387
   492.0000      0.0000    740.0605      8.9985     77.7516
   492.2500      0.0000    756.6576      8.8906     79.2828
   492.5000      0.0000    766.0226      8.7921     79.4687
   492.7500      0.0000    766.3441      8.7099     78.0952
   493.0000      0.0000    758.1389      8.6382     75.8354
   493.2500      0.0000    744.5464      8.5672     74.3889
   493.5000      0.0000    731.6207      8.4880     75.1271
   493.7500      0.0000    726.1481      8.3922     77.8387
   494.0000      0.0000    731.2674      8.2706     81.1411
   494.2500      0.0000    744.1431      8.1169     83.8872
   494.5000      0.0000    758.4985      7.9332     85.8498
   494.7500      0.0000    769.3574      7.7322     87.1103
   495.0000      0.0000    775.4090      7.5324     87.2591
   495.2500      0.0000    777.9144      7.3497     85.7115
   495.5000      0.0000    778.5527      7.1916     82.8482
   495.7500      0.0000    778.2421      7.0579     80.2445
