~Version Information
VERS.                      2.0: CWLS Log ASCII Standard - VERSION 2.0
WRAP.                       NO: One line per depth step
~Well Information Block
STRT.FT               262.8000: 
STOP.FT              1134.7000: 
STEP.FT                 0.1000: 
NULL.                -999.2500: 
COMP.          Pioneer Natural Resources: COMPANY
WELL.          Black Cat 13-32 Tr: WELL
FLD.           Purgatoire River: FIELD
LOC.           1679' FSL & 1150' FWL--: LOCATION
CNTY.               Las Animas: COUNTY
SRVC.                Patterson: SERVICE COMPANY
DATE.          Tue Mar 07 12:42:54 2006: LOG DATE
UWI.           05 071 08721 00: UNIQUE WELL ID
STAT.                 Colorado: STATE
~Curve Information Block
DEPT.FT            0 000 00 00: Depth
DCAL.in                       : CDL Caliper
RHOB.g/cc                     : CDL Bulk Density
RHOC.g/cc                     : CDL Density Correction
DPOR.pu                       : CDL Density Porosity
GR.GAPI                       : Gamma Ray
~Parameter Information Block
~A  Depth       DCAL        RHOB        RHOC        DPOR         GR     
# ...
   666.0000      7.8895      2.5888      0.0423      3.7110    133.7082
   666.1000      7.8895      2.5924      0.0409      3.4923    139.9315
   666.2000      7.8895      2.5926      0.0731      3.4784    142.2185
   666.3000      7.8909      2.5893      0.0162      3.6794    139.9526
   666.4000      7.8909      2.5963      0.0395      3.2569    139.3271
   666.5000      7.8952      2.6207      0.0247      1.7782    142.9939
   666.6000      7.8952      2.6473      0.0889      0.1644    146.8181
   666.7000      7.8952      2.6567      0.0736     -0.4037    148.6539
   666.8000      7.8987      2.6500      0.0164     -0.0017    148.7354
   666.9000      7.8987      2.6393      0.0418      0.6470    145.5275
   667.0000      7.9027      2.6242      0.0544      1.5658    142.0658
   667.1000      7.9027      2.6023      0.0178      2.8896    140.7272
   667.2000      7.9027      2.5799      0.0221      4.2511    138.4920
   667.3000      7.9085      2.5619     -0.0110      5.3414    137.2873
   667.4000      7.9085      2.5550     -0.0232      5.7567    139.3578
   667.5000      7.9122      2.5615     -0.0041      5.3629    143.1853
   667.6000      7.9122      2.5689      0.0323      4.9169    146.8316
   667.7000      7.9122      2.5700     -0.0175      4.8498    148.5727
   667.8000      7.9113      2.5749      0.0218      4.5528    147.9236
   667.9000      7.9113      2.5871      0.0145      3.8112    146.7331
   668.0000      7.9063      2.5932      0.0567      3.4436    144.2999
   668.1000      7.9063      2.5882      0.0080      3.7484    141.8651
   668.2000      7.9063      2.5906      0.0017      3.5984    142.1175
   668.3000      7.8989      2.6031      0.0576      2.8448    141.3684
   668.4000      7.8989      2.5976      0.0473      3.1734    138.0695
   668.5000      7.8924      2.5731      0.0043      4.6636    135.5028
   668.6000      7.8924      2.5666     -0.0389      5.0542    134.2703
   668.7000      7.8924      2.5936      0.0426      3.4199    135.0395
   668.8000      7.8898      2.6263      0.0592      1.4381    138.0675
   668.9000      7.8898      2.6412      0.0375      0.5360    139.8952
   669.0000      7.8907      2.6431      0.0630      0.4170    137.3302
   669.1000      7.8907      2.6422      0.0489      0.4723    132.2399
   669.2000      7.8907      2.6382      0.0900      0.7159    129.3815
   669.3000      7.8921      2.6280      0.0280      1.3361    131.7079
   669.4000      7.8921      2.6127      0.0415      2.2609    139.5969
   669.5000      7.8909      2.5890      0.0316      3.6962    148.3459
   669.6000      7.8909      2.5553     -0.0096      5.7419    148.9773
   669.7000      7.8909      2.5306     -0.0612      7.2376    142.1733
   669.8000      7.8874      2.5322     -0.0093      7.1387    139.6203
   669.9000      7.8874      2.5462      0.0243      6.2895    145.1619
   670.0000      7.8850      2.5547      0.0035      5.7739    149.6584
   670.1000      7.8850      2.5532      0.0423      5.8659    146.8683
   670.2000      7.8850      2.5422      0.0296      6.5317    142.1216
   670.3000      7.8841      2.5336      0.0456      7.0568    140.7840
   670.4000      7.8841      2.5353      0.0560      6.9505    142.5693
   670.5000      7.8852      2.5385      0.0600      6.7561    145.9088
   670.6000      7.8852      2.5361      0.0308      6.9033    148.0767
   670.7000      7.8852      2.5295      0.0449      7.3016    146.2089
   670.8000      7.8874      2.5210      0.0397      7.8210    143.7427
   670.9000      7.8874      2.5169      0.0019      8.0689    146.0537
   671.0000      7.8881      2.5147      0.0760      8.1994    151.3409
   671.1000      7.8881      2.5100      0.0514      8.4840    156.1701
   671.2000      7.8881      2.5188      0.0211      7.9523    159.2924
   671.3000      7.8890      2.5400      0.1167      6.6659    158.7719
   671.4000      7.8890      2.5460      0.0568      6.3029    156.2002
   671.5000      7.8892      2.5373      0.0300      6.8306    153.3911
   671.6000      7.8892      2.5370      0.0528      6.8503    150.7645
   671.7000      7.8892      2.5502      0.0463      6.0510    148.9706
   671.8000      7.8880      2.5583      0.0838      5.5591    148.7373
   671.9000      7.8880      2.5503      0.0055      6.0427    151.4604
   672.0000      7.8872      2.5440      0.0114      6.4235    155.8956
   672.1000      7.8872      2.5495      0.0377      6.0918    158.0011
   672.2000      7.8872      2.5595      0.0175      5.4852    158.4684
   672.3000      7.8870      2.5690      0.0464      4.9114    158.3870
   672.4000      7.8870      2.5725      0.0610      4.6981    154.9946
   672.5000      7.8891      2.5682      0.0201      4.9599    150.3824
   672.6000      7.8891      2.5579      0.0535      5.5793    150.1945
   672.7000      7.8891      2.5462      0.0041      6.2889    153.2517
   672.8000      7.8930      2.5421      0.0235      6.5370    156.8492
   672.9000      7.8930      2.5430      0.0453      6.4876    162.6482
   673.0000      7.8972      2.5379      0.0355      6.7944    169.5912
   673.1000      7.8972      2.5223      0.0670      7.7420    173.7586
   673.2000      7.8972      2.4978      0.0215      9.2225    174.0427
   673.3000      7.9015      2.4704      0.0169     10.8832    172.0919
   673.4000      7.9015      2.4466     -0.0293     12.3294    171.6072
   673.5000      7.9063      2.4339      0.0167     13.0939    175.6259
   673.6000      7.9063      2.4344      0.0261     13.0673    183.9306
   673.7000      7.9063      2.4488      0.0279     12.1922    190.0806
   673.8000      7.9121      2.4757      0.0678     10.5647    186.3571
   673.9000      7.9121      2.4958      0.0996      9.3441    176.6886
   674.0000      7.9142      2.4996      0.0629      9.1171    170.8285
   674.1000      7.9142      2.5070      0.0690      8.6689    170.0144
   674.2000      7.9142      2.5218      0.0925      7.7686    169.7520
   674.3000      7.9064      2.5242      0.0832      7.6228    166.9941
   674.4000      7.9064      2.5140      0.0429      8.2402    163.8555
   674.5000      7.8939      2.5075      0.0133      8.6392    162.1816
   674.6000      7.8939      2.5066      0.0897      8.6891    161.3957
   674.7000      7.8939      2.4998      0.0873      9.1023    161.3974
   674.8000      7.8869      2.4855      0.0498      9.9669    161.1829
   674.9000      7.8869      2.4733      0.0131     10.7108    160.9219
   675.0000      7.8872      2.4692      0.0136     10.9579    164.1100
   675.1000      7.8872      2.4786      0.0347     10.3870    169.1409
   675.2000      7.8872      2.5069      0.0637      8.6736    167.8302
   675.3000      7.8886      2.5453      0.0820      6.3448    159.7921
   675.4000      7.8886      2.5757      0.0855      4.5040    153.8646
   675.5000      7.8880      2.5890      0.1124      3.6974    151.6345
   675.6000      7.8880      2.5874      0.0825      3.7936    148.4234
   675.7000      7.8880      2.5882      0.0386      3.7436    145.0353
   675.8000      7.8873      2.6112      0.0109      2.3488    142.7575
   675.9000      7.8873      2.6411      0.0991      0.5388    139.5812
   676.0000      7.8873      2.6435      0.0768      0.3930    134.2173
   676.1000      7.8873      2.6229     -0.0034      1.6449    127.6297
   676.2000      7.8873      2.6076      0.0222      2.5702    122.2520
   676.3000      7.8864      2.6036     -0.0052      2.8150    121.1056
   676.4000      7.8864      2.6046      0.0072      2.7512    125.5716
   676.5000      7.8854      2.6031      0.0554      2.8408    130.1494
   676.6000      7.8854      2.5939      0.0251      3.3972    129.3061
   676.7000      7.8854      2.5862      0.0311      3.8681    126.7737
   676.8000      7.8860      2.5835      0.0724      4.0281    127.1035
   676.9000      7.8860      2.5757      0.0457      4.5044    129.7303
   677.0000      7.8891      2.5564      0.0598      5.6722    133.4416
   677.1000      7.8891      2.5296     -0.0036      7.2949    138.2663
