~Version Information
VERS.                      2.0: CWLS Log ASCII Standard - VERSION 2.0
WRAP.                       NO: One line per depth step
~Well Information Block
STRT.FT               660.0000: 
STOP.FT              2488.5000: 
STEP.FT                 0.1000: 
NULL.                -999.2500: 
COMP.          Petrogulf Corporation: COMPANY
WELL.          Montoya 18-11V-B: WELL
FLD.           Purgatorie River: FIELD
LOC.           848' FNL & 619' FWL: LOCATION
PROV.                 Colorado: PROVINCE
CNTY.               Las Animas: COUNTRY
SRVC.                Patterson: SERVICE COMPANY
DATE.          Wed Oct 05 07:28:13 2005: LOG DATE
UWI.                          : UNIQUE WELL ID
~Curve Information Block
DEPT.FT            0 000 00 00: Depth
DCAL.in                       : CDL Caliper
RHOB.g/cc                     : CDL Bulk Density
RHOC.g/cc                     : CDL Density Correction
DPOR.pu                       : CDL Density Porosity
GR.GAPI                       : Gamma Ray
NPOR.pu                       : Neutron Porosity
~Parameter Information Block
~A  Depth       DCAL        RHOB        RHOC        DPOR         GR         NPOR    
# ...
  2109.6000      7.9422      2.4852      0.0642      9.9866    110.9219     29.7888
  2109.7000      7.9422      2.4966      0.0553      9.2947    109.3833     29.4941
  2109.8000      7.9441      2.5158      0.0651      8.1321    107.1385     29.4149
  2109.9000      7.9441      2.5351      0.1039      6.9631    107.0506     29.3021
  2110.0000      7.9450      2.5390      0.0846      6.7286    107.9540     29.1282
  2110.1000      7.9450      2.5266      0.0642      7.4765    106.2934     29.1199
  2110.2000      7.9450      2.5132      0.0448      8.2890    102.5505     29.3507
  2110.3000      7.9492      2.5129      0.0389      8.3066    100.4625     29.6890
  2110.4000      7.9492      2.5275      0.0380      7.4223    102.1176     30.0344
  2110.5000      7.9507      2.5460      0.0549      6.3013    105.1655     30.2194
  2110.6000      7.9507      2.5562      0.0759      5.6876    106.8422     30.1437
  2110.7000      7.9507      2.5603      0.0262      5.4343    105.7126     30.0433
  2110.8000      7.9502      2.5611      0.0848      5.3853    103.3047     30.1563
  2110.9000      7.9502      2.5507      0.0636      6.0170    101.2550     30.3262
  2111.0000      7.9533      2.5367      0.0539      6.8669     99.7677     30.3128
  2111.1000      7.9533      2.5332      0.0256      7.0803    102.2230     30.2415
  2111.2000      7.9533      2.5273      0.0679      7.4374    108.2794     30.3197
  2111.3000      7.9546      2.5002      0.0257      9.0809    111.9508     30.4617
  2111.4000      7.9546      2.4690      0.0026     10.9687    110.0776     30.5822
  2111.5000      7.9538      2.4595     -0.0083     11.5479    105.6930     30.7585
  2111.6000      7.9538      2.4626      0.0454     11.3603    103.0200     31.0169
  2111.7000      7.9538      2.4577      0.0348     11.6533    101.4525     31.1277
  2111.8000      7.9552      2.4456      0.0296     12.3881    100.3611     30.7661
  2111.9000      7.9552      2.4350      0.0494     13.0305    101.8507     30.1395
  2112.0000      7.9654      2.4315     -0.0113     13.2439    106.9074     29.8302
  2112.1000      7.9654      2.4336      0.0540     13.1129    113.3753     29.9932
  2112.2000      7.9654      2.4349      0.0470     13.0349    116.2274     30.3637
  2112.3000      7.9605      2.4405      0.0462     12.6965    115.1811     30.7273
  2112.4000      7.9605      2.4561      0.0934     11.7486    116.0008     31.0051
  2112.5000      7.9703      2.4789      0.0685     10.3674    119.4724     31.0515
  2112.6000      7.9703      2.5038      0.0986      8.8606    119.7686     30.8531
  2112.7000      7.9703      2.5256      0.0893      7.5368    115.1651     30.8309
  2112.8000      7.9529      2.5420      0.1290      6.5444    110.4704     31.1121
  2112.9000      7.9529      2.5502      0.1234      6.0488    108.6851     31.2804
  2113.0000      7.9466      2.5534      0.0822      5.8539    107.8044     31.1075
  2113.1000      7.9466      2.5583      0.1205      5.5568    106.2644     30.7407
  2113.2000      7.9466      2.5601      0.1264      5.4473    105.2423     30.5016
  2113.3000      7.9478      2.5555      0.0921      5.7288    106.2758     30.5093
  2113.4000      7.9478      2.5501      0.1112      6.0566    108.7588     30.5000
  2113.5000      7.9457      2.5431      0.1158      6.4774    108.6344     30.1114
  2113.6000      7.9457      2.5316      0.1069      7.1769    105.8321     29.4281
  2113.7000      7.9457      2.5265      0.0397      7.4833    105.6637     29.0191
  2113.8000      7.9432      2.5397      0.0875      6.6824    107.1772     29.0786
  2113.9000      7.9432      2.5592      0.1160      5.5017    106.4631     29.1629
  2114.0000      7.9419      2.5674      0.1245      5.0088    106.1410     28.9527
  2114.1000      7.9419      2.5581      0.1043      5.5677    107.1241     28.6781
  2114.2000      7.9419      2.5345      0.1087      7.0019    107.0389     28.8197
  2114.3000      7.9446      2.5098      0.0469      8.4944    106.5971     29.3830
  2114.4000      7.9446      2.4982      0.0409      9.2022    105.2714     29.7804
  2114.5000      7.9668      2.4937      0.0640      9.4733    103.0118     29.6231
  2114.6000      7.9668      2.4837      0.0353     10.0773    103.6532     29.3186
  2114.7000      7.9668      2.4709      0.0144     10.8558    108.0283     29.3199
  2114.8000      7.9835      2.4605      0.0067     11.4866    110.3486     29.6262
  2114.9000      7.9835      2.4560      0.0031     11.7590    106.0236     30.0899
  2115.0000      8.0038      2.4595      0.0236     11.5440     99.5898     30.4638
  2115.1000      8.0038      2.4615      0.0582     11.4264     97.9705     30.6617
  2115.2000      8.0038      2.4523      0.0202     11.9807    100.5178     30.7760
  2115.3000      8.0068      2.4305      0.0193     13.3057    102.4482     30.9052
  2115.4000      8.0068      2.3896      0.0543     15.7839    103.4394     31.1042
  2115.5000      8.0033      2.3328      0.0111     19.2254    104.6336     31.3936
  2115.6000      8.0033      2.2739     -0.0009     22.7919    103.7533     31.7686
  2115.7000      8.0033      2.2159     -0.0173     26.3102     98.8322     32.0025
  2115.8000      8.0124      2.1518     -0.0351     30.1953     92.0039     31.9201
  2115.9000      8.0124      2.0747     -0.0015     34.8639     86.8387     31.7674
  2116.0000      8.0666      1.9901     -0.0328     39.9958     83.9591     31.7273
  2116.1000      8.0666      1.9187     -0.0859     44.3209     80.8813     31.6791
  2116.2000      8.0666      1.8601      0.0128     47.8757     77.0941     31.7079
  2116.3000      8.1123      1.7813     -0.0378     52.6485     74.2440     32.0090
  2116.4000      8.1123      1.6761     -0.0820     59.0244     72.0702     32.2985
  2116.5000      8.1239      1.5782     -0.0990     64.9563     69.2116     32.2789
  2116.6000      8.1239      1.5107     -0.0362     69.0480     65.8789     32.3430
  2116.7000      8.1239      1.4692     -0.0557     71.5615     61.5130     32.9320
  2116.8000      8.1435      1.4537     -0.0413     72.5022     54.1510     33.7281
  2116.9000      8.1435      1.4781     -0.0332     71.0265     46.5826     34.2262
  2117.0000      8.2897      1.5446      0.0272     66.9946     44.6769     34.4386
  2117.1000      8.2897      1.6321      0.0719     61.6900     49.9429     34.6754
  2117.2000      8.2897      1.7232      0.1133     56.1703     58.3913     34.9390
  2117.3000      8.3871      1.8251      0.1212     49.9967     64.7469     34.9621
  2117.4000      8.3871      1.9500      0.1382     42.4272     67.5598     34.6234
  2117.5000      8.1129      2.0872      0.2264     34.1112     70.1659     34.0510
  2117.6000      8.1129      2.2109      0.2441     26.6137     76.0717     33.4538
  2117.7000      8.1129      2.3100      0.2023     20.6035     83.7971     33.0054
  2117.8000      7.9570      2.3947      0.1203     15.4752     88.3558     32.6283
  2117.9000      7.9570      2.4682      0.1418     11.0210     87.5836     32.1786
  2118.0000      7.9356      2.5136      0.1485      8.2647     83.9464     31.8577
  2118.1000      7.9356      2.5282      0.0861      7.3801     82.8102     31.7629
  2118.2000      7.9356      2.5343      0.0948      7.0123     86.8322     31.4825
  2118.3000      7.9391      2.5473      0.0890      6.2224     91.3042     30.6914
  2118.4000      7.9391      2.5633      0.0944      5.2532     91.8747     29.6597
  2118.5000      7.9250      2.5726      0.0962      4.6939     89.8035     29.0400
  2118.6000      7.9250      2.5797      0.0816      4.2632     87.3171     29.0431
  2118.7000      7.9250      2.5900      0.0973      3.6346     86.6192     29.0186
  2118.8000      7.9101      2.5897      0.1160      3.6537     87.6954     28.4133
  2118.9000      7.9101      2.5768     -0.0064      4.4350     86.8260     27.7024
  2119.0000      7.8946      2.5736      0.0542      4.6308     83.0321     27.4765
  2119.1000      7.8946      2.5828      0.0487      4.0725     80.6348     27.5211
