~Version Information
VERS.                      2.0: CWLS Log ASCII Standard - VERSION 2.0
WRAP.                       NO: One line per depth step
~Well Information Block
STRT.FT               260.0000: 
STOP.FT               713.2000: 
STEP.FT                 0.1000: 
NULL.                -999.2500: 
COMP.          Pioneer Natural Resources: COMPANY
WELL.           Quintessa 23-7: WELL
FLD.           Purgatoire River: FIELD
LOC.           1964' FSL & 2589' FWL--: LOCATION
PROV.                 Colorado: PROVINCE
CNTY.               Las Animas: COUNTRY
SRVC.                Patterson: SERVICE COMPANY
DATE.          Sat Nov 19 09:15:07 2005: LOG DATE
UWI.           05 071 08558 00: UNIQUE WELL ID
~Curve Information Block
DEPT.FT            0 000 00 00: Depth
DCAL.in                       : CDL Caliper
RHOB.g/cc                     : CDL Bulk Density
RHOC.g/cc                     : CDL Density Correction
DPOR.pu                       : CDL Density Porosity
NPOR.pu                       : Neutron Porosity
GR.GAPI                       : Gamma Ray
~Parameter Information Block
~A  Depth       DCAL        RHOB        RHOC        DPOR        NPOR         GR     
# ...
   596.0000      7.8846      2.5363      0.0692      6.8904     20.4132     77.3414
   596.1000      7.8846      2.5500      0.0611      6.0578     20.4301     69.4784
   596.2000      7.8846      2.5574      0.0463      5.6113     20.4879     64.4147
   596.3000      7.8841      2.5635      0.0699      5.2453     20.0049     65.3830
   596.4000      7.8841      2.5661      0.0488      5.0843     19.2014     71.3945
   596.5000      7.8889      2.5588      0.0799      5.5265     19.1639     77.0686
   596.6000      7.8889      2.5418      0.0093      6.5550     19.9905     78.1112
   596.7000      7.8889      2.5286      0.0289      7.3594     20.7248     74.9509
   596.8000      7.8857      2.5259      0.0201      7.5190     21.0527     74.0852
   596.9000      7.8857      2.5290     -0.0021      7.3345     21.5258     80.0276
   597.0000      7.8784      2.5330      0.0263      7.0880     22.2884     86.6155
   597.1000      7.8784      2.5407      0.0316      6.6218     22.8996     87.4017
   597.2000      7.8784      2.5554      0.0479      5.7324     23.2052     85.0906
   597.3000      7.8721      2.5657      0.0690      5.1116     23.4649     81.9480
   597.4000      7.8721      2.5588      0.0411      5.5257     23.8036     78.7111
   597.5000      7.8708      2.5477     -0.0067      6.2003     23.9913     80.9980
   597.6000      7.8708      2.5481      0.0547      6.1770     23.7338     88.2525
   597.7000      7.8708      2.5531      0.0453      5.8725     23.2674     92.0521
   597.8000      7.8822      2.5501      0.0450      6.0523     23.1891     90.1983
   597.9000      7.8822      2.5363      0.0177      6.8900     23.4265     85.3251
   598.0000      7.9046      2.5247     -0.0000      7.5941     23.4364     81.2191
   598.1000      7.9046      2.5275      0.0049      7.4236     23.3692     82.4590
   598.2000      7.9046      2.5366      0.0464      6.8732     23.5153     88.8949
   598.3000      7.9212      2.5380      0.0501      6.7850     23.6740     96.4349
   598.4000      7.9212      2.5318      0.0348      7.1656     23.8009    102.8103
   598.5000      7.9227      2.5300      0.0096      7.2738     23.8123    108.0900
   598.6000      7.9227      2.5392      0.0581      6.7140     23.4369    109.4125
   598.7000      7.9227      2.5536      0.0636      5.8438     23.1078    103.8777
   598.8000      7.9115      2.5660      0.0506      5.0929     23.0948     93.7955
   598.9000      7.9115      2.5715      0.0646      4.7604     23.0847     87.1563
   599.0000      7.8933      2.5750      0.0474      4.5439     23.0826     89.5882
   599.1000      7.8933      2.5891      0.0569      3.6881     23.0321     94.8273
   599.2000      7.8933      2.6138      0.0716      2.1946     22.6428     94.9231
   599.3000      7.8782      2.6383      0.0736      0.7095     21.9540     91.1194
   599.4000      7.8782      2.6514      0.1088     -0.0874     21.3348     88.3892
   599.5000      7.8676      2.6413      0.1412      0.5290     21.2815     89.5812
   599.6000      7.8676      2.6141      0.0863      2.1778     21.7638     93.8715
   599.7000      7.8676      2.5947      0.0575      3.3489     22.3964     96.9231
   599.8000      7.8578      2.5911      0.0574      3.5713     23.0690     97.7547
   599.9000      7.8578      2.5903      0.0811      3.6162     23.6880    101.3389
   600.0000      7.8542      2.5811      0.0397      4.1728     24.0538    107.1995
   600.1000      7.8542      2.5630      0.0596      5.2745     24.1409    106.8544
   600.2000      7.8542      2.5432      0.0225      6.4711     23.9884     98.8226
   600.3000      7.8524      2.5298      0.0468      7.2843     23.6282     92.4437
   600.4000      7.8524      2.5256      0.0425      7.5418     23.2835     95.2432
   600.5000      7.8546      2.5294      0.0173      7.3121     23.0614    101.0417
   600.6000      7.8546      2.5324      0.0251      7.1279     22.9980    100.1548
   600.7000      7.8546      2.5280      0.0414      7.3931     23.5311     95.7908
   600.8000      7.8709      2.5212      0.0178      7.8089     24.5777     94.5432
   600.9000      7.8709      2.5136      0.0211      8.2667     25.3604     96.5975
   601.0000      7.8978      2.5034      0.0020      8.8871     25.4393     96.6385
   601.1000      7.8978      2.4988      0.0215      9.1631     25.1419     92.6392
   601.2000      7.8978      2.5100      0.0247      8.4842     25.1734     91.2422
   601.3000      7.9216      2.5270      0.0619      7.4517     25.8467     97.1058
   601.4000      7.9216      2.5342      0.0385      7.0152     26.7695    108.1377
   601.5000      7.9269      2.5298      0.0725      7.2845     27.1352    118.3135
   601.6000      7.9269      2.5096      0.0583      8.5117     26.8542    121.7856
   601.7000      7.9269      2.4735      0.0076     10.6942     26.5603    121.9888
   601.8000      7.9070      2.4378      0.0054     12.8609     26.7749    126.3087
   601.9000      7.9070      2.4182      0.0154     14.0464     27.5628    134.3418
   602.0000      7.8826      2.4209      0.0160     13.8846     28.3382    138.2436
   602.1000      7.8826      2.4406      0.0438     12.6925     28.6972    134.7893
   602.2000      7.8826      2.4601      0.0863     11.5089     28.7354    130.4686
   602.3000      7.8699      2.4692      0.0529     10.9605     28.5481    131.6953
   602.4000      7.8699      2.4787      0.0696     10.3846     28.1164    138.2203
   602.5000      7.8665      2.4957      0.1078      9.3512     27.6929    145.1701
   602.6000      7.8665      2.5096      0.1132      8.5113     27.8502    149.2221
   602.7000      7.8665      2.5112      0.1073      8.4103     28.5285    150.8794
   602.8000      7.8680      2.5012      0.0955      9.0158     28.9119    150.0932
   602.9000      7.8680      2.4862      0.0719      9.9284     28.7911    151.1521
   603.0000      7.8814      2.4749      0.0474     10.6128     28.6841    157.7141
   603.1000      7.8814      2.4742      0.0432     10.6543     28.5807    164.8890
   603.2000      7.8814      2.4893      0.0327      9.7394     28.1798    170.4493
   603.3000      7.9039      2.5184      0.0585      7.9787     27.8413    173.2478
   603.4000      7.9039      2.5431      0.1062      6.4771     27.5385    166.5439
   603.5000      7.9175      2.5470      0.1082      6.2430     26.7628    154.8844
   603.6000      7.9175      2.5340      0.0753      7.0321     26.1992    147.5344
   603.7000      7.9175      2.5190      0.0345      7.9423     26.2903    142.7550
   603.8000      7.9194      2.5102      0.0749      8.4714     26.0702    139.6203
   603.9000      7.9194      2.5115      0.0334      8.3951     25.4789    138.6773
   604.0000      7.9127      2.5226      0.0789      7.7194     25.0101    138.1620
   604.1000      7.9127      2.5378      0.0475      6.7983     24.3868    137.4023
   604.2000      7.9127      2.5612      0.0510      5.3841     23.3846    134.7256
   604.3000      7.9020      2.5933      0.0852      3.4358     22.2290    127.9501
   604.4000      7.9020      2.6151      0.0791      2.1142     21.2629    119.0250
   604.5000      7.8932      2.6081      0.0608      2.5385     20.5260    108.9727
   604.6000      7.8932      2.5747      0.0416      4.5624     19.8702     97.5669
   604.7000      7.8932      2.5290      0.0311      7.3324     19.3967     87.4653
   604.8000      7.8903      2.4861     -0.0395      9.9346     19.4506     81.7859
   604.9000      7.8903      2.4620     -0.0435     11.3928     19.8547     82.5470
   605.0000      7.8901      2.4587     -0.0228     11.5958     19.8287     83.8682
   605.1000      7.8901      2.4598      0.0098     11.5286     19.4801     79.3092
   605.2000      7.8901      2.4529     -0.0018     11.9452     19.5742     74.1498
   605.3000      7.9005      2.4453     -0.0119     12.4087     20.0448     75.9702
   605.4000      7.9005      2.4488      0.0136     12.1916     20.2912     83.4133
   605.5000      7.9221      2.4629      0.0301     11.3406     20.1736     91.5301
