~Version Information
VERS.                      2.0: CWLS Log ASCII Standard - VERSION 2.0
WRAP.                       NO: One line per depth step
~Well Information Block
STRT.FT                -6.5000: 
STOP.FT              1317.5000: 
STEP.FT                 0.2500: 
NULL.                -999.2500: 
COMP.          Pioneer Natural Resources: COMPANY
WELL.              Dicks 32-5R: WELL
FLD.           Purgatorie River: FIELD
LOC.           1485' FNL & 1684' FEL--: LOCATION
PROV.                       CO: PROVINCE
CNTY.               Las Animas: COUNTRY
SRVC.          Patterson Wireline: SERVICE COMPANY
DATE.          Tue Dec 13 09:33:22 2005: LOG DATE
UWI.           05 071 08596 00: UNIQUE WELL ID
~Curve Information Block
DEPT.FT            0 000 00 00: Depth
CCL.                          : Casing Collar Locator
TT3.usec                      : CBL 3' Travel Time
AMP3.mV                       : CBL 3' Amplitude
GR.GAPI                       : Gamma Ray
~Parameter Information Block
~A  Depth       CCL         TT3         AMP3         GR     
# ...
  1032.0000      0.0000    750.0861     10.1069     86.9065
  1032.2500      0.0000    737.3527      9.9012     92.0877
  1032.5000      0.0000    720.3018      9.6308     96.4330
  1032.7500      0.0000    696.0156      9.3201    100.7959
  1033.0000      0.0000    662.7529      9.0012    104.8575
  1033.2500      0.0000    622.1395      8.7297    107.5647
  1033.5000      0.0000    580.1816      8.5674    108.6652
  1033.7500      0.0000    545.0899      8.5462    109.0475
  1034.0000      0.0000    523.2104      8.6478    109.6339
  1034.2500      0.0000    517.6385      8.8136    110.4712
  1034.5000      0.0000    530.1224      8.9746    111.1763
  1034.7500      0.0000    561.3007      9.0815    111.6986
  1035.0000      0.0000    606.9668      9.1206    111.8675
  1035.2500      0.0000    655.9967      9.1119    110.7016
  1035.5000      0.0000    695.5510      9.0896    107.3224
  1035.7500      0.0000    719.2513      9.0802    102.2761
  1036.0000      0.0000    729.3550      9.0950     96.9040
  1036.2500      0.0000    731.7870      9.1427     91.7669
  1036.5000      0.0000    730.5789      9.2459     86.6252
  1036.7500      0.0000    725.9248      9.4356     81.6359
  1037.0000      0.0000    715.6620      9.7161     77.7936
  1037.2500      0.0000    699.2668     10.0327     76.2658
  1037.5000      0.0000    681.9102     10.2881     77.5245
  1037.7500      0.0000    673.0875     10.4034     80.7325
  1038.0000      0.0000    678.6476     10.3643     83.7750
  1038.2500      0.0000    695.1762     10.2129     84.4320
  1038.5000      0.0000    714.2237     10.0115     82.0973
  1038.7500      0.0000    730.4653      9.8128     78.2902
  1039.0000      0.0000    743.7910      9.6481     75.2306
  1039.2500      0.0000    755.3023      9.5266     73.9763
  1039.5000      0.0000    764.2573      9.4392     73.9809
  1039.7500      0.0000    769.2211      9.3635     74.0169
  1040.0000      0.0000    770.3930      9.2720     73.1467
  1040.2500      0.0000    769.6133      9.1419     71.0170
  1040.5000      0.0000    768.7944      8.9526     67.7461
  1040.7500      0.0000    768.7183      8.6678     63.7748
  1041.0000      0.0000    768.2223      8.2282     59.7628
  1041.2500      0.0000    764.0207      7.5997     56.5672
  1041.5000      0.0000    753.2830      6.8630     55.2419
  1041.7500      0.0000    737.4947      6.2213     56.5656
  1042.0000      0.0000    722.1232      5.8534     60.0447
  1042.2500      0.0000    710.8960      5.7699     63.5684
  1042.5000      0.0000    700.9842      5.8677     64.6999
  1042.7500      0.0000    685.1812      6.0912     62.4766
  1043.0000      0.0000    659.5739      6.4603     57.7991
  1043.2500      0.0000    628.9830      6.9688     52.3948
  1043.5000     -2.0000    603.4520      7.5385     47.8593
  1043.7500      0.0000    588.0770      8.0744     45.3094
  1044.0000      0.0000    577.2722      8.5340     45.1902
  1044.2500      0.0000    562.2593      8.9566     47.3313
  1044.5000      0.0000    545.3830      9.4267     51.3397
  1044.7500      0.0000    542.6835      9.9705     56.6946
  1045.0000      0.0000    567.4926     10.4988     62.4555
  1045.2500      0.0000    613.1523     10.9104     67.3712
  1045.5000      0.0000    656.8428     11.2263     70.6049
  1045.7500      0.0000    680.1196     11.5565     72.2465
  1046.0000      0.0000    682.0377     11.9517     73.0925
  1046.2500      0.0000    672.1740     12.3448     74.0898
  1046.5000      0.0000    655.1331     12.6311     75.8898
  1046.7500      0.0000    626.0501     12.7632     78.4873
  1047.0000      0.0000    581.2792     12.7615     80.9608
  1047.2500      0.0000    528.8421     12.6672     81.8218
  1047.5000      0.0000    484.6432     12.5161     80.1244
  1047.7500      0.0000    460.9302     12.3449     76.2349
  1048.0000      0.0000    461.6452     12.1962     71.3741
  1048.2500      0.0000    485.1972     12.1033     66.7991
  1048.5000      0.0000    525.4991     12.0730     63.6130
  1048.7500      0.0000    570.2266     12.0878     62.6344
  1049.0000      0.0000    602.4380     12.1275     63.7114
  1049.2500      0.0000    607.2650     12.1894     65.4019
  1049.5000      0.0000    579.5696     12.2854     66.0533
  1049.7500      0.0000    527.3926     12.4213     65.5340
  1050.0000      0.0000    468.0405     12.5832     65.7376
  1050.2500      0.0000    418.2062     12.7486     68.9806
  1050.5000      0.0000    385.3212     12.9069     75.6657
  1050.7500      0.0000    366.7812     13.0628     83.7342
  1051.0000      0.0000    355.7119     13.2205     90.5704
  1051.2500      0.0000    346.8528     13.3691     95.0987
  1051.5000      0.0000    338.5937     13.4868     97.9503
  1051.7500      0.0000    331.6570     13.5540    100.2001
  1052.0000      0.0000    326.9561     13.5586    102.2445
  1052.2500      0.0000    324.4871     13.4941    103.4410
  1052.5000      0.0000    323.5929     13.3642    102.6599
  1052.7500      0.0000    323.6942     13.1909     99.5916
  1053.0000      0.0000    324.7520     13.0084     95.4542
  1053.2500      0.0000    327.2921     12.8430     91.8306
  1053.5000      0.0000    331.9494     12.7016     88.9765
  1053.7500      0.0000    338.6721     12.5790     86.0086
  1054.0000      0.0000    346.2619     12.4739     82.5124
  1054.2500      0.0000    352.9402     12.3947     78.9367
  1054.5000      0.0000    357.5114     12.3526     75.6160
  1054.7500      0.0000    359.9443     12.3491     72.6142
  1055.0000      0.0000    360.9724     12.3704     70.3946
  1055.2500      0.0000    361.3903     12.3968     69.4922
  1055.5000      0.0000    361.6833     12.4181     69.5214
  1055.7500      0.0000    362.0043     12.4363     69.3834
  1056.0000      0.0000    362.2888     12.4513     68.5936
  1056.2500      0.0000    362.4012     12.4535     67.7882
  1056.5000      0.0000    362.2715     12.4352     67.7580
  1056.7500      0.0000    361.9587     12.4041     68.4596
  1057.0000      0.0000    361.6143     12.3787     69.1628
  1057.2500      0.0000    361.3876     12.3700     69.1600
  1057.5000      0.0000    361.3432     12.3723     68.1962
  1057.7500      0.0000    361.4413     12.3669     66.6478
  1058.0000      0.0000    361.5895     12.3316     65.5009
  1058.2500      0.0000    361.7239     12.2522     65.7595
  1058.5000      0.0000    361.8587     12.1319     67.4993
  1058.7500      0.0000    362.0642     11.9964     69.4515
  1059.0000      0.0000    362.3944     11.8878     69.6797
  1059.2500      0.0000    362.8204     11.8480     67.0570
  1059.5000      0.0000    363.2337     11.9016     62.2849
  1059.7500      0.0000    363.5219     12.0477     57.2736
  1060.0000      0.0000    363.6021     12.2607     53.5187
  1060.2500      0.0000    363.3097     12.5022     51.3431
  1060.5000      0.0000    362.1974     12.7360     50.4273
  1060.7500      0.0000    359.5374     12.9407     50.4179
  1061.0000      0.0000    354.8309     13.1071     51.0862
  1061.2500      0.0000    348.7627     13.2231     52.4813
  1061.5000      0.0000    343.7299     13.2599     55.0122
  1061.7500      0.0000    342.9602     13.1762     59.0132
  1062.0000      0.0000    348.3835     12.9400     64.1121
  1062.2500      0.0000    358.7855     12.5576     69.2497
  1062.5000      0.0000    369.9117     12.0852     73.4087
  1062.7500      0.0000    376.9611     11.6072     76.1526
  1063.0000      0.0000    377.8273     11.1940     77.4603
  1063.2500      0.0000    374.1796     10.8748     77.3326
  1063.5000      0.0000    369.4031     10.6424     75.7515
  1063.7500      0.0000    365.8290     10.4783     72.9919
  1064.0000      0.0000    363.8781     10.3698     69.8667
  1064.2500      0.0000    362.9493     10.3153     67.5612
  1064.5000      0.0000    362.4189     10.3225     66.9718
  1064.7500      0.0000    361.9836     10.4009     67.9884
  1065.0000      0.0000    361.5628     10.5532     69.5871
  1065.2500      0.0000    361.1459     10.7733     70.8527
