~Version Information
VERS.                      2.0: CWLS Log ASCII Standard - VERSION 2.0
WRAP.                       NO: One line per depth step
~Well Information Block
STRT.FT               390.0000: 
STOP.FT               825.0000: 
STEP.FT                 0.1000: 
NULL.                -999.2500: 
COMP.          Pioneer Natural Resources: COMPANY
WELL.             Veedol 34-28: WELL
FLD.           Purgatoire River: FIELD
LOC.           357' FSL & 2520' FEL: LOCATION
PROV.                 Colorado: PROVINCE
CNTY.               Las Animas: COUNTRY
SRVC.                Patterson: SERVICE COMPANY
DATE.          Thu Dec 22 14:38:20 2005: LOG DATE
UWI.           05 071 08628 00: UNIQUE WELL ID
~Curve Information Block
DEPT.FT            0 000 00 00: Depth
DCAL.in                       : CDL Caliper
RHOB.g/cc                     : CDL Bulk Density
RHOC.g/cc                     : CDL Density Correction
DPOR.pu                       : CDL Density Porosity
GR.GAPI                       : Gamma Ray
NPOR.pu                       : Neutron Porosity
~Parameter Information Block
~A  Depth       DCAL        RHOB        RHOC        DPOR         GR         NPOR    
# ...
   562.8000      7.8975      2.4391      0.0802     12.7811    111.0307     21.6592
   562.9000      7.8975      2.4660      0.0840     11.1503    107.4662     21.5664
   563.0000      7.8969      2.4890      0.1271      9.7580    107.3193     20.6695
   563.1000      7.8969      2.5033      0.0992      8.8881    109.0025     19.7195
   563.2000      7.8969      2.5135      0.1028      8.2713    111.2938     19.5614
   563.3000      7.8966      2.5280      0.1175      7.3966    113.5336     20.3736
   563.4000      7.8966      2.5428      0.1268      6.4951    113.2017     21.4484
   563.5000      7.8967      2.5430      0.1337      6.4856    112.9423     21.9871
   563.6000      7.8967      2.5234      0.1003      7.6724    118.5346     21.9163
   563.7000      7.8967      2.5007      0.0553      9.0465    127.5302     21.7902
   563.8000      7.8966      2.4937      0.0362      9.4718    126.3901     21.8274
   563.9000      7.8966      2.4982      0.0676      9.1971    110.4330     21.5871
   564.0000      7.8962      2.4965      0.0771      9.3050     96.0065     20.8832
   564.1000      7.8962      2.4908      0.0568      9.6503     95.7674     20.4133
   564.2000      7.8962      2.4978      0.0534      9.2224    104.5002     20.7184
   564.3000      7.8953      2.5169      0.0536      8.0677    111.2292     21.2850
   564.4000      7.8953      2.5340      0.0456      7.0309    111.7569     21.7228
   564.5000      7.8942      2.5434      0.0798      6.4610    111.1122     22.1683
   564.6000      7.8942      2.5464      0.0778      6.2776    111.0332     22.6901
   564.7000      7.8942      2.5444      0.0590      6.4003    107.6528     23.1023
   564.8000      7.8946      2.5393      0.0496      6.7062    102.1403     23.0944
   564.9000      7.8946      2.5320      0.0447      7.1526     99.0798     22.6628
   565.0000      7.8955      2.5193      0.0442      7.9185     97.1626     22.0906
   565.1000      7.8955      2.5026      0.0245      8.9305     94.4442     21.9808
   565.2000      7.8955      2.4873      0.0146      9.8609     95.7078     22.4468
   565.3000      7.8960      2.4782      0.0010     10.4136    102.2102     22.9143
   565.4000      7.8960      2.4798     -0.0154     10.3143    106.1155     22.9932
   565.5000      7.8961      2.4874      0.0013      9.8561    106.2013     22.6676
   565.6000      7.8961      2.4967     -0.0054      9.2925    107.6667     22.2300
   565.7000      7.8961      2.5170      0.0139      8.0609    109.3891     21.6740
   565.8000      7.8952      2.5445      0.0583      6.3933    111.2185     20.9672
   565.9000      7.8952      2.5530      0.0669      5.8784    116.3435     20.5156
   566.0000      7.8938      2.5335      0.0195      7.0587    123.0771     20.2644
   566.1000      7.8938      2.5039      0.0292      8.8539    126.7836     20.0044
   566.2000      7.8938      2.4773      0.0181     10.4649    130.2931     20.2906
   566.3000      7.8934      2.4591     -0.0045     11.5695    145.2211     21.5120
   566.4000      7.8934      2.4499      0.0047     12.1263    177.1405     22.5365
   566.5000      7.8939      2.4420     -0.0147     12.6081    211.9518     22.4717
   566.6000      7.8939      2.4347     -0.0357     13.0497    231.6910     22.5028
   566.7000      7.8939      2.4406      0.0036     12.6899    238.1611     23.2597
   566.8000      7.8953      2.4577      0.0486     11.6540    243.8930     23.9590
   566.9000      7.8953      2.4715      0.0061     10.8202    254.9734     24.1331
   567.0000      7.8981      2.4809      0.0649     10.2489    266.7650     24.0917
   567.1000      7.8981      2.4897      0.0619      9.7155    271.1335     24.1920
   567.2000      7.8981      2.5011      0.0669      9.0240    271.7110     24.2486
   567.3000      7.8998      2.5150      0.1564      8.1835    274.2983     23.7023
   567.4000      7.8998      2.5251      0.1237      7.5703    277.8567     22.5069
   567.5000      7.8972      2.5311      0.1297      7.2035    279.2931     21.5267
   567.6000      7.8972      2.5307      0.1026      7.2308    272.6946     21.2893
   567.7000      7.8972      2.5246      0.0831      7.6011    262.0146     21.4477
   567.8000      7.8942      2.5238      0.0998      7.6488    257.0640     21.4643
   567.9000      7.8942      2.5309      0.1065      7.2207    253.2056     21.1418
   568.0000      7.8915      2.5378      0.1107      6.7973    240.8226     20.8323
   568.1000      7.8915      2.5416      0.0850      6.5671    226.6418     20.5498
   568.2000      7.8915      2.5557      0.0952      5.7172    220.1086     19.9677
   568.3000      7.8858      2.5908      0.1221      3.5888    218.6101     19.5698
   568.4000      7.8858      2.6225      0.1795      1.6677    217.2248     19.6462
   568.5000      7.8807      2.6170      0.1349      1.9997    212.4566     19.7554
   568.6000      7.8807      2.5817      0.1134      4.1383    204.3797     19.7375
   568.7000      7.8807      2.5473      0.0818      6.2234    196.2417     19.3852
   568.8000      7.8835      2.5256      0.0842      7.5402    187.2333     18.7259
   568.9000      7.8835      2.5099      0.0648      8.4888    177.9000     18.4397
   569.0000      7.8912      2.4972      0.0272      9.2590    172.3185     18.7231
   569.1000      7.8912      2.4902      0.0063      9.6845    170.8339     19.1390
   569.2000      7.8912      2.4906      0.0156      9.6636    171.4924     19.1554
   569.3000      7.8961      2.4992      0.0246      9.1369    170.0503     18.5741
   569.4000      7.8961      2.5185      0.0292      7.9705    165.9996     17.8382
   569.5000      7.8975      2.5441      0.0593      6.4172    163.6774     17.6186
   569.6000      7.8975      2.5660      0.0384      5.0922    163.3456     17.9944
   569.7000      7.8975      2.5767      0.0602      4.4432    162.3643     18.2341
   569.8000      7.8969      2.5725      0.0740      4.6985    157.2638     17.8939
   569.9000      7.8969      2.5593      0.0418      5.4946    147.9796     17.5674
   570.0000      7.8961      2.5511      0.0531      5.9922    142.9487     17.7729
   570.1000      7.8961      2.5568      0.0052      5.6456    148.0540     18.1697
   570.2000      7.8961      2.5738      0.0699      4.6196    155.6787     18.3320
   570.3000      7.8962      2.5912      0.0535      3.5642    157.2468     18.3289
   570.4000      7.8962      2.6004      0.0746      3.0043    153.9727     18.1857
   570.5000      7.8965      2.5994      0.0396      3.0671    150.5399     17.8565
   570.6000      7.8965      2.5968      0.0426      3.2242    148.4113     17.4949
   570.7000      7.8965      2.5995      0.0482      3.0595    145.0911     17.4160
   570.8000      7.8966      2.6021      0.0728      2.9053    142.3151     17.8050
   570.9000      7.8966      2.5974      0.0616      3.1852    142.6199     18.3439
   571.0000      7.8960      2.5859      0.0538      3.8832    142.0567     18.5977
   571.1000      7.8960      2.5653      0.0865      5.1328    140.7851     18.6717
   571.2000      7.8960      2.5329      0.0198      7.0956    143.3041     18.7651
   571.3000      7.8959      2.5042      0.0002      8.8371    148.9755     18.7641
   571.4000      7.8959      2.4916      0.0283      9.6018    150.8254     18.6022
   571.5000      7.8958      2.4873     -0.0103      9.8587    145.7235     18.5749
   571.6000      7.8958      2.4850     -0.0315      9.9993    141.6773     18.6240
   571.7000      7.8958      2.4880     -0.0215      9.8184    147.1370     18.1743
   571.8000      7.8959      2.4972      0.0059      9.2627    158.8239     17.3940
   571.9000      7.8959      2.5056     -0.0013      8.7487    171.5776     17.0145
   572.0000      7.8962      2.5072      0.0060      8.6574    184.3234     17.1154
   572.1000      7.8962      2.5000      0.0301      9.0931    192.1852     17.3889
   572.2000      7.8962      2.4870      0.0126      9.8769    191.3032     17.5737
   572.3000      7.8961      2.4755      0.0192     10.5746    189.7868     17.2293
