~Version Information
VERS.                      2.0: CWLS Log ASCII Standard - VERSION 2.0
WRAP.                       NO: One line per depth step
~Well Information Block
STRT.FT                -6.7500: 
STOP.FT              2256.0000: 
STEP.FT                 0.2500: 
NULL.                -999.2500: 
COMP.          Pioneer Natural Resources: COMPANY
WELL.               Relay 12-7: WELL
FLD.           Purgatorie River: FIELD
LOC.           1999' FNL & 848' FWL--: LOCATION
PROV.                       CO: PROVINCE
CNTY.               Las Animas: COUNTRY
SRVC.          Patterson Wireline: SERVICE COMPANY
DATE.          Thu Dec 22 09:06:31 2005: LOG DATE
UWI.           05 071 08453 00: UNIQUE WELL ID
~Curve Information Block
DEPT.FT            0 000 00 00: Depth
CCL.                          : Casing Collar Locator
TT3.usec                      : CBL 3' Travel Time
AMP3.mV                       : CBL 3' Amplitude
GR.GAPI                       : Gamma Ray
~Parameter Information Block
~A  Depth       CCL         TT3         AMP3         GR     
# ...
  1500.7500      0.0000    612.3717      6.0632    154.1281
  1501.0000      0.0000    628.5217      5.9447    149.8124
  1501.2500      0.0000    644.3078      5.8310    146.4444
  1501.5000      0.0000    656.7803      5.7721    143.9228
  1501.7500      0.0000    664.6619      5.7996    142.8173
  1502.0000      0.0000    668.4199      5.9006    144.1077
  1502.2500      0.0000    668.6827      6.0273    147.9205
  1502.5000      0.0000    664.6636      6.1293    152.6428
  1502.7500      0.0000    654.3340      6.1771    155.6688
  1503.0000      0.0000    636.9283      6.1644    155.2413
  1503.2500      0.0000    615.9828      6.1006    151.5854
  1503.5000      0.0000    599.0515      6.0027    146.3625
  1503.7500      0.0000    592.9276      5.8925    141.2555
  1504.0000      0.0000    598.7851      5.7961    137.1873
  1504.2500      0.0000    612.2300      5.7397    134.5939
  1504.5000      0.0000    627.1519      5.7372    133.8848
  1504.7500      0.0000    638.0745      5.7795    135.2580
  1505.0000      0.0000    639.6343      5.8392    138.1635
  1505.2500      0.0000    627.1052      5.8847    141.3170
  1505.5000      0.0000    599.8383      5.8916    143.4554
  1505.7500      0.0000    563.7601      5.8495    144.1253
  1506.0000      0.0000    528.7946      5.7661    143.9664
  1506.2500      0.0000    502.8149      5.6609    144.2212
  1506.5000      0.0000    487.8076      5.5518    145.6585
  1506.7500      0.0000    481.0338      5.4490    147.9809
  1507.0000      0.0000    478.5801      5.3596    150.5769
  1507.2500      0.0000    477.7375      5.2903    153.4529
  1507.5000      0.0000    477.2737      5.2464    156.7941
  1507.7500      0.0000    476.7783      5.2295    159.9333
  1508.0000      0.0000    476.1405      5.2364    161.6137
  1508.2500      0.0000    475.4013      5.2581    161.2632
  1508.5000      0.0000    474.7403      5.2813    159.4778
  1508.7500      0.0000    474.4312      5.2940    157.2772
  1509.0000      0.0000    474.9761      5.2904    155.2795
  1509.2500      0.0000    477.6698      5.2726    153.7551
  1509.5000      0.0000    485.3506      5.2469    153.0875
  1509.7500      0.0000    502.2923      5.2204    153.5913
  1510.0000      0.0000    531.8923      5.1987    155.0486
  1510.2500      0.0000    572.7695      5.1896    157.0480
  1510.5000      0.0000    617.1743      5.2054    159.5947
  1510.7500      0.0000    654.9945      5.2556    162.6306
  1511.0000      0.0000    680.3412      5.3358    165.1747
  1511.2500      0.0000    693.9854      5.4276    165.9212
  1511.5000      0.0000    700.0525      5.5112    164.6802
  1511.7500      0.0000    701.8033      5.5743    162.2232
  1512.0000      0.0000    700.3362      5.6090    158.7386
  1512.2500      0.0000    695.6846      5.6077    153.5036
  1512.5000      0.0000    688.2029      5.5666    146.1299
  1512.7500      0.0000    678.8242      5.4909    137.2193
  1513.0000      0.0000    667.8049      5.3963    127.9225
  1513.2500      0.0000    654.0010      5.3048    119.6787
  1513.5000      0.0000    637.3687      5.2375    114.2291
  1513.7500      0.0000    622.3740      5.2062    113.1012
  1514.0000      0.0000    615.9008      5.2084    116.7647
  1514.2500      0.0000    619.4873      5.2310    124.3625
  1514.5000      0.0000    625.2440      5.2580    134.1608
  1514.7500      0.0000    622.1526      5.2747    143.8632
  1515.0000      0.0000    606.7222      5.2709    150.4913
  1515.2500      0.0000    586.7955      5.2424    151.1519
  1515.5000      0.0000    574.4474      5.1941    145.4212
  1515.7500      0.0000    575.0847      5.1416    136.7448
  1516.0000      0.0000    583.2749      5.1087    130.1313
  1516.2500      0.0000    588.1759      5.1189    128.3477
  1516.5000      0.0000    581.8088      5.1823    130.9753
  1516.7500      0.0000    563.1683      5.2868    136.4724
  1517.0000      0.0000    537.3519      5.4037    143.8427
  1517.2500      0.0000    512.2626      5.5040    152.3021
  1517.5000      0.0000    494.7197      5.5699    160.3442
  1517.7500      0.0000    488.0918      5.5938    165.7355
  1518.0000      0.0000    492.5337      5.5710    166.7261
  1518.2500      0.0000    505.7148      5.5033    163.5035
  1518.5000      0.0000    523.1052      5.4075    158.3453
  1518.7500      0.0000    540.0197      5.3135    154.1559
  1519.0000      0.0000    554.9526      5.2501    152.8088
  1519.2500      0.0000    569.2944      5.2313    154.3736
  1519.5000      0.0000    583.0452      5.2561    157.2098
  1519.7500      0.0000    593.6858      5.3103    159.1357
  1520.0000      0.0000    600.3732      5.3712    159.3781
  1520.2500      0.0000    606.4764      5.4158    159.0405
  1520.5000      0.0000    615.1095      5.4340    159.0252
  1520.7500      0.0000    622.5821      5.4295    158.4465
  1521.0000      0.0000    619.6008      5.4121    156.1167
  1521.2500      0.0000    601.4379      5.3915    152.6864
  1521.5000      0.0000    575.7264      5.3771    150.0254
  1521.7500      0.0000    558.0668      5.3767    148.8301
  1522.0000      0.0000    559.8146      5.3967    147.8080
  1522.2500      0.0000    580.0067      5.4481    145.1574
  1522.5000      0.0000    606.7332      5.5521    140.2600
  1522.7500      0.0000    624.4427      5.7259    133.8153
  1523.0000      0.0000    622.3369      5.9539    126.8849
  1523.2500      0.0000    600.3533      6.1807    120.4882
  1523.5000      0.0000    569.7371      6.3429    116.0734
  1523.7500      0.0000    546.8005      6.4078    115.5183
  1524.0000      0.0000    543.0147      6.3803    119.9276
  1524.2500      0.0000    557.9894      6.2840    128.4812
  1524.5000      0.0000    580.5978      6.1435    138.8180
  1524.7500      0.0000    597.8251      5.9778    148.4442
  1525.0000      0.0000    603.7769      5.8032    155.5260
  1525.2500      0.0000    599.8629      5.6387    158.8287
  1525.5000      0.0000    587.2770      5.5081    157.9744
  1525.7500      0.0000    563.0479      5.4318    153.9747
  1526.0000      0.0000    525.4327      5.4174    148.8820
  1526.2500      0.0000    480.4044      5.4568    144.5812
  1526.5000      0.0000    439.4415      5.5281    141.9259
  1526.7500      0.0000    411.2332      5.6037    140.7459
  1527.0000      0.0000    397.2720      5.6666    140.5616
  1527.2500      0.0000    394.9999      5.7217    141.6200
  1527.5000      2.0000    403.5002      5.7873    145.1086
  1527.7500      0.0000    425.6093      5.8887    151.6534
  1528.0000      0.0000    464.1236      6.0568    159.6359
  1528.2500      0.0000    514.6557      6.3015    165.8726
  1528.5000      0.0000    562.8231      6.5625    168.2679
  1528.7500      0.0000    591.9427      6.7201    167.2785
  1529.0000      0.0000    595.7456      6.6987    164.8092
  1529.2500      0.0000    582.3684      6.5392    162.5424
  1529.5000      0.0000    565.6444      6.3486    161.6753
  1529.7500      0.0000    554.4442      6.2055    163.1335
  1530.0000      0.0000    549.8403      6.1330    166.8926
  1530.2500      0.0000    548.3524      6.1265    171.2014
  1530.5000      0.0000    545.4828      6.1753    173.3070
  1530.7500      0.0000    538.7173      6.2617    171.3678
  1531.0000      0.0000    530.8411      6.3575    165.4912
  1531.2500      0.0000    529.6722      6.4303    156.7204
  1531.5000      0.0000    539.9946      6.4591    145.3302
  1531.7500      0.0000    554.4827      6.4474    130.8464
  1532.0000      0.0000    557.2849      6.4159    113.8363
  1532.2500      0.0000    540.3983      6.3743     96.8680
  1532.5000      0.0000    513.4779      6.3052     83.1287
  1532.7500      0.0000    493.1629      6.1850     74.2997
  1533.0000      0.0000    484.7137      6.0217     69.9161
  1533.2500      0.0000    479.0375      5.8594     68.4180
  1533.5000      0.0000    466.7415      5.7401     68.5165
  1533.7500      0.0000    449.4897      5.6715     69.6142
  1534.0000      0.0000    436.9793      5.6374     71.3627
