~Version Information
VERS.                      2.0: CWLS Log ASCII Standard - VERSION 2.0
WRAP.                       NO: One line per depth step
~Well Information Block
STRT.FT               530.7500: 
STOP.FT              1325.2500: 
STEP.FT                 0.2500: 
NULL.                -999.2500: 
COMP.          Pioneer Natural Resources: COMPANY
WELL.            Erin 21-15 Tr: WELL
FLD.           Purgatoire River: FIELD
LOC.           1217' FNL & 2284' FWL--: LOCATION
CNTY.               Las Animas: COUNTY
SRVC.                Patterson: SERVICE COMPANY
DATE.          Fri Mar 03 23:07:06 2006: LOG DATE
UWI.           05 071 08712 00: UNIQUE WELL ID
STAT.                 Colorado: STATE
~Curve Information Block
DEPT.FT            0 000 00 00: Depth
SN.Ohm-m                      : IEL Short Normal
SP.mV                         : IEL Spontaneous Potential
DIR.Ohm-m                     : IEL Induction Resistivity
GR.GAPI                       : Gamma Ray
~Parameter Information Block
~A  Depth        SN          SP         DIR          GR     
# ...
   698.2500      1.9170   -216.6424 100000.0000     62.2611
   698.5000      1.9032   -212.0819 100000.0000     59.4251
   698.7500      1.8969   -206.9023 100000.0000     57.5107
   699.0000      1.8966   -201.2473 100000.0000     53.2310
   699.2500      1.8934   -195.2542 100000.0000     49.2865
   699.5000      1.8786   -189.0486 100000.0000     42.6870
   699.7500      1.8493   -182.7451 100000.0000     38.6141
   700.0000      1.8098   -176.4462 100000.0000     33.8106
   700.2500      1.7682   -170.2358 100000.0000     31.5358
   700.5000      1.7326   -164.1665 100000.0000     29.2839
   700.7500      1.7087   -158.2468 100000.0000     28.5282
   701.0000      1.6983   -152.4389 100000.0000     28.9863
   701.2500      1.7000   -146.6747 100000.0000     30.8442
   701.5000      1.7145   -140.8877 100000.0000     36.5640
   701.7500      1.7591   -135.0505 100000.0000     42.2625
   702.0000      1.9081   -129.2035 100000.0000     52.7780
   702.2500      2.3780   -123.4616 100000.0000     60.4008
   702.5000      3.6600   -117.9956 100000.0000     71.5954
   702.7500      6.5995   -112.9952 100000.0000     78.2410
   703.0000     12.2004   -108.6296 100000.0000     85.7517
   703.2500     21.0348   -105.0158     12.4548     88.5136
   703.5000     32.5654   -102.2056      4.1507     89.1976
   703.7500     44.9954   -100.1883      3.5289     88.0412
   704.0000     55.9017    -98.9040      5.4040     85.7597
   704.2500     63.1823    -98.2623     73.0220     84.7966
   704.5000     65.6635    -98.1619 100000.0000     84.8158
   704.7500     63.1793    -98.5122 100000.0000     85.5833
   705.0000     56.3788    -99.2542 100000.0000     86.8417
   705.2500     46.5295   -100.3795      4.3338     87.0863
   705.5000     35.3365   -101.9427      1.2509     85.8514
   705.7500     24.6219   -104.0587      0.6524     83.9122
   706.0000     15.8230   -106.8811      0.4614     79.5379
   706.2500      9.5647   -110.5629      0.4327     75.6069
   706.5000      5.6426   -115.2063      0.5378     67.7514
   706.7500      3.4085   -120.8153      0.8791     61.1618
   707.0000      2.2094   -127.2645      2.1283     50.3231
   707.2500      1.5947   -134.2962    392.8583     43.5951
   707.5000      1.2995   -141.5512 100000.0000     35.7753
   707.7500      1.1660   -148.6236 100000.0000     32.2386
   708.0000      1.0955   -155.1318 100000.0000     28.7869
   708.2500      1.0336   -160.7832 100000.0000     27.2330
   708.5000      0.9591   -165.4142 100000.0000     25.4842
   708.7500      0.8685   -168.9910 100000.0000     24.6513
   709.0000      0.7662   -171.5712 100000.0000     24.3507
   709.2500      0.6621   -173.2328 100000.0000     25.2718
   709.5000      0.5708   -173.9908 100000.0000     29.0688
   709.7500      0.5033   -173.7308 100000.0000     33.4123
   710.0000      0.4577   -172.1807 100000.0000     42.7276
   710.2500      0.4204   -168.9386 100000.0000     50.7455
   710.5000      0.3812   -163.5521 100000.0000     64.8936
   710.7500      0.3502   -155.6366      5.8132     74.9844
   711.0000      0.3730   -144.9958      1.4100     89.5249
   711.2500      0.5434   -131.7121      0.5773     98.1684
   711.5000      1.0117   -116.1776      0.2788    109.3832
   711.7500      1.9698    -99.0511      0.1554    115.9634
   712.0000      3.5925    -81.1560      0.1139    124.6895
   712.2500      5.9459    -63.3484      0.1216    129.3640
   712.5000      8.9331    -46.3925      0.1866    133.6944
   712.7500     12.3381    -30.8735      0.3674    134.7651
   713.0000     15.9239    -17.1563      0.8757    135.0074
   713.2500     19.4824     -5.3896      3.7101    135.2897
   713.5000     22.8128      4.4600 100000.0000    136.5616
   713.7500     25.7117     12.5662 100000.0000    137.4631
   714.0000     28.0276     19.1963 100000.0000    137.3336
   714.2500     29.7325     24.6665 100000.0000    135.8364
   714.5000     30.9344     29.2991 100000.0000    132.5850
   714.7500     31.8199     33.3851 100000.0000    130.9499
   715.0000     32.5687     37.1534     12.8016    130.2133
   715.2500     33.2969     40.7579      6.4812    130.4242
   715.5000     34.0558     44.2810      5.5773    130.7617
   715.7500     34.8716     47.7517      6.1221    130.8794
   716.0000     35.7879     51.1671      7.8759    131.1213
   716.2500     36.8834     54.5098     11.3157    131.1484
   716.5000     38.2605     57.7530     17.3948    129.7397
   716.7500     40.0067     60.8550     27.5197    126.8904
   717.0000     42.1335     63.7508     45.9968    118.9426
   717.2500     44.5200     66.3473    124.2074    111.4811
   717.5000     46.8931     68.5301 100000.0000     98.1787
   717.7500     48.8483     70.1819 100000.0000     88.4805
   718.0000     49.9151     71.2076 100000.0000     73.6606
   718.2500     49.6973     71.5570 100000.0000     64.5702
   718.5000     48.0672     71.2355 100000.0000     54.6324
   718.7500     45.2711     70.2991 100000.0000     51.8767
   719.0000     41.8151     68.8395 100000.0000     54.6482
   719.2500     38.1939     66.9648 100000.0000     60.8036
   719.5000     34.6856     64.7864 100000.0000     74.8877
   719.7500     31.3582     62.4152     35.7481     86.2043
   720.0000     28.2171     59.9637     18.4086    103.4494
   720.2500     25.3240     57.5475     14.0957    113.6015
   720.5000     22.7944     55.2849     12.6009    124.9543
   720.7500     20.7218     53.2860     12.1819    129.6787
   721.0000     19.1248     51.6386     12.2804    133.5340
   721.2500     17.9539     50.3954     12.6452    134.9511
   721.5000     17.1314     49.5703     13.1291    136.3880
   721.7500     16.5788     49.1449     13.6333    136.7014
   722.0000     16.2256     49.0802     14.0934    135.1278
   722.2500     16.0125     49.3311     14.4769    132.4119
   722.5000     15.8986     49.8574     14.7808    126.7574
   722.7500     15.8659     50.6274     15.0261    123.1241
   723.0000     15.9101     51.6144     15.2457    119.8036
   723.2500     16.0238     52.7911     15.4681    119.4192
   723.5000     16.1833     54.1240     15.7015    120.7731
   723.7500     16.3458     55.5696     15.9270    122.0663
   724.0000     16.4622     57.0757     16.1053    123.6810
   724.2500     16.5001     58.5862     16.1925    124.6836
   724.5000     16.4605     60.0471     16.1590    126.7193
   724.7500     16.3773     61.4127     16.0015    128.4789
   725.0000     16.2994     62.6508     15.7453    131.1745
   725.2500     16.2714     63.7440     15.4398    132.6054
   725.5000     16.3177     64.6895     15.1462    133.6162
   725.7500     16.4320     65.4957     14.9224    133.3513
   726.0000     16.5764     66.1771     14.8081    131.8445
   726.2500     16.6890     66.7504     14.8165    130.5300
   726.5000     16.6932     67.2306     14.9336    128.5358
   726.7500     16.5096     67.6307     15.1236    127.0698
   727.0000     16.0787     67.9623     15.3399    124.1526
   727.2500     15.3958     68.2363     15.5390    121.5742
   727.5000     14.5384     68.4640     15.6927    117.2605
   727.7500     13.6634     68.6553     15.7944    114.9422
   728.0000     12.9650     68.8175     15.8551    114.2118
   728.2500     12.6094     68.9519     15.8926    116.3433
   728.5000     12.6721     69.0533     15.9177    123.3128
   728.7500     13.1032     69.1096     15.9235    129.4276
   729.0000     13.7405     69.1043     15.8835    138.1705
   729.2500     14.3761     69.0204     15.7635    142.4277
   729.5000     14.8460     68.8459     15.5421    145.6733
   729.7500     15.0842     68.5794     15.2278    146.0581
   730.0000     15.1129     68.2347     14.8595    144.9146
   730.2500     14.9944     67.8444     14.4902    143.4160
   730.5000     14.7909     67.4585     14.1659    140.4717
   730.7500     14.5486     67.1396     13.9130    138.2346
   731.0000     14.2980     66.9524     13.7373    134.7599
   731.2500     14.0605     66.9503     13.6298    132.4593
   731.5000     13.8540     67.1612     13.5747    129.0516
