~Version Information
 VERS.                                  2.0 : CWLS LAS VERSION
 WRAP.                                   NO : WRAPING MODE
 SWARE .                 MController 2.5.0J : SOFTWARE VERSION
~Well Information
 WELL.                         Joplin 44-05 : WELL
 COMP.    Pioneer Natural Resources USA Inc : COMPANY
 FLD.                      Purgatoire River : FIELD
 LOC.                  SE/SE SEC5 T33S R66W : LOCATION
 DATE.                             12/12/05 : DATE(S) LOGGED
 SRVC.       Blanco Geological Services LLC : SERVICE COMPANY
 STAT.                             Colorado : STATE
 CNTY.                           Las Animas : COUNTY
 CTRY.                                  USA : COUNTRY
 API.                       05-071-08623-05 : API NUMBER
 STRT.FT                             686.00 : START DEPTH
 STOP.FT                            2105.00 : STOP DEPTH
 STEP.FT                               1.00 : DEPTH INCREMENT
 NULL.                                -9999 : NULL VALUE
~Curve information
 DEPTH.FT                                   :
 ROP.MIN/FT                                 :
 GAS.UNITS                                  :
~ASCII Log data
# ...
       886.0         0.17          3.7 
       887.0         0.17          3.7 
       888.0         0.17          3.3 
       889.0         0.13          3.1 
       890.0         0.20          3.7 
       891.0         0.13          3.7 
       892.0         0.18          3.6 
       893.0         0.20          3.6 
       894.0         0.17          3.4 
       895.0         0.27          3.4 
       896.0         1.57          4.0 
       897.0         0.27          6.0 
       898.0         0.30          7.6 
       899.0         0.30          7.0 
       900.0         0.23          4.3 
       901.0         0.28          3.8 
       902.0         0.27          3.8 
       903.0         0.23          5.5 
       904.0         0.20          5.9 
       905.0         0.20          6.5 
       906.0         0.23          6.8 
       907.0         0.20          8.9 
       908.0         0.23         11.9 
       909.0         0.30         13.6 
       910.0         0.27         17.1 
       911.0         0.13         26.7 
       912.0         0.27         35.4 
       913.0         0.30         16.3 
       914.0         0.38          7.8 
       915.0         0.30          2.4 
       916.0         0.17          2.4 
       917.0         0.20          2.6 
       918.0         0.13          3.0 
       919.0         0.17          3.0 
       920.0         0.17          2.7 
       921.0         0.10          2.7 
       922.0         0.13          2.4 
       923.0         0.20          3.1 
       924.0         0.20          3.1 
       925.0         0.23          2.6 
       926.0         2.65          2.8 
       927.0         0.73          2.6 
       928.0         0.37          2.3 
       929.0         0.27          2.3 
       930.0         0.33          2.3 
       931.0         0.28          2.0 
       932.0         0.23          6.6 
       933.0         0.30          8.1 
       934.0         0.30          4.2 
       935.0         0.23          3.8 
       936.0         0.20          3.4 
       937.0         0.17        241.6 
       938.0         0.20        283.8 
       939.0         0.30        296.4 
       940.0         0.27        156.3 
       941.0         0.23         81.5 
       942.0         0.17         68.7 
       943.0         0.23         72.5 
       944.0         0.17         75.8 
       945.0         0.35         81.9 
       946.0         0.20         94.8 
       947.0         0.17        113.7 
       948.0         0.37         95.9 
       949.0         0.30         71.4 
       950.0         0.10         71.4 
       951.0         0.13         68.5 
       952.0         0.13         57.6 
       953.0         0.20         49.1 
       954.0         0.17        131.2 
       955.0         0.07        213.6 
       956.0         2.18        870.7 
       957.0         0.23        430.2 
       958.0         0.17        430.2 
       959.0         0.13        483.8 
       960.0         0.17        498.1 
       961.0         0.20        467.0 
       962.0         0.20        468.9 
       963.0         0.10        468.9 
       964.0         0.17        450.8 
       965.0         0.17        450.8 
       966.0         0.20        439.1 
       967.0         0.20        432.7 
       968.0         0.17        405.1 
       969.0         0.20        400.0 
       970.0         0.23        195.3 
       971.0         0.22        184.0 
       972.0         0.23        219.8 
       973.0         0.23        302.4 
       974.0         0.27        303.4 
       975.0         0.20        299.0 
       976.0         0.20        293.8 
       977.0         0.27        287.8 
       978.0         0.20        257.5 
       979.0         0.13        262.2 
       980.0         0.17        293.4 
       981.0         0.17        311.3 
       982.0         0.17        430.3 
       983.0         0.20       1336.0 
       984.0         0.20       1434.4 
       985.0         0.23       1608.0 
       986.0         1.68       1425.5 
       987.0         0.37        711.7 
       988.0         0.27        683.2 
       989.0         0.27        665.7 
       990.0         0.23        655.5 
       991.0         0.23        655.2 
       992.0         0.23        642.9 
       993.0         0.23        639.0 
       994.0         0.22        616.8 
       995.0         0.20        606.4 
       996.0         0.27        598.4 
       997.0         0.13        600.3 
       998.0         0.20        597.1 
       999.0         0.20        595.2 
      1000.0         0.17        595.2 
      1001.0         0.20        594.0 
      1002.0         0.20        589.2 
      1003.0         0.17        580.6 
      1004.0         0.20        581.6 
      1005.0         0.17        591.4 
      1006.0         0.17        591.4 
      1007.0         0.37        643.2 
      1008.0         0.47        583.8 
      1009.0         0.42        540.7 
      1010.0         0.47        486.4 
      1011.0         0.47        652.1 
      1012.0         0.37        954.8 
      1013.0         0.40       1562.9 
      1014.0         0.27       1486.1 
      1015.0         0.53       1260.5 
      1016.0         0.95        966.3 
      1017.0         0.23        755.5 
      1018.0         0.23        741.9 
      1019.0         0.20        711.7 
      1020.0         0.17        702.8 
      1021.0         0.17        702.8 
      1022.0         0.17        698.7 
      1023.0         0.10        668.2 
      1024.0         0.17        668.2 
      1025.0         0.13        659.7 
      1026.0         0.10        659.7 
      1027.0         0.13        665.7 
      1028.0         0.17        665.7 
      1029.0         0.13        664.8 
      1030.0         0.20        625.1 
      1031.0         0.23        625.1 
      1032.0         0.13        617.8 
      1033.0         0.20        588.3 
      1034.0         0.35        581.3 
      1035.0         0.13        604.1 
      1036.0         0.20        604.1 
      1037.0         0.30        639.7 
      1038.0         0.17        642.2 
      1039.0         0.80        667.0 
      1040.0         0.53        594.3 
      1041.0         0.47        471.5 
      1042.0         0.53        496.5 
      1043.0         0.45        580.0 
      1044.0         0.33        638.4 
      1045.0         0.27        690.5 
      1046.0         5.83       1712.1 
      1047.0         0.33        762.2 
      1048.0         0.23        726.3 
      1049.0         0.23        720.6 
      1050.0         0.20        703.5 
      1051.0         0.17        703.5 
      1052.0         0.17        684.7 
      1053.0         0.17        677.1 
      1054.0         0.17        667.6 
      1055.0         0.20        673.6 
      1056.0         0.23        670.1 
      1057.0         0.23        660.6 
      1058.0         0.23        693.3 
      1059.0         0.23        682.5 
      1060.0         0.23        690.8 
      1061.0         0.22        703.8 
      1062.0         0.10        703.8 
      1063.0         0.17        707.0 
      1064.0         0.20        662.5 
      1065.0         0.27        614.3 
      1066.0         0.30        588.3 
      1067.0         0.27        549.2 
      1068.0         0.30        478.8 
      1069.0         0.13        478.8 
      1070.0         0.17        523.8 
      1071.0         0.20        665.4 
      1072.0         0.20        705.7 
      1073.0         0.20       1106.2 
      1074.0         0.17       1402.3 
      1075.0         0.30       1617.9 
      1076.0         2.12       1455.0 
      1077.0         0.17        759.0 
      1078.0         0.10        759.0 
      1079.0         0.17        722.5 
      1080.0         0.13        674.6 
      1081.0         0.23        652.4 
      1082.0         0.20        660.3 
      1083.0         0.33        709.2 
      1084.0         0.20        715.5 
      1085.0         0.18        719.0 
