~Version Information
 VERS.                                  2.0 : CWLS LAS VERSION
 WRAP.                                   NO : WRAPING MODE
 SWARE .                 MController 2.5.0J : SOFTWARE VERSION
~Well Information
 WELL.                     Hemisphere 32-24 : WELL
 COMP.    Pioneer Natural Resources USA Inc : COMPANY
 FLD.                      Purgatoire River : FIELD
 LOC.                 SE/SW Sec 24 T33 R67W : LOCATION
 DATE.                             08/14/05 : DATE(S) LOGGED
 SRVC.       BLANCO Geological Services LLC : SERVICE COMPANY
 STAT.                                   CO : STATE
 CNTY.                           Las Animas : COUNTY
 CTRY.                                  USA : COUNTRY
 API.                       05-071-08440-00 : API NUMBER
 STRT.FT                             399.00 : START DEPTH
 STOP.FT                            2171.00 : STOP DEPTH
 STEP.FT                               1.00 : DEPTH INCREMENT
 NULL.                                -9999 : NULL VALUE
~Curve information
 DEPTH.FT                                   :
 ROP.MIN/FT                                 :
 GAS.UNITS                                  :
~ASCII Log data
# ...
      1599.0         0.37         39.9 
      1600.0         0.37         37.5 
      1601.0         0.33         36.8 
      1602.0         0.33         35.8 
      1603.0         0.28         35.8 
      1604.0         0.33         36.7 
      1605.0         0.37         36.3 
      1606.0         0.33         37.1 
      1607.0         0.30         35.8 
      1608.0         0.30         36.5 
      1609.0         0.37         35.5 
      1610.0         0.37         36.4 
      1611.0         0.33         38.1 
      1612.0         0.27         38.1 
      1613.0         0.23         37.2 
      1614.0         0.32         36.8 
      1615.0         0.30         37.0 
      1616.0         4.55        168.8 
      1617.0         0.53         59.2 
      1618.0         0.37         59.6 
      1619.0         0.30         56.4 
      1620.0         0.33         51.9 
      1621.0         0.38         46.7 
      1622.0         0.30         40.9 
      1623.0         0.33         36.5 
      1624.0         0.30         35.7 
      1625.0         0.27         35.8 
      1626.0         0.30         36.3 
      1627.0         0.30         38.4 
      1628.0         0.30         39.6 
      1629.0         0.30         39.7 
      1630.0         0.27         39.3 
      1631.0         0.23         39.8 
      1632.0         0.28         41.4 
      1633.0         0.30         42.0 
      1634.0         0.27         43.9 
      1635.0         0.20         43.9 
      1636.0         0.30         44.2 
      1637.0         0.33         43.2 
      1638.0         0.33         43.5 
      1639.0         0.30         43.0 
      1640.0         0.33         42.2 
      1641.0         0.37         41.2 
      1642.0         0.33         41.5 
      1643.0         0.28         40.8 
      1644.0         0.17         39.9 
      1645.0         0.13         39.9 
      1646.0         3.65         76.5 
      1647.0         0.40         45.4 
      1648.0         0.37         47.3 
      1649.0         0.40         47.0 
      1650.0         0.37         44.2 
      1651.0         0.43         41.6 
      1652.0         0.53         38.5 
      1653.0         0.48         36.1 
      1654.0         0.33         35.1 
      1655.0         0.37         35.3 
      1656.0         0.37         33.9 
      1657.0         0.40         34.8 
      1658.0         0.37         37.3 
      1659.0         0.33         38.2 
      1660.0         0.30         38.7 
      1661.0         0.23         39.3 
      1662.0         0.22         39.6 
      1663.0         0.23         41.0 
      1664.0         0.23         48.3 
      1665.0         0.27         58.6 
      1666.0         0.30         64.6 
      1667.0         0.27         67.7 
      1668.0         0.27         69.7 
      1669.0         0.20         71.1 
      1670.0         0.23         72.2 
      1671.0         0.23         78.2 
      1672.0         0.23         91.4 
      1673.0         0.30        102.5 
      1674.0         0.30        104.7 
      1675.0         0.75         97.6 
      1676.0         2.83        290.7 
      1677.0         0.35        259.3 
      1678.0         0.33        197.5 
      1679.0         0.33        115.0 
      1680.0         0.37        101.3 
      1681.0         0.30         95.5 
      1682.0         0.47         95.7 
      1683.0         0.40         88.4 
      1684.0         0.40         82.0 
      1685.0         0.52         78.9 
      1686.0         0.40         69.8 
      1687.0         0.33         65.6 
      1688.0         0.30         64.9 
      1689.0         0.27         63.6 
      1690.0         0.27         59.7 
      1691.0         0.17         57.5 
      1692.0         0.13         57.5 
      1693.0         0.13         57.2 
      1694.0         0.27         54.3 
      1695.0         0.27         52.9 
      1696.0         0.27         53.8 
      1697.0         0.27         56.8 
      1698.0         0.22         57.6 
      1699.0         0.23         57.2 
      1700.0         0.23         56.5 
      1701.0         0.23         55.8 
      1702.0         0.23         55.4 
      1703.0         0.20         54.3 
      1704.0         0.23         53.4 
      1705.0         0.23         52.5 
      1706.0         3.65        144.4 
      1707.0         0.20        111.6 
      1708.0         0.13         95.9 
      1709.0         0.27         75.4 
      1710.0         0.27         73.0 
      1711.0         0.27         63.6 
      1712.0         0.38         65.5 
      1713.0         0.40         65.8 
      1714.0         0.27         62.2 
      1715.0         0.37         56.8 
      1716.0         0.37         50.6 
      1717.0         0.30         47.9 
      1718.0         0.17         46.7 
      1719.0         0.20         47.2 
      1720.0         0.20         46.4 
      1721.0         0.17         46.4 
      1722.0         0.20         45.7 
      1723.0         0.50         65.4 
      1724.0         0.32         84.7 
      1725.0         0.40         89.3 
      1726.0         0.30         89.1 
      1727.0         0.30         84.2 
      1728.0         0.20         80.1 
      1729.0         0.33         79.1 
      1730.0         0.37         73.7 
      1731.0         0.33         69.3 
      1732.0         0.23         66.4 
      1733.0         0.20         62.0 
      1734.0         0.20         59.6 
      1735.0         0.27         58.5 
      1736.0         3.87        234.2 
      1737.0         0.23        210.2 
      1738.0         0.43        149.3 
      1739.0         0.43         90.5 
      1740.0         0.40         87.2 
      1741.0         0.37         86.7 
      1742.0         0.37         77.4 
      1743.0         0.37         69.5 
      1744.0         0.62         61.9 
      1745.0         0.43         55.7 
      1746.0         0.27         52.7 
      1747.0         0.23         52.9 
      1748.0         0.20         53.7 
      1749.0         0.20         54.0 
      1750.0         0.23         54.0 
      1751.0         0.17         54.0 
      1752.0         0.17         54.3 
      1753.0         0.20         53.7 
      1754.0         0.27         53.5 
      1755.0         0.30         54.0 
      1756.0         0.35         54.4 
      1757.0         0.27         53.6 
      1758.0         0.23         52.2 
      1759.0         0.13         51.1 
      1760.0         0.10         51.1 
      1761.0         0.20         50.7 
      1762.0         0.27         50.4 
      1763.0         0.27         55.4 
      1764.0         0.23         61.2 
      1765.0         0.20         61.8 
      1766.0         4.35        238.7 
      1767.0         0.45         88.2 
      1768.0         0.37         60.7 
      1769.0         0.40         57.6 
      1770.0         0.40         67.8 
      1771.0         0.53         68.3 
      1772.0         0.47         62.1 
      1773.0         0.37         56.2 
      1774.0         0.33         53.3 
      1775.0         0.37         52.2 
      1776.0         0.32         52.7 
      1777.0         0.30         51.8 
      1778.0         0.30         50.4 
      1779.0         0.27         49.0 
      1780.0         0.30         49.7 
      1781.0         0.30         48.9 
      1782.0         0.27         48.5 
      1783.0         0.33         48.2 
      1784.0         0.37         47.9 
      1785.0         0.43         48.8 
      1786.0         0.32         47.5 
      1787.0         0.30         47.6 
      1788.0         0.33         45.1 
      1789.0         0.30         45.4 
      1790.0         0.23         44.3 
      1791.0         0.27         44.6 
      1792.0         0.30         45.0 
      1793.0         0.27         46.4 
      1794.0         0.30         47.2 
      1795.0         0.30         49.6 
      1796.0         2.45         50.0 
      1797.0         1.30         87.2 
      1798.0         0.55         86.3 
