~Version Information
VERS.                      2.0: CWLS Log ASCII Standard - VERSION 2.0
WRAP.                       NO: One line per depth step
~Well Information Block
STRT.FT               260.0000: 
STOP.FT               713.2500: 
STEP.FT                 0.2500: 
NULL.                -999.2500: 
COMP.          Pioneer Natural Resources: COMPANY
WELL.           Quintessa 23-7: WELL
FLD.           Purgatoire River: FIELD
LOC.           1964' FSL & 2589' FWL--: LOCATION
PROV.                 Colorado: PROVINCE
CNTY.               Las Animas: COUNTRY
SRVC.                Patterson: SERVICE COMPANY
DATE.          Fri Nov 18 16:07:34 2005: LOG DATE
UWI.           05 071 08558 00: UNIQUE WELL ID
~Curve Information Block
DEPT.FT            0 000 00 00: Depth
SN.Ohm-m                      : IEL Short Normal
SP.mV                         : IEL Spontaneous Potential
DIR.Ohm-m                     : IEL Induction Resistivity
GR.GAPI                       : Gamma Ray
~Parameter Information Block
~A  Depth        SN          SP         DIR          GR     
# ...
   461.0000     55.4110     76.1072     37.4560    108.6321
   461.2500     50.2285     79.5248     34.6342    102.6088
   461.5000     45.5844     82.9949     31.8633     96.2467
   461.7500     41.5350     86.4101     29.3256     95.3783
   462.0000     37.9716     89.6751     27.0996     99.3598
   462.2500     34.7722     92.7118     25.1887    104.3585
   462.5000     31.8873     95.4622     23.5555    112.2928
   462.7500     29.3416     97.8894     22.1523    116.4660
   463.0000     27.1928     99.9761     20.9405    120.5913
   463.2500     25.4894    101.7223     19.8995    122.5150
   463.5000     24.2406    103.1414     19.0273    124.8509
   463.7500     23.4053    104.2567     18.3310    125.6786
   464.0000     22.8999    105.0984     17.8156    124.8467
   464.2500     22.6234    105.7002     17.4729    123.0294
   464.5000     22.4869    106.0978     17.2803    119.8902
   464.7500     22.4324    106.3270     17.2064    118.3333
   465.0000     22.4333    106.4223     17.2209    117.0543
   465.2500     22.4771    106.4160     17.3017    116.5854
   465.5000     22.5487    106.3374     17.4381    116.0241
   465.7500     22.6268    106.2118     17.6259    115.7628
   466.0000     22.6926    106.0605     17.8596    115.7122
   466.2500     22.7366    105.9001     18.1252    115.7929
   466.5000     22.7588    105.7430     18.4016    115.4816
   466.7500     22.7676    105.5977     18.6699    114.6320
   467.0000     22.7764    105.4699     18.9203    111.9993
   467.2500     22.7936    105.3632     19.1488    109.1825
   467.5000     22.8127    105.2802     19.3442    103.4564
   467.7500     22.8189    105.2234     19.4830     99.1683
   468.0000     22.8089    105.1957     19.5415     93.6606
   468.2500     22.8046    105.2002     19.5157     91.5882
   468.5000     22.8405    105.2409     19.4304     91.9051
   468.7500     22.9354    105.3214     19.3257     94.3947
   469.0000     23.0701    105.4448     19.2365    100.3826
   469.2500     23.1875    105.6129     19.1780    104.7047
   469.5000     23.2183    105.8256     19.1466    109.6393
   469.7500     23.1193    106.0803     19.1259    111.1199
   470.0000     22.9007    106.3714     19.0923    110.3445
   470.2500     22.6189    106.6900     19.0195    108.2332
   470.5000     22.3382    107.0234     18.8815    104.1469
   470.7500     22.0937    107.3555     18.6573    101.9081
   471.0000     21.8854    107.6661     18.3355    100.7295
   471.2500     21.6980    107.9325     17.9191    101.4389
   471.5000     21.5193    108.1301     17.4312    103.2932
   471.7500     21.3446    108.2347     16.9148    104.0229
   472.0000     21.1754    108.2254     16.4255    104.1189
   472.2500     21.0210    108.0881     16.0192    104.4392
   472.5000     20.8961    107.8192     15.7406    106.8389
   472.7500     20.8140    107.4289     15.6181    109.4920
   473.0000     20.7889    106.9426     15.6628    113.0258
   473.2500     20.8533    106.4016     15.8730    113.9793
   473.5000     21.0761    105.8598     16.2417    112.4296
   473.7500     21.5555    105.3789     16.7633    109.1850
   474.0000     22.3704    105.0218     17.4341    101.0241
   474.2500     23.5080    104.8444     18.2411     94.2362
   474.5000     24.8163    104.8890     19.1388     85.3545
   474.7500     26.0276    105.1787     20.0248     82.4687
   475.0000     26.8564    105.7153     20.7338     84.4806
   475.2500     27.1184    106.4795     21.0772     89.4085
   475.5000     26.7930    107.4346     20.9262     98.9765
   475.7500     25.9967    108.5325     20.2852    104.7101
   476.0000     24.8974    109.7193     19.2875    110.4222
   476.2500     23.6383    110.9422     18.1209    112.7578
   476.5000     22.3165    112.1544     16.9496    116.3930
   476.7500     21.0004    113.3184     15.8792    119.7021
   477.0000     19.7484    114.4075     14.9598    125.0104
   477.2500     18.6083    115.4059     14.2049    127.5579
   477.5000     17.6110    116.3070     13.6086    128.7193
   477.7500     16.7707    117.1119     13.1571    127.7912
   478.0000     16.0891    117.8262     12.8334    124.5619
   478.2500     15.5581    118.4582     12.6155    121.8423
   478.5000     15.1592    119.0166     12.4738    118.5296
   478.7500     14.8631    119.5089     12.3704    117.6410
   479.0000     14.6318    119.9408     12.2639    118.3474
   479.2500     14.4252    120.3153     12.1195    119.5817
   479.5000     14.2101    120.6335     11.9167    121.8666
   479.7500     13.9692    120.8949     11.6542    123.7219
   480.0000     13.7043    121.0985     11.3481    126.9029
   480.2500     13.4310    121.2441     11.0264    128.7960
   480.5000     13.1694    121.3331     10.7221    130.5600
   480.7500     12.9376    121.3690     10.4664    131.1705
   481.0000     12.7521    121.3585     10.2826    131.9224
   481.2500     12.6324    121.3112     10.1831    132.2919
   481.5000     12.5995    121.2388     10.1706    131.6868
   481.7500     12.6660    121.1551     10.2404    129.8532
   482.0000     12.8236    121.0743     10.3834    124.4265
   482.2500     13.0426    121.0099     10.5878    119.2430
   482.5000     13.2848    120.9740     10.8387    110.3443
   482.7500     13.5181    120.9752     11.1162    104.5719
   483.0000     13.7229    121.0189     11.3945     97.4770
   483.2500     13.8888    121.1057     11.6427     94.4001
   483.5000     14.0058    121.2319     11.8290     93.1825
   483.7500     14.0602    121.3892     11.9275     94.9261
   484.0000     14.0382    121.5656     11.9226    100.7205
   484.2500     13.9347    121.7458     11.8121    105.5190
   484.5000     13.7597    121.9122     11.6072    111.6437
   484.7500     13.5353    122.0462     11.3309    114.0839
   485.0000     13.2885    122.1285     11.0149    115.0709
   485.2500     13.0446    122.1409     10.6943    114.3264
   485.5000     12.8248    122.0665     10.4035    112.2453
   485.7500     12.6471    121.8908     10.1732    111.1558
   486.0000     12.5267    121.6019     10.0277    111.3282
   486.2500     12.4767    121.1909      9.9837    112.6936
   486.5000     12.5095    120.6520     10.0500    115.3867
   486.7500     12.6381    119.9830     10.2287    116.7053
   487.0000     12.8736    119.1845     10.5174    116.8394
   487.2500     13.2178    118.2608     10.9101    115.3323
   487.5000     13.6611    117.2190     11.3966    110.7359
   487.7500     14.1899    116.0696     11.9649    106.7118
   488.0000     14.8022    114.8258     12.6058    100.8804
   488.2500     15.5172    113.5037     13.3184     97.8719
   488.5000     16.3721    112.1216     14.1096     94.8857
   488.7500     17.4046    110.6992     14.9868     93.6050
   489.0000     18.6258    109.2575     15.9494     92.1779
   489.2500     19.9937    107.8175     16.9845     91.3274
   489.5000     21.4112    106.3998     18.0698     90.0114
   489.7500     22.7622    105.0237     19.1784     89.1448
   490.0000     23.9640    103.7066     20.2812     88.0919
   490.2500     24.9914    102.4638     21.3493     87.6460
   490.5000     25.8611    101.3075     22.3585     87.3652
   490.7500     26.6023    100.2469     23.2983     87.3281
   491.0000     27.2444     99.2876     24.1727     86.9838
   491.2500     27.8131     98.4313     24.9911     86.2185
   491.5000     28.3245     97.6759     25.7545     84.4026
   491.7500     28.7787     97.0151     26.4503     83.3873
   492.0000     29.1652     96.4392     27.0583     83.1656
   492.2500     29.4755     95.9347     27.5588     83.6749
   492.5000     29.7111     95.4856     27.9358     83.6621
   492.7500     29.8836     95.0731     28.1790     82.1069
   493.0000     30.0090     94.6770     28.2907     77.2067
   493.2500     30.1006     94.2758     28.2939     73.0514
   493.5000     30.1682     93.8479     28.2294     67.3504
   493.7500     30.2234     93.3723     28.1406     64.5327
   494.0000     30.2830     92.8292     28.0572     61.7565
   494.2500     30.3678     92.2017     27.9896     60.5961
