~Version Information
 VERS.                                  2.0 : CWLS LAS VERSION
 WRAP.                                   NO : WRAPING MODE
 SWARE .                 MController 2.5.0N : SOFTWARE VERSION
~Well Information
 WELL.                     Red Raider 22-15 : WELL
 COMP.       Pioneer Natural Resources, LLC : COMPANY
 FLD.                       Purgatory River : FIELD
 LOC.                 SE/NW Sec15 T33S R65W : LOCATION
 DATE.                              4/10/06 : DATE(S) LOGGED
 SRVC.      Blanco Geological Services, LLC : SERVICE COMPANY
 STAT.                             Colorado : STATE
 CNTY.                           Las Animas : COUNTY
 CTRY.                                  USA : COUNTRY
 API.                       05-071-08718-00 : API NUMBER
 STRT.FT                             442.00 : START DEPTH
 STOP.FT                            1036.00 : STOP DEPTH
 STEP.FT                               1.00 : DEPTH INCREMENT
 NULL.                                -9999 : NULL VALUE
~Curve information
 DEPTH.FT                                   :
 ROP.MIN/FT                                 :
 GAS.UNITS                                  :
~ASCII Log data
# ...
       842.0         0.33        668.3 
       843.0         0.27        678.4 
       844.0         0.37        686.1 
       845.0         0.37        678.0 
       846.0         0.37        660.9 
       847.0         0.37        645.7 
       848.0         0.37        637.3 
       849.0         0.38        630.5 
       850.0         0.40        627.8 
       851.0         0.57        624.1 
       852.0         0.47        635.9 
       853.0         0.40        677.7 
       854.0         0.43        678.0 
       855.0         0.43        636.6 
       856.0         0.30        590.1 
       857.0         0.32        585.0 
       858.0         0.30        591.4 
       859.0         0.37        594.8 
       860.0         0.33        592.5 
       861.0         0.40        613.3 
       862.0         3.82       1820.8 
       863.0         0.33       1793.6 
       864.0         0.40       1551.3 
       865.0         0.43       1459.3 
       866.0         0.42       1419.9 
       867.0         0.37       1380.5 
       868.0         0.33       1390.3 
       869.0         0.30       1369.0 
       870.0         0.40       1293.6 
       871.0         0.47       1169.9 
       872.0         0.40       1062.5 
       873.0         0.40        948.9 
       874.0         0.33        854.6 
       875.0         0.38        886.2 
       876.0         0.33        936.8 
       877.0         0.37        950.6 
       878.0         0.33        928.4 
       879.0         0.37        906.1 
       880.0         0.40        879.5 
       881.0         0.40        860.0 
       882.0         0.50        931.1 
       883.0         0.48        975.5 
       884.0         0.37        938.5 
       885.0         0.50        849.5 
       886.0         0.40        826.9 
       887.0         0.40        906.8 
       888.0         0.30        954.0 
       889.0         0.30        950.3 
       890.0         0.30        908.1 
       891.0         0.37        843.5 
       892.0         3.35       1916.2 
       893.0         0.38       1505.2 
       894.0         0.40       1765.3 
       895.0         0.37       1852.9 
       896.0         0.33       1823.9 
       897.0         0.30       1692.8 
       898.0         0.33       1560.7 
       899.0         0.30       1458.0 
       900.0         0.37       1362.0 
       901.0         0.27       1191.5 
       902.0         0.33       1082.7 
       903.0         0.35       1098.2 
       904.0         0.37       1116.7 
       905.0         0.37       1114.7 
       906.0         0.33       1077.6 
       907.0         0.33       1038.2 
       908.0         0.37       1026.7 
       909.0         0.33       1012.6 
       910.0         0.37       1006.9 
       911.0         0.33       1002.5 
       912.0         0.37       1002.8 
       913.0         0.32        996.4 
       914.0         0.37        991.4 
       915.0         0.30        987.3 
       916.0         0.30       1018.0 
       917.0         0.30       1054.0 
       918.0         0.33       1052.3 
       919.0         0.30       1033.1 
       920.0         0.30       1021.0 
       921.0         0.30       1014.3 
       922.0         3.32       2006.1 
       923.0         0.85       2125.8 
       924.0         0.77       2364.6 
       925.0         0.97       2138.6 
       926.0         0.87       1415.2 
       927.0         0.37       1437.8 
       928.0         0.32       1373.8 
       929.0         0.33       1295.9 
       930.0         0.37       1437.8 
       931.0         0.33       1497.1 
       932.0         0.30       1527.4 
       933.0         0.33       1553.7 
       934.0         0.30       1523.7 
       935.0         0.33       1440.8 
       936.0         0.37       1400.4 
       937.0         0.37       1320.5 
       938.0         0.35       1373.8 
       939.0         0.33       1358.6 
       940.0         0.33       1446.5 
       941.0         0.33       1486.0 
       942.0         0.33       1530.8 
       943.0         0.37       1557.7 
       944.0         0.33       1529.8 
       945.0         0.33       1537.2 
       946.0         0.33       1420.3 
       947.0         0.37       1302.3 
       948.0         0.38       1316.1 
       949.0         0.40       1375.1 
       950.0         0.37       1377.5 
       951.0         0.37       1302.3 
       952.0         3.72       2943.1 
       953.0         0.50       2493.7 
       954.0         0.57       1811.4 
       955.0         0.43       2120.4 
       956.0         0.32       2199.9 
       957.0         0.30       2146.6 
       958.0         0.33       1859.9 
       959.0         0.30       1656.8 
       960.0         0.30       1495.4 
       961.0         0.33       1304.7 
       962.0         0.30       1261.2 
       963.0         0.30       1289.9 
       964.0         0.30       1257.2 
       965.0         0.37       1160.2 
       966.0         0.38       1248.4 
       967.0         0.33       1348.8 
       968.0         0.33       1368.7 
       969.0         0.30       1229.6 
       970.0         0.30       1111.6 
       971.0         0.30       1113.7 
       972.0         0.33       1150.7 
       973.0         0.30       1184.8 
       974.0         0.30       1280.1 
       975.0         0.33       1295.9 
       976.0         0.30       1220.1 
       977.0         0.35       1160.8 
       978.0         0.30       1184.8 
       979.0         0.33       1154.8 
       980.0         0.30       1158.5 
       981.0         0.30       1173.3 
       982.0         3.12       2499.7 
       983.0         0.50       2788.1 
       984.0         0.40       2464.4 
       985.0         0.40       1980.5 
       986.0         0.53       1941.1 
       987.0         0.58       1794.9 
       988.0         0.43       1688.4 
       989.0         0.33       1328.6 
       990.0         0.37       1154.8 
       991.0         0.37       1112.3 
       992.0         0.37       1167.6 
       993.0         0.33       1190.5 
       994.0         0.30       1210.7 
       995.0         0.33       1162.2 
       996.0         0.32       1216.1 
       997.0         0.33       1243.0 
       998.0         0.27       1225.9 
       999.0         0.30       1220.5 
      1000.0         0.30       1230.2 
      1001.0         0.27       1221.1 
      1002.0         0.30       1147.7 
      1003.0         0.30       1148.7 
      1004.0         0.27       1259.9 
      1005.0         0.30       1288.5 
      1006.0         0.30       1253.1 
      1007.0         0.28       1155.4 
      1008.0         0.30       1133.9 
      1009.0         0.27       1116.0 
      1010.0         0.47       1247.8 
      1011.0         0.57       1279.4 
      1012.0         3.55       2283.4 
      1013.0         0.40       2922.6 
      1014.0         0.40       2662.1 
      1015.0         0.37       2095.4 
      1016.0         0.45       1920.6 
      1017.0         0.37       1812.1 
      1018.0         0.37       1732.2 
      1019.0         0.37       1763.6 
      1020.0         0.33       1653.1 
      1021.0         0.37       1433.1 
      1022.0         0.40       1194.9 
      1023.0         0.30       1190.8 
      1024.0         0.27       1201.6 
      1025.0         0.27       1188.5 
      1026.0         0.38       1133.2 
      1027.0         0.27       1076.9 
      1028.0         0.27        994.7 
      1029.0         0.30        986.3 
      1030.0         0.30        990.7 
