~Version Information
VERS.                      2.0: CWLS Log ASCII Standard - VERSION 2.0
WRAP.                       NO: One line per depth step
~Well Information Block
STRT.FT                -7.0000: 
STOP.FT              2328.5000: 
STEP.FT                 0.2500: 
NULL.                -999.2500: 
COMP.          Pioneer Natural Resources: COMPANY
WELL.              Rolls 14-14: WELL
FLD.           Purgatorie River: FIELD
LOC.           572' FSL & 856' FWL--: LOCATION
PROV.                       CO: PROVINCE
CNTY.               Las Animas: COUNTRY
SRVC.          Patterson Wireline: SERVICE COMPANY
DATE.          Mon Aug 08 10:10:54 2005: LOG DATE
UWI.           05 071 08455 00: UNIQUE WELL ID
~Curve Information Block
DEPT.FT            0 000 00 00: Depth
CCL.                          : Casing Collar Locator
TT3.usec                      : CBL 3' Travel Time
AMP3.mV                       : CBL 3' Amplitude
GR.GAPI                       : Gamma Ray
~Parameter Information Block
~A  Depth       CCL         TT3         AMP3         GR     
    -7.0000   -999.2500   -999.2500   -999.2500     83.0941
    -6.7500   -999.2500   -999.2500   -999.2500     83.3036
    -6.5000   -999.2500   -999.2500   -999.2500     82.6090
    -6.2500   -999.2500   -999.2500   -999.2500     80.3877
    -6.0000   -999.2500   -999.2500   -999.2500     76.7388
    -5.7500   -999.2500   -999.2500   -999.2500     72.3865
    -5.5000   -999.2500   -999.2500   -999.2500     67.9378
    -5.2500   -999.2500   -999.2500   -999.2500     63.6549
    -5.0000   -999.2500   -999.2500   -999.2500     60.2369
    -4.7500   -999.2500   -999.2500   -999.2500     59.0626
    -4.5000   -999.2500   -999.2500   -999.2500     60.8400
    -4.2500   -999.2500   -999.2500   -999.2500     64.2559
    -4.0000   -999.2500   -999.2500   -999.2500     66.7141
    -3.7500   -999.2500   -999.2500   -999.2500     66.6471
    -3.5000   -999.2500   -999.2500   -999.2500     64.8236
    -3.2500   -999.2500   -999.2500   -999.2500     63.2612
    -3.0000   -999.2500   -999.2500   -999.2500     63.1482
    -2.7500   -999.2500   -999.2500   -999.2500     64.0619
    -2.5000   -999.2500   -999.2500   -999.2500     64.8215
    -2.2500   -999.2500   -999.2500   -999.2500     64.6062
    -2.0000   -999.2500   1170.0000      1.6396     63.5213
    -1.7500   -999.2500   1170.0000      1.6330     62.5764
    -1.5000   -999.2500   1170.0000      1.6288     62.9247
    -1.2500   -999.2500   1170.0000      1.6224     64.7853
    -1.0000   -999.2500   1170.0000      1.6124     67.1510
    -0.7500   -999.2500   1170.0000      1.6039     68.5492
    -0.5000   -999.2500   1170.0000      1.6033     68.0042
    -0.2500   -999.2500   1170.0000      1.6110     65.3897
     0.0000   -999.2500   1170.0000      1.6203     55.7020
     0.2500     -2.0000   1170.0000      1.6142     49.5588
     0.5000      2.0000   1170.0000      1.6089     43.1957
     0.7500      2.0000   1170.0000      1.6109     37.4349
     1.0000     -2.0000   1170.0000      1.6207     33.4482
     1.2500      2.0000   1170.0000      1.6354     32.3084
     1.5000      0.0000   1170.0000      1.6537     34.2499
     1.7500      0.0000   1170.0000      1.6766     38.3791
     2.0000      0.0000   1170.0000      1.7038     43.1477
     2.2500      0.0000   1170.0000      1.7306     47.0988
     2.5000      0.0000   1170.0000      1.7488     49.3479
     2.7500      0.0000   1170.0000      1.7529     49.7473
     3.0000      0.0000   1170.0000      1.7430     48.8614
     3.2500      0.0000   1170.0000      1.7233     47.7156
     3.5000      0.0000   1170.0000      1.6985     47.2144
     3.7500      0.0000   1170.0000      1.6726     47.5492
     4.0000      0.0000   1170.0000      1.6471     48.2284
     4.2500      0.0000   1170.0000      1.6234     48.7186
     4.5000      0.0000   1170.0000      1.6060     48.8357
     4.7500      1.7896   1170.0000      1.5994     48.4951
     5.0000      0.0000   1170.0000      1.6044     47.5015
     5.2500      0.0000   1170.0000      1.6170     45.8248
     5.5000      0.0000   1170.0000      1.6327     43.7969
     5.7500      0.0000   1170.0000      1.6457     41.7919
     6.0000      0.0000   1170.0000      1.6488     39.8768
     6.2500      0.0000   1170.0000      1.6389     38.0717
     6.5000      0.0000   1170.0000      1.6221     36.8107
     6.7500      0.0000   1170.0000      1.6087     36.8076
     7.0000      0.0000   1170.0000      1.6036     38.3882
     7.2500      0.0000   1170.0000      1.6038     41.0926
     7.5000      0.0000   1170.0000      1.6047     43.9739
     7.7500      0.0000   1170.0000      1.6055     46.2599
     8.0000      0.0000   1170.0000      1.6076     47.7400
     8.2500      0.0000   1170.0000      1.6105     48.5808
     8.5000      0.0000   1170.0000      1.6127     48.8887
     8.7500      0.0000   1170.0000      1.6152     48.6323
     9.0000      0.0000   1169.9982      1.6209     48.0474
     9.2500      0.0000   1169.9275      1.6315     47.9122
     9.5000      0.0000   1169.4844      1.6529     49.2572
     9.7500      0.0000   1167.3021      1.7346     52.7857
    10.0000      0.0000   1158.8818      2.0551     58.4517
    10.2500      0.0000   1133.4512      3.0375     65.3456
    10.5000      0.0000   1073.3922      5.3602     71.9361
    10.7500      0.0000    962.5670      9.6259     76.6765
    11.0000      0.0000    802.8861     15.7230     78.6810
    11.2500      0.0000    623.3355     22.4998     78.0783
    11.5000      0.0000    465.8462     28.3511     75.9208
    11.7500      0.0000    358.1268     32.2762     73.7701
    12.0000      0.0000    300.6896     34.3313     73.0073
    12.2500      0.0000    276.8206     35.1870     74.0112
    12.5000      0.0000    269.1177     35.4776     75.8645
    12.7500      0.0000    267.3387     35.5061     77.3432
    13.0000      0.0000    267.7448     35.2630     78.4964
    13.2500      0.0000    270.3794     34.5397     80.8792
    13.5000      0.0000    277.4766     33.0684     85.8981
    13.7500      0.0000    291.9722     30.7164     93.1138
    14.0000      0.0000    314.7333     27.6783    100.2033
    14.2500      0.0000    341.9454     24.4776    104.3692
    14.5000      0.0000    366.9278     21.6696    104.0023
    14.7500      0.0000    387.2271     19.5034     99.6279
    15.0000      0.0000    410.5898     17.9107     93.4609
    15.2500      0.0000    452.1389     16.7256     87.7786
    15.5000      0.0000    522.6547     15.7840     83.5392
    15.7500      0.0000    617.9024     14.8915     80.5996
    16.0000      0.0000    719.3763     13.8802     79.0798
    16.2500      2.0000    804.7181     12.7297     79.8438
    16.5000      0.0000    856.4052     11.5805     83.0976
    16.7500      0.0000    865.9261     10.6155     87.0681
    17.0000      0.0000    840.0792      9.9340     89.2423
    17.2500      0.0000    805.3499      9.5071     89.0210
    17.5000      0.0000    795.9500      9.2183     88.2272
    17.7500      0.0000    827.8361      8.9511     88.8893
    18.0000      0.0000    884.8923      8.6387     91.3768
    18.2500      0.0000    934.1387      8.2476     94.7543
    18.5000      0.0000    953.5921      7.7596     97.8329
    18.7500      0.0000    944.8635      7.1947     99.5363
    19.0000      0.0000    923.8578      6.6226     99.1683
    19.2500      0.0000    904.9408      6.1257     97.0296
    19.5000      0.0000    893.4731      5.7514     94.4700
    19.7500      0.0000    888.1624      5.4989     92.8875
    20.0000      0.0000    886.0668      5.3400     92.6510
    20.2500      0.0000    885.2571      5.2427     93.1876
    20.5000      0.0000    884.9116      5.1832     94.1283
    20.7500      0.0000    884.7227      5.1459     95.9294
    21.0000      0.0000    884.5428      5.1237     98.9313
    21.2500      0.0000    884.2983      5.1165    102.0994
    21.5000      0.0000    884.0048      5.1233    103.3210
    21.7500      0.0000    883.7641      5.1363    101.0818
    22.0000      0.0000    883.8449      5.1438     95.6909
    22.2500      0.0000    884.8524      5.1394     88.9105
    22.5000      0.0000    887.8635      5.1268     82.6732
    22.7500      0.0000    894.1029      5.1174     78.1851
    23.0000      0.0000    903.8748      5.1208     75.7889
    23.2500      0.0000    915.8129      5.1354     75.1675
    23.5000      0.0000    928.2354      5.1503     75.6627
    23.7500      0.0000    941.5908      5.1572     76.6306
    24.0000      0.0000    957.9775      5.1577     77.4649
    24.2500      0.0000    977.4084      5.1598     77.4327
    24.5000      0.0000    996.2444      5.1701     76.0943
    24.7500      0.0000   1010.3589      5.1917     74.0272
    25.0000      0.0000   1018.5941      5.2238     72.5393
    25.2500      0.0000   1022.5735      5.2604     72.4129
    25.5000      0.0000   1024.2931      5.2947     73.2450
    25.7500      0.0000   1024.3542      5.3282     74.1011
    26.0000      0.0000   1021.4676      5.3695     74.4357
    26.2500      0.0000   1012.8439      5.4227     74.1712
