~Version Information
VERS.                      2.0: CWLS Log ASCII Standard - VERSION 2.0
WRAP.                       NO: One line per depth step
~Well Information Block
STRT.FT                 0.0000: 
STOP.FT              1238.2500: 
STEP.FT                 0.2500: 
NULL.                -999.2500: 
COMP.          Pioneer Natural Resources: COMPANY
WELL.                 Ray 34-6: WELL
FLD.           Purgatoire River: FIELD
LOC.           684' FSL & 2254' FEL: LOCATION
CNTY.               Las Animas: COUNTY
SRVC.                         : SERVICE COMPANY
DATE.          Fri Jun 23 09:23:24 2006: LOG DATE
UWI.           05 071 08695 00: UNIQUE WELL ID
STAT.                       CO: STATE
~Curve Information Block
DEPT.FT            0 000 00 00: Depth
GR.GAPI                       : Gamma Ray
CCL.                          : Casing Collar Locator
TT3.usec                      : CBL 3' Travel Time
AMP3.mV                       : CBL 3' Amplitude
~Parameter Information Block
~A  Depth        GR         CCL         TT3         AMP3    
# ...
    67.0000     90.2284      0.0000    859.9730     21.2625
    67.2500     89.7986      0.0000    856.7596     21.3273
    67.5000     89.0868      0.0000    849.6620     21.2943
    67.7500     89.5115      0.0000    836.2341     21.2033
    68.0000     91.7552      0.0000    814.9537     21.0949
    68.2500     95.0381      0.0000    788.0791     20.9717
    68.5000     97.8899      0.0000    763.8727     20.7756
    68.7500     99.4028      0.0000    753.4390     20.4154
    69.0000     99.3523      0.0000    762.1046     19.8410
    69.2500     97.6187      0.0000    784.3862     19.0887
    69.5000     94.3171      0.0000    809.1218     18.2252
    69.7500     90.3707      0.0000    828.3412     17.2743
    70.0000     87.2068      0.0000    840.2533     16.2621
    70.2500     85.7072      0.0000    846.2025     15.3127
    70.5000     85.7607      0.0000    847.6254     14.6129
    70.7500     86.7044      0.0000    845.9144     14.2739
    71.0000     87.7608      0.0000    843.2514     14.2583
    71.2500     88.1996     -2.0000    841.9076     14.4060
    71.5000     87.7148      0.0000    842.4953     14.5186
    71.7500     86.8929      0.0000    843.3634     14.5214
    72.0000     87.1236      0.0000    842.0654     14.6128
    72.2500     89.8000      0.0000    837.4000     15.1591
    72.5000     95.3125      0.0000    830.1274     16.3054
    72.7500    102.4774      0.0000    822.1055     17.7174
    73.0000    108.8944      0.0000    814.9476     18.8296
    73.2500    112.2043      0.0000    809.0443     19.3367
    73.5000    111.5145      0.0000    803.4240     19.3769
    73.7500    107.8762      0.0000    796.8871     19.3051
    74.0000    103.3714      0.0000    789.5255     19.3961
    74.2500     99.6329      0.0000    782.8854     19.7323
    74.5000     97.0964      0.0000    778.8334     20.2623
    74.7500     95.3841      0.0000    778.6962     20.8957
    75.0000     94.1691      0.0000    783.2563     21.5394
    75.2500     93.5875      0.0000    792.6729     22.0927
    75.5000     93.8289      0.0000    805.8707     22.4691
    75.7500     94.5241      0.0000    820.1132     22.6401
    76.0000     94.8694      0.0000    831.5589     22.6360
    76.2500     94.3768      0.0000    836.8545     22.5040
    76.5000     93.4016      0.0000    834.7936     22.2736
    76.7500     92.9764      0.0000    826.6971     21.9530
    77.0000     94.0032      0.0000    815.2210     21.5431
    77.2500     96.3047      0.0000    802.9321     21.0505
    77.5000     98.4320      0.0000    791.8088     20.4910
    77.7500     98.6729      0.0000    783.2236     19.8884
    78.0000     96.4844      0.0000    777.6881     19.2822
    78.2500     92.8661      0.0000    774.7186     18.7331
    78.5000     89.3311      0.0000    773.3110     18.3073
    78.7500     86.7641      0.0000    772.6227     18.0455
    79.0000     85.1754      0.0000    772.2557     17.9481
    79.2500     84.0069      0.0000    772.0860     17.9837
    79.5000     82.5907      0.0000    772.0184     18.1028
    79.7500     80.8000      0.0000    771.9323     18.2597
    80.0000     79.4351      0.0000    771.7657     18.4399
    80.2500     79.5950      0.0000    771.5471     18.6599
    80.5000     81.5442      0.0000    771.3240     18.9248
    80.7500     84.5230      0.0000    771.1179     19.1987
    81.0000     87.6250      0.0000    770.9455     19.4442
    81.2500     90.3349      0.0000    770.7960     19.6884
    81.5000     92.1709      0.0000    770.5296     20.0287
    81.7500     92.3809      0.0000    769.5236     20.5523
    82.0000     90.4330      0.0000    765.9048     21.2454
    82.2500     86.7854      0.0000    755.4279     21.9821
    82.5000     82.7794      0.0000    731.7944     22.5987
    82.7500     79.4110      0.0000    691.1832     22.9919
    83.0000     76.4448      0.0000    639.9167     23.1639
    83.2500     73.0372      0.0000    596.4857     23.1926
    83.5000     68.8456      0.0000    580.3015     23.1680
    83.7500     64.2162      0.0000    594.5073     23.1611
    84.0000     59.7892      0.0000    621.0101     23.2373
    84.2500     56.4080      0.0000    634.8012     23.4614
    84.5000     55.0267      0.0000    623.4578     23.8593
    84.7500     56.1218      0.0000    592.6058     24.3649
    85.0000     59.2439      0.0000    555.2934     24.8279
    85.2500     63.3018      0.0000    520.6451     25.0999
    85.5000     67.0855      0.0000    493.1410     25.1299
    85.7500     69.5865      0.0000    477.1241     24.9779
    86.0000     70.4072      0.0000    477.5054     24.7433
    86.2500     70.0829      0.0000    497.0500     24.4888
    86.5000     69.6999      0.0000    534.5532     24.2284
    86.7500     70.1375      0.0000    583.5299     23.9584
    87.0000     71.8020      0.0000    630.3132     23.6773
    87.2500     74.7892      0.0000    655.6711     23.3780
    87.5000     78.7591      0.0000    644.0947     23.0374
    87.7500     82.6775      0.0000    595.5120     22.6271
    88.0000     85.1355      0.0000    527.7156     22.1444
    88.2500     85.2245      0.0000    464.9207     21.6339
    88.5000     83.2066      0.0000    422.4737     21.1715
    88.7500     80.4865      0.0000    401.7701     20.8137
    89.0000     78.8240      0.0000    396.9571     20.5569
    89.2500     79.1602      0.0000    403.4677     20.3457
    89.5000     80.9554      0.0000    419.9888     20.1293
    89.7500     82.7115      0.0000    443.6797     19.9048
    90.0000     83.2992      0.0000    465.4435     19.7042
    90.2500     82.9492      0.0000    473.1819     19.5453
    90.5000     83.1220      0.0000    462.2367     19.4069
    90.7500     85.4701      0.0000    441.0301     19.2572
    91.0000     90.6439      0.0000    424.5992     19.0978
    91.2500     97.6087      0.0000    423.4513     18.9672
    91.5000    104.0485      0.0000    437.2979     18.8955
    91.7500    107.9125      0.0000    455.4796     18.8670
    92.0000    108.8525      0.0000    463.7961     18.8385
    92.2500    108.2265      0.0000    455.4213     18.7801
    92.5000    107.8407      0.0000    436.3097     18.6895
    92.7500    108.4133      0.0000    418.8858     18.5807
    93.0000    108.7694      0.0000    412.2357     18.4731
    93.2500    106.7444      0.0000    420.0784     18.3751
    93.5000    101.3446      0.0000    445.0002     18.2677
    93.7500     93.9279      0.0000    489.7625     18.1143
    94.0000     87.0303      0.0000    552.5533     17.9017
    94.2500     82.2605      0.0000    622.8726     17.6665
    94.5000     79.4578      0.0000    685.3499     17.4636
    94.7500     77.5572      0.0000    728.9005     17.3096
    95.0000     75.8889      0.0000    751.9784     17.1764
    95.2500     74.5907      0.0000    760.0279     17.0320
    95.5000     73.9878      0.0000    760.0596     16.8686
    95.7500     73.9401      0.0000    757.4216     16.6975
    96.0000     73.9970      0.0000    755.0125     16.5346
    96.2500     74.1148      0.0000    753.4366     16.3880
    96.5000     75.0019      0.0000    751.7943     16.2529
    96.7500     77.5102      0.0000    749.3271     16.1277
    97.0000     81.6719      0.0000    746.9296     16.0371
    97.2500     86.5523      0.0000    746.8967     16.0344
    97.5000     91.1338      0.0000    750.9188     16.1753
    97.7500     95.0493      0.0000    758.4916     16.4757
    98.0000     98.1599      0.0000    767.2666     16.8813
    98.2500     99.7159      0.0000    774.5806     17.2843
    98.5000     98.7109      0.0000    778.8655     17.5825
    98.7500     95.3787      0.0000    780.4888     17.7245
    99.0000     91.6992      0.0000    781.6362     17.7121
    99.2500     89.7976      0.0000    784.8459     17.5848
    99.5000     90.1647      0.0000    791.1024     17.4043
    99.7500     91.7818      0.0000    799.1865     17.2276
   100.0000     93.4893      0.0000    806.8298     17.0816
   100.2500     94.6656      0.0000    812.4515     16.9644
