~Version Information
VERS.                      2.0: CWLS Log ASCII Standard - VERSION 2.0
WRAP.                       NO: One line per depth step
~Well Information Block
STRT.FT                31.2500: 
STOP.FT               700.7500: 
STEP.FT                 0.2500: 
NULL.                -999.2500: 
COMP.          XTO Energy Inc.: COMPANY
WELL.          Golden Eagle 20-14: WELL
FLD.           Purgatrorie River: FIELD
LOC.           587' FSL & 2478' FWL--: LOCATION
STAT.                       CO: State
CNTY.               Las Animas: COUNTY
CTRY. USA : Country
SECT. 20 : Section
TOWN. 33S : Township
RANG. 67W : Range
SRVC.          Patterson Wireline: SERVICE COMPANY
DATE.          Sat Dec 10 15:54:00 2005: LOG DATE
API.           05 071 08614 00: UNIQUE WELL ID
~Curve Information Block
DEPT.FT            0 000 00 00: Depth
CCL.                          : Casing Collar Locator
TT3.usec                      : CBL 3' Travel Time
AMP3.mV                       : CBL 3' Amplitude
GR.GAPI                       : Gamma Ray
~Parameter Information Block
~A  Depth       CCL         TT3         AMP3         GR     
# ...
   634.2500      0.0000    685.8337      5.8417    158.5521
   634.5000      0.0000    688.1072      5.7581    152.7605
   634.7500      0.0000    692.3407      5.6163    144.5470
   635.0000      0.0000    698.5120      5.4863    137.2985
   635.2500      2.0000    704.9976      5.4687    135.1653
   635.5000     -1.3470    708.8149      5.6502    140.1773
   635.7500     -0.5795    707.6425      6.0735    150.3966
   636.0000      0.0000    701.9296      6.7327    160.7126
   636.2500      0.0000    694.6662      7.5643    165.7798
   636.5000      0.0000    689.0316      8.4201    163.5204
   636.7500      0.0000    686.5558      9.0755    156.6188
   637.0000      0.0000    687.1116      9.3289    150.3242
   637.2500      0.0000    689.6381      9.1343    148.4223
   637.5000      0.0000    692.5338      8.6328    151.2492
   637.7500      0.0000    694.1298      8.0463    156.9484
   638.0000      0.0000    693.6332      7.5428    163.3063
   638.2500      0.0000    691.6436      7.1819    168.2718
   638.5000      0.0000    689.4523      6.9385    170.4109
   638.7500      0.0000    687.9060      6.7493    169.8414
   639.0000      0.0000    687.0369      6.5555    167.9534
   639.2500      0.0000    686.4893      6.3346    165.8350
   639.5000      0.0000    685.9959      6.1044    163.5850
   639.7500      0.0000    685.5144      5.9007    161.2541
   640.0000      0.0000    685.1365      5.7536    159.5946
   640.2500      0.0000    684.9739      5.6831    159.4763
   640.5000      0.0000    685.0766      5.6983    160.8334
   640.7500      0.0000    685.3964      5.7901    162.3686
   641.0000      0.0000    685.8105      5.9290    162.2565
   641.2500      0.0000    686.2090      6.0739    159.2300
   641.5000      0.0000    686.5607      6.1820    153.2994
   641.7500      0.0000    686.8947      6.2183    145.7901
   642.0000      0.0000    687.2362      6.1690    138.7019
   642.2500      0.0000    687.6028      6.0504    133.5811
   642.5000      0.0000    688.1035      5.8999    130.5768
   642.7500      0.0000    689.1061      5.7612    128.5480
   643.0000      0.0000    691.2746      5.6677    126.2799
   643.2500      0.0000    695.1640      5.6240    123.7985
   643.5000      0.0000    700.3804      5.5956    122.4231
   643.7500      0.0000    705.1085      5.5338    123.2225
   644.0000      0.0000    706.9710      5.4236    125.3660
   644.2500      0.0000    704.8413      5.3048    126.5378
   644.5000      0.0000    699.8293      5.2416    125.5449
   644.7500      0.0000    694.3409      5.2710    124.2852
   645.0000      0.0000    690.2599      5.3833    126.3486
   645.2500      0.0000    688.0555      5.5449    133.4395
   645.5000      0.0000    687.2217      5.7269    143.5102
   645.7500      0.0000    687.0870      5.9079    152.3197
   646.0000      0.0000    687.2108      6.0591    156.5658
   646.2500      0.0000    687.3921      6.1412    155.8628
   646.5000      0.0000    687.5834      6.1219    152.4137
   646.7500      0.0000    687.8452      5.9995    149.0604
   647.0000      0.0000    688.3530      5.8167    147.2320
   647.2500      0.0000    689.4909      5.6486    146.3914
   647.5000      0.0000    691.9143      5.5656    145.4317
   647.7500      0.0000    696.2834      5.5985    144.4216
   648.0000      0.0000    702.5963      5.7324    144.4386
   648.2500      0.0000    709.7550      5.9282    145.8620
   648.5000      0.0000    716.0767      6.1428    147.6584
   648.7500      0.0000    720.3751      6.3417    148.4834
   649.0000      0.0000    722.4565      6.5050    147.7680
   649.2500      0.0000    722.6337      6.6227    145.4213
   649.5000      0.0000    721.0978      6.6789    140.9847
   649.7500      0.0000    718.0557      6.6475    133.6550
   650.0000      0.0000    714.4600      6.5103    123.2933
   650.2500      0.0000    712.0114      6.2803    111.2789
   650.5000      0.0000    711.6093      6.0042    100.0610
   650.7500      0.0000    711.8135      5.7467     91.5517
   651.0000      0.0000    709.8235      5.5699     86.0163
   651.2500      0.0000    704.4338      5.5158     82.7113
   651.5000      0.0000    697.3761      5.5962     81.3201
   651.7500      0.0000    691.5443      5.7886     82.2290
   652.0000      0.0000    688.6568      6.0427     85.1987
   652.2500      0.0000    688.7328      6.2983     88.3707
   652.5000      0.0000    690.7502      6.5131     89.2772
   652.7500      0.0000    693.1523      6.6791     86.7753
   653.0000      0.0000    694.3671      6.8174     81.7051
   653.2500      0.0000    693.7620      6.9552     75.9640
   653.5000      0.0000    692.2070      7.0992     71.2889
   653.7500      0.0000    691.4588      7.2229     68.6202
   654.0000      0.0000    692.9023      7.2798     68.0916
   654.2500      0.0000    696.5189      7.2376     69.4497
   654.5000      0.0000    700.5520      7.1068     72.6373
   654.7500      0.0000    702.4451      6.9332     78.0605
   655.0000      0.0000    700.8783      6.7585     86.0471
   655.2500      0.0000    696.9186      6.5912     95.7558
   655.5000      0.0000    692.8454      6.4226    104.9456
   655.7500      0.0000    690.1483      6.2706    111.4865
   656.0000      0.0000    688.9395      6.1896    115.0897
   656.2500      0.0000    688.7501      6.2196    117.2860
   656.5000      0.0000    689.3321      6.3347    120.1071
   656.7500      0.0000    690.7634      6.4623    125.0469
   657.0000      0.0000    693.0656      6.5524    132.3011
   657.2500      0.0000    695.8980      6.6048    140.1304
   657.5000      0.0000    698.7816      6.6260    145.6543
   657.7500      0.0000    701.5558      6.6017    147.2265
   658.0000      0.0000    704.1863      6.5319    145.6698
   658.2500      0.0000    706.2060      6.4688    143.0410
   658.5000      0.0000    707.0981      6.4878    141.1052
   658.7500      0.0000    707.2801      6.6178    141.0179
   659.0000      0.0000    707.8692      6.8085    143.1763
   659.2500      0.0000    709.3456      6.9609    146.9143
   659.5000      0.0000    711.1564      6.9868    150.8770
   659.7500      0.0000    712.4831      6.8506    153.8071
   660.0000      0.0000    712.5627      6.5770    155.0186
   660.2500      0.0000    710.5018      6.2319    154.9096
   660.5000      0.0000    705.8466      5.8998    155.2824
   660.7500      0.0000    699.4926      5.6724    158.1658
   661.0000      0.0000    693.3713      5.6274    163.5822
   661.2500      0.0000    689.0439      5.7803    169.0430
   661.5000      0.0000    686.8161      6.0524    171.6959
   661.7500      0.0000    686.0600      6.3050    170.5212
   662.0000      0.0000    685.9855      6.4228    166.1483
   662.2500      0.0000    686.1182      6.3755    159.4307
   662.5000      0.0000    686.4047      6.2133    151.0405
   662.7500      0.0000    687.1496      6.0122    142.1566
   663.0000      0.0000    688.8561      5.8204    134.8105
   663.2500      0.0000    691.9340      5.6552    131.3060
   663.5000      0.0000    696.3972      5.5404    133.1824
   663.7500      0.0000    701.8489      5.5273    140.2432
   664.0000      0.0000    707.7498      5.6586    150.2269
   664.2500      0.0000    713.5496      5.9158    159.8259
   664.5000      0.0000    718.6230      6.2148    166.5629
   664.7500      0.0000    722.3965      6.4581    169.6201
   665.0000      0.0000    724.6393      6.5946    169.1578
   665.2500      0.0000    725.5140      6.6391    165.7600
   665.5000      0.0000    725.3428      6.6468    160.6629
   665.7500      0.0000    724.3405      6.6631    155.6116
   666.0000      0.0000    722.4099      6.6885    152.1182
   666.2500      0.0000    719.0808      6.6916    151.0650
   666.5000      0.0000    713.8262      6.6522    152.5398
   666.7500      0.0000    706.7766      6.5840    155.3338
   667.0000      0.0000    699.1388      6.5164    156.8001
   667.2500      0.0000    692.6059      6.4667    154.0089
   667.5000      0.0000    688.1887      6.4438    145.5867
