~Version Information
 VERS.                                  2.0 : CWLS LAS VERSION
 WRAP.                                   NO : WRAPING MODE
 SWARE .                  MController 2.5.1 : SOFTWARE VERSION
~Well Information
 WELL.                   Touchstone 11-32Tr : WELL
 COMP.  Pioneer Natural Resources USA, Inc. : COMPANY
 FLD.                      Purgatoire River : FIELD
 LOC.             NW/NW Sec. 32, T32S, R67W : LOCATION
 DATE.                02/24/2006-02/25/2006 : DATE(S) LOGGED
 SRVC.                  Entrada GeoSciences : SERVICE COMPANY
 STAT.                             Colorado : STATE
 CNTY.                           Las Animas : COUNTY
 CTRY.                        United States : COUNTRY
 API.                          05-071-08626 : API NUMBER
 STRT.FT                             393.00 : START DEPTH
 STOP.FT                            1800.00 : STOP DEPTH
 STEP.FT                               1.00 : DEPTH INCREMENT
 NULL.                                -9999 : NULL VALUE
~Curve information
 DEPTH.FT                                   :
 ROP.MIN/FT                                 :
 GAS.UNITS                                  :
~ASCII Log data
      393.00     -9999.00          7.0 
      394.00         0.83          7.0 
      395.00         0.23          7.0 
      396.00         0.35          7.0 
      397.00         0.23          7.0 
      398.00         0.32          7.0 
      399.00         0.25          7.0 
      400.00         0.27          7.0 
      401.00         0.23          7.0 
      402.00         0.23          7.0 
      403.00         0.23          7.0 
      404.00         0.27          7.0 
      405.00         0.23          7.0 
      406.00         0.23          7.0 
      407.00         0.23          7.0 
      408.00         0.20          7.0 
      409.00         0.23          7.0 
      410.00         0.23          7.0 
      411.00         0.23          7.0 
      412.00         0.23          7.0 
      413.00         0.25          7.0 
      414.00         0.23          7.0 
      415.00         0.20          7.0 
      416.00         0.23          7.0 
      417.00         0.20          7.0 
      418.00         0.23          7.0 
      419.00         0.20          7.0 
      420.00         0.20          7.0 
      421.00         0.20          7.0 
      422.00         0.27          7.0 
      423.00         0.17          7.0 
      424.00         0.27          7.0 
      425.00         0.27          7.0 
      426.00         0.33          7.0 
      427.00         0.27          7.0 
      428.00         0.28          7.0 
      429.00         0.27          7.0 
      430.00         0.33          7.0 
      431.00         0.27          7.0 
      432.00         0.27          7.0 
      433.00         0.27          7.0 
      434.00         0.27          7.0 
      435.00         0.27          7.0 
      436.00         0.27          7.0 
      437.00         0.23          7.0 
      438.00         0.23          7.0 
      439.00         0.27          7.0 
      440.00         0.28          7.0 
      441.00         0.23          7.0 
      442.00         0.23          7.0 
      443.00         0.23          7.0 
      444.00         0.23          7.0 
      445.00         0.20          7.0 
      446.00         0.23          7.0 
      447.00         0.23          7.0 
      448.00         0.27          7.0 
      449.00         0.23          7.0 
      450.00         0.23          7.0 
      451.00         0.27          7.0 
      452.00         0.23          7.0 
      453.00         0.23          7.0 
      454.00         0.17          7.0 
      455.00         0.28          7.0 
      456.00         0.27          7.0 
      457.00         0.23          7.0 
      458.00         0.27          7.0 
      459.00         0.17          7.0 
      460.00         0.27          7.0 
      461.00         0.27          7.0 
      462.00         0.27          7.0 
      463.00         0.20          7.0 
      464.00         0.27          7.0 
      465.00         0.30          7.0 
      466.00         0.27          7.0 
      467.00         0.17          7.0 
      468.00         0.35          7.0 
      469.00         0.23          7.0 
      470.00         0.30          7.0 
      471.00         0.33          7.0 
      472.00         0.27          7.0 
      473.00         0.17          7.0 
      474.00         0.27          7.0 
      475.00         0.20          7.0 
      476.00         0.20          7.0 
      477.00         0.20          7.0 
      478.00         0.23          7.0 
      479.00         0.33          7.0 
      480.00         0.30          7.0 
      481.00         0.32          7.0 
      482.00         0.27          7.0 
      483.00         0.27          7.0 
      484.00         0.23          7.0 
      485.00         0.23          7.0 
      486.00         0.20          7.0 
      487.00         0.23          7.0 
      488.00         0.20          7.0 
      489.00         0.20          7.0 
      490.00         0.20          7.0 
      491.00         0.23          7.0 
      492.00         0.20          7.0 
      493.00         0.17          7.0 
      494.00         0.23          7.0 
      495.00         0.23          7.0 
      496.00         0.22          7.0 
      497.00         0.17          7.0 
      498.00         0.27          7.0 
      499.00         0.27          7.0 
      500.00         0.27          7.0 
      501.00         0.17          7.0 
      502.00         0.30          7.0 
      503.00         0.33          7.0 
      504.00         0.27          7.0 
      505.00         0.37          7.0 
      506.00         0.30          7.0 
      507.00         0.37          7.0 
      508.00         0.42          7.0 
      509.00         0.33          7.0 
      510.00         0.27          7.0 
      511.00         0.23          7.0 
      512.00         0.27          7.0 
      513.00         0.27          7.0 
      514.00         0.30          7.0 
      515.00         0.30          7.0 
      516.00         0.27          7.0 
      517.00         0.27          7.0 
      518.00         0.23          7.0 
      519.00         0.22          7.0 
      520.00         0.27          7.0 
      521.00         0.27          7.0 
      522.00         0.23          7.0 
      523.00         0.30          7.0 
      524.00         0.20          7.0 
      525.00         0.20          7.0 
      526.00         0.20          7.0 
      527.00         0.20          7.0 
      528.00         0.17          7.0 
      529.00         0.17          7.0 
      530.00         0.27          7.0 
      531.00         0.30          7.0 
      532.00         0.27          7.0 
      533.00         0.25          7.0 
      534.00         0.27          7.0 
      535.00         0.27          7.0 
      536.00         0.27          7.0 
      537.00         0.20          7.0 
      538.00         0.20          7.0 
      539.00         0.33          7.0 
      540.00         0.27          7.0 
      541.00         0.27          7.0 
      542.00         0.30          7.0 
      543.00         0.32          7.0 
      544.00         0.30          7.0 
      545.00         0.27          7.0 
      546.00         0.27          7.0 
      547.00         0.27          7.0 
      548.00         0.27          7.0 
      549.00         0.33          7.0 
      550.00         0.37          7.0 
      551.00         0.33          7.0 
      552.00         0.37          7.0 
      553.00         0.42          7.0 
      554.00         0.40          7.0 
      555.00         0.43          7.0 
      556.00         0.37          7.0 
      557.00         0.30          7.0 
      558.00         0.23          7.0 
      559.00         0.23          7.0 
      560.00         0.23          7.0 
      561.00         0.20          7.0 
      562.00         0.17          7.0 
      563.00         0.20          7.0 
      564.00         0.17          7.0 
      565.00         0.17          7.0 
      566.00         0.28          7.0 
      567.00         0.33          7.0 
      568.00         0.43          7.0 
      569.00         0.45          7.0 
      570.00         0.37          7.0 
      571.00         0.27          7.0 
      572.00         0.23          7.0 
      573.00         0.23          7.0 
      574.00         0.23          7.0 
      575.00         0.23          7.0 
      576.00         0.23          7.0 
      577.00         0.23          7.0 
      578.00         0.33          7.0 
      579.00         0.30          7.0 
      580.00         0.27          7.0 
      581.00         0.25          7.0 
      582.00         0.23          7.0 
      583.00         0.27          7.0 
      584.00         0.23          7.0 
      585.00         0.23          7.0 
      586.00         0.27          7.0 
      587.00         0.23          7.0 
      588.00         0.23          7.0 
      589.00         0.20          7.0 
      590.00         0.23          7.0 
      591.00         0.20          7.0 
      592.00         0.27          7.0 
