~Version Information
VERS.                      2.0: CWLS Log ASCII Standard - VERSION 2.0
WRAP.                       NO: One line per depth step
~Well Information Block
STRT.FT                10.0000: 
STOP.FT               907.0000: 
STEP.FT                 0.1000: 
NULL.                -999.2500: 
COMP.          Pioneer Natural Resources: COMPANY
WELL.           Hartford 31-18: WELL
FLD.           Purgatorie River: FIELD
LOC.           375' FNL & 1660' FEL: LOCATION
PROV.                 Colorado: PROVINCE
CNTY.               Las Animas: COUNTRY
SRVC.                Patterson: SERVICE COMPANY
DATE.          Mon Nov 21 07:39:41 2005: LOG DATE
UWI.            05-071-08555              : UNIQUE WELL ID
~Curve Information Block
DEPT.FT            0 000 00 00: Depth
DCAL.in                       : CDL Caliper
RHOB.g/cc                     : CDL Bulk Density
RHOC.g/cc                     : CDL Density Correction
DPOR.pu                       : CDL Density Porosity
GR.GAPI                       : Gamma Ray
NPOR.pu                       : Neutron Porosity
~Parameter Information Block
~A  Depth       DCAL        RHOB        RHOC        DPOR         GR         NPOR    
# ...
   182.8000     -3.1029      2.2326      2.4820     -0.0084    136.7242     27.5419
   182.9000     -3.1029      2.2291      2.4641     -0.0084    134.1060     27.8031
   183.0000     -3.1029      2.2337      2.4719     -0.0083    137.7527     27.6601
   183.1000     -3.1029      2.2465      2.4551     -0.0081    142.6941     27.3429
   183.2000     -3.1029      2.2553      2.4768     -0.0079    145.5880     27.3558
   183.3000     -3.1029      2.2508      2.4639     -0.0080    148.3359     27.9833
   183.4000     -3.1029      2.2366      2.4622     -0.0083    152.9427     28.8167
   183.5000     -3.1029      2.2235      2.4388     -0.0085    156.8863     29.1982
   183.6000     -3.1029      2.2224      2.4572     -0.0086    159.7769     28.9969
   183.7000     -3.1029      2.2383      2.4488     -0.0082    162.0797     28.6727
   183.8000     -3.1029      2.2676      2.4787     -0.0077    162.5336     28.7432
   183.9000     -3.1029      2.2956      2.4894     -0.0071    162.6358     29.0857
   184.0000     -3.1029      2.3066      2.5235     -0.0069    162.1403     29.1053
   184.1000     -3.1029      2.3017      2.4875     -0.0070    159.2252     28.8764
   184.2000     -3.1029      2.2961      2.4779     -0.0071    155.6580     29.1163
   184.3000     -3.1029      2.3047      2.4787     -0.0069    152.8572     29.9352
   184.4000     -3.1029      2.3336      2.5070     -0.0063    150.7719     30.5762
   184.5000     -3.1029      2.3752      2.5339     -0.0055    151.2253     30.5520
   184.6000     -3.1029      2.4210      2.4902     -0.0046    154.3869     30.3849
   184.7000     -3.1029      2.4704      2.4976     -0.0036    157.0156     31.0040
   184.8000     -3.1029      2.5191      2.5296     -0.0026    157.9740     32.6373
   184.9000     -3.1029      2.5583      2.5508     -0.0018    157.5783     34.3451
   185.0000     -3.1029      2.5802      2.5661     -0.0014    155.0808     35.2770
   185.1000     -3.1029      2.5848      2.5454     -0.0013    151.9957     35.5790
   185.2000     -3.1029      2.5771      2.5702     -0.0015    152.6723     35.5174
   185.3000     -3.1029      2.5513      2.5762     -0.0020    155.9126     34.9181
   185.4000     -3.1029      2.5004      2.5532     -0.0030    157.4935     33.8366
   185.5000     -3.1029      2.4306      2.5074     -0.0044    157.1182     32.6603
   185.6000     -3.1029      2.3580      2.4578     -0.0058    154.2531     31.6046
   185.7000     -3.1029      2.2996      2.4569     -0.0070    150.6098     30.7311
   185.8000     -3.1029      2.2624      2.4966     -0.0078    151.2043     29.9482
   185.9000     -3.1029      2.2454      2.5079     -0.0081    155.8544     29.1651
   186.0000     -3.1029      2.2494      2.4980     -0.0080    158.2215     28.4691
   186.1000     -3.1029      2.2753      2.5144     -0.0075    154.7097     27.7821
   186.2000     -3.1029      2.3157      2.5803     -0.0067    148.5606     26.9941
   186.3000     -3.1029      2.3567      2.6025     -0.0059    143.5865     26.2295
   186.4000     -3.1029      2.3897      2.6114     -0.0052    142.8760     25.6003
   186.5000     -3.1029      2.4104      2.6340     -0.0048    146.9408     24.9072
   186.6000     -3.1029      2.4135      2.6208     -0.0047    152.2198     24.0649
   186.7000     -3.1029      2.4059      2.5971     -0.0049    156.9234     23.4389
   186.8000     -3.1029      2.4002      2.6070     -0.0050    161.2107     23.2221
   186.9000     -3.1029      2.3937      2.5892     -0.0051    164.3433     23.1721
   187.0000     -3.1029      2.3753      2.5751     -0.0055    164.9472     23.2814
   187.1000     -3.1029      2.3432      2.5368     -0.0061    162.7962     23.6320
   187.2000     -3.1029      2.3097      2.4862     -0.0068    159.0227     23.8156
   187.3000     -3.1029      2.2859      2.5030     -0.0073    155.3221     23.5316
   187.4000     -3.1029      2.2682      2.5188     -0.0076    153.8486     23.1049
   187.5000     -3.1029      2.2526      2.4535     -0.0080    153.1526     22.9623
   187.6000     -3.1029      2.2447      2.4985     -0.0081    150.3379     23.1356
   187.7000     -3.1029      2.2479      2.4847     -0.0080    146.7375     23.3586
   187.8000     -3.1029      2.2611      2.4738     -0.0078    143.0621     23.6697
   187.9000     -3.1029      2.2748      2.5309     -0.0075    139.3312     24.2314
   188.0000     -3.1029      2.2755      2.5474     -0.0075    137.9958     24.6715
   188.1000     -3.1029      2.2685      2.5205     -0.0076    137.2471     24.7093
   188.2000     -3.1029      2.2686      2.5579     -0.0076    134.7752     24.6341
   188.3000     -3.1029      2.2688      2.5915     -0.0076    132.9892     24.7697
   188.4000     -3.1029      2.2557      2.5680     -0.0079    134.5616     24.8160
   188.5000     -3.1029      2.2352      2.5535     -0.0083    139.3193     24.4950
   188.6000     -3.1029      2.2153      2.5947     -0.0087    144.7149     24.3467
   188.7000     -3.1029      2.1953      2.5638     -0.0091    151.4472     24.5139
   188.8000     -3.1029      2.1834      2.5153     -0.0093    160.4232     24.4975
   188.9000     -3.1029      2.1846      2.5689     -0.0093    167.1714     24.5286
   189.0000     -3.1029      2.1864      2.5779     -0.0093    167.7096     25.0757
   189.1000     -3.1029      2.1789      2.5780     -0.0094    163.5321     25.8601
   189.2000     -3.1029      2.1688      2.5521     -0.0096    159.5100     26.3178
   189.3000     -3.1029      2.1690      2.5235     -0.0096    159.6332     26.3926
   189.4000     -3.1029      2.1784      2.5921     -0.0094    165.6454     26.4616
   189.5000     -3.1029      2.1870      2.5753     -0.0093    173.4682     26.6582
   189.6000     -3.1029      2.1934      2.6088     -0.0091    176.5246     27.1456
   189.7000     -3.1029      2.1954      2.5957     -0.0091    174.4288     28.0445
   189.8000     -3.1029      2.1902      2.5878     -0.0092    172.0967     28.8493
   189.9000     -3.1029      2.1855      2.5906     -0.0093    173.3957     28.9168
   190.0000     -3.1029      2.1909      2.6016     -0.0092    174.8729     28.2609
   190.1000     -3.1029      2.2076      2.5866     -0.0089    171.7539     27.6916
   190.2000     -3.1029      2.2287      2.5905     -0.0084    168.7428     27.8103
   190.3000     -3.1029      2.2472      2.5854     -0.0081    169.5457     28.4695
   190.4000     -3.1029      2.2674      2.5917     -0.0077    168.3743     29.2048
   190.5000     -3.1029      2.2954      2.6060     -0.0071    163.0384     29.7717
   190.6000     -3.1029      2.3210      2.6411     -0.0066    160.0871     30.0520
   190.7000     -3.1029      2.3306      2.5870     -0.0064    162.2060     30.0448
   190.8000     -3.1029      2.3299      2.5828     -0.0064    166.3347     30.1327
   190.9000     -3.1029      2.3322      2.5854     -0.0064    171.7681     30.3140
   191.0000     -3.1029      2.3406      2.5738     -0.0062    177.2716     30.0619
   191.1000     -3.1029      2.3498      2.5878     -0.0060    176.1072     29.4977
   191.2000     -3.1029      2.3535      2.5814     -0.0059    168.5930     29.2380
   191.3000     -3.1029      2.3548      2.5474     -0.0059    166.2403     29.2275
   191.4000     -3.1029      2.3621      2.5506     -0.0058    170.4178     29.1778
   191.5000     -3.1029      2.3764      2.5572     -0.0055    169.9621     29.1428
   191.6000     -3.1029      2.3887      2.5816     -0.0052    162.9592     28.7949
   191.7000     -3.1029      2.3868      2.5649     -0.0053    159.7771     28.1176
   191.8000     -3.1029      2.3689      2.5648     -0.0056    162.7322     27.8648
   191.9000     -3.1029      2.3481      2.5368     -0.0060    166.8993     28.2312
   192.0000     -3.1029      2.3356      2.5370     -0.0063    169.8062     28.6019
   192.1000     -3.1029      2.3270      2.5455     -0.0065    169.4583     28.4670
   192.2000     -3.1029      2.3167      2.5299     -0.0067    168.1268     27.6808
   192.3000     -3.1029      2.3083      2.5346     -0.0068    169.8299     26.8525
