~Version Information
VERS.                      2.0: CWLS Log ASCII Standard - VERSION 2.0
WRAP.                       NO: One line per depth step
~Well Information Block
STRT.FT               615.0000: 
STOP.FT              1607.0000: 
STEP.FT                 0.1000: 
NULL.                -999.2500: 
COMP.          Pioneer Natural Resources: COMPANY
WELL.          Galloway 32-13 Tr: WELL
FLD.           Purgatoire River: FIELD
LOC.           1910' FNL & 2002' FEL: LOCATION
PROV.                 Colorado: PROVINCE
CNTY.               Las Animas: COUNTRY
SRVC.                Patterson: SERVICE COMPANY
DATE.          Mon Nov 14 07:13:22 2005: LOG DATE
UWI.           05 071 08608 00: UNIQUE WELL ID
~Curve Information Block
DEPT.FT            0 000 00 00: Depth
DCAL.in                       : CDL Caliper
RHOB.g/cc                     : CDL Bulk Density
RHOC.g/cc                     : CDL Density Correction
DPOR.pu                       : CDL Density Porosity
GR.GAPI                       : Gamma Ray
NPOR.pu                       : Neutron Porosity
~Parameter Information Block
~A  Depth       DCAL        RHOB        RHOC        DPOR         GR         NPOR    
# ...
  1527.0000      7.8406      2.6081      0.0041      2.5403    124.8507     24.4537
  1527.1000      7.8406      2.5989      0.0193      3.0972    126.9082     24.7702
  1527.2000      7.8406      2.5977      0.0450      3.1710    122.6372     25.6992
  1527.3000      7.8465      2.5954      0.0474      3.3101    113.0628     26.8263
  1527.4000      7.8465      2.5956     -0.0145      3.2976    107.3654     27.2823
  1527.5000      7.8544      2.6061      0.0655      2.6617    108.1439     26.8200
  1527.6000      7.8544      2.6153      0.0582      2.1059    110.4178     26.5291
  1527.7000      7.8544      2.6087      0.0425      2.5035    112.7901     26.6293
  1527.8000      7.8702      2.5864      0.0497      3.8535    114.4177     26.2357
  1527.9000      7.8702      2.5636      0.0562      5.2349    113.9671     25.4667
  1528.0000      7.8700      2.5592      0.0422      5.5001    112.1044     25.2970
  1528.1000      7.8700      2.5738      0.0661      4.6188    110.3776     25.6367
  1528.2000      7.8700      2.5863      0.1046      3.8580    110.6714     25.6017
  1528.3000      7.8296      2.5913      0.0733      3.5578    114.1089     24.9697
  1528.4000      7.8296      2.6061      0.0736      2.6630    119.3456     24.3291
  1528.5000      7.7748      2.6287      0.1216      1.2939    121.9841     24.4041
  1528.6000      7.7748      2.6337      0.1312      0.9850    118.7912     25.1535
  1528.7000      7.7748      2.6145      0.1022      2.1498    112.2433     25.9603
  1528.8000      7.8007      2.5956      0.0411      3.2963    109.4311     26.5193
  1528.9000      7.8007      2.5962      0.0725      3.2629    111.3112     26.8605
  1529.0000      7.8029      2.6058      0.0833      2.6792    108.4083     26.7932
  1529.1000      7.8029      2.6102      0.0509      2.4143    100.0098     26.4944
  1529.2000      7.8029      2.6102      0.0869      2.4103     95.7548     26.5627
  1529.3000      7.8172      2.6128      0.0480      2.2575     95.7681     26.7859
  1529.4000      7.8172      2.6235      0.1038      1.6083     92.6273     26.5264
  1529.5000      7.8195      2.6365      0.1160      0.8186     84.8460     25.6951
  1529.6000      7.8195      2.6393      0.1225      0.6514     77.8996     24.9288
  1529.7000      7.8195      2.6365      0.0519      0.8185     75.7360     24.5016
  1529.8000      7.8176      2.6394      0.1292      0.6432     76.5572     24.0375
  1529.9000      7.8176      2.6433      0.1170      0.4070     77.3171     23.3006
  1530.0000      7.8136      2.6402      0.1243      0.5929     78.9443     22.5278
  1530.1000      7.8136      2.6297      0.1203      1.2326     82.9122     21.9325
  1530.2000      7.8136      2.6199      0.1014      1.8267     85.8014     21.4454
  1530.3000      7.8401      2.6210      0.1270      1.7604     85.0423     21.1585
  1530.4000      7.8401      2.6323      0.1123      1.0722     83.7125     21.4715
  1530.5000      7.8137      2.6443      0.0964      0.3440     85.3482     22.2067
  1530.6000      7.8137      2.6425      0.1173      0.4563     85.4211     22.6114
  1530.7000      7.8137      2.6173      0.0856      1.9845     77.0264     22.8870
  1530.8000      7.7936      2.5835      0.0529      4.0307     65.1525     23.3335
  1530.9000      7.7936      2.5681      0.0416      4.9640     58.2617     23.1092
  1531.0000      7.8138      2.5716      0.0858      4.7498     55.0568     21.9873
  1531.1000      7.8138      2.5678      0.0990      4.9835     51.6504     20.3647
  1531.2000      7.8138      2.5466      0.0338      6.2651     47.5454     18.3941
  1531.3000      7.8370      2.5323     -0.0109      7.1313     42.6469     17.1759
  1531.4000      7.8370      2.5413      0.0557      6.5850     35.0224     17.7156
  1531.5000      7.8387      2.5590      0.0729      5.5145     26.0400     18.9262
  1531.6000      7.8387      2.5729      0.0352      4.6738     21.6852     19.1410
  1531.7000      7.8387      2.5822      0.0788      4.1075     22.8474     18.5246
  1531.8000      7.8542      2.5736      0.1244      4.6290     25.7943     18.0610
  1531.9000      7.8542      2.5414      0.0836      6.5813     28.8822     18.3073
  1532.0000      7.8580      2.5072      0.0421      8.6528     30.1969     19.2429
  1532.1000      7.8580      2.4934     -0.0215      9.4894     27.7955     19.8820
  1532.2000      7.8580      2.5019      0.0617      8.9779     23.5465     19.3831
  1532.3000      7.8558      2.5149      0.0506      8.1883     20.4826     18.4754
  1532.4000      7.8558      2.5189      0.0686      7.9464     19.8599     18.3155
  1532.5000      7.8522      2.5098      0.0467      8.4996     20.8229     18.7239
  1532.6000      7.8522      2.4851      0.0372      9.9928     20.9259     18.7369
  1532.7000      7.8522      2.4521     -0.0001     11.9929     20.8934     18.4847
  1532.8000      7.8557      2.4243      0.0429     13.6767     23.6501     18.5581
  1532.9000      7.8557      2.4113     -0.0380     14.4682     27.1393     18.7660
  1533.0000      7.8603      2.4115      0.0342     14.4553     27.7902     18.7278
  1533.1000      7.8603      2.4084      0.0226     14.6438     26.7445     18.5250
  1533.2000      7.8603      2.3976      0.0003     15.2997     25.1960     18.4341
  1533.3000      7.8581      2.3957      0.0405     15.4133     22.8094     18.6912
  1533.4000      7.8581      2.4146      0.0090     14.2691     20.2121     19.0566
  1533.5000      7.8675      2.4455      0.0913     12.3934     19.2379     18.8836
  1533.6000      7.8675      2.4675      0.0574     11.0617     21.7321     18.6753
  1533.7000      7.8675      2.4747      0.0651     10.6269     26.6522     19.3813
  1533.8000      7.8598      2.4769      0.0867     10.4926     30.1247     20.4883
  1533.9000      7.8598      2.4801      0.0940     10.2943     31.5322     21.1678
  1534.0000      7.8200      2.4846      0.0923     10.0227     32.0265     21.5639
  1534.1000      7.8200      2.4858      0.0965      9.9505     30.5729     22.0423
  1534.2000      7.8200      2.4772      0.0862     10.4755     27.9377     22.4664
  1534.3000      7.8112      2.4615      0.0530     11.4263     25.3535     22.5660
  1534.4000      7.8112      2.4486      0.0536     12.2056     23.3978     22.4221
  1534.5000      7.8290      2.4424      0.0757     12.5841     24.7339     22.3134
  1534.6000      7.8290      2.4392      0.0845     12.7771     29.9244     22.2734
  1534.7000      7.8290      2.4378      0.0645     12.8625     34.6564     22.1934
  1534.8000      7.8511      2.4441      0.0442     12.4774     36.2865     22.3200
  1534.9000      7.8511      2.4574      0.1067     11.6710     37.5712     22.6987
  1535.0000      7.8742      2.4658      0.0790     11.1632     38.9368     22.8798
  1535.1000      7.8742      2.4661      0.0570     11.1430     37.8584     23.1791
  1535.2000      7.8742      2.4596      0.1058     11.5414     37.0182     24.0677
  1535.3000      7.8789      2.4466      0.0612     12.3282     38.9796     24.2772
  1535.4000      7.8789      2.4390      0.0555     12.7882     39.6405     22.8440
  1535.5000      7.8739      2.4449      0.0675     12.4295     36.0055     21.2849
  1535.6000      7.8739      2.4572      0.0958     11.6821     31.9833     20.8189
  1535.7000      7.8739      2.4722      0.0528     10.7767     32.2862     20.8999
  1535.8000      7.8602      2.4901      0.1269      9.6888     35.3203     20.6205
  1535.9000      7.8602      2.5024      0.1288      8.9458     36.3674     20.1560
  1536.0000      7.8401      2.5086      0.0469      8.5707     34.6357     20.4575
  1536.1000      7.8401      2.5192      0.0719      7.9292     32.9225     21.5196
  1536.2000      7.8401      2.5300      0.1286      7.2723     34.4671     22.7446
  1536.3000      7.8290      2.5333      0.0881      7.0750     38.9543     23.9762
  1536.4000      7.8290      2.5330      0.1003      7.0910     41.3008     24.6478
  1536.5000      7.8640      2.5350      0.0483      6.9673     39.3746     24.0731
