~Version Information
VERS.                      2.0: CWLS Log ASCII Standard - VERSION 2.0
WRAP.                       NO: One line per depth step
~Well Information Block
STRT.FT               330.0000: 
STOP.FT              1972.5000: 
STEP.FT                 0.1000: 
NULL.                -999.2500: 
COMP.          Pioneer Natural Resources: COMPANY
WELL.           Willys 32-8 Tr: WELL
FLD.           Purgatoire River: FIELD
LOC.           1843' FNL & 2355' FEL: LOCATION
CNTY.               Las Animas: COUNTY
SRVC.                Patterson: SERVICE COMPANY
DATE.          Thu Feb 09 10:31:59 2006: LOG DATE
UWI.           05 071 08688 00: UNIQUE WELL ID
STAT.                 Colorado: STATE
~Curve Information Block
DEPT.FT            0 000 00 00: Depth
DCAL.in                       : CDL Caliper
RHOB.g/cc                     : CDL Bulk Density
RHOC.g/cc                     : CDL Density Correction
DPOR.pu                       : CDL Density Porosity
GR.GAPI                       : Gamma Ray
~Parameter Information Block
~A  Depth       DCAL        RHOB        RHOC        DPOR         GR     
# ...
   442.0000      8.2029      2.4761      0.0330     10.5390    137.3538
   442.1000      8.2029      2.4899      0.0489      9.7045    131.6392
   442.2000      8.2029      2.5007     -0.0044      9.0486    127.2262
   442.3000      8.2152      2.5065      0.0119      8.6945    125.3746
   442.4000      8.2152      2.5044     -0.0016      8.8219    125.4837
   442.5000      8.2262      2.4995      0.0364      9.1242    129.1543
   442.6000      8.2262      2.4959     -0.0169      9.3383    136.4150
   442.7000      8.2262      2.5006     -0.0353      9.0569    141.5399
   442.8000      8.2604      2.5116      0.0603      8.3864    140.7670
   442.9000      8.2604      2.5131     -0.0130      8.2975    136.0617
   443.0000      8.2725      2.5003      0.0382      9.0747    132.6012
   443.1000      8.2725      2.4826      0.0172     10.1434    133.5856
   443.2000      8.2725      2.4762     -0.0302     10.5332    136.9336
   443.3000      8.2815      2.4890     -0.0012      9.7567    137.3166
   443.4000      8.2815      2.5065      0.0357      8.6977    132.9732
   443.5000      8.2312      2.5109      0.0322      8.4315    129.3193
   443.6000      8.2312      2.5052      0.0253      8.7772    128.3040
   443.7000      8.2312      2.5030      0.0204      8.9117    124.5450
   443.8000      8.1849      2.5080      0.0155      8.6086    117.0469
   443.9000      8.1849      2.5141      0.0560      8.2356    109.9676
   444.0000      8.1867      2.5149      0.0446      8.1856    107.6148
   444.1000      8.1867      2.5104      0.0167      8.4622    111.4876
   444.2000      8.1867      2.5028      0.0089      8.9213    116.9133
   444.3000      8.2162      2.4948     -0.0308      9.4047    120.3055
   444.4000      8.2162      2.4905     -0.0077      9.6642    121.5817
   444.5000      8.1801      2.4913     -0.0382      9.6156    122.8017
   444.6000      8.1801      2.4947      0.0353      9.4149    127.5736
   444.7000      8.1801      2.4993     -0.0108      9.1336    131.4699
   444.8000      8.1427      2.5063      0.0220      8.7104    127.8353
   444.9000      8.1427      2.5093     -0.0158      8.5302    122.3441
   445.0000      8.1427      2.5028     -0.0224      8.9236    120.6061
   445.1000      8.1427      2.4910     -0.0029      9.6347    120.9693
   445.2000      8.1427      2.4819     -0.0233     10.1849    123.2261
   445.3000      8.1588      2.4810     -0.0383     10.2453    128.4029
   445.4000      8.1588      2.4929     -0.0263      9.5212    133.0287
   445.5000      8.1618      2.5186     -0.0167      7.9652    132.9058
   445.6000      8.1618      2.5491     -0.0087      6.1142    129.8516
   445.7000      8.1618      2.5708      0.0140      4.8024    130.9172
   445.8000      8.1785      2.5752     -0.0047      4.5355    138.4201
   445.9000      8.1785      2.5601      0.0427      5.4490    143.3998
   446.0000      8.2052      2.5288      0.0072      7.3463    140.5361
   446.1000      8.2052      2.5010     -0.0061      9.0298    135.6413
   446.2000      8.2052      2.4936      0.0164      9.4816    132.6300
   446.3000      8.1797      2.4987     -0.0047      9.1671    129.9545
   446.4000      8.1797      2.5040     -0.0203      8.8468    127.0785
   446.5000      8.1970      2.5124     -0.0281      8.3414    124.6525
   446.6000      8.1970      2.5332     -0.0420      7.0775    124.2549
   446.7000      8.1970      2.5613     -0.0157      5.3736    126.9629
   446.8000      8.2508      2.5766      0.0359      4.4511    129.5923
   446.9000      8.2508      2.5665      0.0850      5.0621    129.3101
   447.0000      8.2571      2.5411      0.0160      6.6011    128.9808
   447.1000      8.2571      2.5270     -0.0792      7.4526    132.1140
   447.2000      8.2571      2.5324      0.0280      7.1277    136.5645
   447.3000      8.2197      2.5376      0.0139      6.8103    137.0784
   447.4000      8.2197      2.5373      0.0154      6.8305    133.3307
   447.5000      8.1900      2.5430     -0.0011      6.4837    130.1964
   447.6000      8.1900      2.5489      0.0456      6.1245    129.5513
   447.7000      8.1900      2.5344      0.0335      7.0082    128.5857
   447.8000      8.1933      2.5045     -0.0401      8.8178    128.3880
   447.9000      8.1933      2.4884     -0.0058      9.7914    131.2164
   448.0000      8.2306      2.4943      0.0037      9.4359    133.1157
   448.1000      8.2306      2.5041      0.0366      8.8433    131.7275
   448.2000      8.2306      2.5082      0.0067      8.5949    130.6827
   448.3000      8.2131      2.5139     -0.0071      8.2458    131.6607
   448.4000      8.2131      2.5230     -0.0154      7.6986    132.0712
   448.5000      8.2112      2.5316      0.0226      7.1779    129.6375
   448.6000      8.2112      2.5387      0.0284      6.7470    126.2397
   448.7000      8.2112      2.5427      0.0360      6.5021    125.0045
   448.8000      8.1827      2.5452      0.0792      6.3529    128.0205
   448.9000      8.1827      2.5466      0.0800      6.2661    133.5523
   449.0000      8.0865      2.5409      0.0610      6.6096    134.1841
   449.1000      8.0865      2.5305     -0.0136      7.2449    129.4492
   449.2000      8.0865      2.5296      0.0246      7.2957    126.5524
   449.3000      8.0730      2.5393      0.0300      6.7113    128.9682
   449.4000      8.0730      2.5481     -0.0205      6.1755    135.0961
   449.5000      8.0927      2.5509     -0.0084      6.0081    141.4901
   449.6000      8.0927      2.5463      0.0201      6.2841    146.5206
   449.7000      8.0927      2.5349     -0.0064      6.9757    150.2329
   449.8000      8.0777      2.5256     -0.0017      7.5417    150.4643
   449.9000      8.0777      2.5299      0.0104      7.2788    146.7672
   450.0000      8.0893      2.5508      0.0369      6.0127    142.9864
   450.1000      8.0893      2.5801      0.0712      4.2343    142.0482
   450.2000      8.0893      2.6023      0.1059      2.8914    142.3749
   450.3000      8.0725      2.6070      0.0960      2.6067    142.8513
   450.4000      8.0725      2.5954      0.0451      3.3065    145.2226
   450.5000      8.0653      2.5707      0.0878      4.8033    146.2082
   450.6000      8.0653      2.5366      0.0192      6.8721    140.6859
   450.7000      8.0653      2.5062     -0.0172      8.7156    133.7242
   450.8000      8.0800      2.4905      0.0038      9.6651    131.6179
   450.9000      8.0800      2.4913      0.0178      9.6188    129.9369
   451.0000      8.0739      2.5065      0.0035      8.6947    125.2793
   451.1000      8.0739      2.5276      0.0219      7.4170    123.7626
   451.2000      8.0739      2.5409      0.0358      6.6146    129.6863
   451.3000      8.0695      2.5396      0.0416      6.6938    139.5611
   451.4000      8.0695      2.5277      0.0628      7.4095    147.8428
   451.5000      8.0692      2.5154      0.0227      8.1573    149.7573
   451.6000      8.0692      2.5096      0.0683      8.5090    146.0422
   451.7000      8.0692      2.5076      0.0658      8.6289    142.8153
   451.8000      8.0894      2.5054      0.0441      8.7608    143.1945
   451.9000      8.0894      2.5039      0.0358      8.8557    145.3486
   452.0000      8.1106      2.5059      0.0493      8.7359    144.7748
   452.1000      8.1106      2.5202      0.0075      7.8639    140.2142
   452.2000      8.1106      2.5472      0.1299      6.2316    135.7523
   452.3000      8.0777      2.5677      0.1036      4.9896    134.5389
   452.4000      8.0777      2.5730      0.0896      4.6674    134.0866
   452.5000      8.0808      2.5648      0.0609      5.1649    132.6658
   452.6000      8.0808      2.5444      0.0510      6.3976    133.7393
   452.7000      8.0808      2.5266     -0.0014      7.4806    139.0668
   452.8000      8.0817      2.5237      0.0741      7.6533    145.7504
   452.9000      8.0817      2.5275      0.0538      7.4222    148.2818
   453.0000      8.0707      2.5301      0.0672      7.2671    145.8805
   453.1000      8.0707      2.5336      0.0558      7.0554    143.4812
