~Version Information
 VERS.                                  2.0 : CWLS LAS VERSION
 WRAP.                                   NO : WRAPING MODE
 SWARE .                 MController 2.5.0J : SOFTWARE VERSION
~Well Information
 WELL.                         State 16-44R : WELL
 COMP.                Petrogulf Corporation : COMPANY
 FLD.                      Purgatoire River : FIELD
 LOC.                SE/SE Sec 16 T33S R67W : LOCATION
 DATE.                          10/20-21/05 : DATE(S) LOGGED
 SRVC.       BLANCO Geological Services LLC : SERVICE COMPANY
 STAT.                                   CO : STATE
 CNTY.                           Las Animas : COUNTY
 CTRY.                                  USA : COUNTRY
 API.                       05-071-08457-00 : API NUMBER
 STRT.FT                               1.00 : START DEPTH
 STOP.FT                            1629.00 : STOP DEPTH
 STEP.FT                               1.00 : DEPTH INCREMENT
 NULL.                                -9999 : NULL VALUE
~Curve information
 DEPTH.FT                                   :
 ROP.MIN/FT                                 :
 GAS.UNITS                                  :
~ASCII Log data
         1.0     -9999.00          5.1 
         2.0         1.58          5.8 
         3.0         2.42          5.6 
         4.0         0.10          5.1 
         5.0         0.23          5.3 
         6.0        13.43          6.0 
         7.0         0.37          5.3 
         8.0         0.20          5.0 
         9.0         0.30          5.4 
        10.0         0.40          5.3 
        11.0         0.42          5.6 
        12.0         0.40          5.4 
        13.0         0.50          5.7 
        14.0         0.40          5.1 
        15.0         0.47          5.5 
        16.0         1.62          5.6 
        17.0         0.30          7.5 
        18.0         0.07          4.8 
        19.0         0.20          4.6 
        20.0         0.10          3.9 
        21.0         0.37          4.3 
        22.0         0.53          4.3 
        23.0         0.58          4.4 
        24.0         0.90          3.9 
        25.0         1.95         24.2 
        26.0         0.53         25.3 
        27.0         8.12        166.1 
        28.0         0.67        107.0 
        29.0         0.47          8.4 
        30.0         0.37          1.4 
        31.0         0.27          0.1 
        32.0         0.30          0.3 
        33.0         0.27          0.3 
        34.0         0.27          0.3 
        35.0         0.28          0.3 
        36.0         0.27          0.6 
        37.0         0.30          1.2 
        38.0         0.27          1.2 
        39.0         0.20          1.6 
        40.0         0.27          1.9 
        41.0         0.27          2.1 
        42.0         0.27          2.2 
        43.0         0.27          2.2 
        44.0         0.27          2.6 
        45.0         0.27          2.6 
        46.0         0.33          2.8 
        47.0         0.23          3.1 
        48.0         0.28          3.1 
        49.0         0.30          3.4 
        50.0         0.30          3.5 
        51.0         0.30          3.7 
        52.0         0.33          3.9 
        53.0         0.33          4.2 
        54.0         0.27          3.9 
        55.0         0.27          4.0 
        56.0         2.68          5.2 
        57.0         0.20          5.3 
        58.0         0.27          5.1 
        59.0         0.27          5.3 
        60.0         0.30          5.5 
        61.0         0.27          5.1 
        62.0         0.28          5.6 
        63.0         0.23          5.3 
        64.0         0.23          5.1 
        65.0         0.13          5.1 
        66.0         0.27          5.2 
        67.0         0.30          5.5 
        68.0         0.27          5.8 
        69.0         0.23          5.6 
        70.0         0.23          5.7 
        71.0         0.20          5.5 
        72.0         0.23          5.7 
        73.0         0.17          5.4 
        74.0         0.22          5.2 
        75.0         0.23          5.5 
        76.0         0.13          5.3 
        77.0         0.13          5.1 
        78.0         0.27          5.7 
        79.0         0.27          5.6 
        80.0         0.20          5.4 
        81.0         0.17          5.5 
        82.0         0.13          5.3 
        83.0         0.13          5.3 
        84.0         0.13          5.7 
        85.0         0.20          5.5 
        86.0         1.55          5.8 
        87.0         0.10          5.2 
        88.0         0.10          5.5 
        89.0         0.10          5.1 
        90.0         0.10          5.0 
        91.0         0.13          4.9 
        92.0         0.13          5.3 
        93.0         0.10          5.1 
        94.0         0.20          5.0 
        95.0         0.30          5.1 
        96.0         0.37          5.3 
        97.0         0.33          5.9 
        98.0         0.30          5.7 
        99.0         0.32          5.5 
       100.0         0.33          5.5 
       101.0         0.37          5.6 
       102.0         0.30          5.5 
       103.0         0.33          5.6 
       104.0         0.40          5.3 
       105.0         0.33          5.9 
       106.0         0.33          5.6 
       107.0         0.33          6.0 
       108.0         0.35          5.8 
       109.0         0.33          6.1 
       110.0         0.33          6.0 
       111.0         0.33          5.9 
       112.0         0.33          6.3 
       113.0         0.33          6.2 
       114.0         0.30          6.0 
       115.0         0.27          6.0 
       116.0         1.55          6.7 
       117.0         0.30          6.4 
       118.0         0.27          6.7 
       119.0         0.30          7.0 
       120.0         0.27          6.4 
       121.0         0.27          6.5 
       122.0         0.30          6.9 
       123.0         0.28          6.5 
       124.0         0.27          6.7 
       125.0         0.27          6.6 
       126.0         0.27          6.4 
       127.0         0.27          6.6 
       128.0         0.27          6.4 
       129.0         0.27          6.7 
       130.0         0.27          6.4 
       131.0         0.27          7.0 
       132.0         0.30          7.0 
       133.0         0.27          7.1 
       134.0         0.27          7.1 
       135.0         0.28          6.8 
       136.0         0.23          7.3 
       137.0         0.20          7.3 
       138.0         0.23          7.2 
       139.0         0.27          7.4 
       140.0         0.37          7.8 
       141.0         0.40          7.8 
       142.0         0.27          8.0 
       143.0         0.23          8.1 
       144.0         0.23          8.2 
       145.0         0.20          7.9 
       146.0         1.52          8.2 
       147.0         0.13          7.7 
       148.0         0.17          7.8 
       149.0         0.17          7.6 
       150.0         0.13          7.9 
       151.0         0.17          7.8 
       152.0         0.20          7.8 
       153.0         0.20          7.6 
       154.0         0.20          8.1 
       155.0         0.27          8.0 
       156.0         0.13          7.5 
       157.0         0.17          8.2 
       158.0         0.25          8.0 
       159.0         0.40          7.9 
       160.0         0.40          8.1 
       161.0         0.43          8.1 
       162.0         0.37          8.1 
       163.0         0.37          8.0 
       164.0         0.27          8.0 
       165.0         0.27          7.9 
       166.0         0.27          7.7 
       167.0         0.37          8.1 
       168.0         0.35          8.2 
       169.0         0.40          7.9 
       170.0         0.53          8.2 
       171.0         0.40          8.3 
       172.0         0.33          8.1 
       173.0         0.20          8.0 
       174.0         0.20          7.4 
       175.0         0.13          7.5 
       176.0         2.48          8.1 
       177.0         0.30          7.6 
       178.0         0.33          7.6 
       179.0         0.20          7.5 
       180.0         0.20          7.6 
       181.0         0.33          7.7 
       182.0         0.38          8.0 
       183.0         0.37          7.9 
       184.0         0.30          7.7 
       185.0         0.30          7.9 
       186.0         0.30          7.9 
       187.0         0.33          8.4 
       188.0         0.27          8.2 
       189.0         0.33          8.3 
       190.0         0.30          7.9 
       191.0         0.20          8.3 
       192.0         0.17          8.0 
       193.0         0.20          7.9 
       194.0         0.18          7.9 
       195.0         0.27          8.4 
       196.0         0.30          8.3 
       197.0         0.30          7.7 
       198.0         0.33          8.1 
       199.0         0.30          8.0 
       200.0         0.27          8.3 
