~Version Information
VERS.                      2.0: CWLS Log ASCII Standard - VERSION 2.0
WRAP.                       NO: One line per depth step
~Well Information Block
STRT.FT               440.0000: 
STOP.FT              1702.7500: 
STEP.FT                 0.2500: 
NULL.                -999.2500: 
COMP.          Pioneer Natural Resources: COMPANY
WELL.          Culver 14-12 Tr: WELL
FLD.           Purgatoire River: FIELD
LOC.           915' FSL & 1048' FWL--: LOCATION
STAT.                 Colorado: State
CNTY.               Las Animas: COUNTY
CTRY. USA : Country
SECT. 12 : Section
TOWN. 32S : Township
RANG. 66W : Range
SRVC.                Patterson: SERVICE COMPANY
DATE.          Tue Sep 27 23:38:23 2005: LOG DATE
API.           05 071 08520 00: UNIQUE WELL ID
~Curve Information Block
DEPT.FT            0 000 00 00: Depth
SN.Ohm-m                      : IEL Short Normal
SP.mV                         : IEL Spontaneous Potential
DIR.Ohm-m                     : IEL Induction Resistivity
GR.GAPI                       : Gamma Ray
~Parameter Information Block
~A  Depth        SN          SP         DIR          GR     
# ...
  1009.5000     12.0080    -25.4774      9.1465    127.4594
  1009.7500     11.9951    -25.2310      9.1773    131.3711
  1010.0000     11.9738    -24.9870      9.2934    135.3782
  1010.2500     11.9279    -24.7628      9.4872    136.2364
  1010.5000     11.8463    -24.5816      9.7459    134.5029
  1010.7500     11.7210    -24.4678     10.0529    131.5754
  1011.0000     11.5579    -24.4409     10.3895    125.6182
  1011.2500     11.4027    -24.5083     10.7397    121.5632
  1011.5000     11.3565    -24.6606     11.0950    117.0680
  1011.7500     11.5575    -24.8710     11.4570    115.7585
  1012.0000     12.1210    -25.0991     11.8355    116.3372
  1012.2500     13.0671    -25.3009     12.2406    117.8328
  1012.5000     14.2826    -25.4386     12.6739    120.0551
  1012.7500     15.5532    -25.4904     13.1239    120.5671
  1013.0000     16.6570    -25.4548     13.5683    119.4519
  1013.2500     17.4610    -25.3490     13.9814    118.1431
  1013.5000     17.9521    -25.2029     14.3407    116.9889
  1013.7500     18.1890    -25.0509     14.6272    117.1348
  1014.0000     18.2278    -24.9231     14.8217    117.9235
  1014.2500     18.0860    -24.8397     14.9053    117.9783
  1014.5000     17.7656    -24.8094     14.8675    116.3497
  1014.7500     17.2997    -24.8297     14.7162    114.1354
  1015.0000     16.7710    -24.8909     14.4793    110.1390
  1015.2500     16.2824    -24.9801     14.1967    107.8735
  1015.5000     15.9079    -25.0855     13.9086    106.0618
  1015.7500     15.6662    -25.1993     13.6470    105.8565
  1016.0000     15.5290    -25.3179     13.4312    106.0794
  1016.2500     15.4494    -25.4422     13.2680    106.1105
  1016.5000     15.3873    -25.5750     13.1551    106.1946
  1016.7500     15.3266    -25.7200     13.0875    106.7827
  1017.0000     15.2849    -25.8806     13.0663    108.9715
  1017.2500     15.3122    -26.0602     13.1049    111.1296
  1017.5000     15.4765    -26.2622     13.2305    114.3305
  1017.7500     15.8405    -26.4912     13.4785    115.4422
  1018.0000     16.4359    -26.7529     13.8830    114.0433
  1018.2500     17.2524    -27.0517     14.4685    110.9431
  1018.5000     18.2508    -27.3886     15.2447    104.3149
  1018.7500     19.3920    -27.7575     16.2038     99.5008
  1019.0000     20.6555    -28.1429     17.3210     92.4717
  1019.2500     22.0280    -28.5199     18.5571     87.9967
  1019.5000     23.4721    -28.8563     19.8640     81.7721
  1019.7500     24.9059    -29.1172     21.1886     78.1335
  1020.0000     26.2142    -29.2706     22.4682     73.7738
  1020.2500     27.2828    -29.2932     23.6196     71.8501
  1020.5000     28.0288    -29.1736     24.5383     70.9860
  1020.7500     28.4153    -28.9148     25.1216     71.9242
  1021.0000     28.4480    -28.5330     25.3091     75.3479
  1021.2500     28.1653    -28.0566     25.1092     78.6428
  1021.5000     27.6282    -27.5221     24.5906     84.5012
  1021.7500     26.9147    -26.9708     23.8510     88.6225
  1022.0000     26.1134    -26.4439     22.9923     94.4427
  1022.2500     25.3110    -25.9779     22.1100     97.8162
  1022.5000     24.5742    -25.5998     21.2873    101.9226
  1022.7500     23.9390    -25.3229     20.5868    103.9467
  1023.0000     23.4095    -25.1439     20.0420    105.7964
  1023.2500     22.9639    -25.0428     19.6547    106.2141
  1023.5000     22.5618    -24.9851     19.3995    105.5570
  1023.7500     22.1600    -24.9287     19.2343    104.1955
  1024.0000     21.7332    -24.8328     19.1120    100.9460
  1024.2500     21.2906    -24.6682     18.9879     98.4658
  1024.5000     20.8721    -24.4255     18.8251     95.6299
  1024.7500     20.5207    -24.1182     18.5967     95.0393
  1025.0000     20.2495    -23.7800     18.2895     96.5244
  1025.2500     20.0282    -23.4554     17.9064     98.7950
  1025.5000     19.8012    -23.1874     17.4639    103.1312
  1025.7500     19.5209    -23.0053     16.9848    106.1968
  1026.0000     19.1688    -22.9166     16.4909    110.9523
  1026.2500     18.7551    -22.9066     16.0007    114.4043
  1026.5000     18.3069    -22.9436     15.5318    120.0541
  1026.7500     17.8596    -22.9905     15.1031    123.7753
  1027.0000     17.4554    -23.0175     14.7351    128.1386
  1027.2500     17.1402    -23.0134     14.4477    129.6203
  1027.5000     16.9579    -22.9914     14.2589    129.4881
  1027.7500     16.9442    -22.9881     14.1846    128.2962
  1028.0000     17.1273    -23.0550     14.2371    125.9816
  1028.2500     17.5337    -23.2450     14.4244    124.4160
  1028.5000     18.1899    -23.5978     14.7501    121.5244
  1028.7500     19.1105    -24.1281     15.2141    118.4478
  1029.0000     20.2803    -24.8196     15.8135    110.8666
  1029.2500     21.6515    -25.6268     16.5390    103.7981
  1029.5000     23.1639    -26.4832     17.3690     91.5727
  1029.7500     24.7552    -27.3126     18.2619     83.4518
  1030.0000     26.3348    -28.0419     19.1501     72.5746
  1030.2500     27.7537    -28.6112     19.9376     66.5275
  1030.5000     28.8335    -28.9812     20.5063     59.7069
  1030.7500     29.4491    -29.1361     20.7401     56.9426
  1031.0000     29.5763    -29.0837     20.5681     55.9217
  1031.2500     29.2461    -28.8523     20.0011     57.6114
  1031.5000     28.4710    -28.4854     19.1285     64.1275
  1031.7500     27.2381    -28.0351     18.0746     71.0667
  1032.0000     25.5744    -27.5547     16.9530     84.3340
  1032.2500     23.6013    -27.0921     15.8452     93.9679
  1032.5000     21.5208    -26.6847     14.8055    107.3053
  1032.7500     19.5468    -26.3557     13.8712    114.4042
  1033.0000     17.8355    -26.1144     13.0691    121.9620
  1033.2500     16.4537    -25.9574     12.4157    125.4216
  1033.5000     15.3889    -25.8714     11.9163    128.9664
  1033.7500     14.5792    -25.8375     11.5654    130.0873
  1034.0000     13.9489    -25.8346     11.3489    129.4322
  1034.2500     13.4387    -25.8433     11.2476    127.8438
  1034.5000     13.0253    -25.8480     11.2400    125.7367
  1034.7500     12.7277    -25.8382     11.3066    125.5396
  1035.0000     12.6011    -25.8088     11.4314    126.9423
  1035.2500     12.7152    -25.7584     11.6017    128.0436
  1035.5000     13.1160    -25.6885     11.8055    128.5015
  1035.7500     13.7824    -25.6016     12.0294    127.8022
  1036.0000     14.6061    -25.5005     12.2574    125.4890
  1036.2500     15.4225    -25.3881     12.4715    123.2720
  1036.5000     16.0825    -25.2678     12.6564    119.3617
  1036.7500     16.5164    -25.1436     12.8063    116.7705
  1037.0000     16.7455    -25.0201     12.9285    113.5870
  1037.2500     16.8438    -24.9017     13.0418    112.1118
  1037.5000     16.8902    -24.7916     13.1668    110.5197
  1037.7500     16.9409    -24.6915     13.3174    109.3900
  1038.0000     17.0275    -24.6013     13.4983    107.1106
  1038.2500     17.1665    -24.5202     13.7102    105.4663
  1038.5000     17.3689    -24.4483     13.9548    103.7014
  1038.7500     17.6470    -24.3879     14.2370    103.2398
  1039.0000     18.0164    -24.3449     14.5615    103.4915
  1039.2500     18.4934    -24.3282     14.9312    104.2168
  1039.5000     19.0912    -24.3493     15.3478    106.0752
  1039.7500     19.8152    -24.4194     15.8150    107.5693
  1040.0000     20.6601    -24.5475     16.3392    109.3486
  1040.2500     21.6044    -24.7385     16.9262    109.7786
  1040.5000     22.6017    -24.9913     17.5726    108.8375
  1040.7500     23.5723    -25.2989     18.2558    106.9848
  1041.0000     24.4011    -25.6481     18.9250    102.2311
  1041.2500     24.9554    -26.0212     19.5019     97.8409
  1041.5000     25.1262    -26.3971     19.8949     89.9029
  1041.7500     24.8775    -26.7525     20.0225     84.1861
  1042.0000     24.2700    -27.0625     19.8368     76.5456
  1042.2500     23.4373    -27.2993     19.3362     73.5396
  1042.5000     22.5202    -27.4313     18.5640     74.6683
  1042.7500     21.5985    -27.4214     17.5956     79.6490
