~Version Information
VERS.                      2.0: CWLS Log ASCII Standard - VERSION 2.0
WRAP.                       NO: One line per depth step
~Well Information Block
STRT.FT               245.0000: 
STOP.FT              1006.0000: 
STEP.FT                 0.1000: 
NULL.                -999.2500: 
COMP.          Pioneer Natural Resources: COMPANY
WELL.              Atlas 32-18: WELL
FLD.           Purgatoire River: FIELD
LOC.           1892' FNL & 1456' FEL: LOCATION
PROV.                 Colorado: PROVINCE
CNTY.               Las Animas: COUNTRY
SRVC.                Patterson: SERVICE COMPANY
DATE.          Mon Nov 21 08:58:56 2005: LOG DATE
UWI.           05 071 08556 00: UNIQUE WELL ID
~Curve Information Block
DEPT.FT            0 000 00 00: Depth
DCAL.in                       : CDL Caliper
RHOB.g/cc                     : CDL Bulk Density
RHOC.g/cc                     : CDL Density Correction
DPOR.pu                       : CDL Density Porosity
GR.GAPI                       : Gamma Ray
NPOR.pu                       : Neutron Porosity
~Parameter Information Block
~A  Depth       DCAL        RHOB        RHOC        DPOR         GR         NPOR    
# ...
   542.6000      8.0583      2.5552      0.0074      5.7427    171.7894     25.1239
   542.7000      8.0583      2.5323      0.0245      7.1343    166.9274     25.1093
   542.8000      8.0788      2.5167      0.0428      8.0797    168.9343     25.0071
   542.9000      8.0788      2.5055      0.0258      8.7553    184.1023     24.7088
   543.0000      8.1232      2.4984      0.0161      9.1868    197.1390     24.4843
   543.1000      8.1232      2.5042      0.0451      8.8383    197.3701     24.7229
   543.2000      8.1232      2.5156      0.0663      8.1480    191.8817     25.2847
   543.3000      8.0954      2.5156      0.0549      8.1472    188.9855     25.6190
   543.4000      8.0954      2.5138      0.0279      8.2573    188.8074     25.5899
   543.5000      8.0826      2.5339      0.0164      7.0389    190.6145     25.4631
   543.6000      8.0826      2.5647      0.1089      5.1681    193.1246     25.1763
   543.7000      8.0826      2.5710      0.1003      4.7899    189.5939     24.7989
   543.8000      8.0744      2.5494      0.0468      6.0941    176.3783     24.7549
   543.9000      8.0744      2.5278      0.0184      7.4081    163.9371     24.9971
   544.0000      8.1025      2.5153      0.0177      8.1638    164.9573     25.1238
   544.1000      8.1025      2.5035     -0.0104      8.8771    175.7004     25.0329
   544.2000      8.1025      2.4939      0.0210      9.4597    182.4820     25.0468
   544.3000      8.0730      2.4978      0.0145      9.2232    182.8812     25.2956
   544.4000      8.0730      2.5204      0.0572      7.8551    184.9623     25.3872
   544.5000      8.0660      2.5441      0.1132      6.4189    190.4164     25.0917
   544.6000      8.0660      2.5530      0.1059      5.8758    193.3524     24.5666
   544.7000      8.0660      2.5568      0.1494      5.6473    191.9991     23.9762
   544.8000      8.0648      2.5639      0.1829      5.2193    191.7033     23.5235
   544.9000      8.0648      2.5668      0.1927      5.0396    191.6596     23.5718
   545.0000      8.0659      2.5546      0.1994      5.7795    186.0920     24.2451
   545.1000      8.0659      2.5271      0.1438      7.4475    177.2564     24.8109
   545.2000      8.0659      2.4992      0.1158      9.1393    171.7994     24.5904
   545.3000      8.0935      2.4842      0.1088     10.0493    174.0536     23.9674
   545.4000      8.0935      2.4803      0.0869     10.2842    179.8675     23.6636
   545.5000      8.1111      2.4737      0.0860     10.6845    181.1853     23.9617
   545.6000      8.1111      2.4645     -0.0010     11.2400    179.0941     24.7100
   545.7000      8.1111      2.4711      0.0821     10.8420    176.9754     25.6476
   545.8000      8.0979      2.4940      0.1297      9.4518    178.5860     26.4396
   545.9000      8.0979      2.5258      0.1770      7.5267    186.3626     26.8251
   546.0000      8.0936      2.5665      0.1795      5.0606    194.2460     27.0830
   546.1000      8.0936      2.6025      0.2600      2.8796    195.6526     27.5060
   546.2000      8.0936      2.6176      0.2096      1.9653    191.8358     28.0378
   546.3000      8.0824      2.6159      0.1969      2.0644    188.0062     28.5742
   546.4000      8.0824      2.6085      0.2254      2.5124    186.6807     28.9176
   546.5000      8.0726      2.6048      0.2005      2.7391    184.2747     29.0025
   546.6000      8.0726      2.6050      0.1712      2.7257    178.2087     28.7773
   546.7000      8.0726      2.5973      0.1850      3.1936    169.4905     28.3686
   546.8000      8.0663      2.5830      0.1203      4.0635    159.0365     28.3820
   546.9000      8.0663      2.5803      0.0605      4.2232    150.3504     28.8052
   547.0000      8.0650      2.5910      0.0605      3.5785    145.0148     29.0760
   547.1000      8.0650      2.6002      0.0588      3.0170    143.0249     29.0245
   547.2000      8.0650      2.6033      0.0925      2.8312    146.0920     28.8039
   547.3000      8.0345      2.6022      0.0740      2.8986    152.2582     28.5542
   547.4000      8.0345      2.5976      0.0464      3.1747    155.9450     28.3438
   547.5000      8.0133      2.5831      0.0762      4.0560    154.3924     28.3283
   547.6000      8.0133      2.5537      0.0323      5.8386    152.5873     28.4011
   547.7000      8.0133      2.5246     -0.0056      7.6001    155.2195     28.0038
   547.8000      8.0110      2.5108     -0.0038      8.4345    156.8675     27.0851
   547.9000      8.0110      2.5122     -0.0441      8.3495    152.4046     26.5619
   548.0000      8.0259      2.5297     -0.0456      7.2926    145.9801     26.8761
   548.1000      8.0259      2.5572     -0.0128      5.6243    142.5650     27.4996
   548.2000      8.0259      2.5775      0.0111      4.3941    144.6640     27.9283
   548.3000      8.0645      2.5783      0.0120      4.3472    151.1186     28.0119
   548.4000      8.0645      2.5606      0.0074      5.4176    155.5140     27.7636
   548.5000      8.0912      2.5382     -0.0508      6.7768    155.5859     27.5037
   548.6000      8.0912      2.5285     -0.0189      7.3632    154.3370     27.4885
   548.7000      8.0912      2.5348      0.0073      6.9841    154.6960     27.5643
   548.8000      8.0748      2.5394      0.0352      6.7031    156.2361     27.3981
   548.9000      8.0748      2.5304     -0.0485      7.2513    155.2637     26.9569
   549.0000      8.0717      2.5196     -0.0054      7.9058    152.4406     26.6818
   549.1000      8.0717      2.5201      0.0039      7.8714    149.5606     26.6910
   549.2000      8.0717      2.5296     -0.0021      7.2998    145.4579     26.6304
   549.3000      8.0800      2.5364      0.0113      6.8847    140.0173     26.4839
   549.4000      8.0800      2.5245      0.0549      7.6071    135.7141     26.3792
   549.5000      8.0954      2.4914     -0.0073      9.6108    136.4259     26.2972
   549.6000      8.0954      2.4705     -0.0239     10.8816    142.8006     26.2261
   549.7000      8.0954      2.4847      0.0323     10.0182    149.3653     25.9279
   549.8000      8.1328      2.5118      0.0749      8.3781    151.4657     25.3359
   549.9000      8.1328      2.5257      0.0562      7.5351    150.4737     24.9885
   550.0000      8.1273      2.5241      0.0607      7.6275    151.1479     25.0060
   550.1000      8.1273      2.5143      0.0887      8.2222    157.4333     24.8492
   550.2000      8.1273      2.5040      0.0681      8.8455    168.2195     24.3864
   550.3000      8.0766      2.4918      0.1304      9.5851    175.6951     24.0403
   550.4000      8.0766      2.4707      0.1230     10.8640    175.7155     23.8225
   550.5000      8.0398      2.4488      0.0968     12.1911    170.3386     23.4246
   550.6000      8.0398      2.4403      0.0824     12.7095    161.4968     22.7908
   550.7000      8.0398      2.4423      0.0782     12.5860    152.2825     21.9860
   550.8000      8.0453      2.4366      0.0772     12.9341    145.6519     21.2737
   550.9000      8.0453      2.4094      0.0446     14.5794    144.4010     20.5974
   551.0000      8.0221      2.3608      0.0573     17.5254    147.8179     19.6550
   551.1000      8.0221      2.2943      0.0721     21.5591    150.4348     18.6685
   551.2000      8.0221      2.2210      0.0108     26.0012    149.6395     18.1361
   551.3000      8.0226      2.1625      0.0073     29.5434    146.4118     18.4325
   551.4000      8.0226      2.1267      0.0312     31.7156    140.8714     19.0991
   551.5000      8.0391      2.0956      0.0917     33.6026    137.3739     19.2758
   551.6000      8.0391      2.0501      0.1288     36.3582    142.1304     19.1344
   551.7000      8.0391      1.9950      0.1092     39.6969    149.7020     19.4221
   551.8000      8.0503      1.9566      0.1292     42.0216    150.6141     20.3991
   551.9000      8.0503      1.9552      0.1510     42.1088    146.8587     21.8875
   552.0000      8.0435      1.9888      0.1243     40.0707    145.5960     23.5357
   552.1000      8.0435      2.0460      0.0894     36.6062    146.9928     24.8085
