~Version Information
VERS.                      2.0: CWLS Log ASCII Standard - VERSION 2.0
WRAP.                       NO: One line per depth step
~Well Information Block
STRT.FT               830.0000: 
STOP.FT              1782.5000: 
STEP.FT                 0.1000: 
NULL.                -999.2500: 
COMP.          Pioneer Natural Resources: COMPANY
WELL.          Manville 42-14 Tr: WELL
FLD.           Purgatoire River: FIELD
LOC.           2018 FNL & 562' FEL: LOCATION
STAT.                 Colorado: State
CNTY.               Las Animas: COUNTY
CTRY. USA : Country
SECT. 14 : Section
TOWN. 32S : Township
RANG. 66W : Range
SRVC.                Patterson: SERVICE COMPANY
DATE.          Mon Sep 19 09:44:06 2005: LOG DATE
API.           05 071 08522 00: UNIQUE WELL ID
~Curve Information Block
DEPT.FT            0 000 00 00: Depth
DCAL.in                       : CDL Caliper
RHOB.g/cc                     : CDL Bulk Density
RHOC.g/cc                     : CDL Density Correction
DPOR.pu                       : CDL Density Porosity
GR.GAPI                       : Gamma Ray
NPOR.pu                       : Neutron Porosity
~Parameter Information Block
~A  Depth       DCAL        RHOB        RHOC        DPOR         GR         NPOR    
   830.0000      4.9304      2.2971      0.6571     -0.0071    102.5677     18.3464
   830.1000      4.9304      2.3033      0.6541     -0.0069    100.9302     18.5064
   830.2000      4.9304      2.3033      0.6069     -0.0069     99.2139     19.1375
   830.3000      4.9227      2.3131      0.6232     -0.0067     97.5832     19.6352
   830.4000      4.9227      2.3374      0.6460     18.9478     99.1199     19.1371
   830.5000      4.9474      2.3670      0.6496     17.1507    105.5182     17.8573
   830.6000      4.9474      2.3886      0.6549     15.8401    111.8588     16.8659
   830.7000      4.9474      2.3963      0.6286     15.3770    112.9286     16.8987
   830.8000      4.9378      2.3959      0.6246     15.4001    111.8301     18.2993
   830.9000      4.9378      2.3897      0.6395     15.7746    113.3370     20.1164
   831.0000      4.9376      2.3740      0.6142     16.7254    117.4568     20.9211
   831.1000      4.9376      2.3586      0.5814     17.6630    121.9556     20.5978
   831.2000      4.9376      2.3575      0.6026     17.7297    121.5253     19.6078
   831.3000      4.9471      2.3635      0.6393     17.3619    116.5020     18.7183
   831.4000      4.9471      2.3681      0.5859     17.0831    113.8872     18.7331
   831.5000      4.9349      2.3786      0.6080     16.4483    114.5713     19.0351
   831.6000      4.9349      2.3923      0.6215     15.6177    114.3389     18.6195
   831.7000      4.9349      2.3995      0.6284     15.1822    112.1562     17.9934
   831.8000      4.9378      2.4022      0.5902     15.0177    110.8006     17.7391
   831.9000      4.9378      2.4016      0.6028     15.0559    111.3845     17.6287
   832.0000      4.9416      2.3911      0.6011     15.6912    108.7176     17.4015
   832.1000      4.9416      2.3822      0.5488     16.2299    101.7784     17.1944
   832.2000      4.9416      2.4002      0.5492     15.1381     99.5785     17.5179
   832.3000      4.9384      2.4452      0.5961     12.4103    106.1982     18.5255
   832.4000      4.9384      2.4948      0.5891      9.4077    113.6769     19.4617
   832.5000      4.9377      2.5398      0.5934      6.6816    113.9180     19.6021
   832.6000      4.9377      2.5822      0.6346      4.1069    110.5255     19.0024
   832.7000      4.9377      2.6181      0.6198      1.9358    113.1422     18.2094
   832.8000      4.9339      2.6415      0.6160      0.5152    122.5885     18.0185
   832.9000      4.9339      2.6538      0.5853     -0.2299    131.7355     18.4983
   833.0000      4.9396      2.6659      0.5358     -0.9657    133.2046     18.9604
   833.1000      4.9396      2.6973      0.5561     -2.8678    125.4406     19.2281
   833.2000      4.9396      2.7824      0.4988     -8.0226    116.4497     19.3665
   833.3000      4.9424      2.9436      0.4857    -17.7916    113.9468     19.1770
   833.4000      4.9424      3.1270      0.5357    -28.9082    115.7169     18.8983
   833.5000      7.0383      3.2436      0.5171    -35.9744    113.9783     18.8148
   833.6000      7.0383      3.2703      0.5147    -37.5932    107.2046     18.7659
   833.7000      7.0383      3.2281      0.4744    -35.0335    101.9178     18.6911
   833.8000     20.8329      3.1080      0.4484    -27.7593    101.2452     18.7170
   833.9000     20.8329      2.8933      0.1495    -14.7448    101.2964     18.4966
   834.0000     10.0236      2.6532     -0.3801     -0.1933     99.1049     17.5129
   834.1000     10.0236      2.5040     -0.4267      8.8486     97.3854     16.2535
   834.2000     10.0236      2.4627     -0.4152     11.3525    100.0595     15.7089
   834.3000      8.2824      2.4542     -0.3394     11.8654    105.9858     15.9363
   834.4000      8.2824      2.4235     -0.4206     13.7266    109.4208     16.5390
   834.5000      8.2782      2.3711     -0.4205     16.9040    105.0659     17.4857
   834.6000      8.2782      2.3143     -0.4871     20.3466     98.0225     18.3449
   834.7000      8.2782      2.2709     -0.5074     22.9774     96.1624     18.2811
   834.8000      8.2690      2.2598     -0.5078     23.6470     99.8522     17.8679
   834.9000      8.2690      2.2809     -0.5111     22.3723    106.5094     18.2870
   835.0000      8.2749      2.3114     -0.4479     20.5239    111.3475     19.4952
   835.1000      8.2749      2.3281     -0.4192     19.5096    110.4529     20.2182
   835.2000      8.2749      2.3223     -0.4567     19.8592    106.8627     20.0952
   835.3000      8.2734      2.3017     -0.4810     21.1074    107.5110     20.2795
   835.4000      8.2734      2.2838     -0.5249     22.1957    113.2836     20.9482
   835.5000      8.2729      2.2910     -0.5343     21.7589    119.0759     20.9983
   835.6000      8.2729      2.3281     -0.4754     19.5082    123.1962     20.3633
   835.7000      8.2729      2.3666     -0.4435     17.1763    123.6217     19.9641
   835.8000      8.2792      2.3800     -0.5010     16.3647    119.1746     19.6602
   835.9000      8.2792      2.3675     -0.4207     17.1220    116.0913     19.0011
   836.0000      8.2810      2.3424     -0.4878     18.6398    118.7224     18.5313
   836.1000      8.2810      2.3304     -0.5266     19.3724    119.3723     18.7185
   836.2000      8.2810      2.3479     -0.5321     18.3069    111.9137     18.8859
   836.3000      8.2776      2.3786     -0.4780     16.4466    104.4556     18.4085
   836.4000      8.2776      2.3973     -0.4778     15.3181    102.0875     17.5776
   836.5000      8.2747      2.4016     -0.4952     15.0526     99.7466     17.2933
   836.6000      8.2747      2.3955     -0.4529     15.4251     95.1265     17.9618
   836.7000      8.2747      2.3694     -0.4608     17.0041     93.7276     18.9778
   836.8000      8.2742      2.3217     -0.4772     19.8982     98.1372     19.8306
   836.9000      8.2742      2.2773     -0.5546     22.5865    104.7245     20.2238
   837.0000      8.2759      2.2728     -0.5720     22.8612    110.9949     20.0301
   837.1000      8.2759      2.3080     -0.4300     20.7263    114.4133     19.6885
   837.2000      8.2759      2.3436     -0.4460     18.5671    110.1607     19.6275
   837.3000      8.2725      2.3520     -0.4245     18.0603     99.1386     19.7762
   837.4000      8.2725      2.3346     -0.4670     19.1174     89.4570     19.5949
   837.5000      8.2766      2.3093     -0.4667     20.6515     84.7628     18.7739
   837.6000      8.2766      2.2928     -0.4928     21.6457     81.8248     17.4991
   837.7000      8.2766      2.2867     -0.4762     22.0163     79.8407     16.4123
   837.8000      8.2786      2.2763     -0.4565     22.6464     82.8677     16.3260
   837.9000      8.2786      2.2577     -0.5208     23.7729     90.3973     17.4019
   838.0000      8.2726      2.2438     -0.4908     24.6168     96.8863     18.5214
   838.1000      8.2726      2.2327     -0.4710     25.2922    102.7433     18.4112
   838.2000      8.2726      2.2107     -0.5167     26.6245    105.4437     17.5832
   838.3000      8.2739      2.1823     -0.4843     28.3466     98.3140     17.0995
   838.4000      8.2739      2.1633     -0.5369     29.4961     88.9834     17.1846
   838.5000      8.2736      2.1599     -0.5157     29.7039     88.6469     17.8044
   838.6000      8.2736      2.1620     -0.5092     29.5749     94.5139     18.6199
   838.7000      8.2736      2.1600     -0.5150     29.6972     97.4877     18.9386
   838.8000      8.2756      2.1588     -0.5419     29.7686     96.5090     18.8285
   838.9000      8.2756      2.1681     -0.5513     29.2062     95.2337     19.2361
   839.0000      8.2740      2.1813     -0.5009     28.4056     94.6432     20.2707
   839.1000      8.2740      2.1817     -0.4658     28.3836     94.7450     20.9993
   839.2000      8.2740      2.1640     -0.4831     29.4561     95.0404     20.9081
   839.3000      8.2768      2.1396     -0.4842     30.9355     98.5607     20.5114
   839.4000      8.2768      2.1267     -0.5385     31.7175    110.2141     20.3086
   839.5000      8.2756      2.1243     -0.4735     31.8616    124.3400     20.4001
