~Version Information
 VERS.                                  2.0 : CWLS LAS VERSION
 WRAP.                                   NO : WRAPING MODE
 SWARE .                 MController 2.5.0J : SOFTWARE VERSION
~Well Information
 WELL.                          Rolls 14-14 : WELL
 COMP.    Pioneer Natural Resources USA Inc : COMPANY
 FLD.                      Purgatoire River : FIELD
 LOC.                SW/SW Sec 14 T32S R66W : LOCATION
 DATE.                       07/31-08/01/05 : DATE(S) LOGGED
 SRVC.       BLANCO Geological Services LLC : SERVICE COMPANY
 STAT.                                   CO : STATE
 CNTY.                           Las Animas : COUNTY
 CTRY.                                  USA : COUNTRY
 API.                       05-071-08455-00 : API NUMBER
 STRT.FT                             831.00 : START DEPTH
 STOP.FT                            2365.00 : STOP DEPTH
 STEP.FT                               1.00 : DEPTH INCREMENT
 NULL.                                -9999 : NULL VALUE
~Curve information
 DEPTH.FT                                   :
 ROP.MIN/FT                                 :
 GAS.UNITS                                  :
~ASCII Log data
# ...
      1831.0         0.20       1035.5 
      1832.0         0.20       1047.2 
      1833.0         0.17       1044.3 
      1834.0         0.17       1010.1 
      1835.0         0.17        976.4 
      1836.0         0.20        928.8 
      1837.0         0.13        890.7 
      1838.0         0.13        857.1 
      1839.0         0.13        820.0 
      1840.0         0.13        782.2 
      1841.0         0.15        771.1 
      1842.0         0.17        764.1 
      1843.0         0.20        758.7 
      1844.0         0.23        744.4 
      1845.0         0.17        724.1 
      1846.0         0.20        716.2 
      1847.0         0.13        708.6 
      1848.0         0.20        707.6 
      1849.0         0.17        701.6 
      1850.0         0.20        697.1 
      1851.0         0.20        683.8 
      1852.0         0.17        669.8 
      1853.0         0.13        668.9 
      1854.0         0.17        667.6 
      1855.0         0.17        663.2 
      1856.0         3.35        841.5 
      1857.0         0.30        982.5 
      1858.0         0.22       1050.1 
      1859.0         0.23       1073.9 
      1860.0         0.23       1108.5 
      1861.0         0.23       1136.4 
      1862.0         0.23       1144.0 
      1863.0         0.30       1127.5 
      1864.0         0.30       1040.9 
      1865.0         0.30        948.8 
      1866.0         0.27        843.1 
      1867.0         0.23        780.6 
      1868.0         0.30        740.3 
      1869.0         0.23        733.3 
      1870.0         0.23        732.0 
      1871.0         0.35        723.5 
      1872.0         0.30        708.6 
      1873.0         0.27        681.3 
      1874.0         0.27        679.4 
      1875.0         0.27        672.7 
      1876.0         0.23        660.9 
      1877.0         0.27        654.0 
      1878.0         0.27        639.4 
      1879.0         0.30        637.5 
      1880.0         0.20        630.5 
      1881.0         0.20        627.0 
      1882.0         0.27        622.5 
      1883.0         0.32        621.3 
      1884.0         0.30        608.9 
      1885.0         0.13        611.4 
      1886.0         2.70        690.1 
      1887.0         0.35        798.1 
      1888.0         0.30        873.3 
      1889.0         0.30        970.7 
      1890.0         0.27       1059.6 
      1891.0         0.30       1090.0 
      1892.0         0.30       1074.5 
      1893.0         0.33        991.7 
      1894.0         0.27        873.6 
      1895.0         0.27        798.1 
      1896.0         0.37        740.9 
      1897.0         0.27        684.4 
      1898.0         0.32        697.4 
      1899.0         0.27        705.4 
      1900.0         0.30        701.3 
      1901.0         0.30        678.4 
      1902.0         0.30        665.4 
      1903.0         0.27        648.6 
      1904.0         0.30        640.0 
      1905.0         0.27        626.7 
      1906.0         0.37        627.0 
      1907.0         0.27        621.3 
      1908.0         0.27        613.7 
      1909.0         0.32        610.8 
      1910.0         0.27        608.3 
      1911.0         0.27        604.1 
      1912.0         0.33        607.6 
      1913.0         0.23        606.0 
      1914.0         0.23        610.8 
      1915.0         0.30        618.7 
      1916.0         3.08        830.1 
      1917.0         0.40       1026.9 
      1918.0         0.63       1204.6 
      1919.0         0.33       1242.7 
      1920.0         0.27       1210.7 
      1921.0         0.32       1135.4 
      1922.0         0.23        878.4 
      1923.0         0.27        808.8 
      1924.0         0.20        801.9 
      1925.0         0.20        789.2 
      1926.0         0.23        774.9 
      1927.0         0.20        753.3 
      1928.0         0.23        740.3 
      1929.0         0.20        733.3 
      1930.0         0.20        730.8 
      1931.0         0.20        721.9 
      1932.0         0.23        708.9 
      1933.0         0.27        682.2 
      1934.0         0.23        647.6 
      1935.0         0.23        640.0 
      1936.0         0.22        641.6 
      1937.0         0.23        639.4 
      1938.0         0.20        630.5 
      1939.0         0.23        623.5 
      1940.0         0.23        609.8 
      1941.0         0.30        598.1 
      1942.0         0.20        591.4 
      1943.0         0.23        588.9 
      1944.0         0.23        596.5 
      1945.0         0.20        603.5 
      1946.0         2.92        647.3 
      1947.0         0.33        762.8 
      1948.0         0.33        873.0 
      1949.0         0.27        921.2 
      1950.0         0.27        964.4 
      1951.0         0.23       1025.0 
      1952.0         0.22       1051.6 
      1953.0         0.23       1058.0 
      1954.0         0.20       1042.1 
      1955.0         0.20       1011.3 
      1956.0         0.20        935.8 
      1957.0         0.17        879.3 
      1958.0         0.20        861.5 
      1959.0         0.20        803.8 
      1960.0         0.20        769.8 
      1961.0         0.20        730.8 
      1962.0         0.20        711.4 
      1963.0         0.23        707.3 
      1964.0         0.20        707.6 
      1965.0         0.23        706.3 
      1966.0         0.20        703.2 
      1967.0         0.20        684.4 
      1968.0         0.18        669.8 
      1969.0         0.17        659.0 
      1970.0         0.17        646.3 
      1971.0         0.23        635.2 
      1972.0         0.20        621.3 
      1973.0         0.23        613.7 
      1974.0         0.20        603.8 
      1975.0         0.17        602.2 
      1976.0         5.08       1440.4 
      1977.0         0.52       1416.9 
      1978.0         0.37       1020.9 
      1979.0         0.33        894.2 
      1980.0         0.30        856.1 
      1981.0         0.27        788.2 
      1982.0         0.20        737.1 
      1983.0         0.17        713.6 
      1984.0         0.17        682.5 
      1985.0         0.23        662.2 
      1986.0         0.20        641.9 
      1987.0         0.23        635.2 
      1988.0         0.27        640.3 
      1989.0         0.28        652.7 
      1990.0         0.23        671.1 
      1991.0         0.27        687.3 
      1992.0         0.27        688.2 
      1993.0         0.33        682.2 
      1994.0         0.27        667.9 
      1995.0         0.30        662.2 
      1996.0         0.23        652.4 
      1997.0         0.30        645.1 
      1998.0         0.33        627.0 
      1999.0         0.33        605.1 
      2000.0         0.30        588.9 
      2001.0         0.32        588.3 
      2002.0         0.30        587.6 
      2003.0         0.20        581.6 
      2004.0         0.20        579.4 
      2005.0         0.37        573.3 
      2006.0         1.80        593.7 
      2007.0         0.48        547.3 
      2008.0         0.57        717.8 
      2009.0         0.37        837.7 
      2010.0         0.33        902.2 
      2011.0         0.20        907.2 
      2012.0         0.20        869.5 
      2013.0         0.17        826.9 
      2014.0         0.17        793.3 
      2015.0         0.20        781.9 
      2016.0         0.20        754.9 
      2017.0         0.23        734.6 
      2018.0         0.23        716.8 
      2019.0         0.22        699.7 
      2020.0         0.20        674.6 
      2021.0         0.23        654.0 
      2022.0         0.23        641.3 
      2023.0         0.20        638.1 
      2024.0         0.23        642.5 
      2025.0         0.20        645.7 
      2026.0         0.23        644.8 
      2027.0         0.20        645.4 
      2028.0         0.20        643.2 
      2029.0         0.30        640.9 
      2030.0         0.20        634.3 
