~Version Information
VERS.                      2.0: CWLS Log ASCII Standard - VERSION 2.0
WRAP.                       NO: One line per depth step
~Well Information Block
STRT.FT                10.0000: 
STOP.FT               743.5000: 
STEP.FT                 0.1000: 
NULL.                -999.2500: 
COMP.          Pioneer Natural Resources: COMPANY
WELL.                Mia 21-18: WELL
FLD.           Purgatorie River: FIELD
LOC.           1067' FNL & 1824' FWL: LOCATION
PROV.                 Colorado: PROVINCE
CNTY.               Las Animas: COUNTRY
SRVC.                Patterson: SERVICE COMPANY
DATE.          Tue Nov 22 15:40:03 2005: LOG DATE
UWI.           05-071-08559               : UNIQUE WELL ID
~Curve Information Block
DEPT.FT            0 000 00 00: Depth
DCAL.in                       : CDL Caliper
RHOB.g/cc                     : CDL Bulk Density
RHOC.g/cc                     : CDL Density Correction
DPOR.pu                       : CDL Density Porosity
GR.GAPI                       : Gamma Ray
NPOR.pu                       : Neutron Porosity
~Parameter Information Block
~A  Depth       DCAL        RHOB        RHOC        DPOR         GR         NPOR    
    10.0000     -3.1029      2.1492      2.3451     -0.0100    111.0870     24.8095
    10.1000     -3.1029      2.1410      2.3269     -0.0102    111.7244     24.4350
    10.2000     -3.1029      2.1440      2.3067     -0.0101    112.7679     24.4011
    10.3000     -3.1029      2.1668      2.3498     -0.0097    115.5744     25.0737
    10.4000     -3.1029      2.1967      2.3629     -0.0091    120.0988     26.0512
    10.5000     -3.1029      2.2180      2.3992     -0.0086    123.1024     26.8174
    10.6000     -3.1029      2.2240      2.3834     -0.0085    123.4293     27.3220
    10.7000     -3.1029      2.2159      2.3856     -0.0087    122.9719     27.6022
    10.8000     -3.1029      2.2007      2.3638     -0.0090    123.8678     27.7001
    10.9000     -3.1029      2.1831      2.3579     -0.0093    126.5172     27.6616
    11.0000     -3.1029      2.1642      2.3220     -0.0097    129.1660     27.7306
    11.1000     -3.1029      2.1485      2.3154     -0.0100    130.0198     28.0618
    11.2000     -3.1029      2.1424      2.3246     -0.0102    129.3919     28.2643
    11.3000     -3.1029      2.1474      2.3272     -0.0101    128.9478     28.1503
    11.4000     -3.1029      2.1557      2.3551     -0.0099    129.6579     28.0117
    11.5000     -3.1029      2.1590      2.3345     -0.0098    128.8290     28.1133
    11.6000     -3.1029      2.1584      2.3633     -0.0098    125.3732     28.4393
    11.7000     -3.1029      2.1593      2.3232     -0.0098    123.3163     28.7845
    11.8000     -3.1029      2.1660      2.3251     -0.0097    123.6598     28.9260
    11.9000     -3.1029      2.1792      2.3268     -0.0094    124.3669     28.7111
    12.0000     -3.1029      2.1947      2.3803     -0.0091    124.9826     28.3190
    12.1000     -3.1029      2.2052      2.3697     -0.0089    125.2041     28.1149
    12.2000     -3.1029      2.2111      2.3606     -0.0088    124.5051     28.1587
    12.3000     -3.1029      2.2129      2.4000     -0.0087    122.1048     28.2722
    12.4000     -3.1029      2.2109      2.3490     -0.0088    122.1500     28.4866
    12.5000     -3.1029      2.2091      2.3855     -0.0088    127.5709     28.8006
    12.6000     -3.1029      2.2026      2.3925     -0.0090    132.5826     28.8534
    12.7000     -3.1029      2.1884      2.3522     -0.0092    133.5610     28.4613
    12.8000     -3.1029      2.1768      2.3235     -0.0095    133.8055     27.8714
    12.9000     -3.1029      2.1772      2.3157     -0.0095    135.9463     27.4550
    13.0000     -3.1029      2.1832      2.3542     -0.0093    139.9460     27.4226
    13.1000     -3.1029      2.1843      2.3589     -0.0093    144.0741     27.7065
    13.2000     -3.1029      2.1843      2.3361     -0.0093    145.3268     28.0247
    13.3000     -3.1029      2.1938      2.3620     -0.0091    142.8096     28.0936
    13.4000     -3.1029      2.2082      2.3794     -0.0088    139.9116     27.9500
    13.5000     -3.1029      2.2154      2.3471     -0.0087    140.8469     27.9268
    13.6000     -3.1029      2.2092      2.3709     -0.0088    145.0246     28.2643
    13.7000     -3.1029      2.1826      2.3652     -0.0094    149.0360     28.5987
    13.8000     -3.1029      2.1385      2.3098     -0.0102    150.6922     28.6338
    13.9000     -3.1029      2.0921      2.2900     -0.0112    148.9180     28.6188
    14.0000     -3.1029      2.0548      2.2934     -0.0119    146.1429     28.6462
    14.1000     -3.1029      2.0316      2.2904     -0.0124    144.7544     28.5544
    14.2000     -3.1029      2.0245      2.2682     -0.0125    144.1478     28.4878
    14.3000     -3.1029      2.0352      2.2881     -0.0123    143.8266     28.6142
    14.4000     -3.1029      2.0661      2.3015     -0.0117    144.1852     28.7185
    14.5000     -3.1029      2.1109      2.3678     -0.0108    144.5831     28.6193
    14.6000     -3.1029      2.1525      2.3907     -0.0100    142.5143     28.6695
    14.7000     -3.1029      2.1783      2.4692     -0.0094    138.2943     29.0352
    14.8000     -3.1029      2.1815      2.4694     -0.0094    137.0436     29.2116
    14.9000     -3.1029      2.1666      2.4259     -0.0097    140.8009     29.0672
    15.0000     -3.1029      2.1536      2.3727     -0.0099    145.2598     28.9330
    15.1000     -3.1029      2.1538      2.4005     -0.0099    146.1623     28.9330
    15.2000     -3.1029      2.1587      2.4130     -0.0098    145.2286     29.0718
    15.3000     -3.1029      2.1614      2.4061     -0.0098    144.6260     29.3878
    15.4000     -3.1029      2.1637      2.4525     -0.0097    141.8692     29.6160
    15.5000     -3.1029      2.1649      2.4425     -0.0097    135.3076     29.6057
    15.6000     -3.1029      2.1662      2.4248     -0.0097    129.3249     29.7263
    15.7000     -3.1029      2.1715      2.4597     -0.0096    129.2486     29.8282
    15.8000     -3.1029      2.1813      2.4396     -0.0094    133.6604     29.4213
    15.9000     -3.1029      2.1925      2.4675     -0.0092    138.1402     28.8156
    16.0000     -3.1029      2.1981      2.4682     -0.0090    141.0750     28.5312
    16.1000     -3.1029      2.1918      2.4676     -0.0092    140.2233     28.6458
    16.2000     -3.1029      2.1805      2.4305     -0.0094    136.7105     28.8216
    16.3000     -3.1029      2.1789      2.4365     -0.0094    137.1682     28.7802
    16.4000     -3.1029      2.1885      2.4541     -0.0092    142.5416     28.5181
    16.5000     -3.1029      2.2014      2.4574     -0.0090    144.4429     28.0662
    16.6000     -3.1029      2.2153      2.4459     -0.0087    140.8043     27.6343
    16.7000     -3.1029      2.2279      2.4830     -0.0084    139.9526     27.5696
    16.8000     -3.1029      2.2307      2.4754     -0.0084    143.9160     27.7793
    16.9000     -3.1029      2.2169      2.4796     -0.0087    147.2572     27.8179
    17.0000     -3.1029      2.1932      2.4385     -0.0091    147.2562     27.7270
    17.1000     -3.1029      2.1775      2.4267     -0.0095    144.6668     27.7532
    17.2000     -3.1029      2.1800      2.4429     -0.0094    141.5192     27.7738
    17.3000     -3.1029      2.1910      2.4877     -0.0092    139.6278     27.7722
    17.4000     -3.1029      2.1943      2.4779     -0.0091    137.2751     27.8583
    17.5000     -3.1029      2.1889      2.4383     -0.0092    132.0666     27.8743
    17.6000     -3.1029      2.1817      2.4651     -0.0094    128.0103     27.8059
    17.7000     -3.1029      2.1719      2.4522     -0.0096    128.2853     27.7042
    17.8000     -3.1029      2.1542      2.4613     -0.0099    130.2195     27.3928
    17.9000     -3.1029      2.1287      2.4431     -0.0104    133.1825     26.8110
    18.0000     -3.1029      2.1026      2.4333     -0.0110    136.5094     26.2854
    18.1000     -3.1029      2.0788      2.4166     -0.0114    135.2895     26.1560
    18.2000     -3.1029      2.0565      2.3908     -0.0119    129.6426     26.4180
    18.3000     -3.1029      2.0448      2.3779     -0.0121    125.0694     26.7402
    18.4000     -3.1029      2.0466      2.4428     -0.0121    120.9666     26.8013
    18.5000     -3.1029      2.0476      2.4676     -0.0121    113.9735     26.8913
    18.6000     -3.1029      2.0439      2.4382     -0.0121    107.9968     27.3780
    18.7000     -3.1029      2.0492      2.4343     -0.0120    107.7949     27.6922
    18.8000     -3.1029      2.0691      2.4809     -0.0116    110.1983     27.2052
    18.9000     -3.1029      2.0868      2.5338     -0.0113    110.7017     26.4954
    19.0000     -3.1029      2.0820      2.5173     -0.0114    110.0328     26.2728
    19.1000     -3.1029      2.0569      2.4913     -0.0119    111.8512     26.4505
    19.2000     -3.1029      2.0300      2.4721     -0.0124    115.2472     26.6773
    19.3000     -3.1029      2.0142      2.4607     -0.0127    115.7928     26.7822
    19.4000     -3.1029      2.0096      2.4679     -0.0128    113.4576     26.9628
    19.5000     -3.1029      2.0111      2.4668     -0.0128    111.5411     27.5075
