~Version Information
VERS.                      2.0: CWLS Log ASCII Standard - VERSION 2.0
WRAP.                       NO: One line per depth step
~Well Information Block
STRT.FT               240.0000: 
STOP.FT               940.5000: 
STEP.FT                 0.1000: 
NULL.                -999.2500: 
COMP.          Pioneer Natural Resources: COMPANY
WELL.               Ernie 31-6: WELL
FLD.           Purgatoire River: FIELD
LOC.           681' FNL & 2138' FEL: LOCATION
CNTY.               Las Animas: COUNTY
SRVC.                Patterson: SERVICE COMPANY
DATE.          Tue May 30 07:05:10 2006: LOG DATE
UWI.           05 071 08716 00: UNIQUE WELL ID
STAT.                 Colorado: STATE
~Curve Information Block
DEPT.FT            0 000 00 00: Depth
DCAL.in                       : CDL Caliper
RHOB.g/cc                     : CDL Bulk Density
RHOC.g/cc                     : CDL Density Correction
DPOR.pu                       : CDL Density Porosity
GR.GAPI                       : Gamma Ray
NPOR.pu                       : Neutron Porosity
~Parameter Information Block
~A  Depth       DCAL        RHOB        RHOC        DPOR         GR         NPOR    
   240.0000      2.3840      2.5086      2.0000     -0.0028    127.0507     17.8028
   240.1000      2.3840      2.6961      2.0000      0.0009    131.3564     17.9724
   240.2000      2.3840      2.9154      2.0000      0.0053    138.3906     18.5478
   240.3000      7.3860      3.0513      2.0000      0.0080    141.6553     18.8244
   240.4000      7.3860      3.1179      2.0000      0.0094    135.0772     18.5820
   240.5000      8.2242      3.1307      2.0000      0.0096    122.2257     18.0140
   240.6000      8.2242      3.0158      2.0000      0.0073    109.9613     17.5348
   240.7000      8.2242      2.7524      2.0000      0.0020    101.6957     17.7110
   240.8000      8.2478      2.4736      2.0000     -0.0035     97.8951     18.3547
   240.9000      8.2478      2.2951      2.0000     -0.0071     97.8652     18.6195
   241.0000      8.2509      2.2124      2.0000     -0.0088     98.0300     18.3642
   241.1000      8.2509      2.1859      2.0000     -0.0093     98.4794     18.1815
   241.2000      8.2509      2.1859      2.0000     -0.0093    105.9699     18.5824
   241.3000      8.2474      2.2038      2.0000     -0.0089    117.9121     19.1848
   241.4000      8.2474      2.2410      2.0000     -0.0082    123.5627     19.3826
   241.5000      8.2474      2.2915      2.0000     -0.0072    122.4584     19.0915
   241.6000      8.2474      2.3340      2.0000     -0.0063    121.6124     18.2821
   241.7000      8.2474      2.3437      2.0000     -0.0061    123.2936     17.5796
   241.8000      8.2484      2.3329      2.0000     -0.0063    126.8672     17.8085
   241.9000      8.2484      2.3225      2.0000     -0.0066    130.7125     18.8222
   242.0000      8.2470      2.3112      2.0000     -0.0068    129.7126     19.9714
   242.1000      8.2470      2.2980      2.0000     -0.0070    124.9024     20.6887
   242.2000      8.2470      2.2903      2.0000     -0.0072    124.0307     20.3221
   242.3000      8.2469      2.2910      2.0000     -0.0072    124.6324     19.0388
   242.4000      8.2469      2.2964      2.0000     -0.0071    120.2961     17.9628
   242.5000      8.2473      2.3105      2.0000     -0.0068    114.1966     17.6563
   242.6000      8.2473      2.3312      2.0000     -0.0064    114.4942     18.1272
   242.7000      8.2473      2.3356      2.0000     -0.0063    122.7642     19.1508
   242.8000      8.2479      2.3108      2.0000     -0.0068    132.0476     20.0440
   242.9000      8.2479      2.2684      2.0000     -0.0076    142.5588     20.1287
   243.0000      8.2488      2.2273      2.0000     -0.0085    155.0708     19.7656
   243.1000      8.2488      2.1990      2.0000     -0.0090    161.2226     19.6363
   243.2000      8.2488      2.1911      2.0000     -0.0092    161.4886     19.8424
   243.3000      8.2476      2.2116      2.0000     -0.0088    160.9001     20.5499
   243.4000      8.2476      2.2474      2.0000     -0.0081    158.5362     21.6485
   243.5000      8.2477      2.2664      2.0000     -0.0077    157.0048     22.3020
   243.6000      8.2477      2.2595      2.0000     -0.0078    159.7309     22.0525
   243.7000      8.2477      2.2388      2.0000     -0.0082    161.3998     21.5187
   243.8000      8.2478      2.2163      2.0000     -0.0087    160.6857     21.3579
   243.9000      8.2478      2.2035      2.0000     -0.0089    162.2756     21.4617
   244.0000      8.2479      2.2145      2.0000     -0.0087    163.7584     21.4014
   244.1000      8.2479      2.2420      2.0000     -0.0082    164.3792     20.9412
   244.2000      8.2479      2.2552      2.0000     -0.0079    167.4985     19.9526
   244.3000      8.2458      2.2404      2.0000     -0.0082    167.2234     19.2056
   244.4000      8.2458      2.2140      2.0000     -0.0087    164.6283     19.5792
   244.5000      8.2436      2.1975      2.0000     -0.0091    167.3681     20.2251
   244.6000      8.2436      2.2070     -0.4769     -0.0089    170.8266     19.9690
   244.7000      8.2436      2.2443     -0.4064     -0.0081    169.4055     19.4507
   244.8000      8.2463      2.2805     -0.3361     -0.0074    163.4740     19.4391
   244.9000      8.2463      2.2897     -0.4329     -0.0072    155.2242     19.4403
   245.0000      8.2382      2.2797     -0.4203     -0.0074    149.4963     19.0149
   245.1000      8.2382      2.2723     -0.4366     22.8894    149.2843     18.5244
   245.2000      8.2382      2.2883     -0.4462     21.9195    146.5656     18.3257
   245.3000      8.2463      2.3317     -0.3977     19.2924    136.0626     18.3566
   245.4000      8.2463      2.3761     -0.3261     16.5982    128.3352     18.6356
   245.5000      8.2490      2.3964     -0.3723     15.3711    129.4453     19.1471
   245.6000      8.2490      2.3900     -0.3387     15.7606    130.4054     19.4340
   245.7000      8.2490      2.3628     -0.3717     17.4063    125.3731     19.0392
   245.8000      8.2488      2.3214     -0.3420     19.9168    120.2501     18.1578
   245.9000      8.2488      2.2806     -0.4226     22.3904    120.1722     17.3673
   246.0000      8.2465      2.2668     -0.4607     23.2258    123.1619     17.3992
   246.1000      8.2465      2.2817     -0.3808     22.3222    126.0514     18.1857
   246.2000      8.2465      2.2915     -0.3522     21.7294    116.4790     18.4808
   246.3000      8.2476      2.2816     -0.4155     22.3301    119.7706     17.5921
   246.4000      8.2476      2.2653     -0.3835     23.3129    118.2767     16.6201
   246.5000      8.2491      2.2473     -0.4382     24.4063    111.6374     16.6256
   246.6000      8.2491      2.2350     -0.4335     25.1535    108.0083     17.2001
   246.7000      8.2491      2.2474     -0.4438     24.4026    110.6941     17.3755
   246.8000      8.2545      2.2853     -0.4029     22.1058    114.5169     17.2215
   246.9000      8.2545      2.3152     -0.3067     20.2882    114.0305     17.2659
   247.0000      8.2464      2.3120     -0.3739     20.4821    110.9776     17.3672
   247.1000      8.2464      2.2930     -0.4414     21.6351    110.3542     17.2646
   247.2000      8.2464      2.2824     -0.4124     22.2780     98.1361     16.7654
   247.3000      8.2469      2.2832     -0.4162     22.2321     96.9748     15.7793
   247.4000      8.2469      2.2844     -0.4131     22.1548     94.7652     14.9468
   247.5000      8.2487      2.2836     -0.4926     22.2071     91.0620     15.0444
   247.6000      8.2487      2.2983     -0.4432     21.3168     86.5775     15.8176
   247.7000      8.2487      2.3239     -0.4128     19.7610     81.1594     16.4340
   247.8000      8.2444      2.3305     -0.3693     19.3665     75.7189     16.5290
   247.9000      8.2444      2.3103     -0.3772     20.5901     72.0863     16.1964
   248.0000      8.2457      2.2839     -0.4435     22.1899     70.9601     15.8257
   248.1000      8.2457      2.2679     -0.4019     23.1560     73.5735     15.7706
   248.2000      8.2457      2.2588     -0.4222     23.7105     66.5121     16.0143
   248.3000      8.2493      2.2503     -0.4341     24.2212     64.1765     16.1349
   248.4000      8.2493      2.2426     -0.4647     24.6919     60.4981     15.8410
   248.5000      8.2476      2.2298     -0.3999     25.4665     58.5578     15.2436
   248.6000      8.2476      2.2117     -0.4645     26.5651     56.0259     14.5833
   248.7000      8.2476      2.2076     -0.4757     26.8112     53.7008     14.0297
   248.8000      8.2471      2.2255     -0.4434     25.7275     55.0177     13.8817
   248.9000      8.2471      2.2408     -0.4165     24.8019     57.6290     14.3784
   249.0000      8.2453      2.2301     -0.4116     25.4493     57.9316     15.0012
   249.1000      8.2453      2.2072     -0.4624     26.8345     57.1859     15.3107
   249.2000      8.2453      2.2042     -0.4250     27.0186     48.0749     15.5266
   249.3000      8.2456      2.2184     -0.4048     26.1574     46.2445     15.6813
   249.4000      8.2456      2.2160     -0.4054     26.3016     44.8532     15.6331
   249.5000      8.2475      2.1830     -0.4234     28.3042     45.0985     15.3673
