~Version Information
VERS.                      2.0: CWLS Log ASCII Standard - VERSION 2.0
WRAP.                       NO: One line per depth step
~Well Information Block
STRT.FT               430.0000: 
STOP.FT              2074.0000: 
STEP.FT                 0.1000: 
NULL.                -999.2500: 
COMP.          Pioneer Natural Resources: COMPANY
WELL.             Fleming 11-2: WELL
FLD.           Purgatoire River: FIELD
LOC.           534' FNL & 160' FWL: LOCATION
CNTY.               Las Animas: COUNTY
SRVC.                Patterson: SERVICE COMPANY
DATE.          Tue Jun 27 10:07:47 2006: LOG DATE
UWI.           05 071 08491 00: UNIQUE WELL ID
STAT.                 Colorado: STATE
~Curve Information Block
DEPT.FT            0 000 00 00: Depth
DCAL.in                       : CDL Caliper
RHOB.g/cc                     : CDL Bulk Density
RHOC.g/cc                     : CDL Density Correction
DPOR.pu                       : CDL Density Porosity
GR.GAPI                       : Gamma Ray
NPOR.pu                       : Neutron Porosity
~Parameter Information Block
~A  Depth       DCAL        RHOB        RHOC        DPOR         GR         NPOR    
# ...
  1082.8000      7.8965      2.6456      0.0905      0.2683    108.8734     29.8343
  1082.9000      7.8965      2.6449      0.0553      0.3108    102.5320     29.6182
  1083.0000      7.8987      2.6447      0.0448      0.3208     99.7830     29.0520
  1083.1000      7.8987      2.6517      0.0763     -0.1030    100.0704     28.1358
  1083.2000      7.8987      2.6679      0.1277     -1.0872    105.3521     27.8768
  1083.3000      7.9001      2.6852      0.0824     -2.1321    111.5540     28.2773
  1083.4000      7.9001      2.6909      0.1332     -2.4815    111.1103     28.4329
  1083.5000      7.8990      2.6761      0.1071     -1.5835    104.1678     28.8050
  1083.6000      7.8990      2.6482      0.0260      0.1108    101.3853     29.8424
  1083.7000      7.8990      2.6249      0.0235      1.5183    108.2993     30.3968
  1083.8000      7.8965      2.6138      0.0308      2.1962    118.7533     29.9191
  1083.9000      7.8965      2.6129      0.0302      2.2515    124.9354     29.4809
  1084.0000      7.8943      2.6164      0.0449      2.0373    123.5812     29.5432
  1084.1000      7.8943      2.6198      0.0521      1.8313    119.0089     29.3155
  1084.2000      7.8943      2.6198      0.0702      1.8308    117.4419     28.4714
  1084.3000      7.8931      2.6072      0.0674      2.5947    118.0243     27.7762
  1084.4000      7.8931      2.5830      0.0256      4.0601    116.2409     27.8981
  1084.5000      7.8936      2.5665     -0.0026      5.0594    112.4192     28.4123
  1084.6000      7.8936      2.5682     -0.0053      4.9598    110.3007     28.5241
  1084.7000      7.8936      2.5777      0.0384      4.3802    110.5375     28.4612
  1084.8000      7.8957      2.5879      0.0049      3.7620    114.3280     28.6931
  1084.9000      7.8957      2.5956      0.0448      3.2997    121.3844     28.6908
  1085.0000      7.8979      2.5903     -0.0115      3.6174    125.0411     28.3559
  1085.1000      7.8979      2.5750      0.0081      4.5447    119.8491     28.3679
  1085.2000      7.8979      2.5583      0.0089      5.5596    110.2196     28.4301
  1085.3000      7.8979      2.5466      0.0185      6.2686    104.4860     28.2606
  1085.4000      7.8979      2.5578     -0.0233      5.5854    106.7798     28.4226
  1085.5000      7.8970      2.5938      0.0401      3.4070    116.9911     28.5975
  1085.6000      7.8970      2.6186      0.0905      1.9044    131.0341     28.2060
  1085.7000      7.8970      2.6110      0.0458      2.3647    143.8613     27.8555
  1085.8000      7.8965      2.5885      0.0256      3.7291    148.1353     28.1493
  1085.9000      7.8965      2.5647      0.0456      5.1712    140.6788     28.5744
  1086.0000      7.8967      2.5371      0.0361      6.8421    130.7254     28.6621
  1086.1000      7.8967      2.5107      0.0104      8.4438    125.1858     28.4701
  1086.2000      7.8967      2.4994     -0.0142      9.1267    121.1855     28.3931
  1086.3000      7.8954      2.5121     -0.0088      8.3546    116.0630     28.8716
  1086.4000      7.8954      2.5372      0.0748      6.8337    113.7047     29.5200
  1086.5000      7.8933      2.5531      0.0651      5.8712    118.6123     29.8968
  1086.6000      7.8933      2.5564      0.0595      5.6742    130.9444     30.0015
  1086.7000      7.8933      2.5557      0.0788      5.7128    143.2084     29.5378
  1086.8000      7.8935      2.5589      0.0425      5.5237    148.2689     28.5883
  1086.9000      7.8935      2.5709      0.0870      4.7960    149.5252     27.9328
  1087.0000      7.8946      2.5845      0.0995      3.9702    150.7937     28.3603
  1087.1000      7.8946      2.5852      0.0961      3.9262    147.6809     29.6819
  1087.2000      7.8946      2.5692      0.0791      4.8994    138.6075     30.8027
  1087.3000      7.8943      2.5500      0.0320      6.0595    132.0711     31.2755
  1087.4000      7.8943      2.5432      0.0661      6.4749    131.5200     31.3737
  1087.5000      7.8932      2.5460      0.0830      6.3012    132.3838     31.2419
  1087.6000      7.8932      2.5511      0.0328      5.9964    131.3307     30.9323
  1087.7000      7.8932      2.5655      0.0403      5.1237    126.4825     30.4798
  1087.8000      7.8941      2.5896      0.0717      3.6635    117.4354     29.8776
  1087.9000      7.8941      2.6005      0.0734      3.0008    106.7577     29.2237
  1088.0000      7.8933      2.5878      0.0604      3.7674    100.9695     28.5629
  1088.1000      7.8933      2.5734     -0.0216      4.6429    104.7852     27.8277
  1088.2000      7.8933      2.5755      0.0302      4.5176    109.9904     27.1281
  1088.3000      7.8852      2.5945      0.0204      3.3662    106.3151     26.7764
  1088.4000      7.8852      2.6302      0.0200      1.2025     99.9047     26.6504
  1088.5000      7.8745      2.6672      0.0602     -1.0444     99.7422     26.4098
  1088.6000      7.8745      2.6774      0.0282     -1.6591    100.6214     26.1382
  1088.7000      7.8745      2.6581      0.0628     -0.4883     96.4720     25.5744
  1088.8000      7.8699      2.6320      0.0051      1.0899     92.0762     24.4140
  1088.9000      7.8699      2.6149      0.0318      2.1295     92.1481     23.2699
  1089.0000      7.8706      2.6044      0.0026      2.7628     93.1177     22.6394
  1089.1000      7.8706      2.5988      0.0149      3.1023     93.3343     22.5070
  1089.2000      7.8706      2.5996     -0.0096      3.0573     94.1649     23.1908
  1089.3000      7.8717      2.6054     -0.0010      2.7034     92.6203     24.7536
  1089.4000      7.8717      2.6116      0.0127      2.3295     88.5263     26.0134
  1089.5000      7.8740      2.6098      0.0458      2.4387     85.3065     25.8891
  1089.6000      7.8740      2.6029      0.0360      2.8528     83.2292     24.8285
  1089.7000      7.8740      2.6078     -0.0096      2.5594     81.6528     23.7949
  1089.8000      7.8805      2.6252      0.0146      1.5010     82.1965     23.2918
  1089.9000      7.8805      2.6378      0.0428      0.7379     84.2967     23.5640
  1090.0000      7.8907      2.6343      0.0442      0.9545     84.9934     24.4470
  1090.1000      7.8907      2.6158      0.0436      2.0724     83.3708     25.2653
  1090.2000      7.8907      2.5937     -0.0303      3.4147     81.1014     25.6363
  1090.3000      7.8972      2.5804     -0.0160      4.2211     81.6464     25.4836
  1090.4000      7.8972      2.5772     -0.0286      4.4094     84.5450     24.8487
  1090.5000      7.8957      2.5805     -0.0309      4.2112     84.7460     24.3514
  1090.6000      7.8957      2.5892     -0.0042      3.6825     83.3379     24.6976
  1090.7000      7.8957      2.5985      0.0026      3.1220     86.0824     25.3574
  1090.8000      7.8871      2.6010      0.0222      2.9673     91.6718     25.0520
  1090.9000      7.8871      2.5975      0.0020      3.1805     93.2890     23.7940
  1091.0000      7.8767      2.5938     -0.0136      3.4048     90.1039     22.7488
  1091.1000      7.8767      2.5892      0.0087      3.6860     87.2340     22.5715
  1091.2000      7.8767      2.5864     -0.0290      3.8564     86.9386     23.1689
  1091.3000      7.8710      2.5976     -0.0045      3.1782     89.9047     24.0765
  1091.4000      7.8710      2.6244      0.0082      1.5529     94.4488     24.7139
  1091.5000      7.8702      2.6510      0.0707     -0.0636     93.1958     25.0845
  1091.6000      7.8702      2.6566      0.0626     -0.4024     84.2535     25.4255
  1091.7000      7.8702      2.6461     -0.0018      0.2356     76.4465     25.7235
  1091.8000      7.8709      2.6502      0.0406     -0.0107     76.1425     25.9547
  1091.9000      7.8709      2.6841      0.0067     -2.0640     81.0279     26.1185
  1092.0000      7.8707      2.7204      0.0996     -4.2686     85.9828     26.2085
  1092.1000      7.8707      2.7212      0.0471     -4.3133     88.7634     26.0955
  1092.2000      7.8707      2.6951      0.0308     -2.7360     86.5859     25.7736
  1092.3000      7.8699      2.6735      0.0279     -1.4240     77.0882     25.3377
