~Version Information
VERS.                      2.0: CWLS Log ASCII Standard - VERSION 2.0
WRAP.                       NO: One line per depth step
~Well Information Block
STRT.FT               670.0000: 
STOP.FT              2108.5000: 
STEP.FT                 0.1000: 
NULL.                -999.2500: 
COMP.          Petrogulf Corporation: COMPANY
WELL.           Montoya 12-44R: WELL
FLD.           Purgatorie River: FIELD
LOC.           713' FSL & 798' FEL: LOCATION
PROV.                 Colorado: PROVINCE
CNTY.               Las Animas: COUNTRY
SRVC.                Patterson: SERVICE COMPANY
DATE.          Mon Oct 03 07:50:59 2005: LOG DATE
UWI.           05-071-08538               : UNIQUE WELL ID
~Curve Information Block
DEPT.FT            0 000 00 00: Depth
DCAL.in                       : CDL Caliper
RHOB.g/cc                     : CDL Bulk Density
RHOC.g/cc                     : CDL Density Correction
DPOR.pu                       : CDL Density Porosity
GR.GAPI                       : Gamma Ray
NPOR.pu                       : Neutron Porosity
~Parameter Information Block
~A  Depth       DCAL        RHOB        RHOC        DPOR         GR         NPOR    
# ...
  1140.4000      8.4985      1.6134     -0.0548     62.8213     88.7743     34.0860
  1140.5000      8.4833      1.4973     -0.0545     69.8614     82.2531     34.4026
  1140.6000      8.4833      1.3996     -0.0905     75.7823     73.8962     34.3284
  1140.7000      8.4833      1.3400     -0.0815     79.3949     64.6571     34.1051
  1140.8000      8.5122      1.3082     -0.0612     81.3206     56.0495     34.1561
  1140.9000      8.5122      1.2888     -0.0395     82.4946     49.2397     34.5948
  1141.0000      8.5997      1.2832     -0.0406     82.8351     43.2959     35.1549
  1141.1000      8.5997      1.2954     -0.0145     82.0974     37.4511     35.4153
  1141.2000      8.5997      1.3142      0.0014     80.9583     33.9696     35.2687
  1141.3000      8.5469      1.3256     -0.0111     80.2690     34.6594     35.0878
  1141.4000      8.5469      1.3293     -0.0203     80.0433     36.8106     34.9487
  1141.5000      8.5600      1.3302     -0.0160     79.9880     36.8535     34.6596
  1141.6000      8.5600      1.3273     -0.0112     80.1621     35.4386     34.5101
  1141.7000      8.5600      1.3223     -0.0121     80.4642     34.3548     34.6545
  1141.8000      8.5713      1.3251     -0.0245     80.2942     33.3042     34.6287
  1141.9000      8.5713      1.3419      0.0133     79.2762     32.0934     34.2441
  1142.0000      8.5505      1.3673     -0.0069     77.7381     32.2950     34.0168
  1142.1000      8.5505      1.3914     -0.0103     76.2813     34.9275     34.3099
  1142.2000      8.5505      1.4075      0.0250     75.3018     38.1247     34.7927
  1142.3000      8.5357      1.4175      0.0105     74.6957     39.4187     35.1020
  1142.4000      8.5357      1.4234      0.0550     74.3404     37.4813     35.2068
  1142.5000      8.5371      1.4182      0.0427     74.6563     34.0524     35.0925
  1142.6000      8.5371      1.4029      0.0071     75.5819     33.1820     34.6931
  1142.7000      8.5371      1.3916     -0.0233     76.2674     35.3317     34.2232
  1142.8000      8.5381      1.3823      0.0312     76.8294     37.3925     34.1419
  1142.9000      8.5381      1.3556     -0.0245     78.4489     37.7472     34.4623
  1143.0000      8.5428      1.3116     -0.0719     81.1125     36.5536     34.8032
  1143.1000      8.5428      1.2738     -0.0747     83.4075     34.5448     34.9542
  1143.2000      8.5428      1.2614     -0.0360     84.1554     33.8416     34.8735
  1143.3000      8.5476      1.2838     -0.0546     82.8022     36.3574     34.6047
  1143.4000      8.5476      1.3439      0.0039     79.1561     40.9497     34.3613
  1143.5000      8.5498      1.4359      0.0293     73.5827     46.4106     34.2893
  1143.6000      8.5498      1.5468      0.0492     66.8585     53.0898     34.4425
  1143.7000      8.5498      1.6583      0.0935     60.1011     58.4982     34.6751
  1143.8000      8.5555      1.7518      0.1193     54.4393     60.6011     34.7618
  1143.9000      8.5555      1.8217      0.1230     50.1997     61.7252     34.8305
  1144.0000      8.5681      1.8696      0.1263     47.2993     63.9561     34.9087
  1144.1000      8.5681      1.8896      0.1241     46.0846     66.7708     34.6820
  1144.2000      8.5681      1.8756      0.0767     46.9336     68.9993     34.2276
  1144.3000      8.5799      1.8313      0.0196     49.6175     69.9838     33.9547
  1144.4000      8.5799      1.7701     -0.0744     53.3259     69.1002     33.8963
  1144.5000      8.5681      1.7022     -0.0498     57.4439     65.0205     33.6899
  1144.6000      8.5681      1.6249     -0.0314     62.1288     57.6698     33.3085
  1144.7000      8.5681      1.5395     -0.0283     67.3002     49.9264     33.2042
  1144.8000      8.5735      1.4604     -0.0439     72.0983     45.8533     33.5418
  1144.9000      8.5735      1.3997      0.0073     75.7744     45.5607     34.1426
  1145.0000      8.5745      1.3590      0.0339     78.2412     45.1578     34.6856
  1145.1000      8.5745      1.3305      0.0478     79.9693     42.7275     34.8956
  1145.2000      8.5745      1.3063     -0.0042     81.4352     39.1872     34.6864
  1145.3000      8.5656      1.2899     -0.0289     82.4324     36.0750     34.1319
  1145.4000      8.5656      1.2869      0.0058     82.6142     34.7116     33.6867
  1145.5000      8.5575      1.2912      0.0418     82.3488     34.9592     33.8274
  1145.6000      8.5575      1.2972      0.0261     81.9853     35.1883     34.2829
  1145.7000      8.5575      1.3113      0.0052     81.1322     35.3221     34.3750
  1145.8000      8.6078      1.3359      0.0641     79.6417     36.9299     34.0796
  1145.9000      8.6078      1.3658      0.0427     77.8317     41.3778     33.9208
  1146.0000      8.6770      1.4055      0.0236     75.4227     48.3620     34.0203
  1146.1000      8.6770      1.4634      0.0213     71.9169     56.3989     34.1444
  1146.2000      8.6770      1.5377      0.0768     67.4101     64.2632     34.2460
  1146.3000      8.8780      1.6262      0.0797     62.0475     71.5946     34.4144
  1146.4000      8.8780      1.7343      0.0930     55.4992     79.5105     34.7199
  1146.5000      9.0448      1.8609      0.1524     47.8237     89.2249     34.9517
  1146.6000      9.0448      1.9942      0.1417     39.7476     99.3589     34.8216
  1146.7000      9.0448      2.1226      0.1872     31.9659    106.2605     34.4876
  1146.8000      8.5460      2.2432      0.1859     24.6543    109.0109     34.1746
  1146.9000      8.5460      2.3611      0.1870     17.5066    112.8965     33.8284
  1147.0000      8.4381      2.4635      0.2187     11.3029    120.5131     33.3507
  1147.1000      8.4381      2.5237      0.1361      7.6517    127.8181     32.6708
  1147.2000      8.4381      2.5397      0.0991      6.6820    133.7655     31.9466
  1147.3000      8.4103      2.5314      0.0318      7.1883    140.4837     31.5680
  1147.4000      8.4103      2.5226     -0.0237      7.7224    146.8822     31.2659
  1147.5000      8.3964      2.5255      0.0371      7.5456    148.0452     30.3600
  1147.6000      8.3964      2.5331      0.0535      7.0835    143.1131     29.0399
  1147.7000      8.3964      2.5331      0.0383      7.0868    137.4276     28.1106
  1147.8000      8.3826      2.5261     -0.0098      7.5077    134.2610     27.6864
  1147.9000      8.3826      2.5275     -0.0158      7.4233    134.0635     27.2725
  1148.0000      8.3787      2.5465      0.0364      6.2735    137.5099     26.8523
  1148.1000      8.3787      2.5679      0.0591      4.9754    142.2889     26.6505
  1148.2000      8.3787      2.5705      0.0743      4.8188    143.8095     26.6729
  1148.3000      8.3685      2.5604     -0.0004      5.4317    143.0267     27.0236
  1148.4000      8.3685      2.5651      0.0233      5.1459    144.5389     27.5810
  1148.5000      8.3507      2.5929      0.0284      3.4633    147.1116     27.9153
  1148.6000      8.3507      2.6155      0.1079      2.0913    146.1693     27.7739
  1148.7000      8.3507      2.6041      0.0210      2.7825    143.6204     27.2368
  1148.8000      8.3237      2.5723     -0.0162      4.7119    145.4927     26.6380
  1148.9000      8.3237      2.5498     -0.0242      6.0729    149.7579     26.4138
  1149.0000      8.3087      2.5438      0.0171      6.4334    150.2385     26.5842
  1149.1000      8.3087      2.5449      0.0192      6.3691    149.0060     26.7241
  1149.2000      8.3087      2.5413      0.0489      6.5879    152.0545     26.7372
  1149.3000      8.2964      2.5324      0.0087      7.1298    156.5441     27.0219
  1149.4000      8.2964      2.5297     -0.0164      7.2905    156.4480     27.6548
  1149.5000      8.2900      2.5367      0.0281      6.8695    154.4175     28.2632
  1149.6000      8.2900      2.5455      0.0339      6.3339    154.8053     28.5879
  1149.7000      8.2900      2.5492      0.0646      6.1109    157.6224     28.7621
  1149.8000      8.2825      2.5424      0.0732      6.5183    162.0388     28.8899
  1149.9000      8.2825      2.5367      0.0162      6.8663    165.3641     29.0375
