~Version Information
VERS.                      2.0: CWLS Log ASCII Standard - VERSION 2.0
WRAP.                       NO: One line per depth step
~Well Information Block
STRT.FT               260.0000: 
STOP.FT              1229.5000: 
STEP.FT                 0.1000: 
NULL.                -999.2500: 
COMP.          Pioneer Natural Resources: COMPANY
WELL.             Mahalo 12-20: WELL
FLD.           Purgatoire River: FIELD
LOC.           1689' FNL & 479' FWL: LOCATION
CNTY.               Las Animas: COUNTY
SRVC.                Patterson: SERVICE COMPANY
DATE.          Mon Feb 27 07:00:19 2006: LOG DATE
UWI.           05 071 08700 00: UNIQUE WELL ID
STAT.                 Colorado: STATE
~Curve Information Block
DEPT.FT            0 000 00 00: Depth
DCAL.in                       : CDL Caliper
RHOB.g/cc                     : CDL Bulk Density
RHOC.g/cc                     : CDL Density Correction
DPOR.pu                       : CDL Density Porosity
GR.GAPI                       : Gamma Ray
NPOR.pu                       : Neutron Porosity
~Parameter Information Block
~A  Depth       DCAL        RHOB        RHOC        DPOR         GR         NPOR    
# ...
   576.8000      7.7846      2.5806      0.0474      4.2081    116.6946     25.3334
   576.9000      7.7846      2.5971      0.0566      3.2052    114.1743     25.2739
   577.0000      7.7896      2.6016      0.0581      2.9349    115.3872     24.5395
   577.1000      7.7896      2.5897      0.0184      3.6556    123.3326     23.7938
   577.2000      7.7896      2.5762      0.0223      4.4715    131.6573     23.5368
   577.3000      7.8118      2.5713     -0.0305      4.7711    131.5222     24.0091
   577.4000      7.8118      2.5708      0.0186      4.7998    126.5721     24.8223
   577.5000      7.8160      2.5623      0.0032      5.3142    124.1319     25.2832
   577.6000      7.8160      2.5473     -0.0053      6.2233    128.4377     25.1684
   577.7000      7.8160      2.5333     -0.0248      7.0748    141.8091     24.4051
   577.8000      7.8135      2.5142     -0.0233      8.2284    153.7964     23.3362
   577.9000      7.8135      2.4970     -0.0426      9.2724    153.1278     23.2095
   578.0000      7.8120      2.5043     -0.0276      8.8313    146.3489     24.4422
   578.1000      7.8120      2.5359      0.0034      6.9169    143.8854     25.5670
   578.2000      7.8120      2.5670      0.0687      5.0322    146.8758     25.7681
   578.3000      7.8114      2.5776      0.0471      4.3863    146.6068     25.9991
   578.4000      7.8114      2.5711      0.0445      4.7838    137.7326     27.1982
   578.5000      7.8139      2.5666      0.0079      5.0561    130.8271     28.8730
   578.6000      7.8139      2.5770      0.0221      4.4226    133.2720     28.7139
   578.7000      7.8139      2.5905      0.0823      3.6041    137.2449     26.2358
   578.8000      7.8083      2.5879      0.0594      3.7620    135.3342     24.4917
   578.9000      7.8083      2.5723      0.0273      4.7094    128.6937     24.8286
   579.0000      7.8134      2.5531      0.0095      5.8724    122.5217     26.2565
   579.1000      7.8134      2.5291      0.0213      7.3265    122.5689     28.1579
   579.2000      7.8134      2.5012      0.0102      9.0159    127.1728     29.8224
   579.3000      7.8146      2.4782     -0.0294     10.4144    132.3771     30.1876
   579.4000      7.8146      2.4648      0.0122     11.2269    136.0988     29.2671
   579.5000      7.8136      2.4612     -0.0224     11.4398    136.6739     27.8884
   579.6000      7.8136      2.4762     -0.0145     10.5332    136.8075     26.7549
   579.7000      7.8136      2.5134      0.0002      8.2807    136.9237     26.1154
   579.8000      7.8144      2.5595      0.0390      5.4858    134.1621     25.8431
   579.9000      7.8144      2.5976      0.0608      3.1753    131.3970     25.3052
   580.0000      7.8151      2.6163      0.0804      2.0400    133.0887     24.1556
   580.1000      7.8151      2.6166      0.0408      2.0269    138.5298     23.0613
   580.2000      7.8151      2.6046      0.0977      2.7490    145.6544     22.6900
   580.3000      7.8141      2.5745      0.0668      4.5741    152.9214     22.6343
   580.4000      7.8141      2.5254      0.0076      7.5521    160.7192     22.2208
   580.5000      7.8152      2.4783     -0.0635     10.4051    169.2752     21.7702
   580.6000      7.8152      2.4515     -0.0289     12.0278    172.6876     21.8166
   580.7000      7.8152      2.4452     -0.0368     12.4146    168.8872     22.2860
   580.8000      7.8133      2.4582     -0.0013     11.6243    164.9854     22.6742
   580.9000      7.8133      2.4926      0.0764      9.5378    164.4483     22.9127
   581.0000      7.8147      2.5406      0.1572      6.6312    164.6100     23.2918
   581.1000      7.8147      2.5854      0.2017      3.9157    163.7911     23.7334
   581.2000      7.8147      2.6152      0.2092      2.1110    162.0345     23.9450
   581.3000      7.8171      2.6297      0.2049      1.2273    158.7000     23.8088
   581.4000      7.8171      2.6338      0.2079      0.9800    152.9327     23.4640
   581.5000      7.8145      2.6263      0.1742      1.4344    146.8283     23.2148
   581.6000      7.8145      2.6073      0.0963      2.5865    142.7543     23.3832
   581.7000      7.8145      2.5792      0.1126      4.2894    138.5588     23.7783
   581.8000      7.8139      2.5400      0.0567      6.6659    131.9025     24.0186
   581.9000      7.8139      2.5031      0.0179      8.9000    123.8957     23.9473
   582.0000      7.8128      2.4814      0.0464     10.2194    116.5239     23.7407
   582.1000      7.8128      2.4596     -0.0263     11.5369    110.8113     23.7767
   582.2000      7.8128      2.4321     -0.0530     13.2049    105.7719     23.8408
   582.3000      7.8143      2.4065     -0.0369     14.7553    100.5854     23.7910
   582.4000      7.8143      2.3882     -0.0612     15.8641     96.2977     23.5618
   582.5000      7.8145      2.3904     -0.1367     15.7321     94.4240     22.7877
   582.6000      7.8145      2.4140      0.0019     14.3013     96.5656     21.6217
   582.7000      7.8145      2.4352     -0.0346     13.0186    103.4837     20.5213
   582.8000      7.8121      2.4415     -0.0075     12.6342    111.6862     19.7417
   582.9000      7.8121      2.4411     -0.0366     12.6583    115.5613     19.3759
   583.0000      7.8127      2.4437     -0.0085     12.5004    116.1071     19.4472
   583.1000      7.8127      2.4511     -0.0246     12.0559    115.9066     19.4966
   583.2000      7.8127      2.4550     -0.0208     11.8211    112.0792     19.2227
   583.3000      7.8101      2.4439     -0.0186     12.4927    106.1485     19.2349
   583.4000      7.8101      2.4251     -0.0784     13.6301    102.5988     20.0091
   583.5000      7.8113      2.4173     -0.0347     14.1059     99.9198     21.1247
   583.6000      7.8113      2.4199     -0.0475     13.9427     96.9638     21.6231
   583.7000      7.8113      2.4240     -0.0319     13.6952     95.1589     21.0730
   583.8000      7.8138      2.4228     -0.0090     13.7717     94.4729     19.9096
   583.9000      7.8138      2.4122      0.0092     14.4124     93.8016     18.8867
   584.0000      7.8144      2.4050     -0.0387     14.8484     92.3632     18.4371
   584.1000      7.8144      2.4192     -0.0195     13.9850     91.4040     18.4997
   584.2000      7.8144      2.4489      0.0193     12.1866     93.2627     18.8196
   584.3000      7.8135      2.4714      0.0381     10.8250     95.7691     19.0952
   584.4000      7.8135      2.4709      0.0397     10.8534     94.4379     19.0282
   584.5000      7.8116      2.4504     -0.0115     12.0953     92.2465     18.8001
   584.6000      7.8116      2.4338     -0.0375     13.1039     92.1639     18.7245
   584.7000      7.8116      2.4395     -0.0087     12.7575     92.1778     18.8209
   584.8000      7.8137      2.4524     -0.0038     11.9754     92.3547     18.9603
   584.9000      7.8137      2.4478      0.0115     12.2522     94.2264     18.8849
   585.0000      7.8228      2.4328     -0.0110     13.1639     96.7162     19.1405
   585.1000      7.8228      2.4338     -0.0287     13.1050     97.0273     20.4780
   585.2000      7.8228      2.4539      0.0417     11.8851     94.5189     21.6097
   585.3000      7.8129      2.4738      0.0233     10.6785     91.3695     21.4071
   585.4000      7.8129      2.4848      0.0317     10.0140     91.8360     21.3886
   585.5000      7.8128      2.4930      0.0032      9.5149     97.5277     21.8838
   585.6000      7.8128      2.5035      0.0202      8.8795    104.7579     21.3648
   585.7000      7.8128      2.5103      0.0408      8.4658    109.5258     20.0246
   585.8000      7.8112      2.5081      0.0670      8.5992    113.2396     19.5388
   585.9000      7.8112      2.5057      0.0044      8.7429    118.2660     20.2469
   586.0000      7.8122      2.5105      0.0220      8.4575    124.9486     21.0710
   586.1000      7.8122      2.5120      0.0050      8.3651    132.9735     21.3301
   586.2000      7.8122      2.5028     -0.0248      8.9224    135.9541     21.2344
   586.3000      7.8100      2.4901     -0.0409      9.6928    128.3768     21.0079
