~Version Information
VERS.                      2.0: CWLS Log ASCII Standard - VERSION 2.0
WRAP.                       NO: One line per depth step
~Well Information Block
STRT.FT                14.0000: 
STOP.FT              1631.0000: 
STEP.FT                 0.1000: 
NULL.                -999.2500: 
COMP.          Pioneer Natural Resources: COMPANY
WELL.            Bluesky 44-17: WELL
FLD.           Purgatorie River: FIELD
LOC.           39' FSL & 288' FEL: LOCATION
STAT.                 Colorado: State
CNTY.               Las Animas: COUNTY
CTRY. USA : Country
SECT. 17 : Section
TOWN. 33S : Township
RANG. 66W : Range
SRVC.                Patterson: SERVICE COMPANY
DATE.          Thu Sep 08 07:30:20 2005: LOG DATE
API. 05-071-08511                         : UNIQUE WELL ID
~Curve Information Block
DEPT.FT            0 000 00 00: Depth
DCAL.in                       : CDL Caliper
RHOB.g/cc                     : CDL Bulk Density
RHOC.g/cc                     : CDL Density Correction
DPOR.pu                       : CDL Density Porosity
GR.GAPI                       : Gamma Ray
NPOR.pu                       : Neutron Porosity
~Parameter Information Block
~A  Depth       DCAL        RHOB        RHOC        DPOR         GR         NPOR    
# ...
   330.8000     18.2789      2.1809      2.0000     -0.0094    109.8472     20.7208
   330.9000     18.2789      2.1766      2.0000     -0.0095    108.2096     21.2345
   331.0000     18.2800      2.1750      2.0000     -0.0095    113.5272     21.9518
   331.1000     18.2800      2.1763      2.0000     -0.0095    120.9592     22.4343
   331.2000     18.2800      2.1883      2.0000     -0.0092    123.1716     22.6964
   331.3000     18.2739      2.2129      2.0000     -0.0087    119.0793     22.7177
   331.4000     18.2739      2.2352      2.0000     -0.0083    117.2038     22.4813
   331.5000     18.2784      2.2445      2.0000     -0.0081    120.2118     22.1603
   331.6000     18.2784      2.2455      2.0000     -0.0081    119.8157     22.0778
   331.7000     18.2784      2.2471      2.0000     -0.0081    113.8097     22.4264
   331.8000     18.2741      2.2516      2.0000     -0.0080    109.0102     22.9690
   331.9000     18.2741      2.2537      2.0000     -0.0079    108.6235     23.1329
   332.0000     18.2741      2.2563      2.0000     -0.0079    110.5669     22.7213
   332.1000     18.2741      2.2673      2.0000     -0.0077    112.3606     22.3802
   332.2000     18.2741      2.2786      2.0000     -0.0074    112.4539     22.5227
   332.3000     18.2790      2.2798      2.0000     -0.0074    110.1535     22.8428
   332.4000     18.2790      2.2756      2.0000     -0.0075    107.7420     22.8242
   332.5000     18.2771      2.2722      2.0000     -0.0076    109.2610     22.2639
   332.6000     18.2771      2.2668      2.0000     -0.0077    115.6329     21.5065
   332.7000     18.2771      2.2569      2.0000     -0.0079    121.7970     21.0153
   332.8000     18.2728      2.2508      2.0000     -0.0080    123.4035     20.9278
   332.9000     18.2728      2.2517      2.0000     -0.0080    122.5086     21.1065
   333.0000     18.2741      2.2483      2.0000     -0.0080    122.3843     21.4890
   333.1000     18.2741      2.2446      2.0000     -0.0081    123.4044     21.8591
   333.2000     18.2741      2.2526      2.0000     -0.0080    122.3656     21.8848
   333.3000     18.2802      2.2575      2.0000     -0.0079    116.8567     21.7124
   333.4000     18.2802      2.2443      2.0000     -0.0081    110.2806     21.7923
   333.5000     18.2787      2.2284      2.0000     -0.0084    106.9932     22.2372
   333.6000     18.2787      2.2326      2.0000     -0.0084    106.8309     22.5248
   333.7000     18.2787      2.2585      2.0000     -0.0078    107.5265     22.0969
   333.8000     18.2760      2.2858      2.0000     -0.0073    109.4035     21.3006
   333.9000     18.2760      2.3005      2.0000     -0.0070    113.5468     20.8332
   334.0000     18.2734      2.3027      2.0000     -0.0069    118.3792     20.9775
   334.1000     18.2734      2.2924      2.0000     -0.0072    120.6755     21.3684
   334.2000     18.2734      2.2788      2.0000     -0.0074    119.3096     21.2490
   334.3000     18.2727      2.2693      2.0000     -0.0076    116.9590     20.5333
   334.4000     18.2727      2.2531      2.0000     -0.0079    116.2305     19.8186
   334.5000     18.2835      2.2284      2.0000     -0.0084    117.8355     19.5334
   334.6000     18.2835      2.2148      2.0000     -0.0087    121.2705     19.8514
   334.7000     18.2835      2.2272      2.0000     -0.0085    123.1064     20.6005
   334.8000     18.2749      2.2584      2.0000     -0.0078    120.7832     21.1213
   334.9000     18.2749      2.2855      2.0000     -0.0073    116.5442     21.0788
   335.0000     18.2747      2.2940      2.0000     -0.0071    112.3851     20.5924
   335.1000     18.2747      2.2849      2.0000     -0.0073    109.3354     19.8818
   335.2000     18.2747      2.2694      2.0000     -0.0076    107.7502     19.2773
   335.3000     18.2753      2.2607      2.0000     -0.0078    106.5938     19.1205
   335.4000     18.2753      2.2609      2.0000     -0.0078    106.7957     19.4982
   335.5000     18.2716      2.2642      2.0000     -0.0077    108.3834     20.0153
   335.6000     18.2716      2.2721      2.0000     -0.0076    109.8673     20.1328
   335.7000     18.2716      2.2815      2.0000     -0.0074    110.2730     19.8596
   335.8000     18.2738      2.2851      2.0000     -0.0073    110.1649     19.6563
   335.9000     18.2738      2.2867      2.0000     -0.0073    111.5399     19.7611
   336.0000     18.2791      2.2909      2.0000     -0.0072    113.9296     20.0721
   336.1000     18.2791      2.2986      2.0000     -0.0070    115.2407     20.3829
   336.2000     18.2791      2.3050      2.0000     -0.0069    116.0877     20.8608
   336.3000     18.2785      2.2998      2.0000     -0.0070    116.3920     21.4415
   336.4000     18.2785      2.2863      2.0000     -0.0073    116.0720     21.5588
   336.5000     18.2773      2.2707      2.0000     -0.0076    117.4491     21.2605
   336.6000     18.2773      2.2535      2.0000     -0.0079    118.6144     20.9912
   336.7000     18.2773      2.2442      2.0000     -0.0081    117.5223     20.8412
   336.8000     18.2833      2.2520      2.0000     -0.0080    117.0548     21.0201
   336.9000     18.2833      2.2699      2.0000     -0.0076    117.0364     21.5529
   337.0000     18.2770      2.2829      2.0000     -0.0073    114.1522     21.8902
   337.1000     18.2770      2.2857      2.0000     -0.0073    109.0216     21.9553
   337.2000     18.2770      2.2808      2.0000     -0.0074    104.9076     21.9018
   337.3000     18.2769      2.2725      2.0000     -0.0076    104.5802     21.6008
   337.4000     18.2769      2.2697      2.0000     -0.0076    108.2539     21.3283
   337.5000     18.2820      2.2750      2.0000     -0.0075    112.6319     21.3067
   337.6000     18.2820      2.2837      2.0000     -0.0073    113.8945     21.1864
   337.7000     18.2820      2.2884      2.0000     -0.0072    113.2947     20.9973
   337.8000     18.2754      2.2781      2.0000     -0.0074    113.2018     20.8738
   337.9000     18.2754      2.2480      2.0000     -0.0080    112.0723     20.6343
   338.0000     18.2805      2.2116      2.0000     -0.0088    109.8739     20.3983
   338.1000     18.2805      2.1903      2.0000     -0.0092    107.7859     20.2114
   338.2000     18.2805      2.1924      2.0000     -0.0092    105.1604     20.0289
   338.3000     18.2813      2.2126      2.0000     -0.0088    102.7820     20.1106
   338.4000     18.2813      2.2395      2.0000     -0.0082    101.7188     20.3711
   338.5000     18.2819      2.2578      2.0000     -0.0078    103.2732     20.4184
   338.6000     18.2819      2.2678      2.0000     -0.0076    107.3811     20.0792
   338.7000     18.2819      2.2730      2.0000     -0.0075    110.4276     19.6517
   338.8000     18.2860      2.2633      2.0000     -0.0077    110.4914     19.6500
   338.9000     18.2860      2.2397      2.0000     -0.0082    109.1808     19.9373
   339.0000     18.2856      2.2219      2.0000     -0.0086    109.6022     19.9905
   339.1000     18.2856      2.2247      2.0000     -0.0085    112.2391     20.0009
   339.2000     18.2856      2.2492      2.0000     -0.0080    114.9232     20.3313
   339.3000     18.2786      2.2832      2.0000     -0.0073    117.6049     20.5011
   339.4000     18.2786      2.3040      2.0000     -0.0069    119.3604     20.1867
   339.5000     18.2800      2.2993      2.0000     -0.0070    117.9899     19.8558
   339.6000     18.2800      2.2799      2.0000     -0.0074    116.1566     19.9335
   339.7000     18.2800      2.2661      2.0000     -0.0077    115.9368     20.2407
   339.8000     18.2816      2.2638      2.0000     -0.0077    114.2720     20.3468
   339.9000     18.2816      2.2661      2.0000     -0.0077    110.9109     20.2362
   340.0000     18.2780      2.2640      2.0000     -0.0077    110.4465     20.0453
   340.1000     18.2780      2.2535      2.0000     -0.0079    113.2285     19.7476
   340.2000     18.2780      2.2393      2.0000     -0.0082    115.2402     19.5721
   340.3000     18.2863      2.2317      2.0000     -0.0084    113.9803     19.7442
