~Version Information
VERS.                      2.0: CWLS Log ASCII Standard - VERSION 2.0
WRAP.                       NO: One line per depth step
~Well Information Block
STRT.FT                -7.5000: 
STOP.FT              1310.7500: 
STEP.FT                 0.2500: 
NULL.                -999.2500: 
COMP.          Pioneer Natural Resources: COMPANY
WELL.          Challenger 31-29: WELL
FLD.           Purgatorie River: FIELD
LOC.           51' FNL & 1923' FEL------: LOCATION
STAT.                       CO: State
CNTY.               Las Animas: COUNTY
CTRY. USA : Country
SECT. 29 : Section
TOWN. 33S : Township
RANG. 65W : Range
SRVC.          Patterson Wireline: SERVICE COMPANY
DATE.          Wed Sep 21 12:11:38 2005: LOG DATE
API.           05 071 08514 00: UNIQUE WELL ID
~Curve Information Block
DEPT.FT            0 000 00 00: Depth
CCL.                          : Casing Collar Locator
TT3.usec                      : CBL 3' Travel Time
AMP3.mV                       : CBL 3' Amplitude
GR.GAPI                       : Gamma Ray
~Parameter Information Block
~A  Depth       CCL         TT3         AMP3         GR     
# ...
   997.5000      0.0000    528.1945     18.2526     55.0931
   997.7500      0.0000    456.3338     18.9563     59.1511
   998.0000      0.0000    403.4601     19.6556     64.6482
   998.2500      0.0000    368.4204     20.3021     70.2702
   998.5000      0.0000    344.8287     20.8282     74.3280
   998.7500      0.0000    328.1523     21.1618     75.4436
   999.0000      0.0000    317.2481     21.2468     73.4718
   999.2500      0.0000    312.4226     21.0640     69.7289
   999.5000      0.0000    313.9877     20.6414     66.2924
   999.7500      0.0000    321.8141     20.0453     64.9837
  1000.0000      0.0000    334.6533     19.3611     66.7275
  1000.2500      0.0000    349.6591     18.6781     71.3804
  1000.5000      0.0000    363.7207     18.0714     77.8032
  1000.7500      0.0000    376.4091     17.5771     84.3285
  1001.0000      0.0000    392.3068     17.1799     89.5937
  1001.2500      0.0000    420.0997     16.8333     92.9775
  1001.5000      0.0000    466.5232     16.4965     94.2610
  1001.7500      0.0000    526.7317     16.1574     93.2676
  1002.0000      0.0000    580.0895     15.8287     90.0204
  1002.2500      0.0000    601.2725     15.5271     84.9310
  1002.5000      0.0000    581.3578     15.2587     78.6487
  1002.7500      0.0000    538.8820     15.0259     71.7977
  1003.0000      0.0000    508.6966     14.8416     64.7835
  1003.2500      0.0000    518.3714     14.7197     57.8366
  1003.5000      0.0000    571.2662     14.6509     51.5930
  1003.7500      0.0000    647.0940     14.5993     47.7123
  1004.0000      0.0000    717.4079     14.5251     48.2989
  1004.2500      0.0000    763.1575     14.4005     54.2160
  1004.5000      0.0000    781.2234     14.2109     64.0514
  1004.7500      0.0000    778.8152     13.9594     74.7973
  1005.0000      0.0000    765.3505     13.6773     83.4997
  1005.2500      0.0000    748.5864     13.4203     88.6429
  1005.5000      0.0000    733.8993     13.2367     90.5617
  1005.7500      0.0000    723.9081     13.1336     90.8283
  1006.0000      0.0000    718.5540     13.0732     91.0893
  1006.2500      0.0000    716.2917     13.0046     92.0733
  1006.5000      0.0000    715.5089     12.8980     93.3460
  1006.7500      0.0000    715.2382     12.7569     93.9117
  1007.0000      0.0000    715.0945     12.6056     93.2694
  1007.2500      0.0000    714.9868     12.4685     92.2074
  1007.5000      0.0000    714.9139     12.3587     92.4500
  1007.7500      0.0000    714.8738     12.2802     94.9692
  1008.0000      0.0000    714.8345     12.2348     98.5070
  1008.2500      0.0000    714.7462     12.2271    100.2686
  1008.5000      0.0000    714.5920     12.2666     98.4029
  1008.7500      0.0000    714.4163     12.3622     93.5890
  1009.0000      0.0000    714.2921     12.5082     88.1008
  1009.2500      0.0000    714.2696     12.6778     83.8040
  1009.5000      0.0000    714.3589     12.8378     81.3870
  1009.7500      0.0000    714.5566     12.9721     80.9217
  1010.0000      0.0000    714.9299     13.0892     82.3584
  1010.2500      0.0000    715.7233     13.2077     85.4698
  1010.5000      0.0000    717.4326     13.3398     89.8318
  1010.7500      0.0000    720.5846     13.4866     95.0182
  1011.0000      0.0000    724.9861     13.6419    100.5286
  1011.2500      0.0000    728.7358     13.7953    105.4057
  1011.5000      0.0000    728.2701     13.9422    108.1096
  1011.7500      0.0000    719.6074     14.1001    106.9794
  1012.0000      0.0000    699.6766     14.3157    101.2010
  1012.2500      0.0000    667.2658     14.6454     91.7033
  1012.5000      0.0000    623.9503     15.1179     80.8942
  1012.7500      0.0000    573.8358     15.7116     71.1503
  1013.0000      0.0000    521.6931     16.3732     63.6404
  1013.2500      0.0000    471.9821     17.0590     58.5960
  1013.5000      0.0000    429.1153     17.7650     56.1891
  1013.7500      0.0000    396.2831     18.5251     56.7167
  1014.0000      0.0000    373.5277     19.3812     60.0934
  1014.2500      0.0000    358.0451     20.3398     65.5139
  1014.5000      0.0000    346.2451     21.3520     71.6801
  1014.7500      0.0000    335.4722     22.3302     77.1986
  1015.0000      0.0000    325.0515     23.1656     80.7857
  1015.2500      0.0000    316.4147     23.7270     81.4734
  1015.5000      0.0000    312.0246     23.8771     79.0040
  1015.7500      0.0000    314.1926     23.5374     74.1513
  1016.0000      0.0000    325.0687     22.7537     68.6736
  1016.2500      0.0000    347.3143     21.6896     64.7007
  1016.5000      0.0000    384.2910     20.5431     63.6798
  1016.7500      0.0000    438.3000     19.4596     65.4745
  1017.0000      0.0000    506.4742     18.5027     68.2966
  1017.2500      0.0000    578.1528     17.6795     69.8513
  1017.5000      0.0000    639.0748     16.9778     69.1006
  1017.7500      0.0000    680.1829     16.3853     66.8419
  1018.0000      0.0000    701.9819     15.8922     64.4209
  1018.2500      0.0000    710.9045     15.4899     62.3722
  1018.5000      0.0000    713.2708     15.1701     60.5159
  1018.7500      0.0000    712.6046     14.9231     58.7097
  1019.0000      0.0000    710.4983     14.7373     57.1811
  1019.2500      0.0000    708.2550     14.6008     56.6441
  1019.5000      0.0000    707.2856     14.5040     58.2248
  1019.7500      0.0000    708.2764     14.4371     62.6402
  1020.0000      0.0000    710.5958     14.3859     69.1763
  1020.2500      0.0000    712.9679     14.3306     75.9215
  1020.5000      0.0000    714.5654     14.2522     81.2122
  1020.7500      0.0000    715.3424     14.1380     84.4519
  1021.0000      0.0000    715.6320     13.9836     85.5325
  1021.2500      0.0000    715.7263     13.7944     84.1851
  1021.5000      0.0000    715.7582     13.5918     80.3808
  1021.7500      0.0000    715.7536     13.4118     75.0942
  1022.0000      0.0000    715.6960     13.2916     70.2449
  1022.2500      0.0000    715.5726     13.2529     67.6937
  1022.5000      0.0000    715.4351     13.2951     68.1893
  1022.7500      0.0000    715.4771     13.4000     71.1342
  1023.0000      0.0000    716.0507     13.5387     75.0454
  1023.2500      0.0000    717.4957     13.6791     78.1707
  1023.5000      0.0000    719.7448     13.7949     79.0788
  1023.7500      0.0000    722.0010     13.8790     77.2065
  1024.0000      0.0000    723.0628     13.9496     73.1359
  1024.2500      0.0000    722.3088     14.0378     68.4356
  1024.5000      0.0000    720.3052     14.1602     64.9349
  1024.7500      0.0000    718.2534     14.3005     63.6489
  1025.0000      0.0000    716.9554     14.4202     64.3371
  1025.2500      0.0000    716.4280     14.4925     66.1589
  1025.5000      0.0000    716.2731     14.5248     68.5139
  1025.7500      0.0000    716.1682     14.5489     71.1700
  1026.0000      0.0000    716.0602     14.5902     73.9477
  1026.2500      0.0000    716.0684     14.6458     76.4273
  1026.5000      0.0000    716.2686     14.6904     77.9367
  1026.7500      0.0000    716.5594     14.7042     78.0927
  1027.0000      0.0000    716.7324     14.6957     77.4203
  1027.2500      0.0000    716.6459     14.6898     77.1924
  1027.5000      0.0000    716.1949     14.6793     78.5575
  1027.7500      0.0000    714.9874     14.5758     81.7074
  1028.0000      0.0000    711.7869     14.2197     85.5929
  1028.2500      0.0000    704.3380     13.4849     88.5877
  1028.5000      0.0000    690.4001     12.4257     89.7896
  1028.7500      0.0000    670.3766     11.3141     89.7165
  1029.0000      0.0000    650.0117     10.4640     89.6895
  1029.2500      0.0000    639.5428      9.9961     90.5367
  1029.5000      0.0000    647.1671      9.8031     91.6651
  1029.7500      0.0000    671.3330      9.7187     91.3432
  1030.0000      0.0000    700.7233      9.6505     88.2229
  1030.2500     -2.0000    723.0058      9.5723     82.6606
  1030.5000      0.0000    732.4690      9.4827     76.4772
  1030.7500      0.0000    729.3810      9.4073     71.7964
