~Version Information
VERS.                      2.0: CWLS Log ASCII Standard - VERSION 2.0
WRAP.                       NO: One line per depth step
~Well Information Block
STRT.FT                -8.2500: 
STOP.FT              1580.5000: 
STEP.FT                 0.2500: 
NULL.                -999.2500: 
COMP.          Pioneer Natural Resources: COMPANY
WELL.          Daytona 31-14 Tr: WELL
FLD.           Purgatorie River: FIELD
LOC.           683' FNL & 1943' FEL--: LOCATION
CNTY.               Las Animas: COUNTY
SRVC.          Patterson Wireline: SERVICE COMPANY
DATE.          Thu Feb 02 08:47:22 2006: LOG DATE
UWI.           05 071 08681 00: UNIQUE WELL ID
STAT.                       CO: STATE
~Curve Information Block
DEPT.FT            0 000 00 00: Depth
CCL.                          : Casing Collar Locator
TT3.usec                      : CBL 3' Travel Time
AMP3.mV                       : CBL 3' Amplitude
GR.GAPI                       : Gamma Ray
~Parameter Information Block
~A  Depth       CCL         TT3         AMP3         GR     
# ...
   594.7500      0.0000    690.9703      5.8221    125.5342
   595.0000      0.0000    691.0167      5.8819    127.3333
   595.2500      0.0000    691.0668      5.9653    131.8291
   595.5000      0.0000    691.0805      6.0636    137.8672
   595.7500      0.0000    691.0754      6.1678    142.9585
   596.0000      0.0000    691.0900      6.2666    145.0441
   596.2500      0.0000    691.1395      6.3493    143.9757
   596.5000      0.0000    691.2123      6.4078    141.1280
   596.7500      0.0000    691.2776      6.4377    137.6935
   597.0000      0.0000    691.2738      6.4402    134.0983
   597.2500      0.0000    691.1213      6.4209    131.0635
   597.5000      0.0000    690.8005      6.3818    130.0463
   597.7500      0.0000    690.4165      6.3214    131.8604
   598.0000      0.0000    690.1435      6.2424    135.2360
   598.2500      0.0000    690.0906      6.1563    137.4597
   598.5000      0.0000    690.2303      6.0778    136.7202
   598.7500      0.0000    690.4534      6.0192    133.7514
   599.0000      0.0000    690.6736      5.9902    131.2183
   599.2500      0.0000    690.8708      5.9943    131.5452
   599.5000      0.0000    691.0544      6.0235    135.1142
   599.7500      0.0000    691.2105      6.0589    140.1399
   600.0000      0.0000    691.2952      6.0810    144.0604
   600.2500      0.0000    691.2762      6.0798    145.3308
   600.5000      0.0000    691.1847      6.0586    144.3620
   600.7500      0.0000    691.1141      6.0297    142.7196
   601.0000      0.0000    691.1330      6.0054    141.2572
   601.2500      0.0000    691.1986      5.9893    139.3421
   601.5000      0.0000    691.2028      5.9731    136.0367
   601.7500      0.0000    691.1230      5.9435    131.7260
   602.0000      0.0000    691.0760      5.8927    128.4201
   602.2500      0.0000    691.1950      5.8250    128.3436
   602.5000      0.0000    691.4901      5.7522    131.9079
   602.7500      0.0000    691.9067      5.6853    137.1277
   603.0000      0.0000    692.5071      5.6320    141.2942
   603.2500      0.0000    693.5399      5.5994    143.0459
   603.5000      0.0000    695.0982      5.5931    142.7285
   603.7500      0.0000    696.5110      5.6071    141.3389
   604.0000      0.0000    696.4341      5.6193    139.6637
   604.2500      0.0000    694.5589      5.6024    138.1277
   604.5000      0.0000    693.3823      5.5428    136.8293
   604.7500      0.0000    696.8919      5.4491    135.5022
   605.0000      0.0000    706.4409      5.3499    133.5902
   605.2500      0.0000    718.7605      5.2830    130.6822
   605.5000      0.0000    728.9597      5.2750    127.0257
   605.7500      0.0000    735.0204      5.3301    123.4962
   606.0000     -2.0000    738.7206      5.4381    121.0425
   606.2500      0.0000    742.5844      5.5823    120.2566
   606.5000      0.0000    746.4522      5.7425    121.2943
   606.7500      0.0000    746.7510      5.9045    124.0413
   607.0000      0.0000    738.6139      6.0814    128.3415
   607.2500      0.0000    719.5679      6.3168    133.9687
   607.5000      0.0000    692.7829      6.6477    140.2005
   607.7500      0.0000    667.0743      7.0475    145.6125
   608.0000      0.0000    651.9620      7.4167    148.7878
   608.2500      0.0000    650.8991      7.6511    149.5582
   608.5000      0.0000    659.2725      7.7191    149.4671
   608.7500      0.0000    669.3732      7.6674    150.5093
   609.0000      0.0000    676.5770      7.5649    153.0001
   609.2500      0.0000    680.9630      7.4566    154.8088
   609.5000      0.0000    685.0060      7.3555    153.0550
   609.7500      0.0000    690.9134      7.2586    146.7783
   610.0000      0.0000    699.1707      7.1628    138.0280
   610.2500      0.0000    708.3761      7.0745    130.4253
   610.5000      0.0000    716.3141      7.0060    126.5758
   610.7500      0.0000    721.5620      6.9675    126.4606
   611.0000      0.0000    724.1943      6.9602    127.8675
   611.2500      0.0000    725.2156      6.9745    128.3678
   611.5000      0.0000    725.6056      6.9930    126.9877
   611.7500      0.0000    725.8757      6.9968    124.1567
   612.0000      0.0000    726.1744      6.9716    120.5492
   612.2500      0.0000    726.5359      6.9120    116.5683
   612.5000      0.0000    726.9862      6.8236    112.9258
   612.7500      0.0000    727.5037      6.7211    110.9880
   613.0000      0.0000    727.9771      6.6233    111.9097
   613.2500      0.0000    728.2787      6.5451    115.3743
   613.5000      0.0000    728.3855      6.4936    119.4758
   613.7500      0.0000    728.3845      6.4662    122.1254
   614.0000      0.0000    728.3083      6.4531    122.8415
   614.2500      0.0000    727.9390      6.4405    123.1299
   614.5000      0.0000    726.6973      6.4177    124.9744
   614.7500      0.0000    723.6901      6.3835    128.8871
   615.0000      0.0000    718.1117      6.3485    133.0314
   615.2500      0.0000    710.0313      6.3301    133.9948
   615.5000      0.0000    700.8836      6.3405    129.2080
   615.7500      0.0000    692.8268      6.3784    119.5339
   616.0000      0.0000    687.3932      6.4321    109.1922
   616.2500      0.0000    684.8535      6.4923    102.6440
   616.5000      0.0000    684.8017      6.5611    101.6735
   616.7500      0.0000    686.9948      6.6482    105.0135
   617.0000      0.0000    691.3187      6.7557    109.6917
   617.2500      0.0000    697.0059      6.8656    112.7977
   617.5000      0.0000    702.3656      6.9420    113.1250
   617.7500      0.0000    705.8676      6.9511    111.7081
   618.0000      0.0000    707.5272      6.8784    110.4160
   618.2500      0.0000    708.8583      6.7285    109.7838
   618.5000      0.0000    711.3752      6.5101    108.3559
   618.7500      0.0000    715.2610      6.2289    104.0695
   619.0000      0.0000    719.3986      5.8945     96.0105
   619.2500      0.0000    722.5051      5.5305     84.9464
   619.5000      0.0000    724.2027      5.1712     72.8414
   619.7500      0.0000    725.2418      4.8480     62.1809
   620.0000      0.0000    727.1466      4.5845     55.1746
   620.2500      0.0000    731.7183      4.4022     52.9454
   620.5000      0.0000    740.1769      4.3230     55.4588
   620.7500      0.0000    751.8508      4.3603     62.0519
   621.0000      0.0000    763.5851      4.5105     71.5301
   621.2500      0.0000    771.0240      4.7520     81.8444
   621.5000      0.0000    770.8241      5.0555     90.7622
   621.7500      0.0000    761.9991      5.3969     97.5446
   622.0000      0.0000    746.3051      5.7658    103.2529
   622.2500      0.0000    728.0695      6.1643    108.5695
   622.5000      0.0000    712.2263      6.5951    112.0063
   622.7500      0.0000    700.8805      7.0449    111.4208
   623.0000      0.0000    691.5328      7.4735    107.0040
   623.2500      0.0000    679.4263      7.8194    101.7184
   623.5000      0.0000    662.2914      8.0277     98.7400
   623.7500      0.0000    643.6064      8.0813     99.1402
   624.0000      0.0000    631.0975      8.0085    102.1072
   624.2500      0.0000    630.8698      7.8618    106.5588
   624.5000      0.0000    642.3671      7.6895    111.8766
   624.7500      0.0000    658.9477      7.5220    117.4589
   625.0000      0.0000    673.0598      7.3734    122.2938
   625.2500      0.0000    681.0161      7.2535    125.2466
   625.5000      0.0000    683.7137      7.1751    125.8757
   625.7500      0.0000    683.9494      7.1504    124.9512
   626.0000      0.0000    683.8281      7.1811    123.8726
   626.2500      0.0000    684.3000      7.2549    123.3648
   626.5000      0.0000    686.0501      7.3497    122.8308
   626.7500      0.0000    690.3441      7.4417    120.9168
   627.0000      0.0000    698.8472      7.5143    116.5944
   627.2500      0.0000    712.3945      7.5666    109.8283
   627.5000      0.0000    729.4905      7.6114    101.5002
   627.7500      0.0000    746.3386      7.6611     93.0127
   628.0000      0.0000    758.7782      7.7178     86.1496
