~Version Information
VERS.                      2.0: CWLS Log ASCII Standard - VERSION 2.0
WRAP.                       NO: One line per depth step
~Well Information Block
STRT.FT               240.0000: 
STOP.FT              1338.7000: 
STEP.FT                 0.1000: 
NULL.                -999.2500: 
COMP.          Pioneer Natural Resources: COMPANY
WELL.            Hamburg 43-35: WELL
FLD.           Purgatoire River: FIELD
LOC.           2444' FSL & 950' FEL--: LOCATION
PROV.                 Colorado: PROVINCE
CNTY.               Las Animas: COUNTRY
SRVC.                Patterson: SERVICE COMPANY
DATE.          Sun Dec 04 11:50:58 2005: LOG DATE
UWI.           05 071 08607 00: UNIQUE WELL ID
~Curve Information Block
DEPT.FT            0 000 00 00: Depth
DCAL.in                       : CDL Caliper
RHOB.g/cc                     : CDL Bulk Density
RHOC.g/cc                     : CDL Density Correction
DPOR.pu                       : CDL Density Porosity
NPOR.pu                       : Neutron Porosity
GR.GAPI                       : Gamma Ray
~Parameter Information Block
~A  Depth       DCAL        RHOB        RHOC        DPOR        NPOR         GR     
# ...
  1305.6000      7.8109      2.5349      0.0451      6.9757     22.2794    144.2342
  1305.7000      7.8109      2.5240      0.0095      7.6343     21.8562    141.9455
  1305.8000      7.8150      2.5160      0.0071      8.1223     21.7507    137.2171
  1305.9000      7.8150      2.5232      0.0183      7.6878     21.8466    131.0989
  1306.0000      7.8179      2.5398      0.0626      6.6799     21.9681    129.6587
  1306.1000      7.8179      2.5546      0.0582      5.7835     22.1881    134.3709
  1306.2000      7.8179      2.5649      0.0632      5.1560     22.3648    140.2616
  1306.3000      7.8207      2.5678      0.0904      4.9843     22.4701    139.2020
  1306.4000      7.8207      2.5582      0.0395      5.5661     22.6696    121.9279
  1306.5000      7.8201      2.5433      0.0335      6.4673     22.9197     85.7707
  1306.6000      7.8201      2.5371     -0.0011      6.8435     22.9572     42.8293
  1306.7000      7.8201      2.5429      0.0139      6.4938     22.4418     13.4652
  1306.8000      7.8218      2.5475      0.0362      6.2108     21.6393      2.4547
  1306.9000      7.8218      2.5437      0.0265      6.4406     21.1534      0.2474
  1307.0000      7.8359      2.5448      0.0122      6.3773     20.7515      0.0131
  1307.1000      7.8359      2.5561      0.0591      5.6917     20.1064      0.0000
  1307.2000      7.8359      2.5596      0.0383      5.4793     19.8156   -999.2500
  1307.3000      7.8549      2.5431      0.0351      6.4760     20.0831   -999.2500
  1307.4000      7.8549      2.5182     -0.0168      7.9889     20.5682   -999.2500
  1307.5000      7.8679      2.5022     -0.0132      8.9556     21.4233   -999.2500
  1307.6000      7.8679      2.4986      0.0127      9.1729     22.3118   -999.2500
  1307.7000      7.8679      2.5015      0.0034      8.9976     22.5950   -999.2500
  1307.8000      7.8763      2.5093     -0.0010      8.5244     22.4497   -999.2500
  1307.9000      7.8763      2.5226      0.0312      7.7201     22.1116   -999.2500
  1308.0000      7.8751      2.5380      0.0591      6.7852     21.7012   -999.2500
  1308.1000      7.8751      2.5527      0.0544      5.8965     21.6274   -999.2500
  1308.2000      7.8751      2.5659      0.0712      5.0945     21.9600   -999.2500
  1308.3000      7.8647      2.5721      0.0760      4.7191     22.2055   -999.2500
  1308.4000      7.8647      2.5644      0.0750      5.1886     21.8086   -999.2500
  1308.5000      7.8529      2.5492      0.0743      6.1074     20.6711   -999.2500
  1308.6000      7.8529      2.5480      0.0702      6.1812     19.3900   -999.2500
  1308.7000      7.8529      2.5726      0.0638      4.6894     18.9550   -999.2500
  1308.8000      7.8425      2.6071      0.1130      2.5972     19.4798   -999.2500
  1308.9000      7.8425      2.6221      0.1264      1.6886     19.9160   -999.2500
  1309.0000      7.8390      2.6087      0.0841      2.5057     19.7091   -999.2500
  1309.1000      7.8390      2.5839      0.0553      4.0074     19.2322   -999.2500
  1309.2000      7.8390      2.5618      0.0438      5.3447     18.8939   -999.2500
  1309.3000      7.8447      2.5436      0.0319      6.4488     18.8734   -999.2500
  1309.4000      7.8447      2.5296      0.0264      7.2964     19.0429   -999.2500
  1309.5000      7.8510      2.5219      0.0034      7.7660     19.1715   -999.2500
  1309.6000      7.8510      2.5202      0.0151      7.8646     19.3414   -999.2500
  1309.7000      7.8510      2.5213      0.0128      7.7971     19.6674   -999.2500
  1309.8000      7.8526      2.5174      0.0596      8.0338     19.8163   -999.2500
  1309.9000      7.8526      2.5104     -0.0044      8.4577     19.7503   -999.2500
  1310.0000      7.8497      2.5152      0.0489      8.1672     19.7724   -999.2500
  1310.1000      7.8497      2.5296      0.0535      7.2970     19.8768   -999.2500
  1310.2000      7.8497      2.5387      0.0597      6.7439     20.0272   -999.2500
  1310.3000      7.8453      2.5384      0.0482      6.7637     20.2157   -999.2500
  1310.4000      7.8453      2.5307      0.0642      7.2329     20.3021   -999.2500
  1310.5000      7.8425      2.5193      0.0445      7.9196     20.5314   -999.2500
  1310.6000      7.8425      2.5152      0.0208      8.1726     21.3897   -999.2500
  1310.7000      7.8425      2.5255      0.0704      7.5477     22.4329   -999.2500
  1310.8000      7.8409      2.5413      0.0199      6.5878     22.6854   -999.2500
  1310.9000      7.8409      2.5489      0.0681      6.1244     22.1402   -999.2500
  1311.0000      7.8312      2.5495      0.0233      6.0938     21.6286   -999.2500
  1311.1000      7.8312      2.5536      0.0725      5.8444     21.6427   -999.2500
  1311.2000      7.8312      2.5558      0.0548      5.7103     21.8731   -999.2500
  1311.3000      7.8159      2.5479      0.0551      6.1907     21.8842   -999.2500
  1311.4000      7.8159      2.5362      0.0612      6.8944     21.7361   -999.2500
  1311.5000      7.8087      2.5320      0.0207      7.1508     21.7218   -999.2500
  1311.6000      7.8087      2.5390      0.0340      6.7278     21.9231   -999.2500
  1311.7000      7.8087      2.5469      0.0514      6.2505     22.3595   -999.2500
  1311.8000      7.8227      2.5432      0.0519      6.4752     23.2263   -999.2500
  1311.9000      7.8227      2.5323      0.0206      7.1337     25.8045   -999.2500
  1312.0000      7.8530      2.5289      0.0161      7.3410     33.0413   -999.2500
  1312.1000      7.8530      2.5378      0.0165      6.7995     43.9486   -999.2500
  1312.2000      7.8530      2.5502      0.0695      6.0514     51.6871   -999.2500
  1312.3000      7.8694      2.5594      0.0300      5.4921     54.4552   -999.2500
  1312.4000      7.8694      2.5664      0.0752      5.0684     54.9975   -999.2500
  1312.5000      7.8661      2.5615      0.0684      5.3614     55.0551   -999.2500
  1312.6000      7.8661      2.5437      0.0136      6.4438     55.0584   -999.2500
  1312.7000      7.8661      2.5278      0.0261      7.4038   -999.2500   -999.2500
  1312.8000      7.8615      2.5209      0.0199      7.8248   -999.2500   -999.2500
  1312.9000      7.8615      2.5256      0.0301      7.5380   -999.2500   -999.2500
  1313.0000      7.8638      2.5426      0.0291      6.5086   -999.2500   -999.2500
  1313.1000      7.8638      2.5587      0.0646      5.5358   -999.2500   -999.2500
  1313.2000      7.8638      2.5639      0.0031      5.2197   -999.2500   -999.2500
  1313.3000      7.8696      2.5650      0.0447      5.1544   -999.2500   -999.2500
  1313.4000      7.8696      2.5672      0.0396      5.0197   -999.2500   -999.2500
  1313.5000      7.8770      2.5662      0.0607      5.0783   -999.2500   -999.2500
  1313.6000      7.8770      2.5566      0.0564      5.6613   -999.2500   -999.2500
  1313.7000      7.8770      2.5411      0.0385      6.5991   -999.2500   -999.2500
  1313.8000      7.8852      2.5226      0.0449      7.7242   -999.2500   -999.2500
  1313.9000      7.8852      2.5046     -0.0063      8.8124   -999.2500   -999.2500
  1314.0000      7.8926      2.4971      0.0400      9.2651   -999.2500   -999.2500
  1314.1000      7.8926      2.5020      0.0029      8.9719   -999.2500   -999.2500
  1314.2000      7.8926      2.5144      0.0357      8.2177   -999.2500   -999.2500
  1314.3000      7.8957      2.5237      0.0794      7.6569   -999.2500   -999.2500
  1314.4000      7.8957      2.5199      0.0160      7.8828   -999.2500   -999.2500
  1314.5000      7.9002      2.5103      0.0480      8.4646   -999.2500   -999.2500
  1314.6000      7.9002      2.5069      0.0396      8.6725   -999.2500   -999.2500
  1314.7000      7.9002      2.5116      0.0425      8.3859   -999.2500   -999.2500
  1314.8000      7.9001      2.5172      0.0442      8.0499   -999.2500   -999.2500
  1314.9000      7.9001      2.5188      0.0410      7.9545   -999.2500   -999.2500
  1315.0000      7.8928      2.5187      0.0595      7.9602   -999.2500   -999.2500
  1315.1000      7.8928      2.5179      0.0333      8.0059   -999.2500   -999.2500
