~Version Information
VERS.                      2.0: CWLS Log ASCII Standard - VERSION 2.0
WRAP.                       NO: One line per depth step
~Well Information Block
STRT.FT               480.0000: 
STOP.FT              1946.0000: 
STEP.FT                 0.1000: 
NULL.                -999.2500: 
COMP.          XTO Energy Inc.: COMPANY
WELL.          Golden Eagle 19-15: WELL
FLD.           Purgatoire River: FIELD
LOC.           1121' FSL & 2332' FEL--: LOCATION
CNTY.               Las Animas: COUNTY
SRVC.                Patterson: SERVICE COMPANY
DATE.          Mon Mar 13 10:27:20 2006: LOG DATE
UWI.           05 071 08717 00: UNIQUE WELL ID
STAT.                 Colorado: STATE
~Curve Information Block
DEPT.FT            0 000 00 00: Depth
DCAL.in                       : CDL Caliper
RHOB.g/cc                     : CDL Bulk Density
RHOC.g/cc                     : CDL Density Correction
DPOR.pu                       : CDL Density Porosity
NPOR.pu                       : Neutron Porosity
GR.GAPI                       : Gamma Ray
~Parameter Information Block
~A  Depth       DCAL        RHOB        RHOC        DPOR        NPOR         GR     
# ...
  1238.4000      7.9804      2.4408      0.1128     12.6774     13.4097     43.1581
  1238.5000      7.9792      2.4485      0.0795     12.2103     13.0870     45.7821
  1238.6000      7.9792      2.4367      0.0753     12.9272     13.2366     46.7115
  1238.7000      7.9792      2.4128      0.0601     14.3770     13.6793     46.6007
  1238.8000      7.9751      2.3952      0.0243     15.4438     13.9392     49.1128
  1238.9000      7.9751      2.3959      0.0250     15.3975     13.9688     54.8270
  1239.0000      7.9677      2.4025      0.0485     14.9986     14.1105     60.3065
  1239.1000      7.9677      2.4048     -0.0146     14.8616     14.3046     63.8687
  1239.2000      7.9677      2.4137      0.0109     14.3206     14.0993     67.0134
  1239.3000      7.9573      2.4276      0.0610     13.4809     13.4725     69.1707
  1239.4000      7.9573      2.4290      0.0633     13.3927     12.8412     65.8845
  1239.5000      7.9486      2.4175      0.0483     14.0907     12.4914     57.2122
  1239.6000      7.9486      2.4084      0.0251     14.6453     12.4643     48.7184
  1239.7000      7.9486      2.4077      0.0272     14.6840     12.5638     44.4762
  1239.8000      7.9482      2.4096      0.0368     14.5678     12.6682     45.6847
  1239.9000      7.9482      2.4177      0.0363     14.0803     12.9049     49.4649
  1240.0000      7.9526      2.4396      0.0580     12.7530     13.1768     52.5690
  1240.1000      7.9526      2.4654      0.0760     11.1850     13.1963     55.5027
  1240.2000      7.9526      2.4803      0.0576     10.2870     12.9163     58.1757
  1240.3000      7.9543      2.4801      0.0707     10.2962     12.5532     61.2070
  1240.4000      7.9543      2.4696      0.0724     10.9312     12.3003     65.0048
  1240.5000      7.9537      2.4593      0.0302     11.5579     12.1002     64.6101
  1240.6000      7.9537      2.4536      0.0612     11.9049     11.8131     58.9706
  1240.7000      7.9537      2.4478      0.0280     12.2531     11.7296     55.2069
  1240.8000      7.9518      2.4439      0.0285     12.4879     11.9617     57.3134
  1240.9000      7.9518      2.4497      0.0421     12.1418     12.0380     61.0492
  1241.0000      7.9475      2.4651      0.0614     11.2055     11.9723     61.9431
  1241.1000      7.9475      2.4746      0.0894     10.6301     12.2737     60.5509
  1241.2000      7.9475      2.4648      0.0417     11.2257     12.7862     58.7383
  1241.3000      7.9420      2.4453      0.0436     12.4087     12.6730     58.4964
  1241.4000      7.9420      2.4285      0.0547     13.4236     11.9258     58.4563
  1241.5000      7.9352      2.4210      0.0217     13.8801     11.4733     54.1878
  1241.6000      7.9352      2.4251      0.0422     13.6304     11.5369     46.4293
  1241.7000      7.9352      2.4318      0.0967     13.2260     11.7578     41.7163
  1241.8000      7.9299      2.4349      0.0409     13.0342     11.9302     42.5090
  1241.9000      7.9299      2.4405      0.0724     12.6973     12.1499     44.7816
  1242.0000      7.9312      2.4466      0.0812     12.3260     12.5226     45.8585
  1242.1000      7.9312      2.4468      0.1034     12.3144     12.6926     45.7696
  1242.2000      7.9312      2.4494      0.0700     12.1572     12.5471     47.0467
  1242.3000      7.9367      2.4633      0.0908     11.3168     12.3797     53.2104
  1242.4000      7.9367      2.4737      0.1124     10.6860     12.1335     62.6774
  1242.5000      7.9395      2.4651      0.0922     11.2075     11.6225     68.1306
  1242.6000      7.9395      2.4488      0.0719     12.1936     11.2067     66.3164
  1242.7000      7.9395      2.4414      0.0415     12.6406     11.3058     62.8202
  1242.8000      7.9400      2.4400      0.0587     12.7292     11.8425     62.4810
  1242.9000      7.9400      2.4370      0.0247     12.9102     12.3133     63.5370
  1243.0000      7.9425      2.4367      0.0348     12.9291     12.1323     62.9446
  1243.1000      7.9425      2.4382      0.0473     12.8345     11.4207     62.0720
  1243.2000      7.9425      2.4291      0.0532     13.3892     11.0324     63.9686
  1243.3000      7.9450      2.4116      0.0226     14.4489     11.2698     65.4539
  1243.4000      7.9450      2.4109     -0.0173     14.4883     11.5423     63.6180
  1243.5000      7.9441      2.4307      0.0589     13.2936     11.4778     61.3552
  1243.6000      7.9441      2.4350      0.0892     13.0319     11.3946     56.8804
  1243.7000      7.9441      2.4086      0.0398     14.6280     11.6401     48.6992
  1243.8000      7.9415      2.3800      0.0415     16.3628     11.9411     42.9106
  1243.9000      7.9415      2.3717      0.0485     16.8684     11.6519     42.1577
  1244.0000      7.9390      2.3786      0.0273     16.4463     10.8781     44.1372
  1244.1000      7.9390      2.3892      0.0266     15.8061     10.3596     48.4391
  1244.2000      7.9390      2.3942      0.0728     15.5022     10.2676     53.4323
  1244.3000      7.9384      2.3908      0.0034     15.7082     10.1302     55.8246
  1244.4000      7.9384      2.3833      0.0783     16.1636      9.8184     53.3187
  1244.5000      7.9374      2.3739      0.0293     16.7317      9.7441     47.5279
  1244.6000      7.9374      2.3704      0.0272     16.9450     10.0173     41.7016
  1244.7000      7.9374      2.3774      0.0263     16.5202     10.0934     37.3070
  1244.8000      7.9375      2.3863      0.0611     15.9816      9.4845     35.3985
  1244.9000      7.9375      2.3910      0.0459     15.6962      8.6141     36.7838
  1245.0000      7.9386      2.3922      0.0697     15.6234      8.3554     40.2327
  1245.1000      7.9386      2.3865      0.0651     15.9670      8.8381     43.0780
  1245.2000      7.9386      2.3738      0.0544     16.7408      9.5913     45.0486
  1245.3000      7.9383      2.3618      0.0405     17.4662     10.3701     50.1085
  1245.4000      7.9383      2.3578      0.0186     17.7071     10.8010     56.3487
  1245.5000      7.9381      2.3599      0.0545     17.5794     10.5665     55.9578
  1245.6000      7.9381      2.3586      0.0492     17.6604      9.9147     49.6912
  1245.7000      7.9381      2.3535      0.0455     17.9702      9.3667     45.8391
  1245.8000      7.9410      2.3508      0.0433     18.1347      9.4170     46.5722
  1245.9000      7.9410      2.3494      0.0347     18.2183     10.2999     46.9385
  1246.0000      7.9449      2.3481      0.0377     18.2966     11.4601     45.8329
  1246.1000      7.9449      2.3438      0.0861     18.5591     11.9056     45.8338
  1246.2000      7.9449      2.3262      0.0408     19.6261     11.5771     48.2262
  1246.3000      7.9464      2.2999     -0.0038     21.2189     11.2580     52.8344
  1246.4000      7.9464      2.2859     -0.0209     22.0670     11.3941     57.6841
  1246.5000      7.9461      2.2941      0.0031     21.5693     11.6638     59.7093
  1246.6000      7.9461      2.3218      0.0048     19.8882     11.7845     57.9224
  1246.7000      7.9461      2.3589      0.0619     17.6446     11.8677     55.8188
  1246.8000      7.9452      2.3843      0.0956     16.1049     11.8915     56.9882
  1246.9000      7.9452      2.3913      0.0312     15.6784     11.9411     61.1757
  1247.0000      7.9452      2.3925      0.0369     15.6037     12.3042     66.9050
  1247.1000      7.9452      2.3927      0.0627     15.5911     12.7420     71.4405
  1247.2000      7.9452      2.3947      0.0250     15.4718     12.6853     72.0585
  1247.3000      7.9454      2.4051      0.0331     14.8418     12.2902     68.5311
  1247.4000      7.9454      2.4164      0.0627     14.1557     12.1732     63.8000
  1247.5000      7.9440      2.4159      0.0402     14.1889     12.4321     59.5448
  1247.6000      7.9440      2.4065      0.0221     14.7601     12.9691     56.3254
  1247.7000      7.9440      2.3979      0.0234     15.2758     13.5992     55.5009
  1247.8000      7.9437      2.3942      0.0429     15.5020     13.7660     55.1163
  1247.9000      7.9437      2.3947      0.0500     15.4715     13.3794     51.2034
