~Version Information
VERS.                      2.0: CWLS Log ASCII Standard - VERSION 2.0
WRAP.                       NO: One line per depth step
~Well Information Block
STRT.FT               645.0000: 
STOP.FT              1320.0000: 
STEP.FT                 0.1000: 
NULL.                -999.2500: 
COMP.          Pioneer Natural Resources: COMPANY
WELL.          Rockfish 11-30 Tr: WELL
FLD.           Purgatoire River: FIELD
LOC.           1063' FNL & 1068' FWL: LOCATION
STAT.                 Colorado: State
CNTY.               Las Animas: COUNTY
CTRY. USA : Country
SECT. 30 : Section
TOWN. 32S : Township
RANG. 65W : Range
SRVC.                Patterson: SERVICE COMPANY
DATE.          Wed Nov 16 07:46:07 2005: LOG DATE
API.           05 071 08585 00: UNIQUE WELL ID
~Curve Information Block
DEPT.FT            0 000 00 00: Depth
DCAL.in                       : CDL Caliper
RHOB.g/cc                     : CDL Bulk Density
RHOC.g/cc                     : CDL Density Correction
DPOR.pu                       : CDL Density Porosity
GR.GAPI                       : Gamma Ray
NPOR.pu                       : Neutron Porosity
~Parameter Information Block
~A  Depth       DCAL        RHOB        RHOC        DPOR         GR         NPOR    
# ...
  1307.4000      7.9367      2.5572      0.0280      5.6243   -999.2500   -999.2500
  1307.5000      7.8810      2.5631      0.0811      5.2650   -999.2500   -999.2500
  1307.6000      7.8810      2.5628      0.0740      5.2853   -999.2500   -999.2500
  1307.7000      7.8810      2.5519      0.0688      5.9437   -999.2500   -999.2500
  1307.8000      7.8854      2.5433      0.0142      6.4675   -999.2500   -999.2500
  1307.9000      7.8854      2.5495      0.0437      6.0883   -999.2500   -999.2500
  1308.0000      7.8709      2.5612      0.0517      5.3819   -999.2500   -999.2500
  1308.1000      7.8709      2.5672      0.0500      5.0173   -999.2500   -999.2500
  1308.2000      7.8709      2.5680      0.0365      4.9682   -999.2500   -999.2500
  1308.3000      7.8595      2.5623      0.0727      5.3133   -999.2500   -999.2500
  1308.4000      7.8595      2.5498      0.0671      6.0750   -999.2500   -999.2500
  1308.5000      7.8557      2.5355      0.0635      6.9374   -999.2500   -999.2500
  1308.6000      7.8557      2.5212      0.0618      7.8065   -999.2500   -999.2500
  1308.7000      7.8557      2.5120      0.0085      8.3666   -999.2500   -999.2500
  1308.8000      7.8716      2.5162      0.0365      8.1063   -999.2500   -999.2500
  1308.9000      7.8716      2.5328      0.0217      7.1058   -999.2500   -999.2500
  1309.0000      7.8292      2.5551      0.0520      5.7520   -999.2500   -999.2500
  1309.1000      7.8292      2.5748      0.0826      4.5585   -999.2500   -999.2500
  1309.2000      7.8292      2.5852      0.0959      3.9261   -999.2500   -999.2500
  1309.3000      7.8338      2.5867      0.0700      3.8379   -999.2500   -999.2500
  1309.4000      7.8338      2.5843      0.0768      3.9796   -999.2500   -999.2500
  1309.5000      7.8706      2.5868      0.0686      3.8328   -999.2500   -999.2500
  1309.6000      7.8706      2.6006      0.0684      2.9930   -999.2500   -999.2500
  1309.7000      7.8706      2.6161      0.1191      2.0561   -999.2500   -999.2500
  1309.8000      7.8646      2.6128      0.1192      2.2566   -999.2500   -999.2500
  1309.9000      7.8646      2.5886      0.0542      3.7239   -999.2500   -999.2500
  1310.0000      7.8657      2.5633      0.0529      5.2534   -999.2500   -999.2500
  1310.1000      7.8657      2.5586      0.0586      5.5407   -999.2500   -999.2500
  1310.2000      7.8657      2.5777      0.0465      4.3844   -999.2500   -999.2500
  1310.3000      7.8615      2.5975      0.0637      3.1814   -999.2500   -999.2500
  1310.4000      7.8615      2.5964      0.0493      3.2489   -999.2500   -999.2500
  1310.5000      7.7892      2.5857      0.0421      3.8985   -999.2500   -999.2500
  1310.6000      7.7892      2.5854      0.0753      3.9153   -999.2500   -999.2500
  1310.7000      7.7892      2.5899      0.0854      3.6399   -999.2500   -999.2500
  1310.8000      7.7947      2.5800      0.0981      4.2410   -999.2500   -999.2500
  1310.9000      7.7947      2.5542      0.0610      5.8046   -999.2500   -999.2500
  1311.0000      7.8100      2.5309      0.0351      7.2163   -999.2500   -999.2500
  1311.1000      7.8100      2.5241      0.0324      7.6325   -999.2500   -999.2500
  1311.2000      7.8100      2.5278      0.0808      7.4044   -999.2500   -999.2500
  1311.3000      7.7700      2.5296      0.0230      7.2953   -999.2500   -999.2500
  1311.4000      7.7700      2.5297      0.0617      7.2928   -999.2500   -999.2500
  1311.5000      7.7988      2.5342      0.0536      7.0201   -999.2500   -999.2500
  1311.6000      7.7988      2.5425      0.0949      6.5160   -999.2500   -999.2500
  1311.7000      7.7988      2.5500      0.1021      6.0615   -999.2500   -999.2500
  1311.8000      7.8281      2.5581      0.1403      5.5723   -999.2500   -999.2500
  1311.9000      7.8281      2.5668      0.1192      5.0453   -999.2500   -999.2500
  1312.0000      7.8530      2.5714      0.1178      4.7652   -999.2500   -999.2500
  1312.1000      7.8530      2.5647      0.1353      5.1704   -999.2500   -999.2500
  1312.2000      7.8530      2.5453      0.1128      6.3434   -999.2500   -999.2500
  1312.3000      7.7763      2.5264      0.0936      7.4931   -999.2500   -999.2500
  1312.4000      7.7763      2.5127      0.1541      8.3191   -999.2500   -999.2500
  1312.5000      7.7798      2.4971      0.0994      9.2648   -999.2500   -999.2500
  1312.6000      7.7798      2.4814      0.0895     10.2189   -999.2500   -999.2500
  1312.7000      7.7798      2.4709      0.0812     10.8521   -999.2500   -999.2500
  1312.8000      7.7823      2.4666      0.0951     11.1167   -999.2500   -999.2500
  1312.9000      7.7823      2.4683      0.0748     11.0105   -999.2500   -999.2500
  1313.0000      7.8627      2.4712      0.1022     10.8372   -999.2500   -999.2500
  1313.1000      7.8627      2.4664      0.0778     11.1285   -999.2500   -999.2500
  1313.2000      7.8627      2.4596      0.0547     11.5415   -999.2500   -999.2500
  1313.3000      7.8929      2.4667      0.0413     11.1087   -999.2500   -999.2500
  1313.4000      7.8929      2.4857      0.0729      9.9606   -999.2500   -999.2500
  1313.5000      7.9413      2.4954      0.1064      9.3727   -999.2500   -999.2500
  1313.6000      7.9413      2.4921      0.0689      9.5694   -999.2500   -999.2500
  1313.7000      7.9413      2.4950      0.0719      9.3935   -999.2500   -999.2500
  1313.8000      7.9180      2.5070      0.1061      8.6655   -999.2500   -999.2500
  1313.9000      7.9180      2.5128      0.0980      8.3149   -999.2500   -999.2500
  1314.0000      7.9441      2.5114      0.0576      8.4018   -999.2500   -999.2500
  1314.1000      7.9441      2.5126      0.0849      8.3258   -999.2500   -999.2500
  1314.2000      7.9441      2.5176      0.1042      8.0219   -999.2500   -999.2500
  1314.3000      7.9282      2.5234      0.0970      7.6752   -999.2500   -999.2500
  1314.4000      7.9282      2.5251      0.0813      7.5710   -999.2500   -999.2500
  1314.5000      7.9171      2.5164      0.1002      8.0971   -999.2500   -999.2500
  1314.6000      7.9171      2.4991      0.0697      9.1483   -999.2500   -999.2500
  1314.7000      7.9171      2.4842      0.0615     10.0476   -999.2500   -999.2500
  1314.8000      7.9250      2.4827      0.0139     10.1421   -999.2500   -999.2500
  1314.9000      7.9250      2.4990      0.0523      9.1540   -999.2500   -999.2500
  1315.0000      7.9101      2.5251      0.0513      7.5714   -999.2500   -999.2500
  1315.1000      7.9101      2.5442      0.1175      6.4107   -999.2500   -999.2500
  1315.2000      7.9101      2.5492      0.1006      6.1065   -999.2500   -999.2500
  1315.3000      7.8726      2.5535      0.0846      5.8475   -999.2500   -999.2500
  1315.4000      7.8726      2.5636      0.1184      5.2388   -999.2500   -999.2500
  1315.5000      7.8187      2.5689      0.0977      4.9168   -999.2500   -999.2500
  1315.6000      7.8187      2.5721      0.0643      4.7241   -999.2500   -999.2500
  1315.7000      7.8187      2.5899      0.0654      3.6416   -999.2500   -999.2500
  1315.8000      7.7893      2.6169      0.1306      2.0044   -999.2500   -999.2500
  1315.9000      7.7893      2.6254      0.1130      1.4913   -999.2500   -999.2500
  1316.0000      7.8137      2.6106      0.0836      2.3862   -999.2500   -999.2500
  1316.1000      7.8137      2.5925      0.0939      3.4858   -999.2500   -999.2500
  1316.2000      7.8137      2.5820      0.0843      4.1211   -999.2500   -999.2500
  1316.3000      7.8034      2.5952      0.0544      3.3242   -999.2500   -999.2500
  1316.4000      7.8034      2.6717      0.0213     -1.3180   -999.2500   -999.2500
  1316.5000      7.8045      2.6990      0.0840     -2.9678   -999.2500   -999.2500
  1316.6000      7.8045      2.2559      0.4919     23.8859   -999.2500   -999.2500
  1316.7000      7.8045      1.2795      0.0100     83.0577   -999.2500   -999.2500
  1316.8000      7.7946      0.4335      0.0100    134.3343   -999.2500   -999.2500
  1316.9000      7.7946      0.0823   -999.2500    155.6204   -999.2500   -999.2500
