~Version Information
VERS.                      2.0: CWLS Log ASCII Standard - VERSION 2.0
WRAP.                       NO: One line per depth step
~Well Information Block
STRT.FT               480.0000: 
STOP.FT              1817.0000: 
STEP.FT                 0.1000: 
NULL.                -999.2500: 
COMP.          Pioneer Natural Resources: COMPANY
WELL.           Bobsy 34-11 Tr: WELL
FLD.           Purgatoire River: FIELD
LOC.           514' FSL & 1784' FEL: LOCATION
PROV.                 Colorado: PROVINCE
CNTY.               Las Animas: COUNTRY
SRVC.                Patterson: SERVICE COMPANY
DATE.          Tue Jul 19 10:30:09 2005: LOG DATE
UWI.           05 071 08438 00: UNIQUE WELL ID
~Curve Information Block
DEPT.FT            0 000 00 00: Depth
DCAL.in                       : CDL Caliper
DPOR.pu                       : CDL Density Porosity
GR.GAPI                       : Gamma Ray
NPOR.pu                       : Neutron Porosity
RHOB.g/cc                     : CDL Bulk Density
RHOC.g/cc                     : CDL Density Correction
~Parameter Information Block
~A  Depth       DCAL        DPOR         GR         NPOR        RHOB        RHOC    
# ...
  1632.0000      7.9898      6.9872    135.1648     25.2639      2.5347      0.0665
  1632.1000      7.9898      5.1726    132.8336     24.8025      2.5647      0.0842
  1632.2000      7.9898      2.5786    119.2065     24.8504      2.6075      0.1020
  1632.3000      7.9422     -0.7188    102.0043     25.2420      2.6619      0.1141
  1632.4000      7.9422     -4.6900     94.3415     26.0238      2.7274      0.1618
  1632.5000      7.9639     -8.3093     96.8343     26.6996      2.7871      0.2161
  1632.6000      7.9639     -9.6094    105.3576     26.3429      2.8086      0.2368
  1632.7000      7.9639     -8.3299    110.0560     24.6149      2.7874      0.0993
  1632.8000      8.0220     -6.5487    101.3960     22.0547      2.7581      0.0697
  1632.9000      8.0220     -5.9035     86.3927     19.9254      2.7474      0.0410
  1633.0000      8.0220     -6.2683     81.1346     19.3994      2.7534      0.0320
  1633.1000      8.0220     -6.8846     85.6948     20.1677      2.7636     -0.0032
  1633.2000      8.0220     -7.0976     88.6658     20.4908      2.7671      0.0256
  1633.3000      7.9431     -6.2684     91.2350     19.2884      2.7534      0.0401
  1633.4000      7.9431     -4.9344     99.1655     17.9218      2.7314      0.0388
  1633.5000      7.9611     -4.4488    108.6460     18.0458      2.7234      0.0302
  1633.6000      7.9611     -5.2729    115.1325     18.8386      2.7370      0.0194
  1633.7000      7.9611     -6.5265    114.5990     18.6706      2.7577      0.0778
  1633.8000      7.9831     -6.1470    106.4814     18.2107      2.7514      0.0847
  1633.9000      7.9831     -3.3218    103.0087     18.9361      2.7048      0.0429
  1634.0000      7.9819      0.0920    109.6693     20.4314      2.6485      0.0473
  1634.1000      7.9819      1.8843    115.2621     21.2128      2.6189      0.0371
  1634.2000      7.9819      1.3946    111.2038     21.0073      2.6270      0.0668
  1634.3000      7.9702     -0.1200    101.4790     20.8714      2.6520      0.1415
  1634.4000      7.9702     -0.7209     93.4139     21.4494      2.6619      0.1175
  1634.5000      7.9340     -0.0011     93.1474     22.1032      2.6500      0.0878
  1634.6000      7.9340      0.8709    104.3355     22.2795      2.6356      0.0324
  1634.7000      7.9340      1.3708    119.6301     22.3734      2.6274      0.1131
  1634.8000      7.9329      2.6766    126.1917     22.4576      2.6058      0.1176
  1634.9000      7.9329      5.5551    122.5314     22.7946      2.5583      0.0815
  1635.0000      7.9705      8.6440    117.2580     24.0267      2.5074      0.0165
  1635.1000      7.9705     10.2858    117.0824     25.7462      2.4803      0.0354
  1635.2000      7.9705     10.4905    124.0438     26.4723      2.4769      0.0798
  1635.3000      8.0053     10.3494    135.8869     25.6332      2.4792      0.0890
  1635.4000      8.0053     10.6923    148.2994     24.7285      2.4736      0.1115
  1635.5000      8.0174     11.3388    153.4654     25.0318      2.4629      0.0859
  1635.6000      8.0174     11.5036    150.9028     25.5664      2.4602      0.1266
  1635.7000      8.0174     10.8532    158.4009     25.8659      2.4709      0.1137
  1635.8000      8.0494      9.7287    176.9947     26.5229      2.4895      0.1344
  1635.9000      8.0494      8.6594    183.9661     27.2738      2.5071      0.1083
  1636.0000      8.1074      7.4768    171.5278     27.2428      2.5266      0.1071
  1636.1000      8.1074      5.7015    150.7355     26.4034      2.5559      0.1243
  1636.2000      8.1074      3.9877    136.0874     25.9841      2.5842      0.1737
  1636.3000      8.1625      3.9316    132.8928     26.7380      2.5851      0.2011
  1636.4000      8.1625      5.2732    134.8446     27.6668      2.5630      0.0678
  1636.5000      8.1538      6.0281    137.7828     27.4535      2.5505      0.1177
  1636.6000      8.1538      5.7455    139.6533     26.6661      2.5552      0.1158
  1636.7000      8.1538      5.0739    131.4489     26.4815      2.5663      0.1073
  1636.8000      8.0943      4.6101    116.6645     26.9327      2.5739      0.1515
  1636.9000      8.0943      4.5805    117.5516     27.4827      2.5744      0.1065
  1637.0000      8.0655      4.2570    138.8734     27.5802      2.5798      0.1086
  1637.1000      8.0655      3.4658    153.3376     26.8780      2.5928      0.1029
  1637.2000      8.0655      3.1151    146.5838     26.1733      2.5986      0.1274
  1637.3000      8.0681      3.5109    141.3632     26.7934      2.5921      0.0781
  1637.4000      8.0681      4.1782    149.3211     28.2127      2.5811      0.0965
  1637.5000      8.0722      5.0642    154.7137     28.7880      2.5664      0.0783
  1637.6000      8.0722      6.6111    146.8342     27.9391      2.5409      0.0978
  1637.7000      8.0722      8.2591    133.1240     26.3778      2.5137      0.0421
  1637.8000      8.0750      8.2785    127.1262     25.4547      2.5134      0.0120
  1637.9000      8.0750      6.6662    127.0744     25.6394      2.5400      0.0726
  1638.0000      8.0812      5.5539    123.4978     26.0288      2.5584      0.0933
  1638.1000      8.0812      5.9223    116.4125     26.0024      2.5523      0.0466
  1638.2000      8.0812      6.9435    116.5573     25.9533      2.5354      0.0709
  1638.3000      8.0511      7.5469    128.4153     26.3742      2.5255      0.0289
  1638.4000      8.0511      7.1030    137.6830     26.6196      2.5328      0.0560
  1638.5000      8.0490      6.3610    134.3824     26.2487      2.5450      0.0875
  1638.6000      8.0490      6.6640    133.3201     25.9746      2.5400      0.0845
  1638.7000      8.0490      8.0753    142.0342     25.9525      2.5168      0.0645
  1638.8000      8.0640      9.9494    147.4745     25.8759      2.4858      0.0491
  1638.9000      8.0640     11.6120    147.2807     25.7001      2.4584      0.0382
  1639.0000      8.0642     11.9255    146.0977     25.6773      2.4532      0.0424
  1639.1000      8.0642     10.4106    143.0471     26.1360      2.4782      0.0540
  1639.2000      8.0642      8.2405    139.5020     26.4969      2.5140      0.1096
  1639.3000      8.0772      6.8117    133.3180     26.0669      2.5376      0.1120
  1639.4000      8.0772      6.2703    121.0318     25.3155      2.5465      0.1457
  1639.5000      8.1110      5.8074    116.4881     24.9830      2.5542      0.1246
  1639.6000      8.1110      5.1215    127.2758     25.3932      2.5655      0.1232
  1639.7000      8.1110      5.0951    136.1930     26.2298      2.5659      0.0891
  1639.8000      8.1502      6.2463    137.1418     26.4115      2.5469      0.0677
  1639.9000      8.1502      7.9166    139.8593     25.7255      2.5194      0.0442
  1640.0000      8.1007      9.4259    142.9159     25.1020      2.4945      0.0304
  1640.1000      8.1007     10.1838    143.2595     25.2642      2.4820     -0.0231
  1640.2000      8.1007      9.7577    146.1595     25.8604      2.4890      0.0618
  1640.3000      8.0485      8.5316    153.4680     25.9650      2.5092      0.0837
  1640.4000      8.0485      7.0607    158.4909     25.4533      2.5335      0.0444
  1640.5000      8.0301      5.8437    152.8991     25.0424      2.5536      0.1044
  1640.6000      8.0301      5.4560    137.6460     24.8946      2.5600      0.0933
  1640.7000      8.0301      5.7894    126.1778     25.0671      2.5545      0.0863
  1640.8000      8.0424      6.3337    127.0627     26.0616      2.5455      0.1098
  1640.9000      8.0424      6.6873    134.3966     27.1175      2.5397      0.0843
  1641.0000      8.0368      6.4855    136.1313     27.2192      2.5430      0.1094
  1641.1000      8.0368      6.1341    131.1425     26.8408      2.5488      0.1202
  1641.2000      8.0368      6.2564    131.2586     26.5196      2.5468      0.0487
  1641.3000      8.0443      6.5982    139.1767     26.0941      2.5411      0.0772
  1641.4000      8.0443      6.5485    140.5063     25.7714      2.5419      0.0569
  1641.5000      8.0427      5.4207    129.1618     25.8863      2.5606      0.0015
