~Version Information
VERS.                      2.0: CWLS Log ASCII Standard - VERSION 2.0
WRAP.                       NO: One line per depth step
~Well Information Block
STRT.FT                -7.7500: 
STOP.FT              2248.5000: 
STEP.FT                 0.2500: 
NULL.                -999.2500: 
COMP.          Pioneer Natural Resources: COMPANY
WELL.          Interceptor 43-13 Tr: WELL
FLD.           Purgatoire River: FIELD
LOC.           2006' FSL & 438' FEL--: LOCATION
PROV.                       CO: PROVINCE
CNTY.               Las Animas: COUNTRY
SRVC.          Patterson Wireline: SERVICE COMPANY
DATE.          Thu Nov 17 10:14:59 2005: LOG DATE
UWI.           05 071 08549 00: UNIQUE WELL ID
~Curve Information Block
DEPT.FT            0 000 00 00: Depth
CCL.                          : Casing Collar Locator
TT3.usec                      : CBL 3' Travel Time
AMP3.mV                       : CBL 3' Amplitude
GR.GAPI                       : Gamma Ray
~Parameter Information Block
~A  Depth       CCL         TT3         AMP3         GR     
# ...
   427.7500      0.0000    280.8148     74.8662     76.1551
   428.0000      0.0000    280.8148     74.9473     73.3811
   428.2500      0.0000    280.8157     75.0160     69.9342
   428.5000      0.0000    280.8185     75.0753     68.0108
   428.7500      0.0000    280.8241     75.1436     68.7572
   429.0000      0.0000    280.8318     75.2355     71.6135
   429.2500      0.0000    280.8395     75.3387     74.6028
   429.5000      0.0000    280.8451     75.4217     75.3314
   429.7500      0.0000    280.8485     75.4692     72.4181
   430.0000      0.0000    280.8510     75.4974     66.3118
   430.2500      0.0000    280.8534     75.5308     58.6171
   430.5000      0.0000    280.8553     75.5761     50.7883
   430.7500      0.0000    280.8552     75.6238     43.7184
   431.0000      0.0000    280.8514     75.6654     38.1461
   431.2500      0.0000    280.8442     75.7051     34.6317
   431.5000      0.0000    280.8417     75.7590     32.9693
   431.7500      0.0000    280.8690     75.8371     32.1787
   432.0000      0.0000    281.0254     75.8881     31.4382
   432.2500      0.0000    281.6015     75.7168     30.7885
   432.5000      0.0000    283.1943     74.9001     30.7880
   432.7500      0.0000    286.5086     72.8639     31.7940
   433.0000      0.0000    291.5739     69.2992     33.7917
   433.2500      0.0000    296.9406     64.6942     36.6447
   433.5000      0.0000    300.1956     60.2889     40.1360
   433.7500      0.0000    299.9156     57.2504     43.8116
   434.0000      0.0000    296.9387     55.9144     47.1035
   434.2500      0.0000    293.3861     55.8288     49.8121
   434.5000      0.0000    290.7954     56.2851     52.2469
   434.7500      2.0000    289.4449     56.7156     54.6779
   435.0000     -2.0000    288.9264     56.8054     56.9073
   435.2500      0.0000    288.8192     56.4507     58.6177
   435.5000      0.0000    288.8915     55.7652     59.7957
   435.7500      0.0000    288.9755     55.2176     60.5121
   436.0000      0.0000    288.8149     55.6165     60.6596
   436.2500      0.0000    288.1010     57.6110     60.2649
   436.5000      0.0000    286.7304     61.0537     59.7247
   436.7500      0.0000    284.9740     65.0611     59.4085
   437.0000      0.0000    283.3142     68.7317     59.3296
   437.2500      0.0000    282.1056     71.6293     59.3899
   437.5000      0.0000    281.4091     73.6841     59.6814
   437.7500      0.0000    281.0841     74.9747     60.4038
   438.0000      0.0000    280.9567     75.6669     61.6200
   438.2500      0.0000    280.9105     75.9735     63.0670
   438.5000      0.0000    280.8911     76.0736     64.0218
   438.7500      0.0000    280.8808     76.0686     63.4599
   439.0000      0.0000    280.8760     76.0044     60.7027
   439.2500      0.0000    280.8769     75.9049     56.0995
   439.5000      0.0000    280.8828     75.7951     50.8205
   439.7500      0.0000    280.8921     75.7009     45.8100
   440.0000      0.0000    280.9030     75.6400     41.3335
   440.2500      0.0000    280.9142     75.6162     37.6925
   440.5000      0.0000    280.9245     75.6199     35.6723
   440.7500      0.0000    280.9323     75.6311     35.8131
   441.0000      0.0000    280.9355     75.6238     37.6749
   441.2500      0.0000    280.9333     75.5771     40.1780
   441.5000      0.0000    280.9268     75.4875     42.4349
   441.7500      0.0000    280.9185     75.3676     44.1516
   442.0000      0.0000    280.9099     75.2333     45.5840
   442.2500      0.0000    280.9015     75.0963     47.3768
   442.5000      0.0000    280.8925     74.9677     50.4571
   442.7500      0.0000    280.8826     74.8569     55.9296
   443.0000      0.0000    280.8725     74.7642     64.5676
   443.2500      0.0000    280.8639     74.6773     75.7732
   443.5000      0.0000    280.8589     74.5760     87.0771
   443.7500      0.0000    280.8581     74.4379     95.3655
   444.0000      0.0000    280.8607     74.2499     98.9600
   444.2500      0.0000    280.8647     74.0219     98.3970
   444.5000      0.0000    280.8688     73.7865     95.3844
   444.7500      0.0000    280.8727     73.5778     91.3385
   445.0000      0.0000    280.8764     73.4114     86.8998
   445.2500      0.0000    280.8805     73.2844     82.4655
   445.5000      0.0000    280.8848     73.1871     78.6921
   445.7500      0.0000    280.8881     73.1085     76.2467
   446.0000      0.0000    280.8882     73.0358     75.2975
   446.2500      0.0000    280.8837     72.9581     75.5941
   446.5000      0.0000    280.8749     72.8730     76.9442
   446.7500      0.0000    280.8640     72.7845     79.1295
   447.0000      0.0000    280.8538     72.6967     81.3059
   447.2500      0.0000    280.8459     72.6125     82.0693
   447.5000      0.0000    280.8409     72.5345     80.6442
   447.7500      0.0000    280.8385     72.4628     77.8513
   448.0000      0.0000    280.8387     72.3960     75.3978
   448.2500      0.0000    280.8425     72.3402     74.1027
   448.5000      0.0000    280.8511     72.3150     73.0497
   448.7500      0.0000    280.8635     72.3429     70.5396
   449.0000      0.0000    280.8768     72.4215     65.8979
   449.2500      0.0000    280.8877     72.4982     60.4021
   449.5000      0.0000    280.8957     72.4840     56.4086
   449.7500      0.0000    280.9032     72.3193     55.5093
   450.0000      0.0000    280.9117     72.0349     57.5522
   450.2500      0.0000    280.9197     71.7365     61.2127
   450.5000      0.0000    280.9240     71.5227     65.0405
   450.7500      0.0000    280.9228     71.4226     67.9965
   451.0000      0.0000    280.9164     71.4091     69.5942
   451.2500      0.0000    280.9071     71.4523     69.8955
   451.5000      0.0000    280.8974     71.5495     69.2331
   451.7500      0.0000    280.8893     71.7106     67.7257
   452.0000      0.0000    280.8846     71.9162     65.1254
   452.2500      0.0000    280.8862     72.0877     61.3118
   452.5000      0.0000    280.8964     72.1191     56.9763
   452.7500      0.0000    280.9141     71.9630     53.6035
   453.0000      0.0000    280.9342     71.6833     52.5162
   453.2500      0.0000    280.9511     71.4035     53.8546
   453.5000      0.0000    280.9617     71.2132     56.6895
   453.7500      0.0000    280.9654     71.1306     60.1036
   454.0000      0.0000    280.9624     71.1346     63.7939
   454.2500      0.0000    280.9540     71.2034     67.6204
   454.5000      0.0000    280.9428     71.3232     71.1851
   454.7500      0.0000    280.9319     71.4792     74.0982
   455.0000      0.0000    280.9228     71.6545     76.2765
   455.2500      0.0000    280.9152     71.8371     77.9852
   455.5000      0.0000    280.9084     72.0202     79.8060
   455.7500      0.0000    280.9023     72.1954     82.1246
   456.0000      0.0000    280.8981     72.3526     84.3462
   456.2500      0.0000    280.8961     72.4854     85.1759
   456.5000      0.0000    280.8958     72.5948     83.9662
   456.7500      0.0000    280.8960     72.6882     81.3523
   457.0000      0.0000    280.8956     72.7781     78.4528
   457.2500      0.0000    280.8946     72.8803     75.9275
   457.5000      0.0000    280.8935     73.0065     73.9132
   457.7500      0.0000    280.8932     73.1577     72.3133
   458.0000      0.0000    280.8943     73.3269     70.9441
   458.2500      0.0000    280.8980     73.5078     69.7659
   458.5000      0.0000    280.9046     73.6972     69.1892
   458.7500      0.0000    280.9138     73.8915     69.9936
   459.0000      0.0000    280.9237     74.0829     72.7342
   459.2500      0.0000    280.9315     74.2606     77.1662
   459.5000      0.0000    280.9348     74.4165     82.1895
   459.7500      0.0000    280.9333     74.5524     86.3053
   460.0000      0.0000    280.9290     74.6795     88.2594
   460.2500      0.0000    280.9239     74.8069     87.5283
   460.5000      0.0000    280.9193     74.9326     84.5765
   460.7500      0.0000    280.9163     75.0465     81.0421
   461.0000      0.0000    280.9166     75.1430     79.4060
