~Version Information
 VERS.                                  2.0 : CWLS LAS VERSION
 WRAP.                                   NO : WRAPING MODE
 SWARE .                 MController 2.5.0J : SOFTWARE VERSION
~Well Information
 WELL.                      Buffet 41-36 Tr : WELL
 COMP.    Pioneer Natural Resources USA Inc : COMPANY
 FLD.                      Purgatoire River : FIELD
 LOC.                NE/NE Sec 36 T32S R67W : LOCATION
 DATE.                             12/28/05 : DATE(S) LOGGED
 SRVC.       BLANCO Geological Services LLC : SERVICE COMPANY
 STAT.                                   CO : STATE
 CNTY.                           Las Animas : COUNTY
 CTRY.                                  USA : COUNTRY
 API.                       05-071-08627-00 : API NUMBER
 STRT.FT                             287.00 : START DEPTH
 STOP.FT                            1373.00 : STOP DEPTH
 STEP.FT                               1.00 : DEPTH INCREMENT
 NULL.                                -9999 : NULL VALUE
~Curve information
 DEPTH.FT                                   :
 ROP.MIN/FT                                 :
 GAS.UNITS                                  :
~ASCII Log data
# ...
       887.0         0.45         16.1 
       888.0         0.40         15.3 
       889.0         0.40         14.7 
       890.0         0.40         14.2 
       891.0         0.47         14.2 
       892.0         3.78         66.8 
       893.0         0.58         35.0 
       894.0         0.43         36.0 
       895.0         0.57         33.6 
       896.0         0.43         27.9 
       897.0         0.27         25.7 
       898.0         0.23         37.4 
       899.0         0.30         54.4 
       900.0         0.42         60.7 
       901.0         0.37         60.0 
       902.0         0.30         53.4 
       903.0         0.30         47.6 
       904.0         0.30         41.1 
       905.0         0.30         34.3 
       906.0         0.40         31.8 
       907.0         0.53         30.0 
       908.0         0.45         27.8 
       909.0         0.53         22.4 
       910.0         0.60         25.5 
       911.0         0.53         21.9 
       912.0         0.50         24.3 
       913.0         0.50         27.5 
       914.0         0.52         27.3 
       915.0         0.43         24.3 
       916.0         0.40         21.8 
       917.0         0.40         18.6 
       918.0         0.47         22.4 
       919.0         0.47         24.0 
       920.0         0.40         23.2 
       921.0         0.42         19.1 
       922.0         3.52        134.3 
       923.0         0.37         92.1 
       924.0         0.33         76.5 
       925.0         0.40         66.2 
       926.0         0.47         53.8 
       927.0         0.53         45.8 
       928.0         0.72         37.0 
       929.0         0.70         30.3 
       930.0         0.63         31.2 
       931.0         0.47         30.1 
       932.0         0.47         26.0 
       933.0         0.60         24.4 
       934.0         0.45         24.0 
       935.0         0.47         21.4 
       936.0         0.40         21.3 
       937.0         0.40         18.8 
       938.0         0.37         17.3 
       939.0         0.33         19.6 
       940.0         0.37         21.2 
       941.0         0.33         21.2 
       942.0         0.43         23.0 
       943.0         0.42         33.4 
       944.0         0.37         33.4 
       945.0         0.37         30.6 
       946.0         0.33         28.8 
       947.0         0.30         25.7 
       948.0         0.30         21.5 
       949.0         0.33         24.1 
       950.0         0.40         26.9 
       951.0         0.40         28.9 
       952.0         4.23        119.8 
       953.0         0.47         59.3 
       954.0         0.40         62.0 
       955.0         0.27         62.3 
       956.0         0.23         59.2 
       957.0         0.30         51.7 
       958.0         0.30         47.3 
       959.0         0.33         46.2 
       960.0         0.42         43.4 
       961.0         0.33         41.1 
       962.0         0.27         36.7 
       963.0         0.40         33.3 
       964.0         0.30         29.4 
       965.0         0.27         28.4 
       966.0         0.30         26.8 
       967.0         0.27         25.1 
       968.0         0.23         24.0 
       969.0         0.23         24.1 
       970.0         0.27         24.6 
       971.0         0.32         26.4 
       972.0         0.33         31.1 
       973.0         0.33         33.2 
       974.0         0.30         32.9 
       975.0         0.27         30.7 
       976.0         0.27         26.3 
       977.0         0.23         24.2 
       978.0         0.23         24.2 
       979.0         0.27         25.2 
       980.0         0.30         27.9 
       981.0         0.37         31.5 
       982.0         4.50         76.6 
       983.0         0.63         54.7 
       984.0         0.50         56.0 
       985.0         0.57         50.3 
       986.0         0.47         36.8 
       987.0         0.32         29.1 
       988.0         0.27         27.5 
       989.0         0.23         27.2 
       990.0         0.27         27.7 
       991.0         0.33         29.6 
       992.0         0.30         30.4 
       993.0         0.30         29.6 
       994.0         0.27         28.1 
       995.0         0.33         26.0 
       996.0         0.23         26.0 
       997.0         0.23         37.6 
       998.0         0.23         59.0 
       999.0         0.25         86.8 
      1000.0         0.40        144.2 
      1001.0         0.27        160.6 
      1002.0         0.23        160.5 
      1003.0         0.27        151.8 
      1004.0         0.30        147.2 
      1005.0         0.37        146.8 
      1006.0         0.27        147.4 
      1007.0         0.27        145.2 
      1008.0         0.27        137.2 
      1009.0         0.25        127.0 
      1010.0         0.20        113.0 
      1011.0         0.27        106.4 
      1012.0         3.65       1426.5 
      1013.0         0.37       1015.8 
      1014.0         0.33       1033.9 
      1015.0         0.40       1032.9 
      1016.0         0.42       1037.7 
      1017.0         0.33       1019.3 
      1018.0         0.47        965.6 
      1019.0         0.47        875.8 
      1020.0         0.43        844.1 
      1021.0         0.33        834.6 
      1022.0         0.37        808.2 
      1023.0         0.37        786.3 
      1024.0         0.35        775.5 
      1025.0         0.37        761.2 
      1026.0         0.27        756.8 
      1027.0         0.20        747.6 
      1028.0         0.27        720.0 
      1029.0         0.20        688.2 
      1030.0         0.23        682.2 
      1031.0         0.30        722.5 
      1032.0         0.33        769.5 
      1033.0         0.35        784.1 
      1034.0         0.30        786.3 
      1035.0         0.37        784.1 
      1036.0         0.37        756.5 
      1037.0         0.47        733.3 
      1038.0         0.53        732.7 
      1039.0         0.47        731.7 
      1040.0         0.30        733.3 
      1041.0         0.32        729.2 
      1042.0         3.48       1386.8 
      1043.0         0.30        981.5 
      1044.0         0.40       1029.7 
      1045.0         0.47       1140.2 
      1046.0         0.40       1147.5 
      1047.0         0.38       1088.1 
      1048.0         0.37        981.5 
      1049.0         0.37        910.7 
      1050.0         0.37        821.5 
      1051.0         0.37        781.5 
      1052.0         0.33        783.8 
      1053.0         0.37        795.2 
      1054.0         0.37        797.1 
      1055.0         0.47        860.9 
      1056.0         0.82        868.2 
      1057.0         0.37        770.8 
      1058.0         0.30        793.6 
      1059.0         0.30        800.6 
      1060.0         0.23        808.2 
      1061.0         0.23        824.4 
      1062.0         0.20        850.7 
      1063.0         0.23        926.3 
      1064.0         0.30       1119.2 
      1065.0         0.23       1194.5 
      1066.0         0.22       1195.7 
      1067.0         0.33       1183.0 
      1068.0         0.30       1222.7 
      1069.0         0.27       1249.4 
      1070.0         0.47       1251.6 
      1071.0         0.33       1219.2 
      1072.0         4.20       2413.2 
      1073.0         0.43       1591.5 
      1074.0         0.57       1708.9 
      1075.0         0.63       1832.1 
      1076.0         0.53       1837.2 
      1077.0         0.38       1704.2 
      1078.0         0.33       1477.3 
      1079.0         0.37       1282.1 
      1080.0         0.40       1141.8 
      1081.0         0.57       1059.9 
      1082.0         0.65        966.9 
      1083.0         0.63        913.3 
      1084.0         0.57        920.9 
      1085.0         0.63        961.8 
      1086.0         0.57        984.4 
