~Version Information
VERS.                      2.0: CWLS Log ASCII Standard - VERSION 2.0
WRAP.                       NO: One line per depth step
~Well Information Block
STRT.FT               550.0000: 
STOP.FT              1664.0000: 
STEP.FT                 0.2500: 
NULL.                -999.2500: 
COMP.          Pioneer Natural Resources: COMPANY
WELL.          Stock Canyon 34-33: WELL
FLD.           Purgatorie River: FIELD
LOC.           980' FSL & 2191' FEL: LOCATION
PROV.                 Colorado: PROVINCE
CNTY.               Las Animas: COUNTRY
SRVC.                Patterson: SERVICE COMPANY
DATE.          Mon Dec 05 09:58:03 2005: LOG DATE
UWI.                          : UNIQUE WELL ID
~Curve Information Block
DEPT.FT            0 000 00 00: Depth
SN.Ohm-m                      : IEL Short Normal
SP.mV                         : IEL Spontaneous Potential
DIR.Ohm-m                     : IEL Induction Resistivity
GR.GAPI                       : Gamma Ray
~Parameter Information Block
~A  Depth        SN          SP         DIR          GR     
# ...
  1052.5000      8.5617    315.0467      7.3284    133.6421
  1052.7500      8.3360    315.0671      7.2570    136.7591
  1053.0000      8.1263    315.0737      7.2440    142.1190
  1053.2500      7.9363    315.1006      7.2922    145.1475
  1053.5000      7.7747    315.1874      7.3975    146.9993
  1053.7500      7.6574    315.3530      7.5497    145.8870
  1054.0000      7.6087    315.5844      7.7353    141.4467
  1054.2500      7.6587    315.8429      7.9413    137.7731
  1054.5000      7.8384    316.0775      8.1586    133.3011
  1054.7500      8.1723    316.2353      8.3837    131.9464
  1055.0000      8.6695    316.2690      8.6193    132.7552
  1055.2500      9.3159    316.1470      8.8745    134.3165
  1055.5000     10.0693    315.8667      9.1620    135.1349
  1055.7500     10.8631    315.4615      9.4928    133.0058
  1056.0000     11.6175    314.9911      9.8690    125.2180
  1056.2500     12.2562    314.5190     10.2783    118.1065
  1056.5000     12.7232    314.0930     10.6924    107.6244
  1056.7500     12.9924    313.7414     11.0719    102.2543
  1057.0000     13.0678    313.4778     11.3764     97.7923
  1057.2500     12.9768    313.3068     11.5753     97.0911
  1057.5000     12.7590    313.2279     11.6546     98.6433
  1057.7500     12.4573    313.2410     11.6182    101.0236
  1058.0000     12.1106    313.3509     11.4835    105.9994
  1058.2500     11.7499    313.5636     11.2728    109.6598
  1058.5000     11.3962    313.8749     11.0074    114.5911
  1058.7500     11.0609    314.2603     10.7077    117.3961
  1059.0000     10.7481    314.6737     10.3961    121.7546
  1059.2500     10.4596    315.0550     10.0968    125.2406
  1059.5000     10.1997    315.3446      9.8314    130.9789
  1059.7500      9.9771    315.5000      9.6143    134.3556
  1060.0000      9.8034    315.5063      9.4519    137.3254
  1060.2500      9.6889    315.3776      9.3443    137.2735
  1060.5000      9.6395    315.1466      9.2881    133.7367
  1060.7500      9.6561    314.8481      9.2791    129.6028
  1061.0000      9.7367    314.5038      9.3145    122.8093
  1061.2500      9.8798    314.1192      9.3942    118.9105
  1061.5000     10.0856    313.6944      9.5214    114.2296
  1061.7500     10.3558    313.2388      9.7016    111.3979
  1062.0000     10.6916    312.7783      9.9384    106.9893
  1062.2500     11.0919    312.3503     10.2297    104.0778
  1062.5000     11.5534    311.9907     10.5640    100.4912
  1062.7500     12.0711    311.7265     10.9222     98.9500
  1063.0000     12.6418    311.5756     11.2851     97.8925
  1063.2500     13.2647    311.5481     11.6438     97.7210
  1063.5000     13.9414    311.6399     12.0049     97.5283
  1063.7500     14.6704    311.8214     12.3875     97.0132
  1064.0000     15.4392    312.0345     12.8142     95.1569
  1064.2500     16.2172    312.2046     13.3017     93.1465
  1064.5000     16.9557    312.2657     13.8521     89.4026
  1064.7500     17.5960    312.1867     14.4478     87.0595
  1065.0000     18.0868    311.9808     15.0498     85.3472
  1065.2500     18.4007    311.6882     15.6064     86.0997
  1065.5000     18.5449    311.3437     16.0708     89.9389
  1065.7500     18.5594    310.9567     16.4220     93.5570
  1066.0000     18.5051    310.5193     16.6731     99.2575
  1066.2500     18.4482    310.0258     16.8619    102.9277
  1066.5000     18.4468    309.4838     17.0297    108.2796
  1066.7500     18.5425    308.9144     17.2035    111.5924
  1067.0000     18.7586    308.3490     17.3908    115.1231
  1067.2500     19.1017    307.8222     17.5858    115.8564
  1067.5000     19.5690    307.3620     17.7800    114.5740
  1067.7500     20.1567    306.9852     17.9701    112.9681
  1068.0000     20.8677    306.6991     18.1606    110.9909
  1068.2500     21.7149    306.5018     18.3609    110.1129
  1068.5000     22.7162    306.3736     18.5839    108.2475
  1068.7500     23.8830    306.2728     18.8481    105.8091
  1069.0000     25.2074    306.1483     19.1804    100.2282
  1069.2500     26.6553    305.9664     19.6040     95.9999
  1069.5000     28.1686    305.7359     20.1106     90.6420
  1069.7500     29.6750    305.5095     20.6415     88.3330
  1070.0000     31.0977    305.3628     21.1070     86.4796
  1070.2500     32.3600    305.3664     21.4347     85.5524
  1070.5000     33.3804    305.5681     21.5922     83.3489
  1070.7500     34.0679    305.9823     21.5566     81.1052
  1071.0000     34.3241    306.5834     21.2806     77.0751
  1071.2500     34.0594    307.3159     20.7110     74.4975
  1071.5000     33.2196    308.1225     19.8443     71.7260
  1071.7500     31.8111    308.9686     18.7548     70.9129
  1072.0000     29.9125    309.8446     17.5660     71.1029
  1072.2500     27.6662    310.7495     16.3979     71.8921
  1072.5000     25.2519    311.6743     15.3326     73.9592
  1072.7500     22.8534    312.5960     14.4078     76.1500
  1073.0000     20.6271    313.4766     13.6304     80.9119
  1073.2500     18.6832    314.2637     12.9938     84.8779
  1073.5000     17.0796    314.8945     12.4866     91.3165
  1073.7500     15.8272    315.3101     12.0951     95.6773
  1074.0000     14.9028    315.4805     11.8029    102.7344
  1074.2500     14.2646    315.4218     11.5927    108.4408
  1074.5000     13.8649    315.1822     11.4500    119.0318
  1074.7500     13.6587    314.8087     11.3655    126.6831
  1075.0000     13.6086    314.3296     11.3359    136.3496
  1075.2500     13.6847    313.7692     11.3623    140.3075
  1075.5000     13.8657    313.1644     11.4465    142.2297
  1075.7500     14.1373    312.5588     11.5863    141.5488
  1076.0000     14.4919    311.9873     11.7734    139.0472
  1076.2500     14.9259    311.4796     11.9928    137.0275
  1076.5000     15.4339    311.0765     12.2212    134.1299
  1076.7500     16.0019    310.8309     12.4257    132.3154
  1077.0000     16.5993    310.7849     12.5649    129.0166
  1077.2500     17.1726    310.9469     12.5979    125.7564
  1077.5000     17.6460    311.2900     12.5019    118.6086
  1077.7500     17.9306    311.7637     12.2866    112.5910
  1078.0000     17.9440    312.3066     11.9907    103.4729
  1078.2500     17.6346    312.8596     11.6629     98.9368
  1078.5000     17.0007    313.3782     11.3399     96.6626
  1078.7500     16.0960    313.8391     11.0405     98.3708
  1079.0000     15.0164    314.2383     10.7727    104.5045
  1079.2500     13.8758    314.5846     10.5410    110.0730
  1079.5000     12.7779    314.8909     10.3479    119.4104
  1079.7500     11.7977    315.1655     10.1903    125.5226
  1080.0000     10.9748    315.4102     10.0597    133.0500
  1080.2500     10.3183    315.6311      9.9462    136.3277
  1080.5000      9.8194    315.8463      9.8450    138.4092
  1080.7500      9.4671    316.0833      9.7591    138.4544
  1081.0000      9.2620    316.3700      9.6995    138.2994
  1081.2500      9.2246    316.7329      9.6810    138.8077
  1081.5000      9.3941    317.1944      9.7179    139.6400
  1081.7500      9.8132    317.7617      9.8196    138.5961
  1082.0000     10.5041    318.4128      9.9875    132.2782
  1082.2500     11.4450    319.0955     10.2144    125.1475
  1082.5000     12.5589    319.7422     10.4851    113.4862
  1082.7500     13.7254    320.2896     10.7804    107.5258
  1083.0000     14.8123    320.6936     11.0825    103.4561
  1083.2500     15.7132    320.9406     11.3820    103.5593
  1083.5000     16.3747    321.0484     11.6812    105.8585
  1083.7500     16.8029    321.0550     11.9921    107.8045
  1084.0000     17.0496    321.0057     12.3282    110.3842
  1084.2500     17.1884    320.9442     12.6985    111.6655
  1084.5000     17.2931    320.9004     13.1048    113.3442
  1084.7500     17.4237    320.8762     13.5441    114.9471
  1085.0000     17.6216    320.8538     14.0115    118.8993
  1085.2500     17.9123    320.8232     14.5008    122.3501
  1085.5000     18.3110    320.8028     15.0032    127.3443
  1085.7500     18.8273    320.8278     15.5071    129.7153
