~Version Information
VERS.                      2.0: CWLS Log ASCII Standard - VERSION 2.0
WRAP.                       NO: One line per depth step
~Well Information Block
STRT.FT               845.0000: 
STOP.FT              2103.2000: 
STEP.FT                 0.1000: 
NULL.                -999.2500: 
COMP.          Petrogulf Corporation: COMPANY
WELL.               YWAM 7-32R: WELL
FLD.           Purgatorie River: FIELD
LOC.           2355' FNL & 2376' FEL: LOCATION
PROV.                 Colorado: PROVINCE
CNTY.               Las Animas: COUNTRY
SRVC.                Patterson: SERVICE COMPANY
DATE.          Thu Sep 29 23:12:08 2005: LOG DATE
UWI.                          : UNIQUE WELL ID
~Curve Information Block
DEPT.FT            0 000 00 00: Depth
SP.mV                         : DIL Spontaneous Potential
RILD.Ohm-m                    : DIL Deep Resistivity
RILM.Ohm-m                    : DIL Medium Resistivity
RLL3.Ohm-m                    : DIL Shallow Resistivity
GR.GAPI                       : Gamma Ray
~Parameter Information Block
~A  Depth        SP         RILD        RILM        RLL3         GR     
# ...
  1259.4000    168.0280     15.4312     16.6568     18.0901    101.7832
  1259.5000    168.1838     15.0220     15.9007     16.4115    104.5234
  1259.6000    168.1838     15.0220     15.9007     16.4115    107.3681
  1259.7000    168.1838     15.0220     15.9007     16.4115    110.2567
  1259.8000    168.3140     14.6267     15.2335     14.9767    113.1112
  1259.9000    168.3140     14.6267     15.2335     14.9767    115.8415
  1260.0000    168.4268     14.2438     14.6639     13.9708    118.3527
  1260.1000    168.4268     14.2438     14.6639     13.9708    120.5610
  1260.2000    168.4268     14.2438     14.6639     13.9708    122.4053
  1260.3000    168.5238     13.8730     14.1904     13.4558    123.8577
  1260.4000    168.5238     13.8730     14.1904     13.4558    124.9253
  1260.5000    168.6037     13.5143     13.8039     13.3751    125.6503
  1260.6000    168.6037     13.5143     13.8039     13.3751    126.1076
  1260.7000    168.6037     13.5143     13.8039     13.3751    126.3846
  1260.8000    168.6682     13.1675     13.4901     13.6024    126.5747
  1260.9000    168.6682     13.1675     13.4901     13.6024    126.7628
  1261.0000    168.7233     12.8332     13.2322     14.0029    127.0191
  1261.1000    168.7233     12.8332     13.2322     14.0029    127.3950
  1261.2000    168.7233     12.8332     13.2322     14.0029    127.9157
  1261.3000    168.7789     12.5137     13.0121     14.4727    128.5875
  1261.4000    168.7789     12.5137     13.0121     14.4727    129.3950
  1261.5000    168.8488     12.2120     12.8125     14.9394    130.3059
  1261.6000    168.8488     12.2120     12.8125     14.9394    131.2709
  1261.7000    168.8488     12.2120     12.8125     14.9394    132.2320
  1261.8000    168.9520     11.9298     12.6182     15.3377    133.1227
  1261.9000    168.9520     11.9298     12.6182     15.3377    133.8831
  1262.0000    169.1123     11.6645     12.4170     15.5860    134.4599
  1262.1000    169.1123     11.6645     12.4170     15.5860    134.8214
  1262.2000    169.1123     11.6645     12.4170     15.5860    134.9618
  1262.3000    169.3573     11.4093     12.2003     15.5928    134.9020
  1262.4000    169.3573     11.4093     12.2003     15.5928    134.6866
  1262.5000    169.7146     11.1558     11.9629     15.2978    134.3762
  1262.6000    169.7146     11.1558     11.9629     15.2978    134.0307
  1262.7000    169.7146     11.1558     11.9629     15.2978    133.7003
  1262.8000    170.2093     10.8979     11.7027     14.7235    133.4165
  1262.9000    170.2093     10.8979     11.7027     14.7235    133.1874
  1263.0000    170.8556     10.6335     11.4196     13.9836    133.0054
  1263.1000    170.8556     10.6335     11.4196     13.9836    132.8454
  1263.2000    170.8556     10.6335     11.4196     13.9836    132.6831
  1263.3000    171.6442     10.3640     11.1152     13.2263    132.4962
  1263.4000    171.6442     10.3640     11.1152     13.2263    132.2714
  1263.5000    172.5293     10.0913     10.7923     12.5495    132.0037
  1263.6000    172.5293     10.0913     10.7923     12.5495    131.6947
  1263.7000    172.5293     10.0913     10.7923     12.5495    131.3455
  1263.8000    173.4307      9.8168     10.4547     11.9679    130.9567
  1263.9000    173.4307      9.8168     10.4547     11.9679    130.5276
  1264.0000    174.2556      9.5410     10.1072     11.4578    130.0531
  1264.1000    174.2556      9.5410     10.1072     11.4578    129.5297
  1264.2000    174.2556      9.5410     10.1072     11.4578    128.9544
  1264.3000    174.9264      9.2655      9.7551     11.0178    128.3265
  1264.4000    174.9264      9.2655      9.7551     11.0178    127.6526
  1264.5000    175.3971      8.9934      9.4040     10.6684    126.9426
  1264.6000    175.3971      8.9934      9.4040     10.6684    126.2109
  1264.7000    175.3971      8.9934      9.4040     10.6684    125.4819
  1264.8000    175.6530      8.7283      9.0595     10.4027    124.7862
  1264.9000    175.6530      8.7283      9.0595     10.4027    124.1629
  1265.0000    175.7030      8.4725      8.7273     10.1642    123.6549
  1265.1000    175.7030      8.4725      8.7273     10.1642    123.3049
  1265.2000    175.7030      8.4725      8.7273     10.1642    123.1498
  1265.3000    175.5725      8.2270      8.4123      9.8859    123.2163
  1265.4000    175.5725      8.2270      8.4123      9.8859    123.5076
  1265.5000    175.2978      7.9925      8.1191      9.5482    124.0058
  1265.6000    175.2978      7.9925      8.1191      9.5482    124.6656
  1265.7000    175.2978      7.9925      8.1191      9.5482    125.4159
  1265.8000    174.9195      7.7712      7.8507      9.1953    126.1651
  1265.9000    174.9195      7.7712      7.8507      9.1953    126.8130
  1266.0000    174.4783      7.5666      7.6090      8.9009    127.2578
  1266.1000    174.4783      7.5666      7.6090      8.9009    127.4119
  1266.2000    174.4783      7.5666      7.6090      8.9009    127.2146
  1266.3000    174.0124      7.3820      7.3941      8.7160    126.6369
  1266.4000    174.0124      7.3820      7.3941      8.7160    125.6935
  1266.5000    173.5578      7.2191      7.2048      8.6412    124.4387
  1266.6000    173.5578      7.2191      7.2048      8.6412    122.9629
  1266.7000    173.5578      7.2191      7.2048      8.6412    121.3843
  1266.8000    173.1458      7.0769      7.0394      8.6333    119.8375
  1266.9000    173.1458      7.0769      7.0394      8.6333    118.4576
  1267.0000    172.8002      6.9532      6.8956      8.6333    117.3713
  1267.1000    172.8002      6.9532      6.8956      8.6333    116.6818
  1267.2000    172.8002      6.9532      6.8956      8.6333    116.4661
  1267.3000    172.5368      6.8458      6.7719      8.5958    116.7632
  1267.4000    172.5368      6.8458      6.7719      8.5958    117.5744
  1267.5000    172.3632      6.7540      6.6674      8.5066    118.8611
  1267.6000    172.3632      6.7540      6.6674      8.5066    120.5427
  1267.7000    172.3632      6.7540      6.6674      8.5066    122.5071
  1267.8000    172.2794      6.6782      6.5820      8.3867    124.6147
  1267.9000    172.2794      6.6782      6.5820      8.3867    126.7165
  1268.0000    172.2766      6.6194      6.5161      8.2770    128.6611
  1268.1000    172.2766      6.6194      6.5161      8.2770    130.3197
  1268.2000    172.2766      6.6194      6.5161      8.2770    131.5968
  1268.3000    172.3355      6.5781      6.4703      8.2172    132.4418
  1268.4000    172.3355      6.5781      6.4703      8.2172    132.8534
  1268.5000    172.4221      6.5537      6.4445      8.2300    132.8739
  1268.6000    172.4221      6.5537      6.4445      8.2300    132.5827
  1268.7000    172.4221      6.5537      6.4445      8.2300    132.0735
  1268.8000    172.4865      6.5444      6.4382      8.3165    131.4426
  1268.9000    172.4865      6.5444      6.4382      8.3165    130.7738
  1269.0000    172.4691      6.5471      6.4498      8.4559    130.1287
  1269.1000    172.4691      6.5471      6.4498      8.4559    129.5490
  1269.2000    172.4691      6.5471      6.4498      8.4559    129.0565
  1269.3000    172.3172      6.5586      6.4773      8.6117    128.6656
  1269.4000    172.3172      6.5586      6.4773      8.6117    128.3933
  1269.5000    172.0022      6.5756      6.5180      8.7508    128.2566
  1269.6000    172.0022      6.5756      6.5180      8.7508    128.2718
  1269.7000    172.0022      6.5756      6.5180      8.7508    128.4508
  1269.8000    171.5271      6.5950      6.5689      8.8623    128.7847
  1269.9000    171.5271      6.5950      6.5689      8.8623    129.2435
  1270.0000    170.9230      6.6143      6.6269      8.9549    129.7754
  1270.1000    170.9230      6.6143      6.6269      8.9549    130.3147
  1270.2000    170.9230      6.6143      6.6269      8.9549    130.7984
  1270.3000    170.2352      6.6314      6.6889      9.0366    131.1782
  1270.4000    170.2352      6.6314      6.6889      9.0366    131.4380
  1270.5000    169.5091      6.6451      6.7518      9.1008    131.5938
