~Version Information
 VERS.                                  2.0 : CWLS LAS VERSION
 WRAP.                                   NO : WRAPING MODE
 SWARE .                 MController 2.5.0N : SOFTWARE VERSION
~Well Information
 WELL.                        Cayenne 23-23 : WELL
 COMP.    Pioneer Natural Resources USA Inc : COMPANY
 FLD.                      Purgatoire River : FIELD
 LOC.                 NE/SW SEC23 T32S R66W : LOCATION
 DATE.                          08/16-17/05 : DATE(S) LOGGED
 SRVC.       Blanco Geological Services LLC : SERVICE COMPANY
 STAT.                             Colorado : STATE
 CNTY.                           Las Animas : COUNTY
 CTRY.                                  USA : COUNTRY
 API.                       05-071-08476-00 : API NUMBER
 STRT.FT                             901.00 : START DEPTH
 STOP.FT                            2365.00 : STOP DEPTH
 STEP.FT                               1.00 : DEPTH INCREMENT
 NULL.                                -9999 : NULL VALUE
~Curve information
 DEPTH.FT                                   :
 ROP.MIN/FT                                 :
 GAS.UNITS                                  :
~ASCII Log data
       901.0     -9999.00          4.2 
       902.0         0.37          4.3 
       903.0         0.13          3.4 
       904.0         0.33          4.0 
       905.0         0.23          3.4 
       906.0         0.13          3.6 
       907.0         0.25          3.3 
       908.0         0.10          2.9 
       909.0         0.13          2.9 
       910.0         0.23          3.2 
       911.0         0.10          2.8 
       912.0         0.40          3.0 
       913.0         0.07          2.6 
       914.0         0.27          3.0 
       915.0         0.90          2.5 
       916.0         0.13          0.4 
       917.0         0.13          0.1 
       918.0         0.28          0.1 
       919.0         0.40          0.3 
       920.0         0.17          0.7 
       921.0         0.17          0.5 
       922.0         0.17          0.5 
       923.0         0.13          0.9 
       924.0         0.13          0.8 
       925.0         0.23          1.1 
       926.0         0.20          1.2 
       927.0         1.28          0.7 
       928.0         0.13          1.1 
       929.0         0.07          0.8 
       930.0         0.10          0.8 
       931.0         0.27          3.3 
       932.0         0.20          3.3 
       933.0         0.27          3.0 
       934.0         0.27          2.9 
       935.0         0.23          2.8 
       936.0         0.20          1.9 
       937.0         0.27          1.9 
       938.0         0.22          2.2 
       939.0         0.17          2.3 
       940.0         0.20          2.4 
       941.0         0.20          2.4 
       942.0         0.20          2.6 
       943.0         0.20          2.8 
       944.0         0.20          3.0 
       945.0         0.27          3.3 
       946.0         0.27          3.3 
       947.0         0.23          3.1 
       948.0         0.27          3.7 
       949.0         0.30          3.7 
       950.0         0.30          3.9 
       951.0         0.28          4.3 
       952.0         0.33          3.8 
       953.0         0.33          4.3 
       954.0         0.33          4.4 
       955.0         0.33          4.0 
       956.0         2.08          4.6 
       957.0         0.27          4.5 
       958.0         0.33          4.4 
       959.0         0.27          4.1 
       960.0         0.27          4.0 
       961.0         0.27          3.8 
       962.0         0.20          3.9 
       963.0         0.33          3.8 
       964.0         0.28          3.9 
       965.0         0.27          3.9 
       966.0         0.27          4.9 
       967.0         0.30          6.4 
       968.0         0.27          5.5 
       969.0         0.27          4.7 
       970.0         0.33          4.4 
       971.0         0.33          4.3 
       972.0         0.33          4.4 
       973.0         0.33          4.4 
       974.0         0.27          4.2 
       975.0         0.28          4.3 
       976.0         0.33         10.3 
       977.0         0.30         31.5 
       978.0         0.33         65.5 
       979.0         0.27        106.2 
       980.0         0.40        188.2 
       981.0         0.33        292.7 
       982.0         0.27        434.0 
       983.0         0.33       1012.4 
       984.0         0.35        895.7 
       985.0         0.27        744.6 
       986.0         5.65        629.2 
       987.0         0.58        208.5 
       988.0         0.20        254.9 
       989.0         0.20        314.1 
       990.0         0.27       1456.5 
       991.0         0.27       2485.1 
       992.0         0.33       2566.7 
       993.0         0.27       1787.1 
       994.0         0.27       1168.0 
       995.0         0.27        837.1 
       996.0         0.18        701.1 
       997.0         0.20        646.6 
       998.0         0.20        595.1 
       999.0         0.20        576.7 
      1000.0         0.17        552.2 
      1001.0         0.17        539.0 
      1002.0         0.17        528.0 
      1003.0         0.20        518.4 
      1004.0         0.17        512.6 
      1005.0         0.23        509.0 
      1006.0         0.17        504.2 
      1007.0         0.20        499.3 
      1008.0         0.20        499.3 
      1009.0         0.17        497.7 
      1010.0         0.23        497.7 
      1011.0         0.20        496.4 
      1012.0         0.18        496.8 
      1013.0         0.17        494.8 
      1014.0         0.23        496.1 
      1015.0         0.30        496.1 
      1016.0         2.00        498.1 
      1017.0         0.65        221.1 
      1018.0         0.37        310.1 
      1019.0         0.37       1607.6 
      1020.0         0.27       1869.9 
      1021.0         0.20       1677.9 
      1022.0         0.20       1281.8 
      1023.0         0.20       1003.0 
      1024.0         0.20        826.4 
      1025.0         0.17        736.5 
      1026.0         0.17        685.3 
      1027.0         0.20        647.9 
      1028.0         0.17        624.1 
      1029.0         0.18        604.7 
      1030.0         0.13        584.4 
      1031.0         0.17        578.0 
      1032.0         0.17        567.3 
      1033.0         0.13        555.4 
      1034.0         0.17        550.3 
      1035.0         0.13        545.1 
      1036.0         0.13        541.9 
      1037.0         0.17        538.3 
      1038.0         0.13        534.1 
      1039.0         0.20        530.9 
      1040.0         0.23        525.4 
      1041.0         0.23        525.4 
      1042.0         0.20        530.0 
      1043.0         0.27        533.2 
      1044.0         0.20        533.2 
      1045.0         0.20        531.2 
      1046.0         2.05        530.9 
      1047.0         0.33        135.3 
      1048.0         0.17        170.4 
      1049.0         0.37        275.7 
      1050.0         0.30        484.8 
      1051.0         0.27       1941.2 
      1052.0         0.20       1983.1 
      1053.0         0.22       1718.2 
      1054.0         0.17       1325.0 
      1055.0         0.17       1081.7 
      1056.0         0.10        910.6 
      1057.0         0.13        812.9 
      1058.0         0.13        738.8 
      1059.0         0.17        698.2 
      1060.0         0.23        663.7 
      1061.0         0.17        608.9 
      1062.0         0.20        606.0 
      1063.0         0.17        606.0 
      1064.0         0.13        602.8 
      1065.0         0.23        599.6 
      1066.0         0.20        588.9 
      1067.0         0.17        581.8 
      1068.0         0.20        572.8 
      1069.0         0.20        561.9 
      1070.0         0.17        560.6 
      1071.0         0.17        559.3 
      1072.0         0.18        555.7 
      1073.0         0.20        551.9 
      1074.0         0.17        549.3 
      1075.0         0.97        546.7 
      1076.0         2.18        501.6 
      1077.0         0.43        369.8 
      1078.0         0.30       1596.0 
      1079.0         0.30       1832.9 
      1080.0         0.27       1712.4 
      1081.0         0.27       1260.2 
      1082.0         0.27        962.8 
      1083.0         0.27        801.6 
      1084.0         0.27        714.3 
      1085.0         0.30        661.1 
      1086.0         0.23        630.2 
      1087.0         0.28        610.2 
      1088.0         0.23        599.6 
      1089.0         0.27        589.3 
      1090.0         0.27        577.3 
      1091.0         0.23        572.8 
      1092.0         0.30        572.5 
      1093.0         0.23        576.4 
      1094.0         0.30        577.0 
      1095.0         0.23        573.5 
      1096.0         0.30        576.7 
      1097.0         0.27        576.4 
      1098.0         0.33        573.1 
      1099.0         0.32        576.4 
      1100.0         0.20        576.7 
