~Version Information
VERS.                      2.0: CWLS Log ASCII Standard - VERSION 2.0
WRAP.                       NO: One line per depth step
~Well Information Block
STRT.FT                -8.5000: 
STOP.FT              1263.2500: 
STEP.FT                 0.2500: 
NULL.                -999.2500: 
COMP.          Pioneer Natural Resources: COMPANY
WELL.          Rockfish 11-30 Tr: WELL
FLD.           Purgatoire River: FIELD
LOC.           1063' FNL & 1068' FWL--: LOCATION
STAT.                       CO: State
CNTY.               Las Animas: COUNTY
CTRY. USA : country
SECT. 30 : Section
TOWN. 32S : Township
RANG. 65W : Range
SRVC.          Patterson Wireline: SERVICE COMPANY
DATE.          Tue Nov 22 16:08:49 2005: LOG DATE
API.           05 071 08585 00: UNIQUE WELL ID
~Curve Information Block
DEPT.FT            0 000 00 00: Depth
HVOLTA.V                      : Head Voltage Apparent
CCL.                          : Casing Collar Locator
TT3.usec                      : CBL 3' Travel Time
AMP3.mV                       : CBL 3' Amplitude
GR.GAPI                       : Gamma Ray
~Parameter Information Block
PPT.usec                0.0000: Predicted Pipe Time
~A  Depth      HVOLTA       CCL         TT3         AMP3         GR     
# ...
   159.5000     96.1425      0.0000    890.1298     13.7553     71.3401
   159.7500     96.1342      0.0000    867.6548     13.6021     71.2319
   160.0000     96.2211      0.0000    881.2894     13.4386     72.3217
   160.2500     96.0808      0.0000    920.1041     13.2886     74.3621
   160.5000     96.1566      0.0000    964.0438     13.1546     75.8996
   160.7500     96.1917      0.0000    996.2322     13.0290     75.6762
   161.0000     96.0430      0.0000   1012.2216     12.9191     73.8560
   161.2500     96.1538      0.0000   1016.7903     12.8564     71.6178
   161.5000     96.1019      0.0000   1013.8267     12.8634     69.6846
   161.7500     96.0949      0.0000   1003.0580     12.9154     67.7995
   162.0000     96.2197      0.0000    984.9375     12.9581     65.5696
   162.2500     96.1272      0.0000    963.4588     12.9668     63.1001
   162.5000     96.2156      0.0000    942.6768     12.9740     60.6344
   162.7500     96.0430      0.0000    924.4275     13.0347     58.1686
   163.0000     96.1019      0.0000    911.7998     13.1749     55.7152
   163.2500     96.1075      0.0000    910.9447     13.3693     53.6720
   163.5000     96.1089      0.0000    925.1613     13.5610     52.7045
   163.7500     96.1875      0.0000    949.4160     13.7049     53.2972
   164.0000     96.0711      0.0000    973.3381     13.8000     55.3900
   164.2500     96.2478      0.0000    987.7187     13.8812     58.3389
   164.5000     96.1594      0.0000    987.6937     13.9798     61.1065
   164.7500     96.2689      0.0000    974.1833     14.0988     62.5721
   165.0000     96.1973      0.0000    954.4340     14.2283     62.0806
   165.2500     96.2183      0.0000    938.5460     14.3727     60.0670
   165.5000     96.1328      0.0000    933.4672     14.5465     57.9231
   165.7500     96.2422      0.0000    940.3533     14.7417     56.7869
   166.0000     96.1103      0.0000    955.5918     14.9118     56.4805
   166.2500     96.1917      0.0000    971.9598     15.0040     55.9795
   166.5000     96.3053      0.0000    980.8141     15.0058     54.8613
   166.7500     96.1931      0.0000    977.6268     14.9486     53.9801
   167.0000     96.2042      0.0000    965.8056     14.8673     54.7130
   167.2500     96.2731      0.0000    952.9813     14.7707     57.7418
   167.5000     96.1692      0.0000    943.2409     14.6547     62.6501
   167.7500     96.2787      0.0000    934.2018     14.5260     68.5273
   168.0000     96.1622      0.0000    921.4137     14.4041     74.4638
   168.2500     96.1538      0.0000    904.9398     14.3071     79.3683
   168.5000     96.1664      0.0000    891.3575     14.2412     82.1101
   168.7500     96.0977      0.0000    889.0283     14.1994     82.4971
   169.0000     96.1272      0.0000    901.9402     14.1721     81.7654
   169.2500     96.1356      0.0000    928.8720     14.1669     81.5873
   169.5000     96.1524      0.0000    966.6428     14.2136     82.5232
   169.7500     96.1342      0.0000   1010.5655     14.3319     83.5065
   170.0000     96.1819      0.0000   1052.4740     14.4902     82.9262
   170.2500     96.0669      0.0000   1083.2981     14.6123     80.3648
   170.5000     96.1931      0.0000   1099.7365     14.6337     77.2404
   170.7500     96.0599      0.0000   1105.5817     14.5424     75.6145
   171.0000     96.0711      0.0000   1105.0111     14.3637     76.4834
   171.2500     96.1608      0.0000   1098.1636     14.1228     79.2310
   171.5000     96.0655      0.0000   1086.0173     13.8340     82.2716
   171.7500     96.1286      0.0000   1076.1531     13.5174     83.9184
   172.0000     96.1314      0.0000   1078.4482     13.2124     83.1309
   172.2500     96.1777      0.0000   1095.0520     12.9714     80.0352
   172.5000     96.1903      0.0000   1117.9504     12.8350     75.7469
   172.7500     96.2114      0.0000   1136.5339     12.8072     71.5396
   173.0000     96.2872      0.0000   1144.8285     12.8534     68.2509
   173.2500     96.1636      0.0000   1141.9440     12.9297     66.3341
   173.5000     96.0752      0.0000   1129.5575     13.0122     65.8934
   173.7500     96.0669      0.0000   1110.9349     13.0943     66.3419
   174.0000     96.2787      0.0000   1090.1475     13.1639     66.3012
   174.2500     96.1188      0.0000   1069.4409     13.1979     64.3825
   174.5000     96.2142      0.0000   1047.6812     13.1853     60.4180
   174.7500     96.2576     -2.0000   1023.4070     13.1472     55.9082
   175.0000     96.0529      0.0000    999.9936     13.1241     52.9051
   175.2500     96.1244      0.0000    986.2083     13.1404     52.3654
   175.5000     96.4160      0.0000    989.3782     13.1828     53.7670
   175.7500     96.2436      0.0000   1006.9928     13.2154     55.9913
   176.0000     96.2142      0.0000   1026.0868     13.2110     57.9809
   176.2500     96.2183      0.0000   1032.9297     13.1696     58.7352
   176.5000     96.1566      0.0000   1023.9398     13.1140     57.5394
   176.7500     96.2225      0.0000   1006.5104     13.0721     54.6182
   177.0000     96.2225      0.0000    990.2037     13.0546     51.3354
   177.2500     96.2773      0.0000    979.1013     13.0469     49.3831
   177.5000     96.1369      0.0000    971.5251     13.0268     49.4930
   177.7500     96.1019      0.0000    964.1094     12.9864     50.8219
   178.0000     96.2197      0.0000    955.1362     12.9346     51.7027
   178.2500     96.0794      0.0000    945.3624     12.8831     51.2035
   178.5000     96.2464      0.0000    936.8135     12.8362     49.9369
   178.7500     96.1650      0.0000    930.9462     12.7905     49.3020
   179.0000     96.2478      0.0000    927.7774     12.7393     50.0985
   179.2500     96.2142      0.0000    926.3709     12.6758     51.9006
   179.5000     96.1439      0.0000    925.7461     12.5940     53.5078
   179.7500     96.1538      0.0000    925.3165     12.4905     53.9682
   180.0000     96.1314      0.0000    924.7704     12.3696     53.3596
   180.2500     96.1005      0.0000    923.7537     12.2466     52.5564
   180.5000     96.1230      0.0000    921.7762     12.1360     52.2095
   180.7500     96.1342      0.0000    918.5398     12.0354     52.1224
   181.0000     96.1805      0.0000    914.4754     11.9264     51.7073
   181.2500     96.0711      0.0000    910.8593     11.7964     50.9073
   181.5000     96.1356      0.0000    909.1623     11.6565     50.4543
   181.7500     95.9855      0.0000    910.0807     11.5321     50.9683
   182.0000     96.0416      0.0000    913.0532     11.4381     51.9136
   182.2500     96.0627      0.0000    916.6629     11.3666     51.9473
   182.5000     96.0711      0.0000    919.6026     11.2994     50.4440
   182.7500     96.2731      0.0000    921.3744     11.2270     48.2190
   183.0000     96.1019      0.0000    922.2259     11.1560     46.5939
   183.2500     96.0697      0.0000    922.6734     11.0998     46.2321
   183.5000     96.1608      0.0000    923.3631     11.0649     47.0753
   183.7500     96.2394      0.0000    925.5686     11.0500     48.8463
   184.0000     96.1314      0.0000    932.0989     11.0582     51.1427
   184.2500     96.0430      0.0000    947.5335     11.0984     53.4104
   184.5000     96.2156      0.0000    976.1409     11.1629     55.4177
   184.7500     96.1005      0.0000   1017.5654     11.2185     57.8198
   185.0000     96.3011      0.0000   1064.3657     11.2347     61.8535
   185.2500     96.1342      0.0000   1105.5879     11.2199     68.0919
   185.5000     96.1552      0.0000   1133.8834     11.2136     75.4293
   185.7500     96.0528      0.0000   1149.0156     11.2417     81.5315
   186.0000     96.0738      0.0000   1155.3198     11.2871     84.5238
   186.2500     96.2464      0.0000   1157.3656     11.3044     84.3167
   186.5000     96.2464      0.0000   1157.8826     11.2599     82.4080
   186.7500     96.1397      0.0000   1157.9844     11.1628     80.4407
   187.0000     96.1005      0.0000   1158.0000     11.0660     78.8870
   187.2500     96.1356      0.0000   1158.0000     11.0346     77.0830
