~Version Information
VERS.                      2.0: CWLS Log ASCII Standard - VERSION 2.0
WRAP.                       NO: One line per depth step
~Well Information Block
STRT.FT               655.0000: 
STOP.FT              2623.7500: 
STEP.FT                 0.2500: 
NULL.                -999.2500: 
COMP.          Pioneer Natural Resources: COMPANY
WELL.             Aviator 12-4: WELL
FLD.           Purgatoire River: FIELD
LOC.           1969' FNL & 732' FWL--: LOCATION
CNTY.               Las Animas: COUNTY
SRVC.                Patterson: SERVICE COMPANY
DATE.          Sun Apr 09 14:25:03 2006: LOG DATE
UWI.           05 071 08714 00: UNIQUE WELL ID
STAT.                 Colorado: STATE
~Curve Information Block
DEPT.FT            0 000 00 00: Depth
SN.Ohm-m                      : IEL Short Normal
SP.mV                         : IEL Spontaneous Potential
DIR.Ohm-m                     : IEL Induction Resistivity
GR.GAPI                       : Gamma Ray
~Parameter Information Block
~A  Depth        SN          SP         DIR          GR     
# ...
  1693.5000     28.1032    -25.0354     22.6402    105.9037
  1693.7500     26.3834    -23.4823     21.3046    113.3207
  1694.0000     24.8590    -21.9426     20.0743    123.8224
  1694.2500     23.5119    -20.5154     19.0018    130.0955
  1694.5000     22.2897    -19.2825     18.0965    137.8789
  1694.7500     21.1630    -18.2921     17.3450    141.4867
  1695.0000     20.1535    -17.5520     16.7284    143.7052
  1695.2500     19.3208    -17.0332     16.2338    143.0999
  1695.5000     18.7289    -16.6814     15.8574    140.3749
  1695.7500     18.4119    -16.4330     15.5997    138.3860
  1696.0000     18.3443    -16.2282     15.4579    136.1446
  1696.2500     18.4415    -16.0203     15.4192    134.8917
  1696.5000     18.5937    -15.7788     15.4589    131.8669
  1696.7500     18.6996    -15.4874     15.5443    128.3096
  1697.0000     18.7046    -15.1409     15.6440    121.0629
  1697.2500     18.6429    -14.7407     15.7392    116.3626
  1697.5000     18.6250    -14.2913     15.8318    112.4131
  1697.7500     18.7608    -13.7989     15.9431    112.6988
  1698.0000     19.0808    -13.2703     16.1027    116.5360
  1698.2500     19.5284    -12.7125     16.3326    119.7324
  1698.5000     20.0080    -12.1333     16.6370    122.6158
  1698.7500     20.4295    -11.5414     17.0020    122.4575
  1699.0000     20.7507    -10.9473     17.4061    119.5790
  1699.2500     21.0064    -10.3637     17.8324    116.7223
  1699.5000     21.2783     -9.8053     18.2745    112.2533
  1699.7500     21.6147     -9.2893     18.7300    109.5378
  1700.0000     21.9762     -8.8340     19.1906    106.0686
  1700.2500     22.2675     -8.4570     19.6367    104.1489
  1700.5000     22.4354     -8.1733     20.0451    101.9076
  1700.7500     22.5424     -7.9922     20.4065    101.0363
  1701.0000     22.7525     -7.9151     20.7382    101.1908
  1701.2500     23.2405     -7.9337     21.0802    102.4832
  1701.5000     24.0695     -8.0289     21.4759    106.1971
  1701.7500     25.1272     -8.1726     21.9508    109.5515
  1702.0000     26.1967     -8.3311     22.5029    114.4616
  1702.2500     27.1077     -8.4719     23.1100    116.2787
  1702.5000     27.8246     -8.5711     23.7477    114.9012
  1702.7500     28.4310     -8.6203     24.4081    111.2831
  1703.0000     29.0882     -8.6296     25.1085    103.8124
  1703.2500     30.0009     -8.6250     25.8830     98.9582
  1703.5000     31.3332     -8.6404     26.7627     93.7867
  1703.7500     33.0977     -8.7054     27.7501     92.3242
  1704.0000     35.1052     -8.8351     28.7965     92.9794
  1704.2500     37.0053     -9.0235     29.7916     94.5620
  1704.5000     38.4047     -9.2451     30.5751     96.8863
  1704.7500     39.0150     -9.4626     30.9820     97.6787
  1705.0000     38.7719     -9.6378     30.9123     97.3651
  1705.2500     37.8760     -9.7419     30.3872     96.2400
  1705.5000     36.6933     -9.7616     29.5489     93.7011
  1705.7500     35.5363     -9.6994     28.5956     92.1425
  1706.0000     34.5054     -9.5701     27.6963     91.7203
  1706.2500     33.5241     -9.3940     26.9348     93.4232
  1706.5000     32.4659     -9.1912     26.3016     98.4652
  1706.7500     31.2360     -8.9770     25.7247    102.1551
  1707.0000     29.8037     -8.7612     25.1243    105.6614
  1707.2500     28.2292     -8.5484     24.4642    106.1803
  1707.5000     26.6778     -8.3413     23.7728    105.7675
  1707.7500     25.3842     -8.1430     23.1240    106.1067
  1708.0000     24.5428     -7.9593     22.5978    108.7471
  1708.2500     24.1993     -7.7997     22.2497    111.6559
  1708.5000     24.2609     -7.6767     22.0999    116.6935
  1708.7500     24.5862     -7.6037     22.1379    120.0751
  1709.0000     25.0491     -7.5923     22.3311    124.4753
  1709.2500     25.5645     -7.6500     22.6339    126.2236
  1709.5000     26.0948     -7.7780     22.9992    125.5487
  1709.7500     26.6519     -7.9710     23.3936    122.3458
  1710.0000     27.2833     -8.2174     23.8104    113.5065
  1710.2500     28.0439     -8.5017     24.2725    105.6319
  1710.5000     28.9726     -8.8059     24.8210     93.1216
  1710.7500     30.0864     -9.1122     25.4993     86.0055
  1711.0000     31.3920     -9.4049     26.3349     79.6076
  1711.2500     32.8541     -9.6710     27.3233     78.6890
  1711.5000     34.3212     -9.9011     28.4074     81.0704
  1711.7500     35.5382    -10.0884     29.4647     83.6402
  1712.0000     36.2686    -10.2284     30.3197     86.7065
  1712.2500     36.4035    -10.3176     30.7972     87.7568
  1712.5000     35.9836    -10.3531     30.7944     88.3128
  1712.7500     35.1498    -10.3324     30.3179     88.4930
  1713.0000     34.0543    -10.2535     29.4537     89.0531
  1713.2500     32.7791    -10.1153     28.3098     89.8264
  1713.5000     31.3344     -9.9183     26.9850     91.8881
  1713.7500     29.7342     -9.6644     25.5678     93.8820
  1714.0000     28.0368     -9.3571     24.1341     97.3072
  1714.2500     26.3215     -9.0013     22.7359     99.4809
  1714.5000     24.6658     -8.6036     21.3916    102.5655
  1714.7500     23.1223     -8.1723     20.0938    105.0832
  1715.0000     21.7099     -7.7180     18.8285    110.6343
  1715.2500     20.4323     -7.2530     17.5951    115.4020
  1715.5000     19.2792     -6.7908     16.4128    122.3035
  1715.7500     18.2252     -6.3445     15.3139    125.4782
  1716.0000     17.2521     -5.9253     14.3292    127.6034
  1716.2500     16.3691     -5.5407     13.4749    128.1889
  1716.5000     15.5973     -5.1940     12.7497    130.0572
  1716.7500     14.9399     -4.8847     12.1371    132.6967
  1717.0000     14.3813     -4.6095     11.6134    138.4306
  1717.2500     13.8975     -4.3642     11.1538    142.5809
  1717.5000     13.4585     -4.1455     10.7377    147.4937
  1717.7500     13.0408     -3.9521     10.3501    149.1443
  1718.0000     12.6489     -3.7854      9.9808    149.2005
  1718.2500     12.3049     -3.6491      9.6246    148.4513
  1718.5000     12.0110     -3.5484      9.2817    148.2432
  1718.7500     11.7536     -3.4887      8.9588    149.7377
  1719.0000     11.5345     -3.4747      8.6697    154.9803
  1719.2500     11.3713     -3.5087      8.4310    159.9208
  1719.5000     11.2787     -3.5909      8.2573    167.3519
  1719.7500     11.2534     -3.7184      8.1559    170.8703
  1720.0000     11.2556     -3.8855      8.1242    172.2586
  1720.2500     11.1968     -4.0841      8.1502    170.3054
  1720.5000     10.9685     -4.3035      8.2146    163.7223
  1720.7500     10.5185     -4.5319      8.2954    157.7364
  1721.0000      9.9126     -4.7563      8.3734    148.0606
  1721.2500      9.3124     -4.9642      8.4376    142.0976
  1721.5000      8.8952     -5.1445      8.4872    135.5820
  1721.7500      8.7850     -5.2892      8.5297    133.9238
  1722.0000      9.0175     -5.3934      8.5734    136.4727
  1722.2500      9.5320     -5.4564      8.6211    140.9508
  1722.5000     10.1909     -5.4808      8.6660    149.0806
  1722.7500     10.8181     -5.4720      8.6941    153.7504
  1723.0000     11.2686     -5.4366      8.6907    158.0132
  1723.2500     11.4957     -5.3818      8.6482    158.8928
  1723.5000     11.5392     -5.3146      8.5714    157.8529
  1723.7500     11.4511     -5.2411      8.4756    155.9413
  1724.0000     11.2786     -5.1667      8.3823    151.0908
  1724.2500     11.1059     -5.0965      8.3128    146.1210
  1724.5000     11.0448     -5.0359      8.2855    136.1778
  1724.7500     11.1744     -4.9908      8.3144    128.9567
  1725.0000     11.5043     -4.9680      8.4101    119.9215
  1725.2500     11.9825     -4.9757      8.5808    116.1699
  1725.5000     12.5276     -5.0222      8.8316    114.0569
  1725.7500     13.0710     -5.1157      9.1640    114.3262
  1726.0000     13.5902     -5.2631      9.5745    115.6373
  1726.2500     14.0974     -5.4681     10.0562    116.0929
  1726.5000     14.6049     -5.7302     10.6028    114.8429
  1726.7500     15.1270     -6.0438     11.2131    112.7745
