~Version Information
VERS.                      2.0: CWLS Log ASCII Standard - VERSION 2.0
WRAP.                       NO: One line per depth step
~Well Information Block
STRT.FT               240.0000: 
STOP.FT               902.0000: 
STEP.FT                 0.1000: 
NULL.                -999.2500: 
COMP.          Pioneer Natural Resources: COMPANY
WELL.          Bienville 31-28: WELL
FLD.           Purgatoire River: FIELD
LOC.           1212' FNL & 2271' FEL: LOCATION
PROV.                 Colorado: PROVINCE
CNTY.               Las Animas: COUNTRY
SRVC.                Patterson: SERVICE COMPANY
DATE.          Mon Jan 16 13:39:21 2006: LOG DATE
UWI.           05 071 08666 00: UNIQUE WELL ID
~Curve Information Block
DEPT.FT            0 000 00 00: Depth
DCAL.in                       : CDL Caliper
RHOB.g/cc                     : CDL Bulk Density
RHOC.g/cc                     : CDL Density Correction
DPOR.pu                       : CDL Density Porosity
GR.GAPI                       : Gamma Ray
NPOR.pu                       : Neutron Porosity
~Parameter Information Block
~A  Depth       DCAL        RHOB        RHOC        DPOR         GR         NPOR    
# ...
   278.4000      7.8787      2.5412      0.0164      6.5936    106.5380     23.4692
   278.5000      7.8633      2.5356      0.0475      6.9363    108.6898     23.6075
   278.6000      7.8633      2.5294      0.0283      7.3062    109.2996     23.3807
   278.7000      7.8633      2.5202     -0.0455      7.8678    107.0855     22.6078
   278.8000      7.8813      2.5187      0.0081      7.9555    105.2451     22.0798
   278.9000      7.8813      2.5241      0.0376      7.6312    102.5449     22.0666
   279.0000      7.8899      2.5246      0.0709      7.6027     98.1728     22.0833
   279.1000      7.8899      2.5205      0.0309      7.8479     96.3256     22.0192
   279.2000      7.8899      2.5189      0.0744      7.9471     98.8973     22.1645
   279.3000      7.9088      2.5160      0.0709      8.1231    104.7849     22.4648
   279.4000      7.9088      2.5051      0.0754      8.7800    110.8338     22.5125
   279.5000      7.8718      2.4869      0.0634      9.8856    113.2471     21.9849
   279.6000      7.8718      2.4748      0.0518     10.6198    111.9263     21.1801
   279.7000      7.8718      2.4861      0.0828      9.9354    109.4315     20.6593
   279.8000      7.8852      2.5133      0.1202      8.2820    106.5543     20.6437
   279.9000      7.8852      2.5240      0.1306      7.6364    104.1290     21.1919
   280.0000      7.8852      2.5069      0.0944      8.6719    102.5171     21.9193
   280.1000      7.8852      2.4856      0.0951      9.9619     99.7953     22.0328
   280.2000      7.8852      2.4819      0.0689     10.1854     96.3254     21.3723
   280.3000      7.8861      2.4937      0.1344      9.4743     94.7621     20.5915
   280.4000      7.8861      2.4964      0.1198      9.3063     94.5206     20.3201
   280.5000      7.8910      2.4775      0.0927     10.4566     91.0046     20.3834
   280.6000      7.8910      2.4600      0.0225     11.5161     83.7061     20.0149
   280.7000      7.8910      2.4714      0.0789     10.8258     78.2422     19.1020
   280.8000      7.9097      2.5036      0.1155      8.8756     78.5957     18.4606
   280.9000      7.9097      2.5277      0.1515      7.4113     85.4542     18.5001
   281.0000      7.9081      2.5297      0.1497      7.2932     93.7165     18.9004
   281.1000      7.9081      2.5211      0.0959      7.8107     95.1158     19.2175
   281.2000      7.9081      2.5119      0.1200      8.3679     90.1856     19.3135
   281.3000      7.9084      2.4884      0.1482      9.7938     86.2839     19.3065
   281.4000      7.9084      2.4492      0.0753     12.1680     83.3522     19.4342
   281.5000      7.9026      2.4237     -0.0168     13.7142     78.5852     19.8549
   281.6000      7.9026      2.4287      0.0717     13.4133     77.2175     20.1016
   281.7000      7.9026      2.4419      0.0413     12.6121     78.9960     19.6336
   281.8000      7.9033      2.4387      0.0686     12.8057     76.6662     18.9488
   281.9000      7.9033      2.4263      0.0391     13.5600     71.9728     18.8036
   282.0000      7.9081      2.4272      0.0238     13.5057     71.6102     18.9493
   282.1000      7.9081      2.4332      0.1688     13.1377     75.8601     18.8793
   282.2000      7.9081      2.4273      0.0853     13.4999     79.1160     18.5849
   282.3000      7.9096      2.4244      0.1241     13.6698     77.2906     18.3027
   282.4000      7.9096      2.4285      0.1485     13.4243     73.9795     18.2805
   282.5000      7.9020      2.4255      0.1077     13.6053     74.8745     18.4063
   282.6000      7.9020      2.4152      0.0560     14.2312     77.6389     18.2575
   282.7000      7.9020      2.4079      0.0253     14.6734     77.2056     17.7129
   282.8000      7.9129      2.4188      0.0430     14.0119     75.0787     17.2061
   282.9000      7.9129      2.4455      0.0918     12.3925     73.7739     17.2133
   283.0000      7.9049      2.4710      0.0862     10.8500     72.1073     17.7216
   283.1000      7.9049      2.4914      0.1228      9.6105     70.6039     18.2110
   283.2000      7.9049      2.5072      0.1335      8.6554     70.7914     18.3591
   283.3000      7.9101      2.5054      0.1498      8.7644     70.9930     18.4507
   283.4000      7.9101      2.4742      0.1344     10.6523     68.5485     18.5957
   283.5000      7.8963      2.4299      0.0547     13.3389     64.4987     18.4720
   283.6000      7.8963      2.4029      0.0418     14.9738     62.2684     18.0105
   283.7000      7.8963      2.3946      0.1013     15.4766     63.1218     17.4531
   283.8000      7.9003      2.3879      0.0436     15.8863     64.5586     17.1120
   283.9000      7.9003      2.3863      0.0369     15.9800     64.5164     17.2129
   284.0000      7.9032      2.3991      0.0711     15.2069     63.2503     17.6443
   284.1000      7.9032      2.4146      0.1410     14.2681     59.6358     18.1323
   284.2000      7.9032      2.4172      0.0943     14.1100     54.5621     18.4892
   284.3000      7.9348      2.4113      0.0602     14.4669     52.5539     18.5351
   284.4000      7.9348      2.4132      0.0004     14.3514     54.4472     18.4326
   284.5000      7.9040      2.4280      0.0589     13.4529     57.2666     18.4918
   284.6000      7.9040      2.4411      0.1198     12.6597     59.2569     18.5686
   284.7000      7.9040      2.4395      0.0639     12.7582     61.5544     18.5179
   284.8000      7.9145      2.4343      0.0578     13.0730     64.5886     18.4300
   284.9000      7.9145      2.4433      0.0857     12.5301     65.9889     18.4018
   285.0000      7.9090      2.4627      0.0977     11.3511     65.0686     18.3411
   285.1000      7.9090      2.4744      0.1316     10.6446     64.5384     18.1052
   285.2000      7.9090      2.4680      0.0853     11.0308     64.6289     17.8744
   285.3000      7.9140      2.4490      0.0557     12.1844     62.6675     17.9048
   285.4000      7.9140      2.4304      0.0902     13.3096     59.7131     18.0496
   285.5000      7.9014      2.4217      0.0838     13.8333     59.7095     18.0906
   285.6000      7.9014      2.4266      0.0915     13.5372     61.5938     18.1361
   285.7000      7.9014      2.4392      0.1164     12.7781     62.9969     18.3483
   285.8000      7.9118      2.4524      0.0911     11.9762     64.5070     18.7961
   285.9000      7.9118      2.4716      0.1076     10.8097     64.6348     19.2299
   286.0000      7.8642      2.5032      0.1181      8.8964     62.7361     19.3382
   286.1000      7.8642      2.5340      0.1719      7.0285     62.0210     19.2125
   286.2000      7.8642      2.5399      0.1530      6.6749     64.9622     19.1403
   286.3000      7.8637      2.5185      0.1228      7.9687     69.0500     19.2574
   286.4000      7.8637      2.4918      0.1127      9.5862     71.9677     19.2495
   286.5000      7.8728      2.4829      0.0474     10.1290     77.5187     18.8593
   286.6000      7.8728      2.4928      0.1033      9.5259     85.3916     18.5790
   286.7000      7.8728      2.4974      0.1007      9.2504     88.9031     18.7574
   286.8000      7.8610      2.4873      0.0298      9.8634     86.1458     19.2395
   286.9000      7.8610      2.4750      0.0358     10.6069     81.7685     19.9155
   287.0000      7.9082      2.4677      0.0298     11.0514     79.3631     20.5115
   287.1000      7.9082      2.4668      0.0174     11.1007     78.0724     20.9132
   287.2000      7.9082      2.4698      0.0176     10.9206     78.4798     21.5117
   287.3000      7.9440      2.4766      0.0493     10.5117     80.9105     22.3832
   287.4000      7.9440      2.4958      0.0236      9.3455     83.7651     23.1388
   287.5000      7.9598      2.5221      0.0796      7.7511     86.5696     23.7603
   287.6000      7.9598      2.5314      0.0780      7.1896     89.1837     24.6839
   287.7000      7.9598      2.5166      0.0174      8.0825     92.6203     25.8453
   287.8000      7.9525      2.4955      0.0672      9.3609     98.4335     26.4530
   287.9000      7.9525      2.4828     -0.0021     10.1312    106.7451     26.3164
