~Version Information
VERS.                      2.0: CWLS Log ASCII Standard - VERSION 2.0
WRAP.                       NO: One line per depth step
~Well Information Block
STRT.FT               380.0000: 
STOP.FT              1887.5000: 
STEP.FT                 0.1000: 
NULL.                -999.2500: 
COMP.          Pioneer Natural Resources: COMPANY
WELL.          Cortina 23-25 Tr: WELL
FLD.           Purgatoire River: FIELD
LOC.           2521' FSL & 2345' FWL: LOCATION
STAT.                 Colorado: State
CNTY.               Las Animas: COUNTY
CTRY. USA : Country
SECT. 25 : Section
TOWN. 32S : Township
RANG. 67W : Range
SRVC.                Patterson: SERVICE COMPANY
DATE.          Mon Sep 26 06:09:01 2005: LOG DATE
API.           05 071 08534 00: UNIQUE WELL ID
~Curve Information Block
DEPT.FT            0 000 00 00: Depth
DCAL.in                       : CDL Caliper
RHOB.g/cc                     : CDL Bulk Density
RHOC.g/cc                     : CDL Density Correction
DPOR.pu                       : CDL Density Porosity
GR.GAPI                       : Gamma Ray
NPOR.pu                       : Neutron Porosity
~Parameter Information Block
~A  Depth       DCAL        RHOB        RHOC        DPOR         GR         NPOR    
# ...
   879.2000      7.8789      2.5898      0.0278      3.6508    128.4345     25.7482
   879.3000      7.8840      2.5888      0.0577      3.7076    128.3468     25.7005
   879.4000      7.8893      2.5624      0.0531      5.3066    135.2754     25.6413
   879.5000      7.8947      2.5426     -0.0228      6.5114    142.5770     25.8631
   879.6000      7.8997      2.5534      0.0233      5.8564    145.8150     26.2437
   879.7000      7.9041      2.5736      0.0494      4.6315    145.6187     26.6928
   879.8000      7.9075      2.5749      0.0754      4.5499    142.3926     27.0820
   879.9000      7.9097      2.5649      0.0627      5.1573    138.2668     26.9897
   880.0000      7.9108      2.5679      0.0282      4.9736    136.0811     26.5554
   880.1000      7.9109      2.5852      0.0689      3.9276    134.3612     26.2521
   880.2000      7.9103      2.5848      0.1252      3.9525    131.3864     26.1124
   880.3000      7.9097      2.5542      0.0175      5.8074    128.5816     26.0929
   880.4000      7.9097      2.5314     -0.0088      7.1891    128.4831     26.2610
   880.5000      7.9110      2.5335      0.0358      7.0576    131.5816     26.5016
   880.6000      7.9145      2.5252      0.0351      7.5635    136.7519     26.6619
   880.7000      7.9208      2.4951     -0.0360      9.3895    142.5858     26.7630
   880.8000      7.9304      2.4748      0.0149     10.6209    146.7827     26.8237
   880.9000      7.9431      2.4722      0.0229     10.7737    145.8077     26.7806
   881.0000      7.9587      2.4678      0.0300     11.0402    140.3126     26.5887
   881.1000      7.9763      2.4627      0.0057     11.3510    136.1952     26.3200
   881.2000      7.9949      2.4818      0.0070     10.1948    133.6430     26.1903
   881.3000      8.0131      2.5383      0.0703      6.7706    129.8568     26.4148
   881.4000      8.0295      2.6173      0.1668      1.9793    124.3593     26.8184
   881.5000      8.0430      2.6891      0.2386     -2.3722    119.4364     26.8576
   881.6000      8.0526      2.7359      0.2551     -5.2087    116.1040     26.4229
   881.7000      8.0576      2.7512      0.2993     -6.1322    112.6321     26.1277
   881.8000      8.0580      2.7305      0.2146     -4.8790    112.7889     26.4153
   881.9000      8.0540      2.6922      0.1278     -2.5568    115.8958     26.7484
   882.0000      8.0463      2.6620      0.0867     -0.7300    115.7497     26.6814
   882.1000      8.0357      2.6476      0.1066      0.1444    113.5676     26.5355
   882.2000      8.0233      2.6481      0.0578      0.1130    111.2711     26.4438
   882.3000      8.0102      2.6566      0.0598     -0.4012    110.0865     26.2208
   882.4000      7.9974      2.6547      0.0798     -0.2878    115.3560     25.7546
   882.5000      7.9856      2.6283      0.1390      1.3132    125.6680     25.0299
   882.6000      7.9756      2.5841      0.1074      3.9916    131.7186     24.4666
   882.7000      7.9678      2.5499      0.0041      6.0661    131.7921     24.6156
   882.8000      7.9624      2.5481      0.0406      6.1732    127.9436     25.1537
   882.9000      7.9593      2.5697      0.0455      4.8669    119.9466     25.4413
   883.0000      7.9584      2.5884      0.0387      3.7320    112.5333     25.3958
   883.1000      7.9592      2.5929     -0.0026      3.4591    112.6323     25.1462
   883.2000      7.9611      2.5963      0.0395      3.2545    118.0472     24.9803
   883.3000      7.9636      2.6112      0.0705      2.3517    122.2645     25.0803
   883.4000      7.9659      2.6297      0.1325      1.2328    127.3433     25.4834
   883.5000      7.9674      2.6336      0.1447      0.9910    131.9760     26.0328
   883.6000      7.9677      2.6226      0.0672      1.6628    130.4571     26.1121
   883.7000      7.9667      2.6069      0.1604      2.6106    127.5144     25.3047
   883.8000      7.9644      2.5838      0.1372      4.0125    130.2283     24.2937
   883.9000      7.9610      2.5534      0.0425      5.8559    134.8916     24.0999
   884.0000      7.9572      2.5259      0.0407      7.5187    135.8938     24.6724
   884.1000      7.9533      2.5096      0.0077      8.5112    135.7180     25.2751
   884.2000      7.9499      2.5109      0.0404      8.4315    136.6647     25.5672
   884.3000      7.9474      2.5228      0.0617      7.7110    138.8942     25.6132
   884.4000      7.9462      2.5289      0.0337      7.3368    142.1191     25.4178
   884.5000      7.9462      2.5268      0.0713      7.4675    144.7787     25.1006
   884.6000      7.9475      2.5263      0.0278      7.4941    145.7336     24.8861
   884.7000      7.9498      2.5404      0.0676      6.6441    143.8052     24.6895
   884.8000      7.9528      2.5659      0.0663      5.0960    138.1134     24.3913
   884.9000      7.9563      2.5875      0.0674      3.7858    130.5675     24.2464
   885.0000      7.9601      2.5971      0.0595      3.2045    123.5212     24.5360
   885.1000      7.9639      2.5962      0.1121      3.2634    120.9597     25.1625
   885.2000      7.9677      2.5924      0.0922      3.4909    123.8222     25.7304
   885.3000      7.9716      2.5923      0.1001      3.4995    122.6966     25.8332
   885.4000      7.9758      2.5923      0.0848      3.4983    112.4458     25.4376
   885.5000      7.9805      2.5882      0.0651      3.7441    102.0613     24.9663
   885.6000      7.9857      2.5790      0.0817      4.3049     98.5789     24.7527
   885.7000      7.9917      2.5671      0.0697      5.0215     99.8359     24.8288
   885.8000      7.9982      2.5649      0.0284      5.1599    103.0747     25.1212
   885.9000      8.0048      2.5791      0.0694      4.2999    106.7298     25.3425
   886.0000      8.0112      2.6016      0.0788      2.9330    109.5335     25.2204
   886.1000      8.0165      2.6292      0.1121      1.2606    111.8499     24.8474
   886.2000      8.0203      2.6622      0.1562     -0.7378    113.0688     24.4348
   886.3000      8.0220      2.6920      0.2040     -2.5478    110.6729     24.2388
   886.4000      8.0212      2.7041      0.2121     -3.2761    104.4748     24.3221
   886.5000      8.0178      2.6862      0.1757     -2.1941     96.7934     24.3356
   886.6000      8.0119      2.6452      0.1231      0.2923     91.3200     24.1207
   886.7000      8.0041      2.6073      0.0656      2.5850     90.4106     23.9393
   886.8000      7.9948      2.5958      0.0239      3.2849     90.0860     23.9496
   886.9000      7.9847      2.6074      0.0761      2.5843     87.4086     24.0106
   887.0000      7.9745      2.6191      0.0919      1.8722     85.9895     23.9722
   887.1000      7.9646      2.6195      0.0648      1.8476     89.6557     23.7975
   887.2000      7.9556      2.6141      0.0304      2.1785     96.5723     23.4718
   887.3000      7.9476      2.6084      0.0602      2.5189    100.7692     22.9234
   887.4000      7.9408      2.6034      0.0705      2.8232    100.7445     22.0989
   887.5000      7.9351      2.6002      0.0146      3.0166     99.5143     21.3336
   887.6000      7.9306      2.5957      0.0592      3.2902     97.1083     20.9936
   887.7000      7.9270      2.5824      0.0375      4.0985     91.7370     20.9899
   887.8000      7.9243      2.5645      0.0484      5.1799     85.8809     21.1233
   887.9000      7.9223      2.5514      0.0773      5.9745     84.9765     21.3260
   888.0000      7.9210      2.5408      0.0558      6.6193     89.3331     21.6007
   888.1000      7.9203      2.5300      0.0040      7.2744     92.7341     22.0100
   888.2000      7.9201      2.5311     -0.0118      7.2043     92.1879     22.3726
   888.3000      7.9202      2.5507      0.0620      6.0197     90.3531     22.3476
   888.4000      7.9205      2.5677      0.0778      4.9876     86.5683     21.8824
   888.5000      7.9208      2.5633      0.0465      5.2557     79.5657     21.2722
   888.6000      7.9210      2.5525      0.0412      5.9113     73.5615     20.9487
   888.7000      7.9210      2.5619      0.0293      5.3372     72.7318     21.0251
