~Version Information
VERS.                      2.0: CWLS Log ASCII Standard - VERSION 2.0
WRAP.                       NO: One line per depth step
~Well Information Block
STRT.FT                -7.5000: 
STOP.FT               988.5000: 
STEP.FT                 0.2500: 
NULL.                -999.2500: 
COMP.          Pioneer Natural Resources: COMPANY
WELL.          Stags Leap 13-30: WELL
FLD.           Purgatorie River: FIELD
LOC.           1813' FSL & 117' FWL--: LOCATION
PROV.                       CO: PROVINCE
CNTY.               Las Animas: COUNTRY
SRVC.          Patterson Wireline: SERVICE COMPANY
DATE.          Tue Dec 13 11:29:26 2005: LOG DATE
UWI.           05 071 08595 00: UNIQUE WELL ID
~Curve Information Block
DEPT.FT            0 000 00 00: Depth
CCL.                          : Casing Collar Locator
TT3.usec                      : CBL 3' Travel Time
AMP3.mV                       : CBL 3' Amplitude
GR.GAPI                       : Gamma Ray
~Parameter Information Block
~A  Depth       CCL         TT3         AMP3         GR     
# ...
   495.0000      0.0000    739.5339      9.3718    135.7500
   495.2500      0.0000    736.9858      9.4141    134.1330
   495.5000      0.0000    733.9562      9.4720    134.1855
   495.7500      0.0000    731.4465      9.4925    135.3093
   496.0000      0.0000    730.1837      9.4236    135.9698
   496.2500      0.0000    730.3666      9.2641    135.1622
   496.5000      0.0000    731.9720      9.0695    132.9765
   496.7500      0.0000    734.7597      8.9060    130.2786
   497.0000      0.0000    737.9867      8.8045    128.1632
   497.2500      0.0000    740.6848      8.7575    127.8613
   497.5000      0.0000    742.3476      8.7498    131.0055
   497.7500      0.0000    743.1254      8.7824    138.8168
   498.0000      0.0000    743.4401      8.8618    150.0109
   498.2500      0.0000    743.6434      8.9668    160.2308
   498.5000      0.0000    744.0107      9.0324    164.9046
   498.7500      0.0000    744.8743      8.9803    162.8009
   499.0000      0.0000    746.5675      8.7841    156.4498
   499.2500      0.0000    749.0168      8.5065    149.7720
   499.5000      0.0000    751.3407      8.2592    145.7274
   499.7500      0.0000    752.2296      8.1191    145.2637
   500.0000      0.0000    751.1415      8.0855    147.3886
   500.2500      0.0000    749.0831      8.1122    150.0966
   500.5000      0.0000    748.0906      8.1627    151.6145
   500.7500      0.0000    750.1110      8.2340    151.2404
   501.0000      0.0000    756.0782      8.3441    149.6243
   501.2500      0.0000    764.9933      8.5080    148.6148
   501.5000      0.0000    773.4429      8.7222    150.2084
   501.7500      0.0000    777.0861      8.9711    154.5967
   502.0000      0.0000    773.8605      9.2416    159.4266
   502.2500      0.0000    765.7341      9.5161    162.1091
   502.5000      0.0000    756.8750      9.7548    162.9138
   502.7500      0.0000    750.3558      9.9150    164.7478
   503.0000      0.0000    746.7544      9.9912    169.5961
   503.2500      0.0000    745.1174     10.0178    176.0308
   503.5000      0.0000    744.3889     10.0301    180.6951
   503.7500      0.0000    744.0009     10.0352    181.7883
   504.0000      0.0000    743.7627     10.0213    180.4931
   504.2500      0.0000    743.6099      9.9828    179.1339
   504.5000      0.0000    743.4740      9.9319    178.7571
   504.7500      0.0000    743.2841      9.8922    178.8577
   505.0000      0.0000    743.0330      9.8795    178.6231
   505.2500      0.0000    742.8226      9.8848    177.5432
   505.5000      0.0000    742.9208      9.8833    174.9631
   505.7500      0.0000    743.8951      9.8637    169.7667
   506.0000      0.0000    746.8380      9.8425    160.9495
   506.2500      0.0000    753.1730      9.8451    148.6063
   506.5000      0.0000    763.3625      9.8773    134.1884
   506.7500      0.0000    775.1185      9.9187    119.6880
   507.0000      0.0000    783.5795      9.9372    106.7542
   507.2500      0.0000    784.7752      9.9099     96.5765
   507.5000      0.0000    779.5343      9.8359     90.1858
   507.7500      0.0000    773.7163      9.7357     88.6770
   508.0000      0.0000    774.4499      9.6404     93.0989
   508.2500      0.0000    785.4890      9.5779    103.5251
   508.5000      0.0000    804.8577      9.5620    117.6549
   508.7500      0.0000    826.4156      9.5899    130.7407
   509.0000      0.0000    844.3277      9.6482    137.7540
   509.2500      0.0000    856.5387      9.7224    136.0124
   509.5000      0.0000    864.3065      9.8043    126.1144
   509.7500      0.0000    869.5216      9.8914    111.2075
   510.0000      0.0000    873.3609      9.9768     95.6621
   510.2500      0.0000    876.7875     10.0396     83.4630
   510.5000      0.0000    880.9088     10.0553     76.6208
   510.7500      0.0000    886.0956     10.0226     74.6981
   511.0000      0.0000    890.8223      9.9724     76.0488
   511.2500      0.0000    891.9970      9.9395     79.4644
   511.5000      0.0000    886.7942      9.9342     84.4299
   511.7500      0.0000    874.0593      9.9446     90.2882
   512.0000      0.0000    854.3757      9.9565     96.2742
   512.2500      0.0000    829.8591      9.9579    102.5690
   512.5000      0.0000    803.7921      9.9348    110.3644
   512.7500      0.0000    779.2593      9.8754    120.3938
   513.0000      0.0000    757.9371      9.7772    131.9689
   513.2500      0.0000    740.3782      9.6414    143.5548
   513.5000      0.0000    726.7625      9.4668    153.8405
   513.7500      0.0000    717.0929      9.2584    162.3848
   514.0000      0.0000    711.2763      9.0445    169.5823
   514.2500      0.0000    709.1668      8.8762    175.8177
   514.5000      0.0000    710.2528      8.8021    180.6449
   514.7500      0.0000    713.6053      8.8338    183.3450
   515.0000      0.0000    718.7943      8.9359    184.4426
   515.2500      0.0000    727.0315      9.0540    185.7737
   515.5000      0.0000    740.5869      9.1535    188.1676
   515.7500      0.0000    760.2722      9.2330    189.4435
   516.0000      0.0000    783.6331      9.3085    185.8745
   516.2500      0.0000    806.3396      9.3886    175.8259
   516.5000      0.0000    825.5038      9.4606    161.3030
   516.7500      0.0000    841.3987      9.4970    146.0869
   517.0000      0.0000    855.8694      9.4772    133.1615
   517.2500      0.0000    869.3329      9.4057    123.6330
   517.5000      0.0000    879.5935      9.3084    117.0081
   517.7500      0.0000    883.6144      9.2128    112.1301
   518.0000      0.0000    880.2452      9.1344    108.2763
   518.2500      0.0000    871.1606      9.0783    105.5893
   518.5000      0.0000    859.5906      9.0441    104.5963
   518.7500      0.0000    848.3659      9.0289    105.7148
   519.0000      0.0000    838.6473      9.0285    109.2054
   519.2500      0.0000    830.0244      9.0358    114.8891
   519.5000      0.0000    821.8929      9.0383    121.4154
   519.7500      0.0000    814.7166      9.0191    126.3862
   520.0000      0.0000    809.6738      8.9655    128.0521
   520.2500      0.0000    807.2679      8.8691    126.9316
   520.5000      0.0000    806.8869      8.7182    125.2940
   520.7500      0.0000    807.8206      8.4921    125.0972
   521.0000      0.0000    810.2034      8.1752    126.7403
   521.2500      0.0000    814.8643      7.7938    129.3437
   521.5000      0.0000    822.9143      7.4331    131.3705
   521.7500      0.0000    835.7050      7.1892    131.2934
   522.0000      0.0000    854.1956      7.0988    128.7570
   522.2500      0.0000    876.5464      7.1378    125.0586
   522.5000      0.0000    896.2603      7.2724    121.8078
   522.7500      0.0000    905.5299      7.4712    119.4250
   523.0000      0.0000    902.5048      7.6825    117.2796
   523.2500      0.0000    893.7935      7.8477    114.5807
   523.5000      0.0000    888.6551      7.9377    110.6912
   523.7500      0.0000    891.7180      7.9651    105.3176
   524.0000      0.0000    900.1592      7.9759     99.1332
   524.2500      0.0000    905.4705      8.0481     94.1114
   524.5000      0.0000    899.5643      8.2774     92.6340
   524.7500      0.0000    882.0511      8.7190     95.6436
   525.0000      0.0000    860.8425      9.3218    101.3420
   525.2500      0.0000    844.6904      9.9319    105.9542
   525.5000      0.0000    836.5933     10.3841    106.3475
   525.7500      0.0000    834.2538     10.6072    102.3103
   526.0000      0.0000    834.2823     10.6517     96.6463
   526.2500      0.0000    834.6962     10.6287     93.5031
   526.5000      0.0000    834.9204     10.6306     96.0822
   526.7500      0.0000    834.9984     10.6921    104.5204
   527.0000      0.0000    835.0529     10.7926    115.3619
   527.2500      0.0000    834.9711     10.8771    123.9472
   527.5000      0.0000    834.0819     10.8851    127.8989
   527.7500      0.0000    830.8563     10.7865    128.1502
   528.0000      0.0000    823.1764     10.6005    127.1204
   528.2500      0.0000    809.9799     10.3764    126.6490
