~Version Information
VERS.                      2.0: CWLS Log ASCII Standard - VERSION 2.0
WRAP.                       NO: One line per depth step
~Well Information Block
STRT.FT               555.0000: 
STOP.FT              1159.0000: 
STEP.FT                 0.2500: 
NULL.                -999.2500: 
COMP.          Pioneer Natural Resources: COMPANY
WELL.              Draco 31-21: WELL
FLD.           Purgatoire River: FIELD
LOC.           491' FNL & 2446' FEL: LOCATION
CNTY.               Las Animas: COUNTY
SRVC.                Patterson: SERVICE COMPANY
DATE.          Tue Jan 31 17:48:38 2006: LOG DATE
UWI.           05 071 08672 00: UNIQUE WELL ID
STAT.                 Colorado: STATE
~Curve Information Block
DEPT.FT            0 000 00 00: Depth
SN.Ohm-m                      : IEL Short Normal
SP.mV                         : IEL Spontaneous Potential
DIR.Ohm-m                     : IEL Induction Resistivity
GR.GAPI                       : Gamma Ray
~Parameter Information Block
~A  Depth        SN          SP         DIR          GR     
# ...
  1091.0000     21.5616     43.2962     21.1924     98.3705
  1091.2500     21.8547     43.1581     21.4350     97.8734
  1091.5000     22.1033     42.9960     21.6788     97.9472
  1091.7500     22.2652     42.8337     21.8884     98.7008
  1092.0000     22.3339     42.6992     22.0300    100.6849
  1092.2500     22.3334     42.6141     22.0869    102.0080
  1092.5000     22.3032     42.5841     22.0686    102.6941
  1092.7500     22.3476     42.5969     22.0038    101.8821
  1093.0000     22.5881     42.6271     21.9264     99.1777
  1093.2500     22.9502     42.6475     21.8665     96.9890
  1093.5000     23.2036     42.6417     21.8484     93.9859
  1093.7500     23.2568     42.6112     21.8874     92.5243
  1094.0000     23.2149     42.5715     21.9829     91.9183
  1094.2500     23.1769     42.5426     22.1143     93.0484
  1094.5000     23.1481     42.5394     22.2453     96.9950
  1094.7500     23.1010     42.5692     22.3346    100.3270
  1095.0000     23.0128     42.6326     22.3472    104.4947
  1095.2500     22.8938     42.7250     22.2601    106.1494
  1095.5000     22.7595     42.8377     22.0621    107.5886
  1095.7500     22.5660     42.9569     21.7507    108.6458
  1096.0000     22.2908     43.0646     21.3341    110.8162
  1096.2500     22.0226     43.1446     20.8388    112.1410
  1096.5000     21.8557     43.1908     20.3110    112.8487
  1096.7500     21.7500     43.2131     19.8017    112.2701
  1097.0000     21.5720     43.2312     19.3431    110.3358
  1097.2500     21.2691     43.2628     18.9376    108.9271
  1097.5000     20.9231     43.3121     18.5687    107.8514
  1097.7500     20.5699     43.3707     18.2222    108.5481
  1098.0000     20.0885     43.4287     17.8961    112.5565
  1098.2500     19.3789     43.4844     17.5933    117.1032
  1098.5000     18.5452     43.5470     17.3066    125.2246
  1098.7500     17.8086     43.6313     17.0131    130.0717
  1099.0000     17.2954     43.7506     16.6837    133.8465
  1099.2500     16.9896     43.9077     16.2988    132.8574
  1099.5000     16.8346     44.0909     15.8601    125.9021
  1099.7500     16.7508     44.2794     15.3896    118.9574
  1100.0000     16.6378     44.4553     14.9192    109.0899
  1100.2500     16.4804     44.6131     14.4792    105.0787
  1100.5000     16.3496     44.7628     14.0910    104.6411
  1100.7500     16.2517     44.9256     13.7656    107.6154
  1101.0000     16.1275     45.1245     13.5062    114.4979
  1101.2500     15.9826     45.3730     13.3119    119.0837
  1101.5000     15.8511     45.6695     13.1796    124.2435
  1101.7500     15.6690     46.0026     13.1027    126.3014
  1102.0000     15.3484     46.3581     13.0702    127.6499
  1102.2500     14.9227     46.7216     13.0686    127.7988
  1102.5000     14.5241     47.0792     13.0856    127.8789
  1102.7500     14.3058     47.4210     13.1140    128.2502
  1103.0000     14.3486     47.7458     13.1528    128.8245
  1103.2500     14.5599     48.0620     13.2056    128.3433
  1103.5000     14.7924     48.3812     13.2790    125.3264
  1103.7500     15.0133     48.7111     13.3822    122.2123
  1104.0000     15.2315     49.0536     13.5273    117.9088
  1104.2500     15.4349     49.4048     13.7289    116.3541
  1104.5000     15.6921     49.7533     14.0012    116.3099
  1104.7500     16.1548     50.0784     14.3511    116.9542
  1105.0000     16.8948     50.3569     14.7697    116.6437
  1105.2500     17.7838     50.5802     15.2263    114.7269
  1105.5000     18.6068     50.7668     15.6692    109.6054
  1105.7500     19.2487     50.9538     16.0365    105.5380
  1106.0000     19.6955     51.1701     16.2766     99.8044
  1106.2500     20.0171     51.4187     16.3678     96.7758
  1106.5000     20.3207     51.6809     16.3232     94.2621
  1106.7500     20.6070     51.9334     16.1785     94.3520
  1107.0000     20.7445     52.1611     15.9720     97.2623
  1107.2500     20.5597     52.3592     15.7291    100.6859
  1107.5000     19.9965     52.5305     15.4586    106.9735
  1107.7500     19.2014     52.6797     15.1571    111.3641
  1108.0000     18.3835     52.8062     14.8192    117.8525
  1108.2500     17.6483     52.9011     14.4490    122.1563
  1108.5000     16.9971     52.9540     14.0697    128.3174
  1108.7500     16.4120     52.9636     13.7236    131.5191
  1109.0000     15.8801     52.9428     13.4570    133.2710
  1109.2500     15.4100     52.9146     13.2987    131.9025
  1109.5000     15.0650     52.9043     13.2455    126.9447
  1109.7500     14.8858     52.9329     13.2629    122.9987
  1110.0000     14.7991     53.0130     13.3016    118.3954
  1110.2500     14.7242     53.1440     13.3206    117.0394
  1110.5000     14.7165     53.3126     13.3025    117.6792
  1110.7500     14.8837     53.5003     13.2569    119.1324
  1111.0000     15.2180     53.6902     13.2089    120.9162
  1111.2500     15.5764     53.8724     13.1821    121.0819
  1111.5000     15.8057     54.0422     13.1856    119.7548
  1111.7500     15.8978     54.1986     13.2120    118.1458
  1112.0000     15.9978     54.3445     13.2444    114.8545
  1112.2500     16.2088     54.4873     13.2664    112.0036
  1112.5000     16.4562     54.6357     13.2672    107.0584
  1112.7500     16.5860     54.7921     13.2419    103.9295
  1113.0000     16.5196     54.9483     13.1889    100.6619
  1113.2500     16.2659     55.0885     13.1068     99.7933
  1113.5000     15.8617     55.2008     12.9934    100.5061
  1113.7500     15.3637     55.2857     12.8496    102.1723
  1114.0000     14.8569     55.3542     12.6836    105.8353
  1114.2500     14.4380     55.4185     12.5133    108.5602
  1114.5000     14.1579     55.4849     12.3601    112.5515
  1114.7500     13.9253     55.5523     12.2406    115.0249
  1115.0000     13.5763     55.6155     12.1618    117.9594
  1115.2500     13.1550     55.6694     12.1232    119.0403
  1115.5000     12.9210     55.7117     12.1238    119.4520
  1115.7500     13.0229     55.7422     12.1670    119.4079
  1116.0000     13.3439     55.7615     12.2604    119.6788
  1116.2500     13.6383     55.7691     12.4113    120.3362
  1116.5000     13.8011     55.7615     12.6205    122.0081
  1116.7500     13.9784     55.7322     12.8804    123.2329
  1117.0000     14.3437     55.6745     13.1777    124.3987
  1117.2500     14.8795     55.5853     13.4994    124.4481
  1117.5000     15.4371     55.4662     13.8380    123.1831
  1117.7500     15.9196     55.3257     14.1914    121.0702
  1118.0000     16.3937     55.1765     14.5588    115.1281
  1118.2500     17.0162     55.0309     14.9366    109.2973
  1118.5000     17.8178     54.8961     15.3185     99.2262
  1118.7500     18.6337     54.7763     15.6983     93.0338
  1119.0000     19.3233     54.6803     16.0745     86.5906
  1119.2500     19.9662     54.6216     16.4499     84.7263
  1119.5000     20.6907     54.6092     16.8238     85.2209
  1119.7500     21.3554     54.6347     17.1797     87.0583
  1120.0000     21.6676     54.6757     17.4767     90.8641
  1120.2500     21.5640     54.7151     17.6560     93.7365
  1120.5000     21.2127     54.7570     17.6638     98.5256
  1120.7500     20.7894     54.8207     17.4793    102.0276
  1121.0000     20.3769     54.9209     17.1312    107.1060
  1121.2500     19.8977     55.0532     16.6895    109.7311
  1121.5000     19.1805     55.1942     16.2381    112.0209
  1121.7500     18.2457     55.3126     15.8471    113.0057
  1122.0000     17.3885     55.3818     15.5579    115.6113
  1122.2500     16.9041     55.3849     15.3835    118.8625
  1122.5000     16.8055     55.3178     15.3169    125.2320
  1122.7500     16.8325     55.1912     15.3392    128.8774
  1123.0000     16.7394     55.0299     15.4250    130.4839
  1123.2500     16.5401     54.8639     15.5466    128.2445
  1123.5000     16.4305     54.7137     15.6787    121.2207
  1123.7500     16.5055     54.5842     15.8029    115.8758
  1124.0000     16.7247     54.4708     15.9092    109.8268
  1124.2500     17.1134     54.3671     15.9930    107.7602
