~Version Information
VERS.                      2.0: CWLS Log ASCII Standard - VERSION 2.0
WRAP.                       NO: One line per depth step
~Well Information Block
STRT.FT               390.0000: 
STOP.FT              1434.5000: 
STEP.FT                 0.1000: 
NULL.                -999.2500: 
COMP.          Pioneer Natural Resources: COMPANY
WELL.             John K 12-28: WELL
FLD.           Purgatoire River: FIELD
LOC.           1476' FNL & 465' FWL: LOCATION
CNTY.               Las Animas: COUNTY
SRVC.                Patterson: SERVICE COMPANY
DATE.          Mon Apr 10 06:53:47 2006: LOG DATE
UWI.           05 071 08723 00: UNIQUE WELL ID
STAT.                 Colorado: STATE
~Curve Information Block
DEPT.FT            0 000 00 00: Depth
DCAL.in                       : CDL Caliper
RHOB.g/cc                     : CDL Bulk Density
RHOC.g/cc                     : CDL Density Correction
DPOR.pu                       : CDL Density Porosity
GR.GAPI                       : Gamma Ray
NPOR.pu                       : Neutron Porosity
~Parameter Information Block
~A  Depth       DCAL        RHOB        RHOC        DPOR         GR         NPOR    
# ...
   668.4000      8.0401      2.4515      0.0807     12.0290    135.6561     26.7267
   668.5000      8.0217      2.4792      0.1645     10.3504    137.4293     26.6906
   668.6000      8.0217      2.5114      0.1687      8.4029    139.2717     26.7633
   668.7000      8.0217      2.5282      0.1743      7.3797    142.0834     26.8754
   668.8000      8.0160      2.5216      0.0967      7.7789    141.7341     26.6967
   668.9000      8.0160      2.5056      0.0878      8.7529    139.0801     26.4983
   669.0000      8.0488      2.4917      0.1546      9.5937    137.6327     26.7049
   669.1000      8.0488      2.4805      0.1033     10.2747    134.2264     27.1817
   669.2000      8.0488      2.4789      0.1090     10.3680    128.4453     27.4508
   669.3000      8.0826      2.4918      0.1281      9.5859    125.4469     27.1614
   669.4000      8.0826      2.5110      0.1484      8.4241    124.3132     26.3023
   669.5000      8.0856      2.5225      0.1490      7.7256    123.6885     25.4525
   669.6000      8.0856      2.5119      0.1588      8.3690    126.4292     25.1609
   669.7000      8.0856      2.4807      0.0760     10.2595    130.5720     24.8485
   669.8000      8.0783      2.4528      0.0565     11.9489    133.4731     23.8169
   669.9000      8.0783      2.4459      0.0889     12.3670    135.6047     22.5903
   670.0000      8.0758      2.4582      0.1268     11.6235    137.8062     22.1468
   670.1000      8.0758      2.4717      0.1623     10.8041    139.7260     22.5083
   670.2000      8.0758      2.4623      0.1366     11.3765    139.6484     22.7324
   670.3000      8.0740      2.4249      0.0560     13.6435    138.3532     22.1066
   670.4000      8.0740      2.3715      0.0746     16.8816    138.6202     20.8658
   670.5000      8.0770      2.3094      0.0215     20.6412    144.2994     19.9094
   670.6000      8.0770      2.2335     -0.0007     25.2447    153.8968     19.7685
   670.7000      8.0770      2.1298      0.0293     31.5297    158.5784     19.8801
   670.8000      8.0783      2.0028     -0.0496     39.2231    156.8260     19.5781
   670.9000      8.0783      1.8794     -0.1106     46.7044    156.2990     19.0028
   671.0000      8.0621      1.7829     -0.1397     52.5518    156.4433     18.6211
   671.1000      8.0621      1.7194     -0.1142     56.3988    152.0862     18.3950
   671.2000      8.0621      1.6765     -0.1239     59.0009    146.6071     17.9391
   671.3000      8.0522      1.6385     -0.0660     61.3022    144.8056     17.3045
   671.4000      8.0522      1.5977     -0.0149     63.7786    146.0782     16.7906
   671.5000      8.0656      1.5577     -0.0192     66.1973    148.9228     16.2519
   671.6000      8.0656      1.5201      0.0926     68.4765    151.6684     15.5155
   671.7000      8.0656      1.4624      0.1413     71.9772    148.5714     14.8231
   671.8000      8.0931      1.3701      0.0534     77.5669    136.6615     14.2726
   671.9000      8.0931      1.2664     -0.0372     83.8571    121.1077     13.7815
   672.0000      8.1457      1.1882     -0.0515     88.5918    106.1224     13.2773
   672.1000      8.1457      1.1642     -0.0445     90.0485     92.2371     12.7471
   672.2000      8.1457      1.2024      0.0119     87.7353     82.5240     12.3789
   672.3000      8.2263      1.2829      0.1071     82.8520     79.0345     12.3648
   672.4000      8.2263      1.3735      0.2324     77.3665     77.3406     12.5965
   672.5000      8.2809      1.4508      0.2837     72.6813     73.4455     12.8499
   672.6000      8.2809      1.5058      0.3221     69.3446     69.1381     13.2694
   672.7000      8.2809      1.5380      0.2967     67.3932     66.5185     14.3669
   672.8000      8.2932      1.5473      0.2672     66.8331     65.2327     16.0202
   672.9000      8.2932      1.5331      0.1751     67.6904     66.8276     17.2878
   673.0000      8.2944      1.5137      0.0580     68.8672     71.1805     18.2007
   673.1000      8.2944      1.5235      0.0647     68.2725     73.7857     19.7187
   673.2000      8.2944      1.5764      0.1507     65.0690     73.4753     21.3651
   673.3000      8.2876      1.6549      0.2019     60.3075     74.3447     22.2091
   673.4000      8.2876      1.7379      0.1494     55.2811     78.9376     22.7841
   673.5000      8.2669      1.8184      0.1463     50.3983     86.2546     23.9561
   673.6000      8.2669      1.8959      0.1868     45.7050     93.6728     25.6446
   673.7000      8.2669      1.9703      0.1521     41.1957     99.1073     27.0625
   673.8000      8.2473      2.0498      0.1649     36.3728    104.2157     27.4726
   673.9000      8.2473      2.1293      0.2076     31.5551    112.0023     27.0324
   674.0000      8.2339      2.1867      0.1292     28.0788    120.4677     26.7314
   674.1000      8.2339      2.2194      0.0752     26.0994    125.2936     26.8077
   674.2000      8.2339      2.2403      0.0700     24.8327    127.3521     26.6122
   674.3000      8.2399      2.2427      0.1312     24.6845    130.2282     26.1406
   674.4000      8.2399      2.2098      0.1007     26.6797    132.3452     25.6669
   674.5000      8.2887      2.1593      0.0190     29.7422    132.1050     24.8183
   674.6000      8.2887      2.1372     -0.0086     31.0814    131.0106     23.6542
   674.7000      8.2887      2.1638      0.0620     29.4649    129.8007     23.1407
   674.8000      8.3641      2.2220      0.1071     25.9402    130.5548     23.4034
   674.9000      8.3641      2.2943      0.1960     21.5587    134.5056     23.6625
   675.0000      8.4272      2.3774      0.2508     16.5220    136.9867     23.8278
   675.1000      8.4272      2.4562      0.4271     11.7442    135.6803     24.1195
   675.2000      8.4272      2.5030      0.4881      8.9062    136.2801     24.2466
   675.3000      8.4483      2.5130      0.4718      8.3024    141.5110     24.2653
   675.4000      8.4483      2.5085      0.3654      8.5729    143.6780     24.4324
   675.5000      8.4226      2.5098      0.2759      8.4968    139.3732     24.5756
   675.6000      8.4226      2.5131      0.2530      8.2961    139.2819     24.5610
   675.7000      8.4226      2.5076      0.2332      8.6333    147.6080     24.7420
   675.8000      8.3452      2.5025      0.2238      8.9385    154.8764     25.3070
   675.9000      8.3452      2.5085      0.2643      8.5753    154.5094     26.0012
   676.0000      8.2042      2.5110      0.3222      8.4223    149.5934     26.5604
   676.1000      8.2042      2.4982      0.2533      9.2004    144.7856     26.5111
   676.2000      8.2042      2.4889      0.2311      9.7607    139.4837     25.8051
   676.3000      8.0339      2.5039      0.2161      8.8573    133.7718     25.2839
   676.4000      8.0339      2.5422      0.2357      6.5355    132.2154     25.4527
   676.5000      7.9381      2.5947      0.2387      3.3501    136.9885     26.0387
   676.6000      7.9381      2.6497      0.2866      0.0170    141.3700     26.5855
   676.7000      7.9381      2.6808      0.3909     -1.8679    140.2352     27.0042
   676.8000      7.9159      2.6672      0.3243     -1.0423    135.5688     27.8025
   676.9000      7.9159      2.6303      0.2105      1.1964    130.5739     28.9358
   677.0000      7.9132      2.6039      0.1816      2.7921    131.0011     29.6364
   677.1000      7.9132      2.5925      0.1569      3.4821    135.9933     29.6897
   677.2000      7.9132      2.5811      0.1221      4.1755    137.2445     29.4998
   677.3000      7.9128      2.5621      0.1221      5.3260    133.6305     29.6285
   677.4000      7.9128      2.5484      0.0740      6.1592    130.8471     30.4074
   677.5000      7.9125      2.5546      0.0945      5.7829    129.9854     31.1996
   677.6000      7.9125      2.5735      0.1015      4.6390    127.6852     31.2707
   677.7000      7.9125      2.5854      0.1151      3.9156    124.8836     30.8290
   677.8000      7.9124      2.5780      0.0981      4.3646    124.0093     30.3569
   677.9000      7.9124      2.5602      0.0451      5.4422    123.1829     29.8575
