~Version Information
VERS.                      2.0: CWLS Log ASCII Standard - VERSION 2.0
WRAP.                       NO: One line per depth step
~Well Information Block
STRT.FT                -7.7500: 
STOP.FT              1420.5000: 
STEP.FT                 0.2500: 
NULL.                -999.2500: 
COMP.          Pioneer Natural Resources: COMPANY
WELL.          Parklane 43-34 Tr: WELL
FLD.           Purgatorie River: FIELD
LOC.           1643' FSL & 966' FEL--: LOCATION
PROV.                       CO: PROVINCE
CNTY.               Las Animas: COUNTRY
SRVC.          Patterson Wireline: SERVICE COMPANY
DATE.          Tue Aug 02 11:35:27 2005: LOG DATE
UWI.           05 071 08452 00: UNIQUE WELL ID
~Curve Information Block
DEPT.FT            0 000 00 00: Depth
CCL.                          : Casing Collar Locator
TT3.usec                      : CBL 3' Travel Time
AMP3.mV                       : CBL 3' Amplitude
GR.GAPI                       : Gamma Ray
~Parameter Information Block
~A  Depth       CCL         TT3         AMP3         GR     
    -7.7500   -999.2500   -999.2500   -999.2500     62.5668
    -7.5000   -999.2500   -999.2500   -999.2500     67.3668
    -7.2500   -999.2500   -999.2500   -999.2500     72.1603
    -7.0000   -999.2500   -999.2500   -999.2500     74.2325
    -6.7500   -999.2500   -999.2500   -999.2500     72.5616
    -6.5000   -999.2500   -999.2500   -999.2500     68.7428
    -6.2500   -999.2500   -999.2500   -999.2500     66.0618
    -6.0000   -999.2500   -999.2500   -999.2500     67.1236
    -5.7500   -999.2500   -999.2500   -999.2500     71.9346
    -5.5000   -999.2500   -999.2500   -999.2500     78.1116
    -5.2500   -999.2500   -999.2500   -999.2500     82.8832
    -5.0000   -999.2500   -999.2500   -999.2500     84.9672
    -4.7500   -999.2500   -999.2500   -999.2500     84.7886
    -4.5000   -999.2500   -999.2500   -999.2500     83.2700
    -4.2500   -999.2500   -999.2500   -999.2500     80.7438
    -4.0000   -999.2500   -999.2500   -999.2500     77.0749
    -3.7500   -999.2500   -999.2500   -999.2500     72.4438
    -3.5000   -999.2500   -999.2500   -999.2500     67.6011
    -3.2500   -999.2500   -999.2500   -999.2500     63.3649
    -3.0000   -999.2500   -999.2500   -999.2500     60.2212
    -2.7500   -999.2500   1149.0000      1.9650     58.4181
    -2.5000   -999.2500   1149.0000      1.9739     58.0139
    -2.2500   -999.2500   1149.0000      1.9658     58.6071
    -2.0000   -999.2500   1149.0000      1.9454     59.3503
    -1.7500   -999.2500   1149.0000      1.9233     59.5442
    -1.5000   -999.2500   1149.0000      1.9090     59.0352
    -1.2500   -999.2500   1149.0000      1.9061     57.9851
    -1.0000   -999.2500   1149.0000      1.9122     56.6520
    -0.7500   -999.2500   1149.0000      1.9233     55.3823
    -0.5000   -999.2500   1149.0000      1.9375     54.1835
    -0.2500   -999.2500   1149.0000      1.9531     52.1873
     0.0000   -999.2500   1149.0000      1.9657     48.2010
     0.2500   -999.2500   1149.0000      1.9686     35.5869
     0.5000   -999.2500   1149.0000      1.9631     30.6270
     0.7500   -999.2500   1149.0000      1.9603     28.5354
     1.0000   -999.2500   1149.0000      1.9625     29.2288
     1.2500   -999.2500   1149.0000      1.9677     31.4855
     1.5000   -999.2500   1149.0000      1.9712     33.6128
     1.7500   -999.2500   1149.0000      1.9697     34.6455
     2.0000   -999.2500   1149.0000      1.9630     35.2738
     2.2500   -999.2500   1149.0000      1.9537     37.1935
     2.5000   -999.2500   1149.0000      1.9451     41.2908
     2.7500      0.0000   1149.0000      1.9409     46.6685
     3.0000      0.0000   1149.0000      1.9437     51.4239
     3.2500      0.0000   1149.0000      1.9530     54.0084
     3.5000      0.0000   1149.0000      1.9644     53.9171
     3.7500      0.0000   1149.0000      1.9708     51.6770
     4.0000      0.0000   1149.0000      1.9667     48.4967
     4.2500      0.0000   1149.0000      1.9518     45.6325
     4.5000      0.0000   1149.0000      1.9317     43.7052
     4.7500      0.0000   1149.0000      1.9148     42.4826
     5.0000      0.0000   1149.0000      1.9055     41.3682
     5.2500      0.0000   1148.9427      1.9043     40.2479
     5.5000      0.0000   1148.5673      1.9212     39.7681
     5.7500      0.0000   1146.6571      2.0200     40.5041
     6.0000      0.0000   1139.0864      2.4213     42.0117
     6.2500      0.0000   1115.7037      3.6710     43.1928
     6.5000      0.0000   1059.4169      6.7252     43.5444
     6.7500      0.0000    953.7966     12.6129     43.5675
     7.0000      0.0000    799.2634     21.5678     43.9347
     7.2500      0.0000    622.9219     32.3149     44.7081
     7.5000      0.0000    465.9156     42.4991     45.4810
     7.7500      0.0000    356.7725     50.1298     45.8532
     8.0000      0.0000    297.4509     54.6656     45.4863
     8.2500      0.0000    272.1465     56.8250     43.9730
     8.5000      0.0000    263.5869     57.6727     41.1313
     8.7500      0.0000    261.2298     57.9660     37.5014
     9.0000      0.0000    260.6846     58.0501     34.3410
     9.2500      0.0000    260.6454     58.0083     32.9703
     9.5000      0.0000    260.9597     57.7808     33.9292
     9.7500      0.0000    261.9714     57.1899     36.4745
    10.0000      0.0000    264.3946     55.9509     38.9392
    10.2500      0.0000    268.9249     53.7744     39.9788
    10.5000      0.0000    275.6085     50.5500     39.6482
    10.7500      0.0000    283.5965     46.4692     39.1105
    11.0000      0.0000    292.4033     41.9516     39.4010
    11.2500      0.0000    304.7766     37.4262     40.8136
    11.5000      0.0000    329.8659     33.1581     43.2963
    11.7500      0.0000    383.2379     29.2396     46.7629
    12.0000      0.0000    479.2373     25.6880     50.8099
    12.2500      0.0000    617.1343     22.5210     54.6086
    12.5000      0.0000    774.0499     19.7586     57.4434
    12.7500      0.0000    916.4976     17.3981     59.2227
    13.0000      0.0000   1021.5511     15.4145     60.2398
    13.2500      0.0000   1086.4578     13.7859     60.5283
    13.5000      0.0000   1121.3660     12.5090     59.7580
    13.7500      0.0000   1138.1503     11.5871     57.7759
    14.0000      0.0000   1145.3254     10.9998     55.0175
    14.2500      0.0000   1147.9542     10.6846     52.2915
    14.5000      0.0000   1148.6975     10.5496     50.2980
    14.7500      0.0000   1148.5873     10.5070     49.4131
    15.0000      0.0000   1147.4331     10.4980     49.6626
    15.2500      0.0000   1143.7634     10.4975     50.5829
    15.5000      0.0000   1134.9421     10.5017     51.3193
    15.7500      0.0000   1118.4755     10.5123     51.2835
    16.0000      0.0000   1094.6876     10.5254     50.6804
    16.2500      0.0000   1068.5443     10.5327     50.1329
    16.5000      0.0000   1048.0999     10.5275     49.9404
    16.7500      0.0000   1040.4094     10.5100     49.9866
    17.0000      0.0000   1048.1321     10.4873     50.0948
    17.2500      0.0000   1068.3245     10.4664     50.0714
    17.5000      0.0000   1093.2777     10.4496     49.6450
    17.7500      0.0000   1113.4065     10.4352     48.8922
    18.0000      0.0000   1121.1549     10.4215     48.5971
    18.2500      0.0000   1113.7076     10.4092     49.5739
    18.5000      0.0000   1093.6628     10.4009     51.4918
    18.7500      0.0000   1067.8578     10.4014     52.8921
    19.0000      0.0000   1044.1675     10.4160     52.6959
    19.2500      0.0000   1027.5648     10.4464     51.3850
    19.5000      0.0000   1018.5283     10.4873     50.4251
    19.7500      0.0000   1014.7073     10.5283     50.7857
    20.0000      0.0000   1013.4881     10.5615     52.1958
    20.2500      0.0000   1013.2375     10.5868     53.5580
    20.5000      0.0000   1013.2332     10.6099     53.8933
    20.7500      0.0000   1013.2198     10.6362     53.0166
    21.0000      0.0000   1013.1370     10.6670     51.5564
    21.2500      0.0000   1013.0218     10.7011     50.4937
    21.5000      0.0000   1012.9491     10.7348     50.5558
    21.7500      0.0000   1012.9416     10.7623     51.7309
    22.0000      0.0000   1012.9402     10.7784     53.2720
    22.2500      0.0000   1012.8734     10.7821     54.3484
    22.5000      0.0000   1012.7433     10.7773     54.6754
    22.7500      0.0000   1012.6274     10.7686     54.5048
    23.0000      0.0000   1012.6049     10.7579     54.2470
    23.2500      0.0000   1012.7012     10.7460     54.2093
    23.5000      0.0000   1012.8904     10.7339     54.5389
    23.7500      0.0000   1013.1173     10.7219     55.3301
    24.0000      0.0000   1013.3141     10.7065     56.6229
    24.2500      0.0000   1013.4312     10.6826     58.0085
    24.5000      0.0000   1013.4950     10.6496     58.3908
    24.7500      0.0000   1013.7396     10.6123     56.7510
    25.0000      0.0000   1014.8768     10.5783     53.3189
    25.2500      0.0000   1018.5274     10.5535     49.4730
    25.5000      0.0000   1027.3356     10.5408     46.3955
