~Version Information
VERS.                      2.0: CWLS Log ASCII Standard - VERSION 2.0
WRAP.                       NO: One line per depth step
~Well Information Block
STRT.FT               390.0000: 
STOP.FT              1434.5000: 
STEP.FT                 0.1000: 
NULL.                -999.2500: 
COMP.          Pioneer Natural Resources: COMPANY
WELL.             John K 12-28: WELL
FLD.           Purgatoire River: FIELD
LOC.           1476' FNL & 465' FWL: LOCATION
CNTY.               Las Animas: COUNTY
SRVC.                Patterson: SERVICE COMPANY
DATE.          Mon Apr 10 06:53:47 2006: LOG DATE
UWI.           05 071 08723 00: UNIQUE WELL ID
STAT.                 Colorado: STATE
~Curve Information Block
DEPT.FT            0 000 00 00: Depth
DCAL.in                       : CDL Caliper
RHOB.g/cc                     : CDL Bulk Density
RHOC.g/cc                     : CDL Density Correction
DPOR.pu                       : CDL Density Porosity
GR.GAPI                       : Gamma Ray
NPOR.pu                       : Neutron Porosity
~Parameter Information Block
~A  Depth       DCAL        RHOB        RHOC        DPOR         GR         NPOR    
# ...
  1148.4000      7.9325      2.5666      0.1283      5.0573     55.6967     19.3944
  1148.5000      7.9324      2.5763      0.1021      4.4673     55.7723     19.7039
  1148.6000      7.9324      2.5863      0.0752      3.8615     52.9105     19.9122
  1148.7000      7.9324      2.5918      0.0946      3.5273     47.9007     19.7688
  1148.8000      7.9299      2.5854      0.0761      3.9134     42.9441     19.2752
  1148.9000      7.9299      2.5783      0.0425      4.3444     39.0184     18.6982
  1149.0000      7.9286      2.5854      0.0315      3.9168     36.1088     18.6057
  1149.1000      7.9286      2.6048      0.0599      2.7424     35.9163     19.0606
  1149.2000      7.9286      2.6172      0.0756      1.9890     40.0555     19.0917
  1149.3000      7.9274      2.6109      0.0752      2.3703     43.9121     18.3545
  1149.4000      7.9274      2.5967      0.0797      3.2311     43.4593     17.6525
  1149.5000      7.9276      2.5831      0.0891      4.0524     41.9815     17.5958
  1149.6000      7.9276      2.5689      0.0311      4.9140     41.1874     18.0110
  1149.7000      7.9276      2.5625      0.0485      5.3034     40.7387     18.2258
  1149.8000      7.9293      2.5685      0.0657      4.9417     42.3781     17.9920
  1149.9000      7.9293      2.5729      0.0806      4.6704     44.6216     17.6525
  1150.0000      7.9297      2.5590      0.0726      5.5173     43.4602     17.3375
  1150.1000      7.9297      2.5332     -0.0239      7.0801     40.5954     17.0274
  1150.2000      7.9297      2.5209      0.0215      7.8224     40.7531     16.9519
  1150.3000      7.9285      2.5242      0.0506      7.6214     44.6538     17.2798
  1150.4000      7.9285      2.5273      0.0645      7.4356     48.6590     17.7457
  1150.5000      7.9268      2.5276      0.0452      7.4160     48.9350     17.8075
  1150.6000      7.9268      2.5341      0.0597      7.0240     46.2228     17.3766
  1150.7000      7.9268      2.5474      0.1000      6.2153     42.9894     17.0391
  1150.8000      7.9248      2.5610      0.0990      5.3925     42.3100     17.1400
  1150.9000      7.9248      2.5716      0.0961      4.7487     45.1180     17.5721
  1151.0000      7.9241      2.5777      0.0834      4.3806     48.5379     17.8983
  1151.1000      7.9241      2.5814      0.0982      4.1601     49.8507     17.7115
  1151.2000      7.9241      2.5909      0.0700      3.5794     46.7259     17.0773
  1151.3000      7.9246      2.6026      0.1195      2.8729     40.4182     16.6083
  1151.4000      7.9246      2.5979      0.1149      3.1592     36.7240     16.9508
  1151.5000      7.9254      2.5773      0.0686      4.4064     37.2988     17.5839
  1151.6000      7.9254      2.5591      0.0661      5.5080     40.7419     17.5412
  1151.7000      7.9254      2.5515      0.0502      5.9699     46.7361     17.1759
  1151.8000      7.9248      2.5496      0.0680      6.0839     50.8847     17.2431
  1151.9000      7.9248      2.5445      0.0469      6.3958     47.7504     17.5800
  1152.0000      7.9233      2.5379      0.0215      6.7922     40.6274     17.7467
  1152.1000      7.9233      2.5355      0.0670      6.9412     36.9104     17.8669
  1152.2000      7.9233      2.5322      0.0166      7.1373     37.9028     18.3118
  1152.3000      7.9219      2.5293      0.0101      7.3176     40.8585     18.9367
  1152.4000      7.9219      2.5335      0.0239      7.0585     44.0694     19.2800
  1152.5000      7.9190      2.5394      0.0812      6.7058     45.4551     19.1746
  1152.6000      7.9190      2.5353      0.0234      6.9515     44.4434     18.8250
  1152.7000      7.9190      2.5242      0.0193      7.6270     44.3535     18.7048
  1152.8000      7.9142      2.5191      0.0153      7.9330     45.4412     18.8492
  1152.9000      7.9142      2.5306      0.0496      7.2392     45.0339     18.7980
  1153.0000      7.9083      2.5578      0.0430      5.5904     44.0359     18.4038
  1153.1000      7.9083      2.5884      0.0951      3.7306     43.5415     18.0071
  1153.2000      7.9083      2.6013      0.1310      2.9537     43.0470     17.7012
  1153.3000      7.9045      2.5863      0.0949      3.8608     41.6345     17.3136
  1153.4000      7.9045      2.5638      0.0307      5.2235     38.6889     16.9128
  1153.5000      7.9061      2.5584      0.0272      5.5529     35.6027     16.8892
  1153.6000      7.9061      2.5750      0.0600      4.5453     34.1917     17.5550
  1153.7000      7.9061      2.6015      0.0834      2.9415     33.7913     18.5170
  1153.8000      7.9071      2.6163      0.0812      2.0446     34.7755     19.1207
  1153.9000      7.9071      2.6105      0.1031      2.3945     38.3896     19.4029
  1154.0000      7.9015      2.6047      0.0157      2.7469     42.8122     19.5953
  1154.1000      7.9015      2.6185      0.0594      1.9087     44.3399     19.6916
  1154.2000      7.9015      2.6326      0.1110      1.0559     43.4377     19.6597
  1154.3000      7.8949      2.6275      0.0565      1.3637     44.4257     19.4560
  1154.4000      7.8949      2.6143      0.0412      2.1640     49.6440     19.3146
  1154.5000      7.8912      2.6007      0.0344      2.9863     58.8739     19.5208
  1154.6000      7.8912      2.5769      0.0689      4.4328     69.6208     19.7452
  1154.7000      7.8912      2.5420      0.0085      6.5448     80.0942     19.4408
  1154.8000      7.8934      2.5151      0.0069      8.1755     90.9877     18.8684
  1154.9000      7.8934      2.5055     -0.0012      8.7597    101.2046     18.7947
  1155.0000      7.9027      2.5091     -0.0294      8.5370    107.6422     19.2295
  1155.1000      7.9027      2.5227     -0.0066      7.7176    109.8630     19.6188
  1155.2000      7.9027      2.5347      0.0388      6.9863    120.7521     20.1115
  1155.3000      7.9140      2.5364      0.0162      6.8871    121.9415     21.1993
  1155.4000      7.9140      2.5404      0.0166      6.6432    121.3441     22.6337
  1155.5000      7.9177      2.5565      0.1251      5.6647    122.6308     23.9557
  1155.6000      7.9177      2.5706      0.1283      4.8132    125.9023     24.9260
  1155.7000      7.9177      2.5648      0.1284      5.1620    126.2953     25.1489
  1155.8000      7.9144      2.5373      0.1020      6.8325    124.6017     24.6817
  1155.9000      7.9144      2.5032      0.0677      8.8954    129.0442     24.4530
  1156.0000      7.9136      2.4829      0.0198     10.1272    143.7767     24.6875
  1156.1000      7.9136      2.4877      0.0413      9.8348    158.0735     24.7059
  1156.2000      7.9136      2.5130      0.0645      8.3008    167.9531     24.1857
  1156.3000      7.9139      2.5415      0.0743      6.5773    149.9465     23.3939
  1156.4000      7.9139      2.5517      0.1251      5.9583    133.0037     22.7770
  1156.5000      7.9131      2.5319      0.1156      7.1605    128.2180     22.4920
  1156.6000      7.9131      2.4954      0.0868      9.3722    134.1054     22.2596
  1156.7000      7.9131      2.4698      0.0770     10.9194    142.3193     22.0061
  1156.8000      7.9143      2.4714      0.0477     10.8229    146.9359     21.9641
  1156.9000      7.9143      2.4925      0.0955      9.5474    148.7774     22.4030
  1157.0000      7.9184      2.5126      0.0835      8.3276    153.1121     23.0232
  1157.1000      7.9184      2.5190      0.1201      7.9396    160.7841     23.1372
  1157.2000      7.9184      2.5136      0.1217      8.2659    165.4214     22.9815
  1157.3000      7.9238      2.5077      0.1456      8.6239    163.1317     22.9098
  1157.4000      7.9238      2.5025      0.1583      8.9378    159.3217     22.6164
  1157.5000      7.9299      2.4901      0.1569      9.6938    162.4548     22.3457
  1157.6000      7.9299      2.4808      0.0724     10.2531    170.8184     22.8740
  1157.7000      7.9299      2.4912      0.0690      9.6221    174.8689     24.2722
  1157.8000      7.9336      2.5120      0.0966      8.3621    171.2394     25.6578
  1157.9000      7.9336      2.5295      0.0858      7.3005    166.4566     26.0812
