~Version Information
VERS.                      2.0: CWLS Log ASCII Standard - VERSION 2.0
WRAP.                       NO: One line per depth step
~Well Information Block
STRT.FT               350.0000: 
STOP.FT               906.0000: 
STEP.FT                 0.2500: 
NULL.                -999.2500: 
COMP.          Pioneer Natural Resources: COMPANY
WELL.           Hartford 31-18: WELL
FLD.           Purgatorie River: FIELD
LOC.           375' FNL & 1660' FEL: LOCATION
PROV.                 Colorado: PROVINCE
CNTY.               Las Animas: COUNTRY
SRVC.                Patterson: SERVICE COMPANY
DATE.          Sat Nov 19 19:02:38 2005: LOG DATE
UWI.           05-071-08555               : UNIQUE WELL ID
~Curve Information Block
DEPT.FT            0 000 00 00: Depth
SN.Ohm-m                      : IEL Short Normal
SP.mV                         : IEL Spontaneous Potential
DIR.Ohm-m                     : IEL Induction Resistivity
GR.GAPI                       : Gamma Ray
~Parameter Information Block
~A  Depth        SN          SP         DIR          GR     
# ...
   685.0000     48.8191    176.1003     43.3329     40.8601
   685.2500     49.6296    176.7216     43.9069     40.9235
   685.5000     50.6139    177.3779     44.2840     40.3775
   685.7500     51.6993    178.0292     44.4684     39.5339
   686.0000     52.8300    178.6197     44.5183     37.8818
   686.2500     53.9976    179.0959     44.5178     36.6085
   686.5000     55.2058    179.4279     44.5559     34.3054
   686.7500     56.3853    179.6167     44.7142     32.5255
   687.0000     57.3759    179.6859     45.0521     30.0283
   687.2500     58.0448    179.6643     45.5881     28.9572
   687.5000     58.4172    179.5760     46.2856     28.7822
   687.7500     58.6575    179.4405     47.0515     29.5132
   688.0000     58.9398    179.2751     47.7524     31.0182
   688.2500     59.3539    179.0956     48.2458     31.7838
   688.5000     59.8895    178.9173     48.4149     32.3671
   688.7500     60.4413    178.7586     48.1915     32.5142
   689.0000     60.8421    178.6455     47.5574     32.3524
   689.2500     60.9363    178.6096     46.5321     31.8236
   689.5000     60.6359    178.6801     45.1587     30.4129
   689.7500     59.9236    178.8738     43.4906     29.3102
   690.0000     58.8257    179.1889     41.5834     27.7614
   690.2500     57.3894    179.6018     39.4980     26.8212
   690.5000     55.6520    180.0657     37.3117     25.6769
   690.7500     53.5868    180.5177     35.1207     25.4698
   691.0000     51.0911    180.8966     33.0194     26.9006
   691.2500     48.0700    181.1649     31.0721     29.2272
   691.5000     44.5609    181.3188     29.2970     34.0173
   691.7500     40.7859    181.3800     27.6729     37.2639
   692.0000     37.0753    181.3788     26.1604     41.6516
   692.2500     33.7201    181.3389     24.7267     44.9514
   692.5000     30.8384    181.2687     23.3606     52.4822
   692.7500     28.3169    181.1628     22.0725     59.6472
   693.0000     25.9085    181.0126     20.8826     71.8539
   693.2500     23.4671    180.8187     19.8063     79.1213
   693.5000     21.1320    180.5983     18.8477     86.3192
   693.7500     19.2522    180.3822     18.0026     88.3400
   694.0000     18.0988    180.2042     17.2647     88.3537
   694.2500     17.6591    180.0877     16.6299     87.5459
   694.5000     17.6783    180.0350     16.0935     87.1503
   694.7500     17.8456    180.0255     15.6478     88.2517
   695.0000     17.9514    180.0192     15.2801     92.3909
   695.2500     17.9283    179.9664     14.9757     96.5009
   695.5000     17.7980    179.8204     14.7227    103.5246
   695.7500     17.5925    179.5550     14.5157    108.0196
   696.0000     17.3158    179.1770     14.3564    113.5603
   696.2500     16.9598    178.7243     14.2515    116.2800
   696.5000     16.5414    178.2492     14.2078    119.2039
   696.7500     16.1357    177.7999     14.2285    120.7171
   697.0000     15.8748    177.4139     14.3108    122.6877
   697.2500     15.8857    177.1191     14.4469    123.6921
   697.5000     16.2221    176.9357     14.6292    123.9245
   697.7500     16.8447    176.8729     14.8561    122.6399
   698.0000     17.6311    176.9296     15.1359    118.3152
   698.2500     18.4208    177.1020     15.4837    114.4573
   698.5000     19.1044    177.3950     15.9115    108.7730
   698.7500     19.6793    177.8229     16.4174    105.4313
   699.0000     20.2177    178.3982     16.9816    100.5181
   699.2500     20.7981    179.1167     17.5742     96.9220
   699.5000     21.4543    179.9465     18.1709     91.2723
   699.7500     22.1659    180.8262     18.7675     87.7749
   700.0000     22.8851    181.6737     19.3810     83.4292
   700.2500     23.5721    182.4068     20.0361     81.2583
   700.5000     24.2284    182.9679     20.7479     79.1623
   700.7500     24.9164    183.3406     21.5106     78.4171
   701.0000     25.7086    183.5471     22.3020     77.8401
   701.2500     26.5951    183.6276     23.0973     77.6669
   701.5000     27.4825    183.6176     23.8824     77.8537
   701.7500     28.2934    183.5383     24.6571     78.4106
   702.0000     29.0444    183.3996     25.4281     79.6582
   702.2500     29.8287    183.2071     26.2003     80.2184
   702.5000     30.7371    182.9680     26.9747     79.6451
   702.7500     31.8101    182.6968     27.7520     78.2200
   703.0000     33.0405    182.4188     28.5379     75.2513
   703.2500     34.3911    182.1678     29.3442     73.2441
   703.5000     35.8219    181.9778     30.1851     70.7017
   703.7500     37.3097    181.8729     31.0729     69.3559
   704.0000     38.8559    181.8602     32.0163     67.5114
   704.2500     40.4849    181.9250     33.0203     66.0552
   704.5000     42.2126    182.0282     34.0844     63.2346
   704.7500     44.0132    182.1116     35.1983     61.1195
   705.0000     45.8214    182.1144     36.3372     58.2901
   705.2500     47.5651    181.9934     37.4653     56.8849
   705.5000     49.1988    181.7371     38.5447     55.1467
   705.7500     50.7058    181.3642     39.5468     53.6743
   706.0000     52.0658    180.9082     40.4547     50.2424
   706.2500     53.2302    180.3985     41.2593     47.1434
   706.5000     54.1499    179.8492     41.9534     41.9099
   706.7500     54.8116    179.2607     42.5296     38.5514
   707.0000     55.2432    178.6282     42.9813     34.7004
   707.2500     55.4921    177.9512     43.3037     33.4088
   707.5000     55.5977    177.2385     43.4958     33.4702
   707.7500     55.5786    176.5103     43.5643     34.3312
   708.0000     55.4335    175.7959     43.5292     35.6931
   708.2500     55.1528    175.1275     43.4245     36.3060
   708.5000     54.7380    174.5311     43.2900     36.9167
   708.7500     54.2030    174.0188     43.1588     37.3074
   709.0000     53.5578    173.5845     43.0508     37.9150
   709.2500     52.8083    173.2066     42.9722     38.2138
   709.5000     51.9773    172.8541     42.9168     38.4140
   709.7500     51.1221    172.4998     42.8622     38.5375
   710.0000     50.3318    172.1324     42.7623     39.0336
   710.2500     49.7143    171.7627     42.5456     39.4697
   710.5000     49.3539    171.4189     42.1280     39.5974
   710.7500     49.2557    171.1358     41.4381     39.0358
   711.0000     49.3215    170.9431     40.4432     37.5594
   711.2500     49.3678    170.8596     39.1627     36.7311
   711.5000     49.1958    170.8935     37.6632     36.5168
   711.7500     48.6796    171.0482     36.0386     37.0534
   712.0000     47.7457    171.3305     34.3858     38.2644
   712.2500     46.2676    171.7560     32.7879     39.0383
   712.5000     44.0974    172.3477     31.3098     40.0871
   712.7500     41.2733    173.1249     29.9989     40.7318
   713.0000     38.1185    174.0876     28.8826     41.4462
   713.2500     35.0525    175.2055     27.9598     41.8410
   713.5000     32.3410    176.4202     27.1955     43.5131
   713.7500     30.0653    177.6600     26.5275     46.4385
   714.0000     28.2383    178.8577     25.8888     54.4995
   714.2500     26.8544    179.9606     25.2367     61.6906
   714.5000     25.8715    180.9336     24.5671     72.4899
   714.7500     25.2242    181.7610     23.9066     78.1294
   715.0000     24.8509    182.4481     23.2895     83.2359
   715.2500     24.7035    183.0181     22.7387     84.8981
   715.5000     24.7543    183.5030     22.2614     86.1678
   715.7500     24.9787    183.9339     21.8554     86.6155
   716.0000     25.3125    184.3364     21.5170     86.8521
   716.2500     25.6451    184.7319     21.2440     87.0435
   716.5000     25.8582    185.1386     21.0340     88.3408
   716.7500     25.8645    185.5700     20.8829     90.0173
   717.0000     25.6502    186.0383     20.7860     92.6583
   717.2500     25.3052    186.5614     20.7420     93.6627
   717.5000     24.9651    187.1639     20.7553     93.7000
   717.7500     24.6982    187.8679     20.8336     93.2011
   718.0000     24.4687    188.6798     20.9804     92.3261
   718.2500     24.2055    189.5858     21.1886     91.6393
