~Version Information
VERS.                      2.0: CWLS Log ASCII Standard - VERSION 2.0
WRAP.                       NO: One line per depth step
~Well Information Block
STRT.FT               615.0000: 
STOP.FT              1609.0000: 
STEP.FT                 0.2500: 
NULL.                -999.2500: 
COMP.          Pioneer Natural Resources: COMPANY
WELL.          Galloway 32-13 Tr: WELL
FLD.           Purgatoire River: FIELD
LOC.           1910' FNL & 2002' FEL: LOCATION
PROV.                 Colorado: PROVINCE
CNTY.               Las Animas: COUNTRY
SRVC.                Patterson: SERVICE COMPANY
DATE.          Sat Nov 12 20:19:28 2005: LOG DATE
UWI.           05 071 08608 00: UNIQUE WELL ID
~Curve Information Block
DEPT.FT            0 000 00 00: Depth
SN.Ohm-m                      : IEL Short Normal
SP.mV                         : IEL Spontaneous Potential
DIR.Ohm-m                     : IEL Induction Resistivity
GR.GAPI                       : Gamma Ray
~Parameter Information Block
~A  Depth        SN          SP         DIR          GR     
# ...
  1117.5000     10.5532     60.5599      8.2150    126.7766
  1117.7500     10.5090     60.4836      8.1460    127.9134
  1118.0000     10.2924     60.4285      8.0583    130.1607
  1118.2500      9.8306     60.3927      7.9667    131.9471
  1118.5000      9.1962     60.3741      7.8839    135.0371
  1118.7500      8.5878     60.3721      7.8164    137.0664
  1119.0000      8.1564     60.3886      7.7638    138.8254
  1119.2500      7.8819     60.4253      7.7208    138.4426
  1119.5000      7.7016     60.4798      7.6805    135.6357
  1119.7500      7.6327     60.5429      7.6366    133.2003
  1120.0000      7.6855     60.6025      7.5850    130.4711
  1120.2500      7.8062     60.6516      7.5253    129.5898
  1120.5000      7.9420     60.6950      7.4621    128.7556
  1120.7500      8.0719     60.7448      7.4070    127.7701
  1121.0000      8.1713     60.8081      7.3768    125.4429
  1121.2500      8.2257     60.8779      7.3896    124.0165
  1121.5000      8.2931     60.9353      7.4589    123.5141
  1121.7500      8.4690     60.9602      7.5902    124.5494
  1122.0000      8.7523     60.9407      7.7808    127.3551
  1122.2500      8.9989     60.8760      8.0216    129.1758
  1122.5000      9.0972     60.7756      8.2995    130.4704
  1122.7500      9.1059     60.6563      8.5981    130.0740
  1123.0000      9.1152     60.5352      8.8991    128.2060
  1123.2500      9.1602     60.4215      9.1847    126.9173
  1123.5000      9.3023     60.3126      9.4451    126.1255
  1123.7500      9.5751     60.1986      9.6846    126.5043
  1124.0000      9.9398     60.0697      9.9219    127.7571
  1124.2500     10.3753     59.9203     10.1811    128.5908
  1124.5000     10.8276     59.7478     10.4816    129.5675
  1124.7500     11.1720     59.5490     10.8336    130.0036
  1125.0000     11.3963     59.3212     11.2373    130.1003
  1125.2500     11.6118     59.0656     11.6782    129.6891
  1125.5000     11.8728     58.7896     12.1229    128.4355
  1125.7500     12.1651     58.5007     12.5229    127.1546
  1126.0000     12.4856     58.1983     12.8352    124.1917
  1126.2500     12.8158     57.8700     13.0424    121.3865
  1126.5000     13.0754     57.4975     13.1534    116.4201
  1126.7500     13.1781     57.0675     13.1843    113.2854
  1127.0000     13.1335     56.5792     13.1448    110.2183
  1127.2500     13.0322     56.0449     13.0387    109.9203
  1127.5000     12.9195     55.4855     12.8735    112.5785
  1127.7500     12.7372     54.9271     12.6638    116.1605
  1128.0000     12.4260     54.3950     12.4268    122.8828
  1128.2500     12.0490     53.9057     12.1759    127.2534
  1128.5000     11.7817     53.4640     11.9155    132.5288
  1128.7500     11.7511     53.0665     11.6428    135.2146
  1129.0000     11.8385     52.7066     11.3528    138.6133
  1129.2500     11.7276     52.3799     11.0471    140.5739
  1129.5000     11.2413     52.0896     10.7377    142.7191
  1129.7500     10.4941     51.8468     10.4420    143.5694
  1130.0000      9.7214     51.6618     10.1738    144.4548
  1130.2500      9.1372     51.5338      9.9376    145.0078
  1130.5000      8.8884     51.4501      9.7292    145.5169
  1130.7500      8.9526     51.3943      9.5433    145.2540
  1131.0000      9.1439     51.3536      9.3801    143.4842
  1131.2500      9.3094     51.3188      9.2456    141.4652
  1131.5000      9.4231     51.2790      9.1473    137.9647
  1131.7500      9.5503     51.2181      9.0885    135.8711
  1132.0000      9.7902     51.1188      9.0661    133.5379
  1132.2500     10.1700     50.9688      9.0723    132.4610
  1132.5000     10.5869     50.7661      9.0991    131.3073
  1132.7500     10.8645     50.5190      9.1416    130.6857
  1133.0000     10.8638     50.2432      9.1983    129.5199
  1133.2500     10.5936     49.9560      9.2669    128.3325
  1133.5000     10.2566     49.6706      9.3397    126.1140
  1133.7500     10.1005     49.3944      9.4028    124.8731
  1134.0000     10.1727     49.1315      9.4403    124.3200
  1134.2500     10.3492     48.8873      9.4426    124.9542
  1134.5000     10.5333     48.6727      9.4100    126.6644
  1134.7500     10.6497     48.5009      9.3497    127.5587
  1135.0000     10.6296     48.3817      9.2718    127.6892
  1135.2500     10.5130     48.3157      9.1868    127.1759
  1135.5000     10.3722     48.2930      9.1076    126.6777
  1135.7500     10.2136     48.2956      9.0500    127.0142
  1136.0000     10.0601     48.3045      9.0311    128.5266
  1136.2500      9.9876     48.3082      9.0647    130.0382
  1136.5000     10.0403     48.3095      9.1575    132.8107
  1136.7500     10.1608     48.3249      9.3058    134.6596
  1137.0000     10.2666     48.3763      9.4936    136.3221
  1137.2500     10.3780     48.4828      9.6951    135.9530
  1137.5000     10.5656     48.6589      9.8825    132.1532
  1137.7500     10.8443     48.9199     10.0355    127.0105
  1138.0000     11.2269     49.2861     10.1440    115.0205
  1138.2500     11.7590     49.7810     10.2042    104.5084
  1138.5000     12.5275     50.4234     10.2125     86.9064
  1138.7500     13.7499     51.2176     10.1664     75.7217
  1139.0000     15.6431     52.1479     10.0695     62.9803
  1139.2500     17.9538     53.1829      9.9343     58.6798
  1139.5000     19.7266     54.2858      9.7775     59.9081
  1139.7500     19.9025     55.4211      9.6106     65.7178
  1140.0000     18.3029     56.5493      9.4360     79.8085
  1140.2500     15.7811     57.6181      9.2488     90.6322
  1140.5000     13.3684     58.5641      9.0436    104.9530
  1140.7500     11.5722     59.3335      8.8183    111.5446
  1141.0000     10.4456     59.9067      8.5741    116.4287
  1141.2500      9.8639     60.3035      8.3150    117.2306
  1141.5000      9.6109     60.5649      8.0489    117.0615
  1141.7500      9.4913     60.7303      7.7903    117.1738
  1142.0000      9.4320     60.8288      7.5595    118.6781
  1142.2500      9.4020     60.8797      7.3784    120.4979
  1142.5000      9.3323     60.8942      7.2635    123.2531
  1142.7500      9.1861     60.8775      7.2218    124.1115
  1143.0000      9.0453     60.8301      7.2503    122.7892
  1143.2500      9.0218     60.7507      7.3379    120.1579
  1143.5000      9.1462     60.6409      7.4700    114.3501
  1143.7500      9.4194     60.5075      7.6318    109.8663
  1144.0000      9.8232     60.3621      7.8114    103.5968
  1144.2500     10.2721     60.2158      7.9998    100.6219
  1144.5000     10.6885     60.0754      8.1912     98.8271
  1144.7500     11.0700     59.9426      8.3824     99.1434
  1145.0000     11.4520     59.8160      8.5737    100.7204
  1145.2500     11.8290     59.6938      8.7673    102.1172
  1145.5000     12.1031     59.5746      8.9643    104.9692
  1145.7500     12.1856     59.4565      9.1609    107.7069
  1146.0000     12.0552     59.3361      9.3466    113.4028
  1146.2500     11.6672     59.2098      9.5059    118.1440
  1146.5000     11.0307     59.0772      9.6218    125.4032
  1146.7500     10.3335     58.9437      9.6793    128.9027
  1147.0000      9.7991     58.8201      9.6685    129.7426
  1147.2500      9.5340     58.7177      9.5895    127.0259
  1147.5000      9.5575     58.6420      9.4551    119.9151
  1147.7500      9.8202     58.5886      9.2893    115.0421
  1148.0000     10.2009     58.5469      9.1213    110.2892
  1148.2500     10.5789     58.5096      8.9769    109.5172
  1148.5000     10.8988     58.4787      8.8741    111.4703
  1148.7500     11.1653     58.4629      8.8238    113.8842
  1149.0000     11.4085     58.4692      8.8339    117.3372
  1149.2500     11.5876     58.4953      8.9117    119.0115
  1149.5000     11.5559     58.5277      9.0628    121.1945
  1149.7500     11.2373     58.5461      9.2880    123.1571
  1150.0000     10.7490     58.5305      9.5798    127.1485
  1150.2500     10.3431     58.4676      9.9249    129.8410
  1150.5000     10.3329     58.3533     10.3092    132.2948
  1150.7500     10.9633     58.1888     10.7253    132.2245
