~Version Information
VERS.                      2.0: CWLS Log ASCII Standard - VERSION 2.0
WRAP.                       NO: One line per depth step
~Well Information Block
STRT.FT               655.0000: 
STOP.FT              2623.7000: 
STEP.FT                 0.1000: 
NULL.                -999.2500: 
COMP.          Pioneer Natural Resources: COMPANY
WELL.             Aviator 12-4: WELL
FLD.           Purgatoire River: FIELD
LOC.           1969' FNL & 732' FWL--: LOCATION
CNTY.               Las Animas: COUNTY
SRVC.                Patterson: SERVICE COMPANY
DATE.          Mon Apr 10 07:35:20 2006: LOG DATE
UWI.           05 071 08714 00: UNIQUE WELL ID
STAT.                 Colorado: STATE
~Curve Information Block
DEPT.FT            0 000 00 00: Depth
DCAL.in                       : CDL Caliper
RHOB.g/cc                     : CDL Bulk Density
RHOC.g/cc                     : CDL Density Correction
DPOR.pu                       : CDL Density Porosity
NPOR.pu                       : Neutron Porosity
GR.GAPI                       : Gamma Ray
~Parameter Information Block
~A  Depth       DCAL        RHOB        RHOC        DPOR        NPOR         GR     
# ...
  1298.2000      8.0773      2.7140     -0.0177     -3.8789     19.3152     97.3303
  1298.3000      8.0762      2.6940     -0.0288     -2.6675     19.6628     97.1178
  1298.4000      8.0762      2.6939     -0.0164     -2.6582     20.2100    100.8559
  1298.5000      8.0751      2.7280      0.0147     -4.7277     20.4374    101.2753
  1298.6000      8.0751      2.7847      0.1069     -8.1652     20.2607     94.7548
  1298.7000      8.0751      2.8261      0.1477    -10.6704     19.8890     86.5313
  1298.8000      8.0756      2.8292      0.1410    -10.8585     19.6046     83.0059
  1298.9000      8.0756      2.8076      0.0263     -9.5526     19.7742     83.9637
  1299.0000      8.0770      2.7819      0.0212     -7.9947     20.2385     83.3912
  1299.1000      8.0770      2.7569      0.0122     -6.4798     20.2823     79.3617
  1299.2000      8.0770      2.7407      0.0060     -5.4998     19.7916     75.5281
  1299.3000      8.0779      2.7387      0.0399     -5.3757     19.1903     73.9880
  1299.4000      8.0779      2.7359      0.0315     -5.2031     18.7456     73.4171
  1299.5000      8.0775      2.7120      0.0096     -3.7600     18.4359     73.3582
  1299.6000      8.0775      2.6720     -0.0234     -1.3346     18.2995     76.4359
  1299.7000      8.0775      2.6517     -0.0516     -0.1011     18.5600     81.9175
  1299.8000      8.0758      2.6639      0.0391     -0.8431     19.2329     85.6066
  1299.9000      8.0758      2.6783      0.0407     -1.7126     20.0288     88.7806
  1300.0000      8.0739      2.6749      0.0149     -1.5114     20.5893     94.4221
  1300.1000      8.0739      2.6663      0.0160     -0.9881     20.5790     98.3886
  1300.2000      8.0739      2.6646      0.0657     -0.8867     20.2554     97.8760
  1300.3000      8.0727      2.6572      0.0830     -0.4388     20.1087     95.8727
  1300.4000      8.0727      2.6311      0.0453      1.1457     20.2185     93.6922
  1300.5000      8.0754      2.6042      0.0185      2.7782     20.5882     93.4739
  1300.6000      8.0754      2.6009     -0.0019      2.9755     20.5429     97.0686
  1300.7000      8.0754      2.6101      0.0657      2.4167     19.8564    102.2505
  1300.8000      8.0794      2.6019      0.0301      2.9166     19.5130    106.1902
  1300.9000      8.0794      2.5789     -0.0166      4.3073     19.9282    105.9358
  1301.0000      8.0802      2.5686     -0.0040      4.9342     20.3834    101.5351
  1301.1000      8.0802      2.5747      0.0482      4.5621     20.3454     98.6796
  1301.2000      8.0802      2.5804      0.0413      4.2200     20.3648    100.6791
  1301.3000      8.0791      2.5895     -0.0139      3.6676     20.5840    105.3918
  1301.4000      8.0791      2.6068      0.0877      2.6191     20.3410    109.0197
  1301.5000      8.0790      2.6060      0.0813      2.6637     19.8271    107.5503
  1301.6000      8.0790      2.5847     -0.0143      3.9604     19.8169    100.8235
  1301.7000      8.0790      2.5730      0.0468      4.6667     20.2535     95.7017
  1301.8000      8.0798      2.5755      0.0473      4.5132     20.1997     97.0388
  1301.9000      8.0798      2.5803      0.0491      4.2252     19.6616     99.8468
  1302.0000      8.0785      2.5874      0.0311      3.7927     19.6472     97.9795
  1302.1000      8.0785      2.5940      0.0771      3.3966     20.0415     96.4528
  1302.2000      8.0785      2.5888      0.0572      3.7073     20.1969     98.4294
  1302.3000      8.0757      2.5790      0.0280      4.3026     20.2686     98.4100
  1302.4000      8.0757      2.5898      0.0223      3.6480     20.3624     96.3619
  1302.5000      8.0753      2.6226      0.0869      1.6608     20.1587     95.2302
  1302.6000      8.0753      2.6457      0.0831      0.2620     19.5811     94.0276
  1302.7000      8.0753      2.6399      0.0940      0.6125     19.0470     93.9370
  1302.8000      8.0775      2.6268      0.0080      1.4058     19.0747     96.4101
  1302.9000      8.0775      2.6356      0.0726      0.8736     19.7440     97.0768
  1303.0000      8.0794      2.6560      0.1154     -0.3649     20.3337     92.1132
  1303.1000      8.0794      2.6664      0.0943     -0.9929     20.1236     84.1778
  1303.2000      8.0794      2.6595      0.0928     -0.5765     19.4652     78.8435
  1303.3000      8.0783      2.6325      0.0498      1.0617     19.2443     79.3554
  1303.4000      8.0783      2.5980      0.0091      3.1512     19.5834     84.2951
  1303.5000      8.0753      2.5734      0.0353      4.6436     19.6788     90.4020
  1303.6000      8.0753      2.5676      0.0176      4.9937     19.1870     96.4777
  1303.7000      8.0753      2.5844      0.0395      3.9744     18.6063    100.0016
  1303.8000      8.0713      2.6056      0.0822      2.6908     18.1765     96.8929
  1303.9000      8.0713      2.6056      0.0943      2.6896     17.9095     90.0218
  1304.0000      8.0702      2.5891      0.0483      3.6899     17.7744     90.4366
  1304.1000      8.0702      2.5788      0.0530      4.3131     17.5447    100.5239
  1304.2000      8.0702      2.5825      0.0765      4.0898     17.5109    110.3933
  1304.3000      8.0731      2.5893      0.0921      3.6816     18.0205    114.6704
  1304.4000      8.0731      2.5898      0.0783      3.6457     18.6245    112.8612
  1304.5000      8.0776      2.5883      0.0703      3.7385     18.6955    105.6656
  1304.6000      8.0776      2.5902      0.0729      3.6269     18.2016     97.6871
  1304.7000      8.0776      2.5919      0.0827      3.5226     17.7129     94.8126
  1304.8000      8.0797      2.5806      0.0792      4.2082     17.4603     98.3400
  1304.9000      8.0797      2.5512      0.0518      5.9903     17.2783    100.3487
  1305.0000      8.0788      2.5236      0.0124      7.6594     17.3806     95.5631
  1305.1000      8.0788      2.5214      0.0414      7.7924     17.9224     89.6359
  1305.2000      8.0788      2.5417      0.0572      6.5637     18.4902     86.5654
  1305.3000      8.0765      2.5605      0.0629      5.4258     18.6303     84.9642
  1305.4000      8.0765      2.5664      0.0308      5.0665     18.1456     81.7317
  1305.5000      8.0753      2.5746      0.0409      4.5694     17.3171     77.3484
  1305.6000      8.0753      2.5931      0.0831      3.4488     16.8631     77.3111
  1305.7000      8.0753      2.6084      0.0826      2.5188     16.7484     80.7117
  1305.8000      8.0770      2.6108      0.0950      2.3728     16.4148     80.9304
  1305.9000      8.0770      2.6059      0.0800      2.6734     16.1209     76.8734
  1306.0000      8.0784      2.6088      0.0782      2.4993     16.2893     72.6949
  1306.1000      8.0784      2.6240      0.0820      1.5734     16.6012     73.0277
  1306.2000      8.0784      2.6414      0.0622      0.5224     16.5907     78.7862
  1306.3000      8.0784      2.6596      0.0661     -0.5802     16.3834     84.6164
  1306.4000      8.0784      2.6785      0.0845     -1.7275     16.3236     87.4191
  1306.5000      8.0795      2.6797      0.0683     -1.8012     16.6061     90.5263
  1306.6000      8.0795      2.6483      0.0722      0.1045     17.1391     96.5711
  1306.7000      8.0795      2.5983      0.0148      3.1324     17.6088    103.1825
  1306.8000      8.0806      2.5650     -0.0414      5.1513     18.0890    106.4599
  1306.9000      8.0806      2.5657      0.0063      5.1093     18.8136    105.5511
  1307.0000      8.0787      2.5818      0.0492      4.1316     19.3599    103.3036
  1307.1000      8.0787      2.5932      0.0430      3.4405     19.2376    103.1110
  1307.2000      8.0787      2.6023      0.0435      2.8903     18.9660    104.7997
  1307.3000      8.0746      2.6095      0.0777      2.4520     18.8676    106.0392
  1307.4000      8.0746      2.6005      0.0768      3.0020     18.4209    107.4320
  1307.5000      8.0736      2.5729      0.0399      4.6712     17.6670    108.8379
  1307.6000      8.0736      2.5430      0.0406      6.4820     17.0375    104.6592
  1307.7000      8.0736      2.5275     -0.0179      7.4258     16.9485     94.7032
