~Version Information
VERS.                      2.0: CWLS Log ASCII Standard - VERSION 2.0
WRAP.                       NO: One line per depth step
~Well Information Block
STRT.FT               570.0000: 
STOP.FT              2094.0000: 
STEP.FT                 0.2500: 
NULL.                -999.2500: 
COMP.          XTO Energy Inc.: COMPANY
WELL.          Golden Eagle 19-10: WELL
FLD.           Purgatoire River: FIELD
LOC.           2684' FSL & 1825' FEL: LOCATION
CNTY.               Las Animas: COUNTY
CTRY.                      USA: COUNTRY
API.               05 071 08697:  
SRVC.                Patterson: SERVICE COMPANY
DATE.          Sun Mar 05 02:13:24 2006: LOG DATE
UWI.           05 071 08697 00: UNIQUE WELL ID
STAT.                 Colorado: STATE
~Curve Information Block
DEPT.FT            0 000 00 00: Depth
SP.mV                         : DIL Spontaneous Potential
RILD.Ohm-m                    : DIL Deep Resistivity
RILM.Ohm-m                    : DIL Medium Resistivity
RLL3.Ohm-m                    : DIL Shallow Resistivity
GR.GAPI                       : Gamma Ray
~Parameter Information Block
~A  Depth        SP         RILD        RILM        RLL3         GR     
# ...
   962.0000   -999.2500     13.7664     13.3117   -999.2500    147.8425
   962.2500   -999.2500     13.3335     12.8284   -999.2500    147.4863
   962.5000   -999.2500     13.0048     12.4533   -999.2500    148.8407
   962.7500   -999.2500     12.7811     12.1844   -999.2500    150.0370
   963.0000   -999.2500     12.6586     12.0243   -999.2500    150.3114
   963.2500   -999.2500     12.6290     11.9768   -999.2500    148.8722
   963.5000   -999.2500     12.6786     12.0436   -999.2500    144.5583
   963.7500   -999.2500     12.7879     12.2214   -999.2500    140.8382
   964.0000   -999.2500     12.9336     12.5003   -999.2500    134.9825
   964.2500   -999.2500     13.0955     12.8623   -999.2500    131.2988
   964.5000   -999.2500     13.2618     13.2802   -999.2500    126.4770
   964.7500   -999.2500     13.4309     13.7194   -999.2500    123.8186
   965.0000   -999.2500     13.6084     14.1412   -999.2500    120.9319
   965.2500   -999.2500     13.8034     14.5090   -999.2500    120.1072
   965.5000   -999.2500     14.0268     14.7970   -999.2500    121.1613
   965.7500   -999.2500     14.2909     14.9965   -999.2500    123.4417
   966.0000   -999.2500     14.6080     15.1193   -999.2500    128.7736
   966.2500   -999.2500     14.9865     15.1941   -999.2500    133.2658
   966.5000   -999.2500     15.4260     15.2595   -999.2500    140.5631
   966.7500   -999.2500     15.9127     15.3551   -999.2500    144.7984
   967.0000   -999.2500     16.4194     15.5146   -999.2500    147.7562
   967.2500   -999.2500     16.9109     15.7618   -999.2500    146.3316
   967.5000   -999.2500     17.3512     16.1088   -999.2500    139.0622
   967.7500   -999.2500     17.7128     16.5568   -999.2500    132.0189
   968.0000   -999.2500     17.9839     17.0977   -999.2500    121.2103
   968.2500   -999.2500     18.1773     17.7182   -999.2500    115.2715
   968.5000   -999.2500     18.3340     18.4030   -999.2500    109.1784
   968.7500   -999.2500     18.5150     19.1384   -999.2500    106.6989
   969.0000   -999.2500     18.7792     19.9111   -999.2500    104.1696
   969.2500   -999.2500     19.1545     20.7044   -999.2500    102.6855
   969.5000   -999.2500     19.6172     21.4903   -999.2500    100.5779
   969.7500   -999.2500     20.0866     22.2222   -999.2500     99.5947
   970.0000   -999.2500     20.4466     22.8311   -999.2500     99.3735
   970.2500   -999.2500     20.5887     23.2323   -999.2500    100.0659
   970.5000   -999.2500     20.4614     23.3428   -999.2500    101.8660
   970.7500   -999.2500     20.0892     23.1060   -999.2500    103.4336
   971.0000   -999.2500     19.5476     22.5158   -999.2500    106.8934
   971.2500   -999.2500     18.9114     21.6221   -999.2500    110.4625
   971.5000   -999.2500     18.2184     20.5177   -999.2500    118.0205
   971.7500   -999.2500     17.4713     19.3097   -999.2500    124.2322
   972.0000   -999.2500     16.6655     18.0927   -999.2500    134.4805
   972.2500   -999.2500     15.8132     16.9328   -999.2500    141.3977
   972.5000   -999.2500     14.9427     15.8645   -999.2500    150.6792
   972.7500   -999.2500     14.0824     14.8964   -999.2500    155.3456
   973.0000   -999.2500     13.2507     14.0207   -999.2500    159.3337
   973.2500   -999.2500     12.4600     13.2222   -999.2500    160.1635
   973.5000   -999.2500     11.7228     12.4862   -999.2500    159.7986
   973.7500   -999.2500     11.0534     11.8030   -999.2500    159.2975
   974.0000   -999.2500     10.4647     11.1691   -999.2500    158.9678
   974.2500   -999.2500      9.9654     10.5870   -999.2500    158.9166
   974.5000   -999.2500      9.5579     10.0621   -999.2500    158.6098
   974.7500   -999.2500      9.2388      9.6003   -999.2500    158.4745
   975.0000   -999.2500      8.9983      9.2067   -999.2500    159.7715
   975.2500   -999.2500      8.8204      8.8839   -999.2500    162.2883
   975.5000   -999.2500      8.6840      8.6324   -999.2500    167.7365
   975.7500   -999.2500      8.5666      8.4497   -999.2500    170.7932
   976.0000   -999.2500      8.4510      8.3302   -999.2500    171.2664
   976.2500   -999.2500      8.3297      8.2652   -999.2500    167.9343
   976.5000   -999.2500      8.2038      8.2423   -999.2500    158.3918
   976.7500   -999.2500      8.0790      8.2465   -999.2500    150.6120
   977.0000   -999.2500      7.9608      8.2613   -999.2500    140.3150
   977.2500   -999.2500      7.8535      8.2714   -999.2500    136.1822
   977.5000   -999.2500      7.7620      8.2654   -999.2500    135.3781
   977.7500   -999.2500      7.6925      8.2376   -999.2500    137.7502
   978.0000   -999.2500      7.6505      8.1882   -999.2500    142.9202
   978.2500   -999.2500      7.6371      8.1218   -999.2500    145.9260
   978.5000   -999.2500      7.6446      8.0449   -999.2500    148.7095
   978.7500   -999.2500      7.6573      7.9634   -999.2500    149.7766
   979.0000   -999.2500      7.6574      7.8819   -999.2500    151.5925
   979.2500   -999.2500      7.6329      7.8028   -999.2500    153.6165
   979.5000   -999.2500      7.5834      7.7275   -999.2500    158.2868
   979.7500   -999.2500      7.5182      7.6574   -999.2500    162.3813
   980.0000   -999.2500      7.4505      7.5947   -999.2500    169.2436
   980.2500   -999.2500      7.3917      7.5436   -999.2500    173.4366
   980.5000   -999.2500      7.3490      7.5091   -999.2500    177.2331
   980.7500   -999.2500      7.3266      7.4974   -999.2500    177.2906
   981.0000   -999.2500      7.3255      7.5133   -999.2500    173.7807
   981.2500   -999.2500      7.3439      7.5597   -999.2500    170.0034
   981.5000   -999.2500      7.3766      7.6364   -999.2500    164.4500
   981.7500   -999.2500      7.4163      7.7392   -999.2500    161.8161
   982.0000   -999.2500      7.4564      7.8608   -999.2500    159.5611
   982.2500   -999.2500      7.4936      7.9912   -999.2500    158.2777
   982.5000   -999.2500      7.5278      8.1193   -999.2500    154.8483
   982.7500   -999.2500      7.5608      8.2341   -999.2500    151.2567
   983.0000   -999.2500      7.5941      8.3262   -999.2500    145.0559
   983.2500   -999.2500      7.6285      8.3892   -999.2500    141.4412
   983.5000   -999.2500      7.6642      8.4201   -999.2500    138.1994
   983.7500   -999.2500      7.7009      8.4204   -999.2500    137.7435
   984.0000   -999.2500      7.7383      8.3951   -999.2500    138.8596
   984.2500   -999.2500      7.7760      8.3525   -999.2500    139.9156
   984.5000   -999.2500      7.8145      8.3022   -999.2500    140.8481
   984.7500   -999.2500      7.8554      8.2544   -999.2500    140.9713
   985.0000   -999.2500      7.9012      8.2182   -999.2500    140.7566
   985.2500   -999.2500      7.9535      8.2018   -999.2500    140.4203
   985.5000   -999.2500      8.0114      8.2114   -999.2500    139.5461
   985.7500   -999.2500      8.0729      8.2515   -999.2500    138.7078
   986.0000   -999.2500      8.1361      8.3246   -999.2500    137.1846
   986.2500   -999.2500      8.2022      8.4310   -999.2500    136.1850
   986.5000   -999.2500      8.2758      8.5690   -999.2500    135.3060
   986.7500   -999.2500      8.3632      8.7353   -999.2500    135.4051
   987.0000   -999.2500      8.4707      8.9248   -999.2500    136.3455
   987.2500   -999.2500      8.6034      9.1317   -999.2500    136.9682
   987.5000   -999.2500      8.7653      9.3504   -999.2500    136.9382
   987.7500   -999.2500      8.9594      9.5756   -999.2500    136.0517
   988.0000   -999.2500      9.1870      9.8035   -999.2500    133.8266
   988.2500   -999.2500      9.4457     10.0313   -999.2500    132.2500
   988.5000   -999.2500      9.7284     10.2579   -999.2500    130.3928
   988.7500   -999.2500     10.0235     10.4831   -999.2500    129.5299
   989.0000   -999.2500     10.3173     10.7080   -999.2500    128.5033
   989.2500   -999.2500     10.5979     10.9350   -999.2500    127.9395
   989.5000   -999.2500     10.8572     11.1676   -999.2500    127.5757
   989.7500   -999.2500     11.0906     11.4101   -999.2500    127.7510
