~Version Information
VERS.                      2.0: CWLS Log ASCII Standard - VERSION 2.0
WRAP.                       NO: One line per depth step
~Well Information Block
STRT.FT               -10.7500: 
STOP.FT              1466.2500: 
STEP.FT                 0.2500: 
NULL.                -999.2500: 
COMP.          Pioneer Natural Resources: COMPANY
WELL.             Andrew 23-15: WELL
FLD.           Purgatorie River: FIELD
LOC.           2137' FSL & 2292' FWL--: LOCATION
PROV.                       CO: PROVINCE
CNTY.               Las Animas: COUNTRY
SRVC.          Patterson Wireline: SERVICE COMPANY
DATE.          Thu Aug 18 11:51:45 2005: LOG DATE
UWI.           05 071 08460 00: UNIQUE WELL ID
~Curve Information Block
DEPT.FT            0 000 00 00: Depth
CCL.                          : Casing Collar Locator
TT3.usec                      : CBL 3' Travel Time
AMP3.mV                       : CBL 3' Amplitude
GR.GAPI                       : Gamma Ray
~Parameter Information Block
~A  Depth       CCL         TT3         AMP3         GR     
# ...
   860.2500      0.0000    820.6155      8.4847    122.7335
   860.5000      0.0000    822.2445      8.4731    124.8227
   860.7500      0.0000    825.5598      8.4847    126.1099
   861.0000      0.0000    828.3958      8.4952    125.5457
   861.2500      0.0000    828.3159      8.4945    123.1475
   861.5000      0.0000    824.7219      8.4937    120.0970
   861.7500      0.0000    818.9028      8.5051    118.0733
   862.0000      0.0000    812.4702      8.5215    118.3628
   862.2500      0.0000    806.5981      8.5241    121.3567
   862.5000      0.0000    803.1537      8.5088    126.4091
   862.7500      0.0000    805.5015      8.4965    131.9586
   863.0000      0.0000    816.9911      8.5120    136.1173
   863.2500      0.0000    838.2495      8.5560    137.3913
   863.5000      0.0000    865.2532      8.5989    135.0298
   863.7500      0.0000    889.2446      8.6046    129.2822
   864.0000      0.0000    900.6527      8.5619    121.6612
   864.2500      0.0000    896.7208      8.4950    114.4926
   864.5000      0.0000    885.7297      8.4401    109.7279
   864.7500      0.0000    881.6381      8.4150    108.0330
   865.0000      0.0000    892.9624      8.4167    108.7958
   865.2500      0.0000    915.1331      8.4403    110.9106
   865.5000      0.0000    933.0140      8.4827    113.6517
   865.7500      0.0000    933.6511      8.5332    116.6552
   866.0000      0.0000    918.1646      8.5747    119.0225
   866.2500      0.0000    898.9487      8.6019    119.3009
   866.5000      0.0000    885.1448      8.6292    117.0333
   866.7500      0.0000    874.5381      8.6768    113.7165
   867.0000      0.0000    860.0781      8.7503    111.4709
   867.2500      0.0000    839.7326      8.8355    111.1449
   867.5000      0.0000    817.9620      8.9108    112.3040
   867.7500      0.0000    800.6288      8.9635    114.6030
   868.0000      0.0000    790.8082      8.9963    118.3082
   868.2500      0.0000    787.9850      9.0203    123.4371
   868.5000      0.0000    789.3835      9.0451    128.9835
   868.7500      0.0000    792.0132      9.0786    133.2484
   869.0000      0.0000    794.1604      9.1336    134.7220
   869.2500      0.0000    795.5173      9.2254    132.7942
   869.5000      0.0000    796.3993      9.3569    128.1841
   869.7500      0.0000    797.1047      9.5092    122.8346
   870.0000      0.0000    797.7190      9.6515    119.1282
   870.2500      0.0000    798.1843      9.7615    118.8674
   870.5000      0.0000    798.3789      9.8375    122.3858
   870.7500      0.0000    798.1327      9.8940    127.9499
   871.0000      0.0000    797.2122      9.9469    132.1295
   871.2500      0.0000    795.5270     10.0050    131.8840
   871.5000      0.0000    793.7233     10.0692    127.0163
   871.7500      0.0000    793.6102     10.1358    120.3324
   872.0000      0.0000    797.3123     10.1994    115.2693
   872.2500      0.0000    805.1967     10.2545    113.6399
   872.5000      0.0000    814.8271     10.2966    115.3990
   872.7500      0.0000    822.7747     10.3247    119.5870
   873.0000      0.0000    827.5564     10.3438    124.9856
   873.2500      0.0000    830.3203     10.3594    130.4080
   873.5000      0.0000    832.8453     10.3606    135.0714
   873.7500      0.0000    835.6511     10.3091    138.7386
   874.0000      0.0000    838.1419     10.1547    141.3091
   874.2500      0.0000    839.7773      9.8712    142.1293
   874.5000      0.0000    840.5887      9.4804    139.8922
   874.7500      0.0000    840.8936      9.0418    133.5959
   875.0000      0.0000    840.9382      8.6213    123.5424
   875.2500      0.0000    840.8284      8.2701    111.0171
   875.5000      0.0000    840.5797      8.0223     97.2994
   875.7500      0.0000    840.1046      7.8985     83.5568
   876.0000      0.0000    839.1512      7.8995     71.3193
   876.2500      0.0000    837.3613      7.9946     62.3716
   876.5000      0.0000    834.5837      8.1288     57.9892
   876.7500      0.0000    831.1300      8.2536     58.2511
   877.0000      0.0000    827.3550      8.3584     62.2802
   877.2500      0.0000    822.7581      8.4695     69.4604
   877.5000      0.0000    815.8632      8.6169     80.1781
   877.7500      0.0000    805.3690      8.8044     94.8530
   878.0000      0.0000    791.5007      9.0088    112.3544
   878.2500      0.0000    776.4550      9.2004    129.7601
   878.5000      0.0000    763.5526      9.3587    143.8743
   878.7500      0.0000    755.3633      9.4675    153.1437
   879.0000      0.0000    752.2765      9.5069    158.1920
   879.2500      0.0000    752.9686      9.4610    160.3660
   879.5000      0.0000    755.8168      9.3392    160.0670
   879.7500      0.0000    759.3972      9.1849    157.1045
   880.0000      0.0000    762.1011      9.0549    152.4796
   880.2500      0.0000    762.1135      8.9904    148.6557
   880.5000      0.0000    758.4342      9.0033    147.2537
   880.7500      0.0000    752.1523      9.0784    146.9761
   881.0000      0.0000    746.1396      9.1865    144.7770
   881.2500      0.0000    742.9176      9.2981    139.2088
   881.5000      0.0000    742.9181      9.3918    132.0530
   881.7500      0.0000    744.7882      9.4506    126.5738
   882.0000      0.0000    746.9115      9.4613    124.8253
   882.2500      0.0000    748.4349      9.4267    126.6714
   882.5000      0.0000    749.2664      9.3748    130.3857
   882.7500      0.0000    749.6254      9.3480    133.5856
   883.0000      0.0000    749.7208      9.3750    134.1991
   883.2500      0.0000    749.6779      9.4529    131.2638
   883.5000      0.0000    749.5661      9.5548    125.0754
   883.7500      0.0000    749.4220      9.6528    116.7397
   884.0000      0.0000    749.2653      9.7308    107.6214
   884.2500      0.0000    749.0995      9.7818     99.0653
   884.5000      0.0000    748.8970      9.8012     92.4136
   884.7500      0.0000    748.5297      9.7857     88.7863
   885.0000      0.0000    747.5567      9.7293     88.1925
   885.2500      0.0000    744.8827      9.6136     88.8950
   885.5000      0.0000    738.6700      9.4016     88.4153
   885.7500      0.0000    727.3942      9.0635     85.6083
   886.0000      0.0000    712.3347      8.6267     81.4779
   886.2500      0.0000    699.4029      8.1886     77.9571
   886.5000      0.0000    696.8755      7.8457     76.3942
   886.7500      0.0000    709.2353      7.6163     77.1024
   887.0000      0.0000    732.7238      7.4598     79.6122
   887.2500      0.0000    757.6618      7.3476     83.0043
   887.5000      0.0000    775.7095      7.2781     86.2645
   887.7500     -2.0000    785.1918      7.2488     88.5426
   888.0000      2.0000    789.8293      7.2572     89.1736
   888.2500      0.0000    793.0558      7.3273     87.7835
   888.5000      0.0000    794.4111      7.5214     84.6795
   888.7500      0.0000    791.2155      7.9148     81.0167
   889.0000      0.0000    782.5291      8.5212     78.3857
   889.2500      0.0000    770.8824      9.2171     78.0399
   889.5000      0.0000    760.4205      9.7801     80.0292
   889.7500      0.0000    753.7546     10.0539     82.8627
   890.0000      0.0000    750.7267     10.0653     84.5476
   890.2500      0.0000    749.6706      9.9578     84.4174
   890.5000      0.0000    749.0709      9.8505     83.5560
   890.7500      0.0000    747.9996      9.7792     83.0866
   891.0000      0.0000    745.6448      9.7303     82.4339
   891.2500      0.0000    741.0001      9.6837     79.6781
   891.5000      0.0000    733.2657      9.6291     73.4620
   891.7500      0.0000    722.6948      9.5666     64.4452
   892.0000      0.0000    711.1057      9.5054     55.1940
   892.2500      0.0000    701.0067      9.4585     48.8729
   892.5000      0.0000    693.0717      9.4370     47.6804
   892.7500      0.0000    683.6084      9.4432     51.7525
   893.0000      0.0000    665.4578      9.4712     59.1279
   893.2500      0.0000    634.3112      9.5116     66.9535
   893.5000      0.0000    596.2832      9.5569     73.0911
