~Version Information
VERS.                      2.0: CWLS Log ASCII Standard - VERSION 2.0
WRAP.                       NO: One line per depth step
~Well Information Block
STRT.FT                -7.5000: 
STOP.FT              1310.7500: 
STEP.FT                 0.2500: 
NULL.                -999.2500: 
COMP.          Pioneer Natural Resources: COMPANY
WELL.          Challenger 31-29: WELL
FLD.           Purgatorie River: FIELD
LOC.           51' FNL & 1923' FEL------: LOCATION
STAT.                       CO: State
CNTY.               Las Animas: COUNTY
CTRY. USA : Country
SECT. 29 : Section
TOWN. 33S : Township
RANG. 65W : Range
SRVC.          Patterson Wireline: SERVICE COMPANY
DATE.          Wed Sep 21 12:11:38 2005: LOG DATE
API.           05 071 08514 00: UNIQUE WELL ID
~Curve Information Block
DEPT.FT            0 000 00 00: Depth
CCL.                          : Casing Collar Locator
TT3.usec                      : CBL 3' Travel Time
AMP3.mV                       : CBL 3' Amplitude
GR.GAPI                       : Gamma Ray
~Parameter Information Block
~A  Depth       CCL         TT3         AMP3         GR     
# ...
   495.0000      0.0000    302.4144     23.9065     58.6816
   495.2500      0.0000    302.4006     23.9564     56.5560
   495.5000      0.0000    302.3922     24.0153     54.8605
   495.7500      0.0000    302.4134     24.0247     54.1991
   496.0000      0.0000    302.4767     23.9546     55.4029
   496.2500      0.0000    302.5718     23.8265     59.0610
   496.5000      0.0000    302.6735     23.6844     64.9265
   496.7500      0.0000    302.7628     23.5473     71.9429
   497.0000      0.0000    302.8488     23.3970     79.1493
   497.2500      0.0000    302.9797     23.2027     86.4299
   497.5000      0.0000    303.2279     22.9475     94.2218
   497.7500      0.0000    303.7039     22.6352    102.6293
   498.0000      0.0000    304.6284     22.2874    110.9028
   498.2500      0.0000    306.4322     21.9436    117.7350
   498.5000      0.0000    309.5942     21.6612    122.2885
   498.7500      0.0000    313.9591     21.5054    125.1599
   499.0000      0.0000    318.0587     21.5272    128.0055
   499.2500      0.0000    319.6826     21.7383    131.8002
   499.5000      0.0000    317.7584     22.0983    135.6598
   499.7500      0.0000    313.5019     22.5270    137.7738
   500.0000      0.0000    309.4339     22.9362    137.2378
   500.2500      0.0000    307.9918     23.2538    134.5702
   500.5000      0.0000    312.0962     23.4178    130.9295
   500.7500      0.0000    327.0556     23.3530    127.4168
   501.0000      0.0000    360.0351     22.9831    124.8744
   501.2500      0.0000    413.4458     22.3040    123.8050
   501.5000      0.0000    475.5446     21.4535    124.1115
   501.7500      0.0000    520.5202     20.6811    124.6356
   502.0000      0.0000    525.2549     20.2099    123.2270
   502.2500      0.0000    488.8652     20.1016    118.0015
   502.5000      0.0000    432.9875     20.2497    108.9170
   502.7500      0.0000    382.7435     20.4945     98.1661
   503.0000      0.0000    349.8519     20.7437     89.0641
   503.2500      0.0000    331.8643     21.0073     84.3455
   503.5000      0.0000    321.5496     21.3638     84.9637
   503.7500      0.0000    314.2791     21.9137     90.0685
   504.0000      0.0000    308.8976     22.7583     97.9762
   504.2500      0.0000    305.3925     23.9850    107.0760
   504.5000      0.0000    303.3991     25.6194    115.7772
   504.7500      0.0000    302.2806     27.5468    122.0025
   505.0000      0.0000    301.5803     29.4838    123.6303
   505.2500      0.0000    301.1074     31.0756    120.1031
   505.5000      0.0000    300.8155     32.0805    113.4734
   505.7500      0.0000    300.6807     32.4889    107.3648
   506.0000      0.0000    300.6561     32.4753    104.6243
   506.2500      0.0000    300.6924     32.2408    105.7720
   506.5000      0.0000    300.7552     31.9013    109.3544
   506.7500      0.0000    300.8294     31.4928    113.5682
   507.0000      0.0000    300.9084     31.0344    117.6519
   507.2500      0.0000    300.9844     30.5553    122.0006
   507.5000      0.0000    301.0505     30.0712    127.0358
   507.7500      0.0000    301.1119     29.5624    131.8909
   508.0000      0.0000    301.1876     28.9858    134.3276
   508.2500      0.0000    301.2980     28.3087    132.4162
   508.5000      0.0000    301.4517     27.5375    126.5733
   508.7500      0.0000    301.6402     26.7258    119.6916
   509.0000      0.0000    301.8421     25.9526    114.9536
   509.2500      0.0000    302.0315     25.2831    113.4871
   509.5000      0.0000    302.1914     24.7403    114.1004
   509.7500      0.0000    302.3239     24.3051    114.9437
   510.0000      0.0000    302.4447     23.9431    115.0317
   510.2500      0.0000    302.5625     23.6363    114.3712
   510.5000      0.0000    302.6649     23.3916    113.3952
   510.7500      0.0000    302.7316     23.2186    112.7504
   511.0000      0.0000    302.7574     23.1117    113.2983
   511.2500      0.0000    302.7547     23.0634    115.6932
   511.5000      0.0000    302.7352     23.0861    119.7980
   511.7500      0.0000    302.6968     23.2118    124.6919
   512.0000      0.0000    302.6297     23.4728    129.1140
   512.2500      0.0000    302.5275     23.8854    131.6776
   512.5000      0.0000    302.3911     24.4323    131.0470
   512.7500      0.0000    302.2313     25.0517    126.7342
   513.0000      0.0000    302.0696     25.6574    120.0042
   513.2500      0.0000    301.9262     26.1867    113.6172
   513.5000      0.0000    301.7999     26.6282    110.2444
   513.7500      0.0000    301.6697     27.0012    110.7061
   514.0000      0.0000    301.5215     27.3233    113.3789
   514.2500      0.0000    301.3690     27.6027    115.2630
   514.5000      0.0000    301.2452     27.8448    113.8757
   514.7500      0.0000    301.1766     28.0555    108.4845
   515.0000      0.0000    301.1634     28.2459    100.1041
   515.2500      0.0000    301.1807     28.4334     90.8670
   515.5000      0.0000    301.1951     28.6296     83.1084
   515.7500      0.0000    301.1828     28.8265     78.1348
   516.0000      0.0000    301.1404     29.0040     75.5641
   516.2500      0.0000    301.0834     29.1497     74.2371
   516.5000      0.0000    301.0354     29.2640     73.8469
   516.7500      0.0000    301.0148     29.3476     75.4679
   517.0000      0.0000    301.0269     29.3943     80.4818
   517.2500      0.0000    301.0632     29.3996     88.9457
   517.5000      0.0000    301.1118     29.3584     98.8819
   517.7500      0.0000    301.1687     29.2486    107.3512
   518.0000      0.0000    301.2397     29.0294    112.6154
   518.2500      0.0000    301.3269     28.6755    115.4262
   518.5000      0.0000    301.4190     28.2103    118.1458
   518.7500      0.0000    301.5004     27.6960    122.4587
   519.0000      0.0000    301.5672     27.1930    127.7015
   519.2500      0.0000    301.6311     26.7345    131.1416
   519.5000      0.0000    301.7069     26.3346    129.8543
   519.7500      0.0000    301.7990     26.0055    122.8258
   520.0000      0.0000    301.8986     25.7582    111.7596
   520.2500      0.0000    301.9901     25.5855     99.9319
   520.5000      0.0000    302.0629     25.4531     90.1549
   520.7500      0.0000    302.1183     25.3170     83.6988
   521.0000      0.0000    302.1653     25.1580     80.4510
   521.2500      0.0000    302.2114     24.9945     79.3509
   521.5000      0.0000    302.2576     24.8604     79.1444
   521.7500      0.0000    302.3001     24.7748     79.7377
   522.0000      0.0000    302.3342     24.7366     82.7532
   522.2500      0.0000    302.3589     24.7357     89.9132
   522.5000      0.0000    302.3814     24.7581    100.5266
   522.7500      0.0000    302.4176     24.7834    110.9165
   523.0000      0.0000    302.4851     24.7845    116.8451
   523.2500      0.0000    302.5965     24.7319    116.6667
   523.5000      0.0000    302.7588     24.5991    112.1068
   523.7500      0.0000    302.9782     24.3714    106.3259
   524.0000      0.0000    303.2552     24.0585    101.6556
   524.2500      0.0000    303.5739     23.6974     98.7976
   524.5000      0.0000    303.8984     23.3402     97.3106
   524.7500      0.0000    304.2190     23.0313     96.5337
   525.0000      0.0000    304.6402     22.7869     96.2179
   525.2500      0.0000    305.7528     22.5848     96.3152
   525.5000      0.0000    309.4494     22.3631     96.3837
   525.7500      0.0000    319.8740     22.0195     95.8351
   526.0000      0.0000    342.5558     21.4157     94.9749
   526.2500      0.0000    379.3203     20.4482     95.3667
   526.5000      0.0000    421.6493     19.1970     98.7127
   526.7500      0.0000    452.2253     17.9718    105.2268
   527.0000      0.0000    458.5460     17.0894    113.1691
   527.2500      0.0000    444.6367     16.6057    120.1913
   527.5000      0.0000    425.8747     16.3648    125.1253
   527.7500      0.0000    414.5443     16.2561    128.0951
   528.0000      0.0000    414.6893     16.2895    129.1292
   528.2500     -2.0000    426.7780     16.4708    127.9004
