~Version Information
VERS.                      2.0: CWLS Log ASCII Standard - VERSION 2.0
WRAP.                       NO: One line per depth step
~Well Information Block
STRT.FT                -7.7500: 
STOP.FT              2446.5000: 
STEP.FT                 0.2500: 
NULL.                -999.2500: 
COMP.          XTO Energy Inc.: COMPANY
WELL.          Hill Ranch 15-09: WELL
FLD.           Purgatoire River: FIELD
LOC.           1816' FSL & 521' FEL: LOCATION
STAT.                 Colorado: State
CNTY.               Las Animas: COUNTY
CTRY. USA : Country
SECT. 15 : Section
TOWN. 35S : Township
RANG. 67W : Range
SRVC.          Patterson Wireline: SERVICE COMPANY
DATE.          Fri Dec 09 17:49:58 2005: LOG DATE
API. 05-071-08474                          : UNIQUE WELL ID
~Curve Information Block
DEPT.FT            0 000 00 00: Depth
CCL.                          : Casing Collar Locator
TT3.usec                      : CBL 3' Travel Time
AMP3.mV                       : CBL 3' Amplitude
AMP5.mV                       : CBL 5' Amplitude
GR.GAPI                       : Gamma Ray
~Parameter Information Block
~A  Depth       CCL         TT3         AMP3        AMP5         GR     
# ...
  2092.2500      0.0000    259.3159     77.6238     74.4052    100.6383
  2092.5000      0.0000    259.3095     77.6933     74.4140     99.3797
  2092.7500      0.0000    259.3079     77.7316     74.3811     98.2920
  2093.0000      0.0000    259.3136     77.7415     74.3461     98.4345
  2093.2500      0.0000    259.3257     77.7365     74.3163     99.5936
  2093.5000      0.0000    259.3391     77.7368     74.2775    100.7866
  2093.7500      0.0000    259.3458     77.7623     74.2308    101.3379
  2094.0000      0.0000    259.3402     77.8231     74.1987    101.4764
  2094.2500      0.0000    259.3229     77.9096     74.1938    101.8040
  2094.5000      0.0000    259.2998     77.9956     74.1987    102.1935
  2094.7500      0.0000    259.2768     78.0575     74.1765    101.3387
  2095.0000      0.0000    259.2563     78.0886     74.0991     97.5963
  2095.2500      0.0000    259.2399     78.0964     73.9720     90.5457
  2095.5000      0.0000    259.2312     78.0873     73.8449     81.9449
  2095.7500      0.0000    259.2355     78.0602     73.7901     75.0612
  2096.0000      0.0000    259.2536     78.0142     73.8503     72.6005
  2096.2500      0.0000    259.2784     77.9611     73.9899     74.8559
  2096.5000      0.0000    259.2968     77.9219     74.0966     79.8102
  2096.7500      0.0000    259.2989     77.9101     74.0424     85.0775
  2097.0000      0.0000    259.2841     77.9203     73.7613     89.5831
  2097.2500      0.0000    259.2597     77.9331     73.2876     93.5071
  2097.5000      0.0000    259.2329     77.9213     72.7303     97.2513
  2097.7500      0.0000    259.2048     77.8506     72.2095    100.7929
  2098.0000      0.0000    259.1738     77.6866     71.8039    103.6700
  2098.2500      0.0000    259.1423     77.4125     71.5465    105.2538
  2098.5000      0.0000    259.1186     77.0410     71.4587    105.1413
  2098.7500      0.0000    259.1106     76.6095     71.5726    103.5200
  2099.0000      0.0000    259.1187     76.1727     71.9077    101.1985
  2099.2500      0.0000    259.1348     75.8002     72.4255     99.1501
  2099.5000      0.0000    259.1476     75.5659     73.0127     97.8013
  2099.7500      0.0000    259.1498     75.5181     73.5233     96.6602
  2100.0000      0.0000    259.1406     75.6512     73.8455     94.6649
  2100.2500      0.0000    259.1245     75.9025     73.9446     90.9555
  2100.5000      0.0000    259.1075     76.1736     73.8650     85.4825
  2100.7500      0.0000    259.0939     76.3618     73.7059     78.9806
  2101.0000      0.0000    259.0846     76.3984     73.5775     72.2726
  2101.2500      0.0000    259.0780     76.2796     73.5409     65.6865
  2101.5000      0.0000    259.0715     76.0626     73.5626     59.2553
  2101.7500      0.0000    259.0634     75.8246     73.5272     53.2418
  2102.0000      0.0000    259.0542     75.6225     73.3138     48.2386
  2102.2500      0.0000    259.0446     75.4907     72.8765     44.9083
  2102.5000      0.0000    259.0331     75.4568     72.2653     43.6039
  2102.7500      0.0000    259.0160     75.5406     71.5952     43.9887
  2103.0000      0.0000    258.9922     75.7375     71.0110     45.0389
  2103.2500      0.0000    258.9662     76.0098     70.6509     45.6515
  2103.5000      0.0000    258.9453     76.2964     70.5933     45.2542
  2103.7500      0.0000    258.9355     76.5396     70.8230     43.8554
  2104.0000      0.0000    258.9383     76.7138     71.2536     41.8189
  2104.2500      0.0000    258.9515     76.8310     71.7841     39.7532
  2104.5000      0.0000    258.9727     76.9152     72.3224     38.4529
  2104.7500      0.0000    259.0000     76.9790     72.7719     38.7347
  2105.0000      0.0000    259.0302     77.0239     73.0355     41.0615
  2105.2500      0.0000    259.0567     77.0545     73.0656     45.1437
  2105.5000      0.0000    259.0703     77.0806     72.8981     50.0746
  2105.7500      0.0000    259.0643     77.1086     72.6247     55.0455
  2106.0000      0.0000    259.0391     77.1340     72.3389     59.7545
  2106.2500      0.0000    259.0045     77.1434     72.1102     64.0509
  2106.5000      0.0000    258.9738     77.1223     71.9842     67.6220
  2106.7500      0.0000    258.9555     77.0609     71.9868     70.3012
  2107.0000      0.0000    258.9502     76.9566     72.1239     72.2410
  2107.2500      0.0000    258.9533     76.8203     72.3717     73.5225
  2107.5000      0.0000    258.9607     76.6832     72.6614     74.0328
  2107.7500      0.0000    258.9720     76.5925     72.8878     74.2043
  2108.0000      0.0000    258.9909     76.5888     72.9596     75.6674
  2108.2500      0.0000    259.0214     76.6821     72.8563     80.5413
  2108.5000      0.0000    259.0619     76.8438     72.6466     89.5900
  2108.7500      0.0000    259.1039     77.0232     72.4509    100.9395
  2109.0000      0.0000    259.1370     77.1771     72.3702    110.8571
  2109.2500      0.0000    259.1570     77.2848     72.4309    116.2725
  2109.5000      0.0000    259.1691     77.3386     72.5836    116.7102
  2109.7500      0.0000    259.1828     77.3286     72.7428    113.7696
  2110.0000      0.0000    259.2021     77.2481     72.8316    109.1020
  2110.2500      0.0000    259.2202     77.1158     72.8167    103.3036
  2110.5000      0.0000    259.2215     76.9884     72.7208     96.5033
  2110.7500      0.0000    259.1936     76.9378     72.6075     89.2916
  2111.0000      0.0000    259.1408     76.9996     72.5429     82.7816
  2111.2500      0.0000    259.0841     77.1381     72.5575     78.0202
  2111.5000      0.0000    259.0460     77.2748     72.6269     75.4794
  2111.7500      0.0000    259.0333     77.3555     72.6894     74.9450
  2112.0000      0.0000    259.0364     77.3824     72.6933     75.7339
  2112.2500      0.0000    259.0416     77.3905     72.6312     77.0640
  2112.5000      0.0000    259.0433     77.4088     72.5326     78.4062
  2112.7500      0.0000    259.0443     77.4503     72.4381     79.6493
  2113.0000      0.0000    259.0486     77.5213     72.3912     80.9962
  2113.2500      0.0000    259.0558     77.6209     72.4309     82.7442
  2113.5000      0.0000    259.0611     77.7333     72.5642     85.1073
  2113.7500      0.0000    259.0596     77.8267     72.7425     87.9416
  2114.0000      0.0000    259.0506     77.8632     72.8841     90.3691
  2114.2500      0.0000    259.0398     77.8158     72.9276     91.0686
  2114.5000      0.0000    259.0361     77.6860     72.8697     89.4705
  2114.7500      0.0000    259.0454     77.5099     72.7572     86.4661
  2115.0000      0.0000    259.0664     77.3387     72.6454     83.6761
  2115.2500      0.0000    259.0920     77.2088     72.5690     82.3028
  2115.5000      0.0000    259.1138     77.1278     72.5461     82.7251
  2115.7500      0.0000    259.1267     77.0787     72.5877     84.6150
  2116.0000      0.0000    259.1304     77.0330     72.6801     87.2627
  2116.2500      0.0000    259.1278     76.9697     72.7704     90.1122
  2116.5000      0.0000    259.1221     76.8940     72.7949     92.9874
  2116.7500      0.0000    259.1139     76.8333     72.7284     95.5841
  2117.0000      0.0000    259.1015     76.8088     72.6033     97.0303
  2117.2500      0.0000    259.0844     76.8148     72.4871     96.3029
  2117.5000      0.0000    259.0660     76.8267     72.4402     93.1729
  2117.7500      0.0000    259.0533     76.8198     72.4813     88.7618
  2118.0000      0.0000    259.0544     76.7803     72.5712     85.1047
  2118.2500      0.0000    259.0713     76.7105     72.6309     83.9474
  2118.5000      0.0000    259.0955     76.6296     72.5968     85.7412
  2118.7500      0.0000    259.1113     76.5615     72.4761     89.4939
  2119.0000      0.0000    259.1077     76.5194     72.3456     93.4057
  2119.2500      0.0000    259.0860     76.5010     72.2971     95.9579
  2119.5000      0.0000    259.0598     76.4923     72.3805     96.8177
  2119.7500      0.0000    259.0437     76.4809     72.5723     96.7309
  2120.0000      0.0000    259.0403     76.4711     72.7722     96.4744
