~Version Information
VERS.                      2.0: CWLS Log ASCII Standard - VERSION 2.0
WRAP.                       NO: One line per depth step
~Well Information Block
STRT.FT               830.0000: 
STOP.FT              2368.5000: 
STEP.FT                 0.1000: 
NULL.                -999.2500: 
COMP.          Pioneer Natural Resources: COMPANY
WELL.              Rolls 14-14: WELL
FLD.           Purgatoire River: FIELD
LOC.           572' FSL & 856' FWL: LOCATION
PROV.                 Colorado: PROVINCE
CNTY.               Las Animas: COUNTRY
SRVC.                Patterson: SERVICE COMPANY
DATE.          Mon Aug 01 05:48:31 2005: LOG DATE
UWI.           05 071 08455 00: UNIQUE WELL ID
~Curve Information Block
DEPT.FT            0 000 00 00: Depth
DCAL.in                       : CDL Caliper
RHOB.g/cc                     : CDL Bulk Density
RHOC.g/cc                     : CDL Density Correction
DPOR.pu                       : CDL Density Porosity
GR.GAPI                       : Gamma Ray
NPOR.pu                       : Neutron Porosity
~Parameter Information Block
~A  Depth       DCAL        RHOB        RHOC        DPOR         GR         NPOR    
# ...
  2356.4000      7.8734      2.6417      0.1339      0.5034   -999.2500   -999.2500
  2356.5000      7.8970      2.6590      0.1521     -0.5462   -999.2500   -999.2500
  2356.6000      7.8970      2.6538      0.1384     -0.2332   -999.2500   -999.2500
  2356.7000      7.8970      2.6235      0.1131      1.6070   -999.2500   -999.2500
  2356.8000      7.8890      2.5831      0.0947      4.0518   -999.2500   -999.2500
  2356.9000      7.8890      2.5599      0.0673      5.4577   -999.2500   -999.2500
  2357.0000      7.8670      2.5636      0.1036      5.2368   -999.2500   -999.2500
  2357.1000      7.8670      2.5720      0.1354      4.7264   -999.2500   -999.2500
  2357.2000      7.8670      2.5650      0.0950      5.1519   -999.2500   -999.2500
  2357.3000      7.9138      2.5460      0.0734      6.3043   -999.2500   -999.2500
  2357.4000      7.9138      2.5210      0.0549      7.8159   -999.2500   -999.2500
  2357.5000      7.9032      2.4958      0.0481      9.3431   -999.2500   -999.2500
  2357.6000      7.9032      2.4877      0.0267      9.8359   -999.2500   -999.2500
  2357.7000      7.9032      2.4995      0.1010      9.1225   -999.2500   -999.2500
  2357.8000      7.9005      2.5100      0.0882      8.4848   -999.2500   -999.2500
  2357.9000      7.9005      2.5117      0.0333      8.3813   -999.2500   -999.2500
  2358.0000      7.8916      2.5171      0.0187      8.0547   -999.2500   -999.2500
  2358.1000      7.8916      2.5324      0.0434      7.1280   -999.2500   -999.2500
  2358.2000      7.8916      2.5460      0.0663      6.3056   -999.2500   -999.2500
  2358.3000      7.8940      2.5439      0.0776      6.4292   -999.2500   -999.2500
  2358.4000      7.8940      2.5301      0.0415      7.2692   -999.2500   -999.2500
  2358.5000      7.9007      2.5183      0.0398      7.9825   -999.2500   -999.2500
  2358.6000      7.9007      2.5171      0.0547      8.0525   -999.2500   -999.2500
  2358.7000      7.9007      2.5308      0.0129      7.2213   -999.2500   -999.2500
  2358.8000      7.9042      2.5598      0.0291      5.4690   -999.2500   -999.2500
  2358.9000      7.9042      2.5937      0.1113      3.4102   -999.2500   -999.2500
  2359.0000      7.8899      2.6187      0.0790      1.8940   -999.2500   -999.2500
  2359.1000      7.8899      2.6358      0.0956      0.8587   -999.2500   -999.2500
  2359.2000      7.8899      2.6516      0.1747     -0.0965   -999.2500   -999.2500
  2359.3000      7.9032      2.6652      0.1818     -0.9236   -999.2500   -999.2500
  2359.4000      7.9032      2.6716      0.1912     -1.3077   -999.2500   -999.2500
  2359.5000      7.8900      2.6621      0.1303     -0.7331   -999.2500   -999.2500
  2359.6000      7.8900      2.6381      0.0795      0.7186   -999.2500   -999.2500
  2359.7000      7.8900      2.6069      0.0551      2.6096   -999.2500   -999.2500
  2359.8000      7.8709      2.5734      0.0520      4.6414   -999.2500   -999.2500
  2359.9000      7.8709      2.5537      0.0370      5.8364   -999.2500   -999.2500
  2360.0000      7.8978      2.5631      0.0890      5.2668   -999.2500   -999.2500
  2360.1000      7.8978      2.5836      0.1438      4.0226   -999.2500   -999.2500
  2360.2000      7.8978      2.5849      0.0918      3.9449   -999.2500   -999.2500
  2360.3000      7.8914      2.5666      0.1383      5.0534   -999.2500   -999.2500
  2360.4000      7.8914      2.5463      0.0943      6.2834   -999.2500   -999.2500
  2360.5000      7.8759      2.5432      0.0719      6.4705   -999.2500   -999.2500
  2360.6000      7.8759      2.5696      0.1126      4.8702   -999.2500   -999.2500
  2360.7000      7.8759      2.6173      0.1500      1.9791   -999.2500   -999.2500
  2360.8000      7.8773      2.6633      0.1801     -0.8082   -999.2500   -999.2500
  2360.9000      7.8773      2.6888      0.1732     -2.3519   -999.2500   -999.2500
  2361.0000      7.8455      2.6920      0.1925     -2.5451   -999.2500   -999.2500
  2361.1000      7.8455      2.6830      0.1703     -1.9996   -999.2500   -999.2500
  2361.2000      7.8455      2.6707      0.1522     -1.2523   -999.2500   -999.2500
  2361.3000      7.8348      2.6518      0.1849     -0.1070   -999.2500   -999.2500
  2361.4000      7.8348      2.6226      0.1390      1.6580   -999.2500   -999.2500
  2361.5000      7.8003      2.5955      0.0489      3.3044   -999.2500   -999.2500
  2361.6000      7.8003      2.5794      0.0996      4.2792   -999.2500   -999.2500
  2361.7000      7.8003      2.5706      0.0685      4.8126   -999.2500   -999.2500
  2361.8000      7.8874      2.5646      0.1613      5.1757   -999.2500   -999.2500
  2361.9000      7.8874      2.5602      0.1025      5.4395   -999.2500   -999.2500
  2362.0000      7.9115      2.5606      0.1105      5.4197   -999.2500   -999.2500
  2362.1000      7.9115      2.5645      0.0837      5.1802   -999.2500   -999.2500
  2362.2000      7.9115      2.5720      0.0861      4.7283   -999.2500   -999.2500
  2362.3000      7.9154      2.5842      0.1104      3.9902   -999.2500   -999.2500
  2362.4000      7.9154      2.5991      0.1197      3.0868   -999.2500   -999.2500
  2362.5000      7.9097      2.6148      0.1187      2.1339   -999.2500   -999.2500
  2362.6000      7.9097      2.6222      0.1349      1.6850   -999.2500   -999.2500
  2362.7000      7.9097      2.6080      0.1299      2.5480   -999.2500   -999.2500
  2362.8000      7.9112      2.5806      0.0644      4.2050   -999.2500   -999.2500
  2362.9000      7.9112      2.5664      0.0681      5.0653   -999.2500   -999.2500
  2363.0000      7.8803      2.5704      0.0820      4.8254   -999.2500   -999.2500
  2363.1000      7.8803      2.5710      0.1326      4.7867   -999.2500   -999.2500
  2363.2000      7.8803      2.5594      0.0899      5.4922   -999.2500   -999.2500
  2363.3000      7.8670      2.5499      0.0943      6.0650   -999.2500   -999.2500
  2363.4000      7.8670      2.5488      0.1185      6.1360   -999.2500   -999.2500
  2363.5000      7.8683      2.5582      0.0885      5.5653   -999.2500   -999.2500
  2363.6000      7.8683      2.5836      0.1006      4.0238   -999.2500   -999.2500
  2363.7000      7.8683      2.6077      0.1896      2.5662   -999.2500   -999.2500
  2363.8000      7.8479      2.6128      0.1098      2.2529   -999.2500   -999.2500
  2363.9000      7.8479      2.6075      0.1449      2.5738   -999.2500   -999.2500
  2364.0000      7.8511      2.5991      0.1544      3.0864   -999.2500   -999.2500
  2364.1000      7.8511      2.5925      0.0974      3.4836   -999.2500   -999.2500
  2364.2000      7.8511      2.5998      0.0899      3.0405   -999.2500   -999.2500
  2364.3000      7.8223      2.6190      0.0904      1.8817   -999.2500   -999.2500
  2364.4000      7.8223      2.6292      0.1396      1.2609   -999.2500   -999.2500
  2364.5000      7.8206      2.6251      0.1028      1.5111   -999.2500   -999.2500
  2364.6000      7.8206      2.6269      0.0772      1.3988   -999.2500   -999.2500
  2364.7000      7.8206      2.6363      0.1943      0.8327   -999.2500   -999.2500
  2364.8000      7.8222      2.6528      0.0945     -0.1687   -999.2500   -999.2500
  2364.9000      7.8222      2.7198      0.0644     -4.2319   -999.2500   -999.2500
  2365.0000      7.8281      2.7346      0.1123     -5.1266   -999.2500   -999.2500
  2365.1000      7.8281      2.2793      0.5453     22.4685   -999.2500   -999.2500
  2365.2000      7.8281      1.2915      0.0200     82.3356   -999.2500   -999.2500
  2365.3000      7.8192      0.4374      0.0200    134.0963   -999.2500   -999.2500
  2365.4000      7.8192      0.0830   -999.2500    155.5752   -999.2500   -999.2500
  2365.5000      7.4793      0.0086   -999.2500    160.0877   -999.2500   -999.2500
  2365.6000      7.4793      0.0005   -999.2500    160.5779   -999.2500   -999.2500
  2365.7000      7.4793      0.0000   -999.2500    160.6061   -999.2500   -999.2500
  2365.8000      5.3771      0.0000   -999.2500    160.6061   -999.2500   -999.2500
  2365.9000      5.3771   -999.2500   -999.2500   -999.2500   -999.2500   -999.2500
