~Version Information
VERS.                      2.0: CWLS Log ASCII Standard - VERSION 2.0
WRAP.                       NO: One line per depth step
~Well Information Block
STRT.FT               970.0000: 
STOP.FT              1882.0000: 
STEP.FT                 0.2500: 
NULL.                -999.2500: 
COMP.          Petrogulf Corporation: COMPANY
WELL.             Norton 9-14R: WELL
FLD.           Purgatorie River: FIELD
LOC.           725' FSL & 1103' FWL: LOCATION
PROV.                 Colorado: PROVINCE
CNTY.               Las Animas: COUNTRY
SRVC.                Patterson: SERVICE COMPANY
DATE.          Thu Oct 06 16:10:47 2005: LOG DATE
UWI.                          : UNIQUE WELL ID
~Curve Information Block
DEPT.FT            0 000 00 00: Depth
SP.mV                         : DIL Spontaneous Potential
RILD.Ohm-m                    : DIL Deep Resistivity
RILM.Ohm-m                    : DIL Medium Resistivity
RLL3.Ohm-m                    : DIL Shallow Resistivity
GR.GAPI                       : Gamma Ray
~Parameter Information Block
~A  Depth        SP         RILD        RILM        RLL3         GR     
# ...
  1222.0000    198.2621      7.9206      9.0213     21.3275     95.2671
  1222.2500    197.7897      8.0494      9.3280     26.3510     92.1210
  1222.5000    197.3067      8.1877      9.5402     30.4817     87.1501
  1222.7500    196.8296      8.3430      9.6475     31.8040     83.4094
  1223.0000    196.3767      8.5164      9.6616     29.4210     77.3708
  1223.2500    195.9529      8.7006      9.6126     24.2516     74.2553
  1223.5000    195.5449      8.8823      9.5386     18.4235     73.7815
  1223.7500    195.1347      9.0446      9.4749     13.8378     77.1767
  1224.0000    194.7178      9.1695      9.4469     11.2304     87.0768
  1224.2500    194.3074      9.2395      9.4673     10.2904     95.3946
  1224.5000    193.9207      9.2408      9.5362     10.3373    107.3000
  1224.7500    193.5608      9.1677      9.6420     10.8667    113.3512
  1225.0000    193.2112      9.0273      9.7637     11.7154    118.7393
  1225.2500    192.8493      8.8394      9.8738     12.9514    120.4502
  1225.5000    192.4698      8.6303      9.9420     14.6504    121.6218
  1225.7500    192.1006      8.4241      9.9406     16.6728    121.7396
  1226.0000    191.7977      8.2357      9.8511     18.5572    120.4968
  1226.2500    191.6176      8.0693      9.6688     19.6423    118.5038
  1226.5000    191.5834      7.9216      9.4036     19.3952    114.0250
  1226.7500    191.6714      7.7858      9.0773     17.7505    110.8240
  1227.0000    191.8272      7.6554      8.7166     15.2090    108.4929
  1227.2500    191.9979      7.5242      8.3474     12.5789    110.3479
  1227.5000    192.1534      7.3855      7.9895     10.5258    118.5508
  1227.7500    192.2845      7.2321      7.6554      9.2800    125.6084
  1228.0000    192.3824      7.0592      7.3509      8.6914    133.8400
  1228.2500    192.4208      6.8679      7.0773      8.4857    136.0207
  1228.5000    192.3591      6.6667      6.8333      8.4631    134.0502
  1228.7500    192.1628      6.4699      6.6175      8.5289    130.2220
  1229.0000    191.8212      6.2925      6.4294      8.6235    123.5356
  1229.2500    191.3518      6.1460      6.2697      8.6696    120.3066
  1229.5000    190.7990      6.0362      6.1406      8.5901    119.5555
  1229.7500    190.2266      5.9640      6.0444      8.3660    121.9451
  1230.0000    189.6955      5.9271      5.9834      8.0734    128.0502
  1230.2500    189.2398      5.9211      5.9590      7.8618    132.0381
  1230.5000    188.8694      5.9412      5.9707      7.8778    135.3067
  1230.7500    188.5996      5.9821      6.0163      8.1762    135.2360
  1231.0000    188.4725      6.0381      6.0914      8.6737    132.9419
  1231.2500    188.5427      6.1037      6.1903      9.1906    130.8749
  1231.5000    188.8399      6.1747      6.3062      9.5726    127.3310
  1231.7500    189.3465      6.2493      6.4319      9.7987    124.3529
  1232.0000    190.0073      6.3278      6.5615      9.9607    119.0194
  1232.2500    190.7482      6.4118      6.6899     10.1275    115.5988
  1232.5000    191.4844      6.5022      6.8141     10.2539    112.3107
  1232.7500    192.1273      6.5981      6.9320     10.2441    111.9839
  1233.0000    192.6046      6.6970      7.0426     10.0771    114.1058
  1233.2500    192.8818      6.7958      7.1452      9.8397    116.3415
  1233.5000    192.9675      6.8918      7.2396      9.6488    118.8085
  1233.7500    192.8989      6.9842      7.3254      9.5622    119.0842
  1234.0000    192.7279      7.0732      7.4035      9.5530    117.6549
  1234.2500    192.5067      7.1599      7.4756      9.5485    116.2722
  1234.5000    192.2721      7.2454      7.5447      9.4973    115.1376
  1234.7500    192.0329      7.3309      7.6152      9.4157    115.5581
  1235.0000    191.7704      7.4185      7.6917      9.3787    117.7271
  1235.2500    191.4560      7.5113      7.7791      9.4607    119.5737
  1235.5000    191.0755      7.6124      7.8817      9.6703    122.0446
  1235.7500    190.6460      7.7241      8.0028      9.9416    123.3455
  1236.0000    190.2089      7.8458      8.1447     10.1917    124.7757
  1236.2500    189.7976      7.9740      8.3081     10.3844    125.3800
  1236.5000    189.4098      8.1027      8.4915     10.5422    125.8578
  1236.7500    189.0087      8.2248      8.6906     10.7117    125.7870
  1237.0000    188.5490      8.3335      8.8979     10.9285    124.1310
  1237.2500    187.9985      8.4238      9.1018     11.2043    121.4581
  1237.5000    187.3358      8.4927      9.2880     11.5246    115.8807
  1237.7500    186.5417      8.5402      9.4403     11.8474    112.5776
  1238.0000    185.6052      8.5690      9.5445     12.1119    110.4947
  1238.2500    184.5406      8.5857      9.5919     12.2587    111.3049
  1238.5000    183.3959      8.5998      9.5819     12.2435    114.6338
  1238.7500    182.2392      8.6213      9.5241     12.0377    117.1570
  1239.0000    181.1380      8.6572      9.4356     11.6285    119.9152
  1239.2500    180.1413      8.7072      9.3382     11.0376    120.9166
  1239.5000    179.2757      8.7618      9.2536     10.3454    122.2511
  1239.7500    178.5528      8.8032      9.1987      9.6978    123.8637
  1240.0000    177.9814      8.8093      9.1829      9.3044    127.4229
  1240.2500    177.5737      8.7593      9.2050      9.4850    129.4382
  1240.5000    177.3419      8.6409      9.2517     10.7676    129.4156
  1240.7500    177.2944      8.4557      9.2980     13.8646    126.6906
  1241.0000    177.4382      8.2193      9.3100     19.2414    119.2252
  1241.2500    177.7852      7.9573      9.2533     26.2826    112.7931
  1241.5000    178.3533      7.6969      9.1040     32.8042    101.7865
  1241.7500    179.1514      7.4604      8.8581     35.9044     93.9099
  1242.0000    180.1471      7.2609      8.5337     33.9427     82.9980
  1242.2500    181.2412      7.1019      8.1637     27.8466     77.9996
  1242.5000    182.2795      6.9782      7.7843     20.3548     76.2756
  1242.7500    183.1018      6.8784      7.4250     14.0306     79.2313
  1243.0000    183.6001      6.7876      7.1041      9.9709     88.6237
  1243.2500    183.7505      6.6905      6.8293      7.9410     97.2100
  1243.5000    183.6117      6.5762      6.6004      7.1873    111.9428
  1243.7500    183.2969      6.4414      6.4127      7.0454    121.9229
  1244.0000    182.9341      6.2911      6.2597      7.1170    135.0889
  1244.2500    182.6273      6.1366      6.1353      7.2112    141.7349
  1244.5000    182.4297      5.9906      6.0347      7.2549    147.9923
  1244.7500    182.3419      5.8631      5.9545      7.2431    149.8882
  1245.0000    182.3400      5.7594      5.8922      7.2103    150.0979
  1245.2500    182.4199      5.6811      5.8457      7.2046    149.2021
  1245.5000    182.6248      5.6264      5.8123      7.2678    148.1212
  1245.7500    183.0289      5.5925      5.7890      7.4177    148.5732
  1246.0000    183.6886      5.5766      5.7725      7.6276    151.4372
  1246.2500    184.5956      5.5760      5.7602      7.8173    154.3259
  1246.5000    185.6631      5.5884      5.7502      7.8857    159.5077
  1246.7500    186.7507      5.6111      5.7423      7.7761    163.7425
  1247.0000    187.7113      5.6403      5.7373      7.5217    171.5372
  1247.2500    188.4386      5.6707      5.7368      7.2277    177.0257
  1247.5000    188.8901      5.6972      5.7423      7.0099    183.2084
  1247.7500    189.0814      5.7158      5.7546      6.9413    184.4655
  1248.0000    189.0596      5.7254      5.7735      7.0293    180.7772
  1248.2500    188.8748      5.7283      5.7979      7.2201    174.9247
  1248.5000    188.5637      5.7290      5.8267      7.4242    162.7799
  1248.7500    188.1492      5.7324      5.8587      7.5570    153.4814
  1249.0000    187.6553      5.7426      5.8941      7.5742    139.0764
  1249.2500    187.1209      5.7618      5.9334      7.4871    129.8442
  1249.5000    186.5999      5.7904      5.9778      7.3574    117.3736
  1249.7500    186.1495      5.8274      6.0280      7.2706    109.9911
