~Version Information
VERS.                      2.0: CWLS Log ASCII Standard - VERSION 2.0
WRAP.                       NO: One line per depth step
~Well Information Block
STRT.FT                 0.0000: 
STOP.FT              1981.7500: 
STEP.FT                 0.2500: 
NULL.                -999.2500: 
COMP.          Petrogulf Corporation: COMPANY
WELL.          Collister 17-31R: WELL
FLD.           Purgatorie River: FIELD
LOC.           962' FNL & 1520' FEL: LOCATION
STAT.                 Colorado: State
CNTY.               Las Animas: COUNTY
CTRY. USA : Country
SECT. 17 : Section
TOWN. 33S : Township
RANG. 67W : Range
SRVC.                Patterson: SERVICE COMPANY
DATE.          Fri Jan 06 10:32:29 2006: LOG DATE
API. 05-071-08436                         : UNIQUE WELL ID
~Curve Information Block
DEPT.FT            0 000 00 00: Depth
CCL.                          : Casing Collar Locator
TT3.usec                      : CBL 3' Travel Time
AMP3.mV                       : CBL 3' Amplitude
GR.GAPI                       : Gamma Ray
~Parameter Information Block
~A  Depth       CCL         TT3         AMP3         GR     
# ...
   268.0000      0.0000    329.0833      9.4645    106.0867
   268.2500      0.0000    328.9380      9.5223    103.5509
   268.5000      0.0000    328.9652      9.6071    100.5883
   268.7500      0.0000    329.0348      9.7285     98.1892
   269.0000      0.0000    329.1348      9.8668     96.5407
   269.2500      0.0000    329.2892      9.9942     95.0443
   269.5000      0.0000    329.5565     10.0983     93.3108
   269.7500      0.0000    330.1629     10.1608     91.8705
   270.0000      0.0000    331.7761     10.1649     91.4808
   270.2500      0.0000    335.6729     10.1398     91.9621
   270.5000      0.0000    342.7249     10.1329     92.1864
   270.7500      0.0000    351.4063     10.1568     91.2506
   271.0000      0.0000    358.4109     10.2027     89.4168
   271.2500      0.0000    362.0835     10.2780     87.8388
   271.5000      0.0000    363.3487     10.3954     87.3720
   271.7500      0.0000    363.6459     10.5207     87.6523
   272.0000      0.0000    363.6837     10.5837     87.3931
   272.2500      0.0000    363.6668     10.5516     85.6740
   272.5000      0.0000    363.8563     10.4511     82.9309
   272.7500      0.0000    365.1638     10.3462     80.6093
   273.0000      0.0000    369.3817     10.2601     79.8418
   273.2500      0.0000    377.8872     10.0575     80.4442
   273.5000      0.0000    389.7102      9.5482     81.0486
   273.7500      0.0000    402.5103      8.7857     80.1607
   274.0000      0.0000    414.7089      8.1201     77.2825
   274.2500      0.0000    423.8974      7.8491     73.2566
   274.5000      0.0000    425.8588      7.9085     69.7098
   274.7500      0.0000    418.8248      8.0285     68.1617
   275.0000      0.0000    406.9028      8.0654     69.2737
   275.2500     -2.0000    396.7295      8.0577     72.6756
   275.5000      0.0000    391.3768      8.0607     77.5834
   275.7500      0.0000    389.2441      8.0699     83.3856
   276.0000      0.0000    387.8546      8.1152     89.2917
   276.2500      0.0000    387.3438      8.2551     93.8990
   276.5000      0.0000    388.8412      8.3959     95.9220
   276.7500      0.0000    388.5988      8.4588     95.3836
   277.0000      0.0000    380.5343      8.6407     93.6691
   277.2500      0.0000    366.6127      9.0291     92.2831
   277.5000      0.0000    355.0459      9.3675     91.6869
   277.7500      0.0000    349.6529      9.4494     91.3511
   278.0000      0.0000    348.3637      9.3096     90.6749
   278.2500      0.0000    348.3264      9.0533     89.5885
   278.5000      0.0000    348.3031      8.7544     88.3123
   278.7500      0.0000    348.2300      8.4870     86.8381
   279.0000      0.0000    348.5727      8.3136     84.8335
   279.2500      0.0000    350.3396      8.2415     82.0016
   279.5000      0.0000    355.2540      8.2378     78.4193
   279.7500      0.0000    364.4122      8.2560     74.5729
   280.0000      0.0000    375.8047      8.2542     71.1594
   280.2500      0.0000    385.2194      8.2259     68.7350
   280.5000      0.0000    390.5095      8.1928     67.3709
   280.7500      0.0000    392.7071      8.1663     66.7161
   281.0000      0.0000    393.4577      8.1409     66.5093
   281.2500      0.0000    393.5273      8.1037     66.8639
   281.5000      0.0000    393.1944      8.0390     67.7938
   281.7500      0.0000    392.7094      7.9510     68.6278
   282.0000      0.0000    392.2718      7.8697     68.4270
   282.2500      0.0000    391.9406      7.8255     67.0681
   282.5000      0.0000    391.6935      7.8256     65.4281
   282.7500      0.0000    391.5091      7.8583     64.3474
   283.0000      0.0000    391.3426      7.9054     63.8015
   283.2500      0.0000    390.9362      7.9378     63.2191
   283.5000      0.0000    389.4212      7.9365     62.2931
   283.7500      0.0000    385.1530      7.9255     61.3109
   284.0000      0.0000    377.1088      7.9594     60.8773
   284.2500      0.0000    367.2277      8.0685     61.4943
   284.5000      0.0000    359.5364      8.2327     63.4241
   284.7500      0.0000    356.4201      8.4150     66.7121
   285.0000      0.0000    357.5588      8.5954     70.8190
   285.2500      0.0000    360.7163      8.7666     74.2957
   285.5000      0.0000    362.1292      8.9052     75.6058
   285.7500      0.0000    359.5678      8.9787     74.5036
   286.0000      0.0000    354.9725      8.9958     72.0328
   286.2500      0.0000    351.3378      9.0088     69.2386
   286.5000      0.0000    349.3752      9.0519     66.6002
   286.7500      0.0000    348.3422      9.1032     64.6184
   287.0000      0.0000    347.5894      9.1060     64.1527
   287.2500      0.0000    346.8420      9.0219     65.9093
   287.5000      0.0000    346.0537      8.8674     69.8295
   287.7500      0.0000    345.3050      8.6938     75.0141
   288.0000      0.0000    344.7107      8.5499     80.2577
   288.2500      0.0000    344.3514      8.4630     84.7345
   288.5000      0.0000    344.2598      8.4201     88.2485
   288.7500      0.0000    344.4264      8.3667     90.9978
   289.0000      0.0000    344.8345      8.2557     93.2152
   289.2500      0.0000    345.6385      8.0953     95.0280
   289.5000      0.0000    347.5967      7.9343     96.6720
   289.7500      0.0000    352.3037      7.8056     98.6669
   290.0000      0.0000    360.6974      7.7072    101.2907
   290.2500      0.0000    370.2547      7.6290    103.8180
   290.5000      0.0000    375.7442      7.5684    104.8579
   290.7500      0.0000    374.6182      7.5343    103.8916
   291.0000      0.0000    369.2363      7.5490    102.1645
   291.2500      0.0000    362.5757      7.6307    101.4930
   291.5000      0.0000    355.6895      7.7618    102.3308
   291.7500      0.0000    349.8570      7.8772    103.5198
   292.0000      0.0000    346.4212      7.9261    103.8129
   292.2500      0.0000    345.0899      7.9338    103.1559
   292.5000      0.0000    344.7610      7.9544    102.5217
   292.7500      0.0000    344.7354      7.9977    102.8792
   293.0000      0.0000    344.7857      8.0320    104.4115
   293.2500      0.0000    345.0631      8.0255    106.4525
   293.5000      0.0000    346.4152      7.9808    107.8712
   293.7500      0.0000    350.5763      7.9249    107.5725
   294.0000      0.0000    358.6743      7.8856    105.0401
   294.2500      0.0000    368.7523      7.8887    100.7187
   294.5000      0.0000    376.9686      7.9436     95.8372
   294.7500      0.0000    382.7506      8.0276     91.7482
   295.0000      0.0000    391.7703      8.1112     89.3586
   295.2500      0.0000    412.8387      8.2042     88.9181
   295.5000      0.0000    446.0226      8.3366     89.9899
   295.7500      0.0000    473.6701      8.5030     91.5944
   296.0000      0.0000    478.5774      8.6718     92.5993
   296.2500      0.0000    466.4672      8.8278     92.1466
   296.5000      0.0000    452.9881      8.9682     89.9668
   296.7500      0.0000    442.8250      9.0797     86.4834
   297.0000      0.0000    432.6534      9.1487     82.4528
   297.2500      0.0000    421.6493      9.1837     78.4724
   297.5000      0.0000    412.6497      9.2173     75.0409
   297.7500      0.0000    407.4204      9.2759     72.8119
   298.0000      0.0000    405.0127      9.3434     72.2062
   298.2500      0.0000    403.8356      9.3540     72.8277
   298.5000      0.0000    403.0811      9.2441     73.8134
   298.7500      0.0000    402.6654      9.0272     74.7416
   299.0000      0.0000    402.7049      8.7948     75.6887
   299.2500      0.0000    403.0898      8.6186     76.4451
   299.5000      0.0000    403.5165      8.4799     76.3905
   299.7500      0.0000    403.7853      8.3104     75.4684
   300.0000      0.0000    403.9244      8.0713     74.7717
   300.2500      0.0000    404.1758      7.7853     75.6735
   300.5000      0.0000    405.4538      7.5219     78.4656
   300.7500      0.0000    410.9388      7.3440     82.0661
   301.0000      0.0000    427.0176      7.2344     85.0702
   301.2500      0.0000    457.8458      7.1261     87.0312
