~Version Information
VERS.                      2.0: CWLS Log ASCII Standard - VERSION 2.0
WRAP.                       NO: One line per depth step
~Well Information Block
STRT.FT                -7.0000: 
STOP.FT              3030.2500: 
STEP.FT                 0.2500: 
NULL.                -999.2500: 
COMP.          Pioneer Natural Resources: COMPANY
WELL.            Cleaver 24-12: WELL
FLD.           Purgatorie River: FIELD
LOC.           204' FSL & 2351' FWL--: LOCATION
CNTY.               Las Animas: COUNTY
SRVC.          Patterson Wireline: SERVICE COMPANY
DATE.          Thu Feb 02 12:17:57 2006: LOG DATE
UWI.           05 071 08634 00: UNIQUE WELL ID
STAT.                       CO: STATE
~Curve Information Block
DEPT.FT            0 000 00 00: Depth
CCL.                          : Casing Collar Locator
TT3.usec                      : CBL 3' Travel Time
AMP3.mV                       : CBL 3' Amplitude
GR.GAPI                       : Gamma Ray
~Parameter Information Block
~A  Depth       CCL         TT3         AMP3         GR     
# ...
  2807.0000      0.0000    347.5160     16.6020     84.8700
  2807.2500      0.0000    339.4554     17.2357     83.7719
  2807.5000      0.0000    333.1133     17.4062     85.1791
  2807.7500      0.0000    330.5500     17.2610     88.7225
  2808.0000      0.0000    333.1476     16.9539     93.2056
  2808.2500      0.0000    340.9568     16.5566     97.7639
  2808.5000      0.0000    352.1642     16.1067    102.2865
  2808.7500      0.0000    363.7628     15.6480    106.7338
  2809.0000      0.0000    373.1176     15.2224    110.3120
  2809.2500      0.0000    379.1688     14.8543    111.7626
  2809.5000      0.0000    382.4810     14.5506    110.7362
  2809.7500      0.0000    384.6139     14.3063    108.6080
  2810.0000      0.0000    387.8830     14.1107    107.3684
  2810.2500      0.0000    396.0591     13.9459    107.5680
  2810.5000      0.0000    414.8012     13.7848    107.7430
  2810.7500      0.0000    449.3675     13.5975    106.0737
  2811.0000      0.0000    499.4078     13.3719    102.1988
  2811.2500      0.0000    555.6624     13.1340     96.9998
  2811.5000      0.0000    603.8580     12.9380     91.0813
  2811.7500      0.0000    633.0519     12.8289     84.3098
  2812.0000      0.0000    640.6349     12.8155     76.7434
  2812.2500      0.0000    631.8727     12.8771     69.1682
  2812.5000      0.0000    617.0616     12.9851     62.5812
  2812.7500      0.0000    606.4115     13.1191     57.7834
  2813.0000      0.0000    602.6901     13.2726     55.7180
  2813.2500      0.0000    598.1912     13.4454     57.5428
  2813.5000      0.0000    581.2241     13.6286     63.6294
  2813.7500      0.0000    546.2831     13.7977     72.5021
  2814.0000      0.0000    498.1747     13.9306     81.2955
  2814.2500      0.0000    447.9628     14.0287     87.5452
  2814.5000      0.0000    405.7582     14.1163     90.5038
  2814.7500      0.0000    376.1771     14.2171     90.9227
  2815.0000      0.0000    358.4756     14.3393     89.9818
  2815.2500      0.0000    349.2383     14.4810     88.5931
  2815.5000      0.0000    344.7841     14.6425     87.4353
  2815.7500      0.0000    342.1696     14.8266     87.1364
  2816.0000      0.0000    339.3046     15.0315     87.9892
  2816.2500      0.0000    334.9230     15.2488     89.4863
  2816.5000      0.0000    328.8032     15.4664     90.4519
  2816.7500      0.0000    321.8912     15.6708     89.8925
  2817.0000      0.0000    315.7181     15.8475     87.8569
  2817.2500      0.0000    311.3643     15.9857     85.5088
  2817.5000      0.0000    308.9296     16.0853     84.2178
  2817.7500      0.0000    307.8427     16.1612     84.4605
  2818.0000      0.0000    307.4369     16.2400     85.6804
  2818.2500      0.0000    307.2490     16.3545     87.1440
  2818.5000      0.0000    307.0430     16.5378     88.6491
  2818.7500      0.0000    306.7519     16.8190     90.2967
  2819.0000      0.0000    306.4096     17.2139     91.9470
  2819.2500      0.0000    306.0770     17.7158     93.3506
  2819.5000      0.0000    305.7901     18.2946     94.6621
  2819.7500      0.0000    305.5449     18.9130     96.3519
  2820.0000      0.0000    305.3153     19.5479     98.5359
  2820.2500      0.0000    305.0806     20.1993    100.6356
  2820.5000      0.0000    304.8387     20.8811    101.6522
  2820.7500      0.0000    304.6049     21.5990    100.7156
  2821.0000      0.0000    304.3994     22.3348     97.6894
  2821.2500      0.0000    304.2324     23.0519     93.5172
  2821.5000      0.0000    304.0976     23.7102     89.8304
  2821.7500      0.0000    303.9853     24.2689     87.9695
  2822.0000      0.0000    303.9041     24.6789     88.2824
  2822.2500      0.0000    303.8802     24.8989     90.1851
  2822.5000      0.0000    303.9286     24.9324     92.7023
  2822.7500      0.0000    304.0316     24.8449     95.1036
  2823.0000      0.0000    304.1451     24.7397     97.3115
  2823.2500      0.0000    304.2271     24.7048     99.6821
  2823.5000      0.0000    304.2642     24.7706    102.3212
  2823.7500      0.0000    304.2762     24.9067    104.7124
  2824.0000      0.0000    304.2961     25.0593    105.9917
  2824.2500      0.0000    304.3387     25.1940    105.5298
  2824.5000      0.0000    304.3901     25.3105    103.4547
  2824.7500      0.0000    304.4247     25.4256    100.7188
  2825.0000      0.0000    304.4260     25.5509     98.3426
  2825.2500      0.0000    304.3939     25.6802     96.5703
  2825.5000      0.0000    304.3431     25.7870     95.2065
  2825.7500      0.0000    304.2978     25.8316     94.6918
  2826.0000      0.0000    304.2789     25.7796     96.0674
  2826.2500      0.0000    304.2921     25.6207     99.4798
  2826.5000      0.0000    304.3310     25.3736    103.1619
  2826.7500      0.0000    304.3880     25.0755    104.4532
  2827.0000      0.0000    304.4570     24.7651    101.9911
  2827.2500      0.0000    304.5305     24.4661     96.9256
  2827.5000      0.0000    304.6027     24.1770     92.1096
  2827.7500      0.0000    304.6737     23.8774     90.0231
  2828.0000      0.0000    304.7483     23.5446     91.0990
  2828.2500      0.0000    304.8316     23.1687     93.7370
  2828.5000      0.0000    304.9328     22.7558     95.7669
  2828.7500      0.0000    305.0706     22.3201     95.7955
  2829.0000      0.0000    305.2721     21.8717     93.5402
  2829.2500      0.0000    305.5570     21.4130     89.8126
  2829.5000      0.0000    305.9133     20.9487     86.3938
  2829.7500      0.0000    306.2833     20.5013     85.0163
  2830.0000      0.0000    306.5803     20.1114     85.8311
  2830.2500      0.0000    306.7417     19.8128     87.0967
  2830.5000      0.0000    306.7859     19.6010     86.6152
  2830.7500      0.0000    306.8187     19.4299     83.4687
  2831.0000      0.0000    306.9934     19.2463     78.6068
  2831.2500      0.0000    307.5090     19.0261     74.0345
  2831.5000      0.0000    308.7135     18.7796     71.3022
  2831.7500      0.0000    311.1885     18.5265     70.6106
  2832.0000      0.0000    315.5130     18.2729     71.2702
  2832.2500      0.0000    321.6600     18.0116     72.5776
  2832.5000      0.0000    328.6096     17.7389     73.9320
  2832.7500      0.0000    334.8172     17.4648     74.6460
  2833.0000      0.0000    339.2153     17.2061     74.2751
  2833.2500      0.0000    341.7294     16.9724     73.0549
  2833.5000      0.0000    342.9395     16.7606     71.7281
  2833.7500      0.0000    343.4754     16.5625     71.0674
  2834.0000      0.0000    343.7253     16.3766     71.6939
  2834.2500      0.0000    343.8553     16.2174     73.9199
  2834.5000      0.0000    343.9098     16.1111     77.2628
  2834.7500      0.0000    343.8589     16.0751     80.1787
  2835.0000      0.0000    343.5614     16.0983     80.7789
  2835.2500      0.0000    342.6378     16.1438     78.2042
  2835.5000      0.0000    340.4174     16.1712     73.3679
  2835.7500      0.0000    336.2752     16.1580     68.3083
  2836.0000      0.0000    330.3887     16.1060     64.8156
  2836.2500      0.0000    324.2705     16.0298     63.6315
  2836.5000      0.0000    320.2769     15.9381     64.4959
  2836.7500      0.0000    320.2267     15.8214     66.3721
  2837.0000      0.0000    324.3290     15.6615     67.6317
  2837.2500      0.0000    331.4961     15.4512     66.8091
  2837.5000      0.0000    341.0030     15.2053     63.8947
  2837.7500      0.0000    353.9779     14.9512     60.7257
  2838.0000      0.0000    372.6881     14.7129     59.4506
  2838.2500      0.0000    397.5430     14.5028     60.5059
  2838.5000      0.0000    424.8239     14.3267     62.4577
  2838.7500      0.0000    448.1660     14.1885     63.7186
  2839.0000      0.0000    462.4895     14.0883     63.9928
  2839.2500      0.0000    466.5225     14.0175     64.0881
  2839.5000      0.0000    462.7752     13.9594     64.8593
  2839.7500      0.0000    456.2782     13.8932     66.5947
  2840.0000      0.0000    452.0472     13.7975     69.1085
  2840.2500      0.0000    451.2680     13.6581     71.9116
