~Version Information
VERS.                      2.0: CWLS Log ASCII Standard - VERSION 2.0
WRAP.                       NO: One line per depth step
~Well Information Block
STRT.FT                -6.7500: 
STOP.FT              1250.5000: 
STEP.FT                 0.2500: 
NULL.                -999.2500: 
COMP.          Pioneer Natural Resources: COMPANY
WELL.          Irish Eyes 33-21: WELL
FLD.           Purgatorie River: FIELD
LOC.           1379' FSL & 2544' FEL--: LOCATION
PROV.                       CO: PROVINCE
CNTY.               Las Animas: COUNTRY
SRVC.          Patterson Wireline: SERVICE COMPANY
DATE.          Mon Jan 23 11:57:23 2006: LOG DATE
UWI.           05 071 08658 00: UNIQUE WELL ID
~Curve Information Block
DEPT.FT            0 000 00 00: Depth
CCL.                          : Casing Collar Locator
TT3.usec                      : CBL 3' Travel Time
AMP3.mV                       : CBL 3' Amplitude
GR.GAPI                       : Gamma Ray
~Parameter Information Block
~A  Depth       CCL         TT3         AMP3         GR     
# ...
  1065.2500      0.0000    633.7614     16.0187     71.0453
  1065.5000      0.0000    586.3218     16.0870     71.1964
  1065.7500      0.0000    549.9395     16.1695     73.6941
  1066.0000      0.0000    537.7975     16.2287     77.8013
  1066.2500      0.0000    555.2886     16.2287     82.1326
  1066.5000      0.0000    597.5135     16.1423     86.0510
  1066.7500      0.0000    650.8468     15.9647     89.8045
  1067.0000      0.0000    699.3566     15.7262     93.2438
  1067.2500      0.0000    733.1702     15.4856     95.1694
  1067.5000      0.0000    751.9160     15.3002     94.3484
  1067.7500      0.0000    761.0419     15.1917     90.8742
  1068.0000      0.0000    766.0059     15.1342     86.1810
  1068.2500      0.0000    769.4058     15.0758     81.8524
  1068.5000      0.0000    771.7062     14.9724     78.7401
  1068.7500      0.0000    773.4057     14.8069     77.0315
  1069.0000      0.0000    775.9996     14.5889     76.5214
  1069.2500      0.0000    780.8083     14.3444     76.6555
  1069.5000      0.0000    787.3818     14.1034     76.7671
  1069.7500      0.0000    793.6518     13.8875     76.5087
  1070.0000      0.0000    797.4462     13.7008     75.9793
  1070.2500      0.0000    797.5337     13.5326     75.5193
  1070.5000      0.0000    793.7470     13.3721     75.3668
  1070.7500      0.0000    787.0541     13.2190     75.3333
  1071.0000      0.0000    779.6378     13.0775     75.0167
  1071.2500      0.0000    774.0659     12.9471     74.5942
  1071.5000      0.0000    771.6573     12.8276     75.0835
  1071.7500      0.0000    771.6160     12.7279     77.4273
  1072.0000      0.0000    772.0613     12.6614     81.5358
  1072.2500      0.0000    772.0629     12.6327     86.3915
  1072.5000      0.0000    772.5911     12.6314     90.7771
  1072.7500      0.0000    775.4022     12.6344     93.7942
  1073.0000      0.0000    781.1110     12.6113     94.9918
  1073.2500      0.0000    788.4031     12.5384     94.2077
  1073.5000      0.0000    794.9355     12.4192     91.4222
  1073.7500      0.0000    798.7512     12.2918     87.0297
  1074.0000      0.0000    798.9031     12.2070     82.2609
  1074.2500      0.0000    795.4148     12.1906     78.9809
  1074.5000      0.0000    789.4608     12.2212     78.6688
  1074.7500      0.0000    783.4908     12.2413     81.2954
  1075.0000      0.0000    780.0936     12.1917     85.0939
  1075.2500      0.0000    779.8795     12.0433     87.7257
  1075.5000      0.0000    780.7307     11.8079     88.0479
  1075.7500      0.0000    779.7737     11.5276     86.8872
  1076.0000      0.0000    776.0781     11.2549     86.0771
  1076.2500      0.0000    771.1042     11.0360     86.6728
  1076.5000      0.0000    766.8408     10.9049     88.1249
  1076.7500      0.0000    764.1470     10.8832     89.2480
  1077.0000      0.0000    762.7437     10.9759     89.6807
  1077.2500      0.0000    762.0238     11.1648     89.9285
  1077.5000      0.0000    761.5466     11.4158     90.1632
  1077.7500      0.0000    761.0685     11.6990     89.8336
  1078.0000      0.0000    760.4400     11.9978     88.6922
  1078.2500      0.0000    759.4814     12.3012     87.4874
  1078.5000      0.0000    757.7961     12.5958     87.0120
  1078.7500      0.0000    754.6694     12.8695     86.8822
  1079.0000      0.0000    749.3929     13.1158     86.0703
  1079.2500      0.0000    742.0543     13.3301     84.5812
  1079.5000      0.0000    734.0974     13.5091     83.9082
  1079.7500      0.0000    727.8647     13.6561     85.7130
  1080.0000      0.0000    725.3564     13.7819     90.3897
  1080.2500      0.0000    727.1667     13.8999     96.7343
  1080.5000      0.0000    732.2448     14.0249    102.6249
  1080.7500      0.0000    738.6847     14.1716    106.1139
  1081.0000      0.0000    745.3088     14.3415    106.3082
  1081.2500      0.0000    752.6736     14.5043    103.6605
  1081.5000      0.0000    762.1035     14.6047     99.6870
  1081.7500      0.0000    773.6685     14.5957     96.1881
  1082.0000      0.0000    785.5139     14.4660     94.2064
  1082.2500      0.0000    795.2382     14.2352     93.4764
  1082.5000      0.0000    801.6174     13.9384     92.9429
  1082.7500      0.0000    805.0121     13.6166     91.9453
  1083.0000      0.0000    806.5511     13.3129     90.8768
  1083.2500      0.0000    807.2300     13.0642     90.7521
  1083.5000      0.0000    807.5831     12.8930     92.2315
  1083.7500      0.0000    807.7858     12.8037     94.8452
  1084.0000      0.0000    807.8571     12.7802     96.9501
  1084.2500      0.0000    807.8085     12.7915     96.7962
  1084.5000      0.0000    807.7020     12.8038     94.0583
  1084.7500      0.0000    807.6035     12.7948     90.1635
  1085.0000      0.0000    807.5171     12.7572     86.8717
  1085.2500      0.0000    807.3410     12.6940     84.6842
  1085.5000      0.0000    806.7855     12.6156     82.8870
  1085.7500      0.0000    805.1620     12.5388     80.9748
  1086.0000      0.0000    801.2203     12.4849     79.5390
  1086.2500      0.0000    793.6004     12.4740     79.4917
  1086.5000      0.0000    782.2299     12.5161     80.7015
  1086.7500      0.0000    769.6882     12.6034     81.7166
  1087.0000      0.0000    760.4988     12.7099     80.8644
  1087.2500      0.0000    757.9001     12.8055     77.6214
  1087.5000      0.0000    760.9984     12.8715     73.0907
  1087.7500      0.0000    765.6228     12.9038     69.4033
  1088.0000      0.0000    768.0767     12.9051     68.6294
  1088.2500      0.0000    767.6087     12.8781     71.6051
  1088.5000      0.0000    765.4963     12.8268     77.0631
  1088.7500      0.0000    762.7443     12.7613     82.0990
  1089.0000      0.0000    759.0609     12.7007     84.2249
  1089.2500      0.0000    753.5967     12.6687     83.1596
  1089.5000      0.0000    746.3708     12.6804     80.4235
  1089.7500      0.0000    739.0818     12.7273     77.5108
  1090.0000      0.0000    734.4741     12.7781     74.9373
  1090.2500      0.0000    734.5643     12.7989     72.7268
  1090.5000      0.0000    739.0767     12.7743     71.1348
  1090.7500      0.0000    745.3251     12.7122     70.7471
  1091.0000      0.0000    749.7026     12.6326     72.1028
  1091.2500      0.0000    749.6764     12.5520     75.2768
  1091.5000      0.0000    744.7572     12.4748     79.7049
  1091.7500      0.0000    735.6277     12.3954     84.3750
  1092.0000      0.0000    722.8947     12.3036     88.3094
  1092.2500      0.0000    708.1059     12.1818     91.0375
  1092.5000      0.0000    696.3054     11.9887     92.6651
  1092.7500      0.0000    694.8374     11.6453     93.4896
  1093.0000      0.0000    707.0920     11.0582     93.5650
  1093.2500      0.0000    728.8503     10.2061     92.8001
  1093.5000      0.0000    752.6033      9.2269     91.5355
  1093.7500      0.0000    774.0322      8.3697     90.6472
  1094.0000      0.0000    793.5828      7.7909     90.4545
  1094.2500      0.0000    814.5262      7.4198     89.4855
  1094.5000      0.0000    841.4131      7.0938     85.1370
  1094.7500      0.0000    878.2926      6.7863     76.3036
  1095.0000      0.0000    924.8423      6.6173     65.1955
  1095.2500      0.0000    973.1257      6.6720     56.0602
  1095.5000      0.0000   1009.8679      6.9024     52.1174
  1095.7500      2.0000   1023.4375      7.1982     53.7284
  1096.0000      0.0000   1009.2880      7.5063     58.7679
  1096.2500      0.0000    970.9130      7.8868     64.2579
  1096.5000      0.0000    918.5375      8.4553     68.1653
  1096.7500      0.0000    865.6004      9.2301     70.3227
  1097.0000      0.0000    822.2115     10.0550     71.7277
  1097.2500      0.0000    789.8537     10.7489     73.1579
  1097.5000      0.0000    761.5139     11.3024     74.6106
  1097.7500      0.0000    726.0422     11.8374     75.5539
  1098.0000      0.0000    674.2811     12.4093     75.2268
  1098.2500      0.0000    605.4462     12.9449     73.0572
  1098.5000      0.0000    529.7081     13.3508     69.2966
