~Version Information
VERS.                      2.0: CWLS Log ASCII Standard - VERSION 2.0
WRAP.                       NO: One line per depth step
~Well Information Block
STRT.FT               687.7500: 
STOP.FT              1252.7500: 
STEP.FT                 0.2500: 
NULL.                -999.2500: 
COMP.          Pioneer Natural Resources: COMPANY
WELL.          Rock Island 44-24 Tr: WELL
FLD.           Purgatoire River: FIELD
LOC.           814' FSL & 761' FEL--: LOCATION
CNTY.               Las Animas: COUNTY
SRVC.                Patterson: SERVICE COMPANY
DATE.          Wed Apr 19 21:31:44 2006: LOG DATE
UWI.           05 071 08680 00: UNIQUE WELL ID
STAT.                 Colorado: STATE
~Curve Information Block
DEPT.FT            0 000 00 00: Depth
DIR.Ohm-m                     : IEL Induction Resistivity
GR.GAPI                       : Gamma Ray
~Parameter Information Block
~A  Depth       DIR          GR     
# ...
   910.7500     28.6145     61.8720
   911.0000     28.6122     59.8163
   911.2500     28.2485     59.2188
   911.5000     27.4769     59.8253
   911.7500     26.3351     61.1533
   912.0000     24.9302     64.4993
   912.2500     23.3948     67.8424
   912.5000     21.8456     74.9780
   912.7500     20.3642     81.1363
   913.0000     18.9958     91.6162
   913.2500     17.7571     98.5737
   913.5000     16.6464    107.5473
   913.7500     15.6544    112.0540
   914.0000     14.7726    116.4725
   914.2500     13.9946    118.1286
   914.5000     13.3150    119.4436
   914.7500     12.7284    120.0146
   915.0000     12.2300    121.1067
   915.2500     11.8163    122.2077
   915.5000     11.4832    124.2215
   915.7500     11.2234    125.4286
   916.0000     11.0247    126.4768
   916.2500     10.8719    126.5788
   916.5000     10.7499    126.1052
   916.7500     10.6469    125.7010
   917.0000     10.5562    125.4656
   917.2500     10.4748    125.4943
   917.5000     10.4025    124.9202
   917.7500     10.3400    123.5512
   918.0000     10.2885    120.1107
   918.2500     10.2488    117.8017
   918.5000     10.2207    116.2689
   918.7500     10.2039    117.0001
   919.0000     10.1981    119.8192
   919.2500     10.2038    121.8772
   919.5000     10.2220    124.0774
   919.7500     10.2544    124.7583
   920.0000     10.3038    124.6758
   920.2500     10.3750    123.9628
   920.5000     10.4736    122.0354
   920.7500     10.6046    120.2984
   921.0000     10.7706    117.4031
   921.2500     10.9711    115.6673
   921.5000     11.2021    114.1092
   921.7500     11.4565    113.9025
   922.0000     11.7266    114.1179
   922.2500     12.0060    113.9803
   922.5000     12.2916    113.0810
   922.7500     12.5838    112.4101
   923.0000     12.8867    111.8045
   923.2500     13.2084    111.4134
   923.5000     13.5597    109.9688
   923.7500     13.9513    108.2186
   924.0000     14.3914    104.7763
   924.2500     14.8843    102.2664
   924.5000     15.4324     98.4632
   924.7500     16.0380     95.9431
   925.0000     16.7026     92.4299
   925.2500     17.4254     90.6026
   925.5000     18.1996     89.2534
   925.7500     19.0082     89.4571
   926.0000     19.8190     91.1904
   926.2500     20.5807     92.7999
   926.5000     21.2307     94.5995
   926.7500     21.7163     94.7693
   927.0000     22.0207     93.2907
   927.2500     22.1704     91.5005
   927.5000     22.2179     88.5192
   927.7500     22.2152     86.8718
   928.0000     22.2002     85.5861
   928.2500     22.2009     85.6092
   928.5000     22.2418     86.5518
   928.7500     22.3428     87.3728
   929.0000     22.5073     88.2623
   929.2500     22.7148     88.3833
   929.5000     22.9228     87.5615
   929.7500     23.0828     86.1624
   930.0000     23.1580     82.6467
   930.2500     23.1330     79.6565
   930.5000     23.0133     75.5510
   930.7500     22.8158     73.9708
   931.0000     22.5612     74.1269
   931.2500     22.2680     75.8131
   931.5000     21.9486     80.0819
   931.7500     21.6042     83.6602
   932.0000     21.2214     89.2922
   932.2500     20.7789     92.7183
   932.5000     20.2634     96.7481
   932.7500     19.6842     98.5350
   933.0000     19.0735     99.7183
   933.2500     18.4706     99.4774
   933.5000     17.9041     97.9802
   933.7500     17.3795     96.8207
   934.0000     16.8797     95.9155
   934.2500     16.3764     96.1362
   934.5000     15.8470     97.5080
   934.7500     15.2874     98.8854
   935.0000     14.7128    101.4157
   935.2500     14.1469    103.3786
   935.5000     13.6103    106.6682
   935.7500     13.1133    108.9595
   936.0000     12.6574    112.1169
   936.2500     12.2417    113.7280
   936.5000     11.8674    114.9895
   936.7500     11.5383    114.9967
   937.0000     11.2568    113.9992
   937.2500     11.0212    112.9546
   937.5000     10.8250    111.4250
   937.7500     10.6600    110.7441
   938.0000     10.5193    110.5162
   938.2500     10.3981    110.8429
   938.5000     10.2905    111.7145
   938.7500     10.1857    112.3780
   939.0000     10.0637    113.3627
   939.2500      9.8966    113.8625
   939.5000      9.6547    113.8149
   939.7500      9.3226    112.9293
   940.0000      8.9149    110.1849
   940.2500      8.4842    107.5962
   940.5000      8.1118    103.2284
   940.7500      7.8951    100.4698
   941.0000      7.9509     97.1705
   941.2500      8.4570     95.5965
   941.5000      9.7821     93.9840
   941.7500     12.9638     93.3701
   942.0000     22.6375     93.3458
   942.2500    159.2063     94.1005
   942.5000 100000.0000     96.4952
   942.7500 100000.0000     98.7826
   943.0000 100000.0000    102.5737
   943.2500 100000.0000    104.8415
   943.5000 100000.0000    107.2572
   943.7500 100000.0000    108.1888
   944.0000 100000.0000    108.9669
   944.2500 100000.0000    109.3547
   944.5000 100000.0000    110.1365
   944.7500 100000.0000    110.9615
   945.0000 100000.0000    112.5301
   945.2500     21.9073    113.4107
   945.5000      8.0796    114.0427
   945.7500      5.3321    114.3553
   946.0000      4.5157    116.0307
   946.2500      4.6262    118.5265
   946.5000      5.8038    123.9620
   946.7500      9.7528    127.7205
   947.0000     32.4226    131.5996
   947.2500 100000.0000    132.4420
   947.5000    175.2025    131.5070
   947.7500      7.3424    130.0238
   948.0000      2.1629    127.0561
   948.2500      0.9122    124.3745
   948.5000      0.4440    118.3477
   948.7500      0.2209    112.4889
   949.0000      0.1071    100.9682
   949.2500      0.0525     92.1901
   949.5000      0.0277     79.2765
   949.7500      0.0164     71.8126
   950.0000      0.0113     63.4289
   950.2500      0.0091     60.1914
   950.5000      0.0088     59.4899
   950.7500      0.0104     61.8269
   951.0000      0.0153     68.6907
   951.2500      0.0287     74.3633
   951.5000      0.0675     81.3346
   951.7500      0.1772     82.8566
   952.0000      0.4491     78.5659
   952.2500      1.1724     72.0242
   952.5000      4.3253     59.9964
   952.7500 100000.0000     52.3997
   953.0000 100000.0000     43.5549
   953.2500     40.3449     39.8065
   953.5000      6.0765     37.4643
   953.7500      3.0955     37.6962
   954.0000      2.3376     39.2221
   954.2500      2.3880     39.9179
   954.5000      3.3625     39.4291
   954.7500      7.1371     38.5783
   955.0000     19.7350     39.2102
   955.2500      9.0622     42.7804
   955.5000      2.5307     54.6107
   955.7500      1.0544     66.1672
   956.0000      0.5857     85.0203
   956.2500      0.4130     95.5884
   956.5000      0.3788    104.8051
   956.7500      0.4613    106.3148
   957.0000      0.7433    104.3014
   957.2500      1.7550    102.2916
   957.5000     43.3966    100.7354
   957.7500 100000.0000    100.9206
   958.0000 100000.0000    102.4126
   958.2500 100000.0000    103.9953
   958.5000 100000.0000    107.5035
   958.7500 100000.0000    110.7461
   959.0000 100000.0000    116.4039
   959.2500      4.2046    119.8791
   959.5000      1.9825    123.1035
   959.7500      1.2973    123.3206
   960.0000      0.9827    120.1647
   960.2500      0.8143    115.4986
   960.5000      0.7211    104.7132
   960.7500      0.6749     95.7158
   961.0000      0.6621     82.1186
   961.2500      0.6754     74.8416
   961.5000      0.7092     68.9021
   961.7500      0.7597     68.4874
   962.0000      0.8258     71.7316
   962.2500      0.9108     75.2173
   962.5000      1.0236     81.1942
   962.7500      1.1776     85.9144
   963.0000      1.3892     95.2413
   963.2500      1.6751    102.9557
   963.5000      2.0491    114.3007
   963.7500      2.5169    119.3486
   964.0000      3.0689    120.2470
   964.2500      3.6709    116.5426
   964.5000      4.2617    107.7246
   964.7500      4.7736    102.1734
   965.0000      5.1762     97.6924
   965.2500      5.5046     98.0404
   965.5000      5.8441    102.6851
   965.7500      6.2958    107.2703
   966.0000      6.9579    114.6008
   966.2500      7.9235    119.4163
