~Version Information
VERS.                      2.0: CWLS Log ASCII Standard - VERSION 2.0
WRAP.                       NO: One line per depth step
~Well Information Block
STRT.FT                -7.2500: 
STOP.FT              1273.5000: 
STEP.FT                 0.2500: 
NULL.                -999.2500: 
COMP.          Pioneer Natural Resources: COMPANY
WELL.            Keiko 14-6 Tr: WELL
FLD.           Purgatorie River: FIELD
LOC.           462' FSL & 1202' FWL--: LOCATION
PROV.                       CO: PROVINCE
CNTY.               Las Animas: COUNTRY
SRVC.          Patterson Wireline: SERVICE COMPANY
DATE.          Wed Jan 04 09:22:19 2006: LOG DATE
UWI.           05 071 08629 00: UNIQUE WELL ID
~Curve Information Block
DEPT.FT            0 000 00 00: Depth
CCL.                          : Casing Collar Locator
TT3.usec                      : CBL 3' Travel Time
AMP3.mV                       : CBL 3' Amplitude
GR.GAPI                       : Gamma Ray
~Parameter Information Block
~A  Depth       CCL         TT3         AMP3         GR     
# ...
   562.2500      0.0000    703.1791      9.2867    106.3574
   562.5000      0.0000    695.8201      9.2419    105.0565
   562.7500      0.0000    691.7313      9.2321    103.7711
   563.0000      0.0000    690.1398      9.2547    102.4213
   563.2500      0.0000    690.3804      9.2980    101.1629
   563.5000      0.0000    692.6379      9.3581    100.1774
   563.7500      0.0000    698.0980      9.4446     99.5774
   564.0000      0.0000    708.2222      9.5666     99.3062
   564.2500      0.0000    723.2491      9.7130     99.2264
   564.5000      0.0000    741.0078      9.8539     99.5997
   564.7500      0.0000    757.3068      9.9655    101.4198
   565.0000      0.0000    767.7142     10.0449    105.8076
   565.2500      0.0000    769.9187     10.1009    112.7699
   565.5000      0.0000    765.9279     10.1356    120.6681
   565.7500      0.0000    762.0308     10.1422    127.2214
   566.0000      0.0000    764.5941     10.1177    131.0571
   566.2500      0.0000    774.7266     10.0742    132.2664
   566.5000      0.0000    787.7657     10.0377    131.7759
   566.7500      0.0000    797.9161     10.0344    130.3633
   567.0000      0.0000    802.3829     10.0723    128.0060
   567.2500      0.0000    801.7508     10.1361    124.1693
   567.5000      0.0000    798.5140     10.2031    118.9616
   567.7500      0.0000    795.7405     10.2624    113.7886
   568.0000      0.0000    795.6748     10.3155    110.4270
   568.2500      0.0000    798.4649     10.3629    109.5883
   568.5000      0.0000    802.3130     10.3973    110.7731
   568.7500      0.0000    805.0351     10.4104    113.3783
   569.0000      0.0000    805.4221     10.4007    117.3395
   569.2500      0.0000    803.5189     10.3710    122.3887
   569.5000      0.0000    800.1747     10.3226    127.0841
   569.7500      0.0000    796.2042     10.2535    129.4265
   570.0000      0.0000    791.5435     10.1637    128.8804
   570.2500      0.0000    785.3477     10.0569    127.2925
   570.5000      0.0000    777.1630      9.9370    127.1693
   570.7500      0.0000    767.7874      9.8066    129.1435
   571.0000      0.0000    758.9133      9.6774    131.4466
   571.2500      0.0000    752.0393      9.5742    131.8238
   571.5000      0.0000    747.4544      9.5202    129.7973
   571.7500      0.0000    744.2756      9.5150    127.0449
   572.0000      0.0000    742.0297      9.5377    125.7735
   572.2500      0.0000    741.9808      9.5739    126.8562
   572.5000      0.0000    745.8233      9.6318    129.2382
   572.7500      0.0000    753.0347      9.7301    130.7813
   573.0000      0.0000    760.6563      9.8731    129.8558
   573.2500      0.0000    765.9523     10.0421    126.3717
   573.5000      0.0000    768.4581     10.2076    121.3432
   573.7500      0.0000    769.2841     10.3474    115.8962
   574.0000      0.0000    769.3337     10.4543    111.0372
   574.2500      0.0000    768.5457     10.5301    107.7778
   574.5000      0.0000    765.9254     10.5709    106.8301
   574.7500      0.0000    759.9202     10.5612    108.2706
   575.0000      0.0000    749.7404     10.4863    111.5143
   575.2500      0.0000    737.0021     10.3503    115.3015
   575.5000      0.0000    725.6866     10.1733    117.9011
   575.7500      0.0000    719.5538      9.9568    118.0864
   576.0000      0.0000    719.0022      9.6543    116.2624
   576.2500      0.0000    720.9506      9.2076    114.2559
   576.5000      0.0000    722.6268      8.6384    113.6640
   576.7500      0.0000    724.9440      8.0911    114.4849
   577.0000      0.0000    731.0884      7.7354    115.3214
   577.2500      0.0000    742.3020      7.6210    114.6112
   577.5000      0.0000    756.1191      7.6620    111.6748
   577.7500      0.0000    768.4800      7.7460    107.1455
   578.0000      0.0000    776.9764      7.8112    102.6990
   578.2500      2.0000    782.8508      7.8390    100.0382
   578.5000     -2.0000    790.2098      7.8282     99.9228
   578.7500      0.0000    801.8405      7.7958    102.2698
   579.0000      0.0000    814.4505      7.7972    106.8557
   579.2500      0.0000    819.2534      7.9350    113.4056
   579.5000      0.0000    809.2802      8.3016    121.1525
   579.7500      0.0000    785.7466      8.8610    128.8145
   580.0000      0.0000    756.5209      9.4179    134.9094
   580.2500      0.0000    729.9539      9.7869    137.8299
   580.5000      0.0000    710.9864      9.9752    136.0094
   580.7500      0.0000    700.9425     10.1378    128.5918
   581.0000      0.0000    698.7354     10.3889    116.2596
   581.2500      0.0000    701.8456     10.7244    101.6275
   581.5000      0.0000    706.9177     11.0937     88.5517
   581.7500      0.0000    710.8223     11.4714     80.2844
   582.0000      0.0000    712.2411     11.8574     77.8518
   582.2500      0.0000    712.1646     12.2433     80.2668
   582.5000      0.0000    712.2764     12.6014     86.0610
   582.7500      0.0000    713.0963     12.8986     94.0653
   583.0000      0.0000    713.8185     13.1190    102.8320
   583.2500      0.0000    713.4628     13.2704    110.2427
   583.5000      0.0000    711.9365     13.3722    114.3898
   583.7500      0.0000    710.2159     13.4357    114.8335
   584.0000      0.0000    709.6592     13.4536    112.8513
   584.2500      0.0000    710.8442     13.4084    110.5157
   584.5000      0.0000    712.7029     13.2907    109.4267
   584.7500      0.0000    713.0342     13.1080    110.0038
   585.0000      0.0000    710.1662     12.8818    111.6676
   585.2500      0.0000    703.9591     12.6416    113.4740
   585.5000      0.0000    694.9199     12.4183    114.7451
   585.7500      0.0000    683.0415     12.2352    115.4981
   586.0000      0.0000    668.7199     12.1010    116.3925
   586.2500      0.0000    654.5953     12.0108    118.0081
   586.5000      0.0000    643.9248     11.9520    120.1655
   586.7500      0.0000    635.4195     11.9131    122.1221
   587.0000      0.0000    622.1632     11.8913    123.1760
   587.2500      0.0000    599.2078     11.8906    122.7692
   587.5000      0.0000    572.0688     11.9116    120.5839
   587.7500      0.0000    555.3148     11.9438    117.3058
   588.0000      0.0000    561.8865     11.9680    114.9593
   588.2500      0.0000    593.1016     11.9647    115.6604
   588.5000      0.0000    637.0385     11.9233    119.9656
   588.7500      0.0000    675.0179     11.8465    126.7516
   589.0000      0.0000    690.6608     11.7478    134.4177
   589.2500      0.0000    677.1022     11.6432    141.7861
   589.5000      0.0000    641.4187     11.5423    148.0925
   589.7500      0.0000    603.7908     11.4453    152.7665
   590.0000      0.0000    586.2569     11.3471    155.5096
   590.2500      0.0000    595.8947     11.2402    156.3465
   590.5000      0.0000    618.6748     11.1173    155.5028
   590.7500      0.0000    631.6647     10.9762    153.2537
   591.0000      0.0000    620.5550     10.8252    149.6579
   591.2500      0.0000    586.3237     10.6797    144.4129
   591.5000      0.0000    540.5850     10.5524    137.4448
   591.7500      0.0000    497.6980     10.4476    129.7641
   592.0000      0.0000    468.2350     10.3629    123.2259
   592.2500      0.0000    456.2242     10.2934    119.1388
   592.5000      0.0000    461.5206     10.2349    117.2337
   592.7500      0.0000    483.5789     10.1843    115.9606
   593.0000      0.0000    521.4423     10.1371    113.8097
   593.2500      0.0000    570.2760     10.0823    110.6812
   593.5000      0.0000    620.3666     10.0053    107.9204
   593.7500      0.0000    662.0269      9.9020    106.6550
   594.0000      0.0000    691.1906      9.7919    106.3369
   594.2500      0.0000    708.6984      9.7104    105.4188
   594.5000      0.0000    714.7866      9.6872    103.0709
   594.7500      0.0000    706.7644      9.7299     99.4925
   595.0000      0.0000    682.6354      9.8229     94.9268
   595.2500      0.0000    645.8046      9.9376     89.4978
   595.5000      0.0000    605.6029     10.0468     84.3462
