~Version Information
VERS.                      2.0: CWLS Log ASCII Standard - VERSION 2.0
WRAP.                       NO: One line per depth step
~Well Information Block
STRT.FT                 5.0000: 
STOP.FT               880.0000: 
STEP.FT                 0.2500: 
NULL.                -999.2500: 
COMP.          Pioneer Natural Resources: COMPANY
WELL.          Bienville 31-28: WELL
FLD.           Purgatoire River: FIELD
LOC.           1212' FNL & 2271' FEL: LOCATION
PROV.                 Colorado: PROVINCE
CNTY.               Las Animas: COUNTRY
SRVC.                Patterson: SERVICE COMPANY
DATE.          Tue Jan 24 11:44:03 2006: LOG DATE
UWI.           05 071 08666 00: UNIQUE WELL ID
~Curve Information Block
DEPT.FT            0 000 00 00: Depth
GR.GAPI                       : Gamma Ray
CCL.                          : Casing Collar Locator
TT3.usec                      : CBL 3' Travel Time
AMP3.mV                       : CBL 3' Amplitude
~Parameter Information Block
~A  Depth        GR         CCL         TT3         AMP3    
# ...
   172.5000     67.0117      0.0000    766.9050      7.3567
   172.7500     62.3875      0.0000    766.9668      7.2617
   173.0000     60.6428      0.0000    767.0369      7.1608
   173.2500     60.7916      0.0000    767.0836      7.0902
   173.5000     61.1348      0.0000    767.0861      7.0753
   173.7500     60.9430      0.0000    767.0451      7.1152
   174.0000     60.7366      0.0000    766.9764      7.1793
   174.2500     61.3744      0.0000    766.9008      7.2176
   174.5000     63.2335      0.0000    766.8486      7.1861
   174.7500     65.9628      0.0000    766.8618      7.0717
   175.0000     68.5633      0.0000    766.9686      6.8932
   175.2500     69.8188      0.0000    767.1528      6.6805
   175.5000     69.1019      0.0000    767.3553      6.4577
   175.7500     66.9134      0.0000    767.5084      6.2429
   176.0000     64.4685      0.0000    767.5537      6.0575
   176.2500     62.7102      0.0000    767.4315      5.9289
   176.5000     61.7941      0.0000    766.9987      5.8839
   176.7500     61.4828      0.0000    765.9455      5.9352
   177.0000     61.8754      0.0000    763.8420      6.0647
   177.2500     63.4369      0.0000    760.7288      6.2056
   177.5000     66.0791      0.0000    758.2292      6.2328
   177.7500     68.5232      0.0000    759.6205      5.9922
   178.0000     69.1729      0.0000    766.9431      5.3924
   178.2500     67.6533      0.0000    777.5099      4.5103
   178.5000     65.1695      0.0000    785.1918      3.5859
   178.7500     63.4742      0.0000    786.2129      2.8682
   179.0000     63.8226      0.0000    782.0181      2.4582
   179.2500     66.7213      0.0000    776.0062      2.3023
   179.5000     72.0170      0.0000    769.2454      2.3114
   179.7500     78.8396      0.0000    759.8646      2.4816
   180.0000     85.7200      0.0000    745.6586      2.9316
   180.2500     91.2128      0.0000    727.3754      3.8193
   180.5000     94.4913      0.0000    710.0627      5.1485
   180.7500     95.3628      0.0000    700.8645      6.6251
   181.0000     94.0608      0.0000    704.4125      7.7850
   181.2500     91.2610      0.0000    719.7084      8.3405
   181.5000     87.9736      0.0000    741.4984      8.3749
   181.7500     84.9861      0.0000    764.7399      8.1829
   182.0000     82.3441      0.0000    787.3704      7.9952
   182.2500     79.4458      0.0000    808.8773      7.8773
   182.5000     75.6632      0.0000    827.2097      7.8038
   182.7500     70.9823      0.0000    838.5582      7.7492
   183.0000     66.1915      0.0000    841.0554      7.7104
   183.2500     62.4820      0.0000    838.4066      7.6838
   183.5000     60.7880      0.0000    838.1703      7.6479
   183.7500     61.2727      0.0000    845.3268      7.5752
   184.0000     63.2230      0.0000    857.9548      7.4556
   184.2500     65.4742      0.0000    869.9156      7.3077
   184.5000     67.1632      0.0000    877.1826      7.1697
   184.7500     68.1801      0.0000    880.6654      7.0763
   185.0000     68.8753      0.0000    882.8578      7.0354
   185.2500     69.3499      0.0000    883.1492      7.0225
   185.5000     69.1874      0.0000    878.1572      6.9997
   185.7500     67.9547      0.0000    866.2523      6.9475
   186.0000     65.8181      0.0000    849.4849      6.8766
   186.2500     63.5458      0.0000    830.9397      6.8132
   186.5000     61.9911      0.0000    812.5511      6.7749
   186.7500     61.5987      0.0000    795.9112      6.7628
   187.0000     62.2569      0.0000    782.9653      6.7703
   187.2500     63.5267      0.0000    774.8410      6.7946
   187.5000     65.1537      0.0000    771.0215      6.8403
   187.7500     67.4780      0.0000    770.3165      6.9107
   188.0000     71.1215      0.0000    772.3075      6.9942
   188.2500     76.0763      0.0000    777.5590      7.0617
   188.5000     81.3692      0.0000    786.0423      7.0809
   188.7500     85.8180      0.0000    795.1961      7.0380
   189.0000     88.8296      0.0000    800.3509      6.9465
   189.2500     90.4081      0.0000    798.3176      6.8339
   189.5000     90.8474      0.0000    790.4006      6.7169
   189.7500     90.5496      0.0000    781.0716      6.5898
   190.0000     89.7881      0.0000    774.0397      6.4356
   190.2500     88.5587      0.0000    770.2126      6.2435
   190.5000     86.8995      0.0000    768.6572      6.0160
   190.7500     85.2389      0.0000    768.2814      5.7651
   191.0000     84.1372      0.0000    768.5890      5.5081
   191.2500     83.8406      0.0000    769.6846      5.2681
   191.5000     84.4187      0.0000    772.2202      5.0691
   191.7500     86.1069      0.0000    777.0585      4.9265
   192.0000     89.0501      0.0000    784.0736      4.8371
   192.2500     92.7330      0.0000    790.8462      4.7839
   192.5000     96.0344      0.0000    793.5397      4.7539
   192.7500     98.0101      0.0000    790.2211      4.7499
   193.0000     98.4576      0.0000    783.0263      4.7844
   193.2500     97.6429      0.0000    776.5288      4.8646
   193.5000     95.6195      0.0000    774.6076      4.9855
   193.7500     92.0406      0.0000    778.9402      5.1331
   194.0000     86.6859      0.0000    788.7438      5.2880
   194.2500     80.0291      0.0000    800.5048      5.4279
   194.5000     73.1813      0.0000    808.7643      5.5312
   194.7500     67.3326      0.0000    809.0834      5.5861
   195.0000     63.3679      0.0000    801.1970      5.5999
   195.2500     62.0054      0.0000    789.0544      5.6043
   195.5000     64.0057      0.0000    777.6238      5.6395
   195.7500     69.8098      0.0000    769.7059      5.7236
   196.0000     78.8272      0.0000    765.3810      5.8368
   196.2500     89.1689      0.0000    763.4575      5.9420
   196.5000     98.2187      0.0000    762.8841      6.0171
   196.7500    103.6851      0.0000    763.2018      6.0651
   197.0000    104.5737      0.0000    764.4379      6.0970
   197.2500    101.7392      0.0000    766.9428      6.1133
   197.5000     97.6002      0.0000    771.1486      6.1048
   197.7500     94.7930      0.0000    777.2286      6.0686
   198.0000     94.5266      0.0000    784.8389      6.0212
   198.2500     96.0098      0.0000    793.0115      5.9912
   198.5000     97.3159      0.0000    800.0864      6.0029
   198.7500     96.8571      0.0000    804.0051      6.0636
   199.0000     94.4454      0.0000    803.2859      6.1627
   199.2500     91.3458      0.0000    798.1201      6.2816
   199.5000     89.3978      0.0000    790.7482      6.4047
   199.7500     89.8751      0.0000    784.6897      6.5224
   200.0000     92.8064      0.0000    782.8504      6.6282
   200.2500     96.9714      0.0000    785.5665      6.7136
   200.5000    100.4897      0.0000    790.1759      6.7691
   200.7500    101.8041      0.0000    792.6957      6.7913
   201.0000    100.5219      0.0000    790.4416      6.7872
   201.2500     97.4815      0.0000    783.4993      6.7678
   201.5000     94.1320      0.0000    773.8016      6.7349
   201.7500     91.8654      0.0000    763.1017      6.6763
   202.0000     91.5692      0.0000    752.3380      6.5774
   202.2500     93.3374      0.0000    742.4786      6.4343
   202.5000     96.4831      0.0000    734.5522      6.2610
   202.7500     99.9620      0.0000    728.7471      6.0890
   203.0000    103.0284      0.0000    724.6329      5.9565
   203.2500    105.7053      0.0000    722.2386      5.8868
   203.5000    108.6218      0.0000    721.8398      5.8712
   203.7500    112.1226      0.0000    722.7213      5.8760
   204.0000    115.4201      0.0000    723.2637      5.8664
   204.2500    116.8499      0.0000    722.7537      5.8261
   204.5000    115.3688      0.0000    722.4653      5.7569
   204.7500    111.7544      0.0000    724.2197      5.6705
   205.0000    107.8587      0.0000    727.8444      5.5862
   205.2500    104.7024      0.0000    730.6190      5.5322
   205.5000    101.8135      0.0000    729.7976      5.5392
   205.7500     98.4148      0.0000    725.8973      5.6265
