~Version Information
VERS.                      2.0: CWLS Log ASCII Standard - VERSION 2.0
WRAP.                       NO: One line per depth step
~Well Information Block
STRT.FT               245.0000: 
STOP.FT              1273.7500: 
STEP.FT                 0.2500: 
NULL.                -999.2500: 
COMP.          Pioneer Natural Resources: COMPANY
WELL.                 Ray 34-6: WELL
FLD.           Purgatoire River: FIELD
LOC.           684' FSL & 2254' FEL--: LOCATION
CNTY.               Las Animas: COUNTY
SRVC.                Patterson: SERVICE COMPANY
DATE.          Fri May 26 03:08:09 2006: LOG DATE
UWI.           05 071 08695 00: UNIQUE WELL ID
STAT.                 Colorado: STATE
~Curve Information Block
DEPT.FT            0 000 00 00: Depth
SN.Ohm-m                      : IEL Short Normal
SP.mV                         : IEL Spontaneous Potential
DIR.Ohm-m                     : IEL Induction Resistivity
GR.GAPI                       : Gamma Ray
~Parameter Information Block
~A  Depth        SN          SP         DIR          GR     
# ...
   446.0000    685.7410   -565.0421     19.2839    113.7901
   446.2500    685.7410   -565.0414     19.2465    109.5611
   446.5000    685.7410   -565.0402     19.0064    103.9009
   446.7500    685.7410   -565.0385     18.5958    101.5717
   447.0000    685.7410   -565.0364     18.0754    101.3260
   447.2500    685.7410   -565.0342     17.5133    103.3117
   447.5000    685.7410   -565.0321     16.9649    108.6868
   447.7500    685.7410   -565.0302     16.4592    113.2199
   448.0000    685.7410   -565.0287     15.9945    120.2809
   448.2500    685.7410   -565.0276     15.5444    124.4157
   448.5000    685.7410   -565.0270     15.0754    128.3020
   448.7500    685.7410   -565.0269     14.5701    128.5993
   449.0000    685.7410   -565.0272     14.0400    125.3172
   449.2500    685.7410   -565.0278     13.5209    121.3869
   449.5000    685.7410   -565.0286     13.0517    115.3797
   449.7500    685.7410   -565.0294     12.6551    112.8238
   450.0000    685.7410   -565.0303     12.3306    112.4872
   450.2500    685.7410   -565.0311     12.0586    114.2802
   450.5000    685.7410   -565.0316     11.8115    118.3694
   450.7500    685.7410   -565.0317     11.5651    121.2540
   451.0000    685.7410   -565.0314     11.3070    125.5083
   451.2500    685.7410   -565.0305     11.0402    128.4069
   451.5000    685.7410   -565.0292     10.7809    132.7450
   451.7500    685.7410   -565.0273     10.5535    135.3614
   452.0000    685.7410   -565.0251     10.3838    138.4310
   452.2500    685.7410   -565.0226     10.2945    139.7024
   452.5000    685.7410   -565.0200     10.3015    140.0579
   452.7500    685.7410   -565.0175     10.4133    139.1114
   453.0000    685.7410   -565.0150     10.6319    136.1314
   453.2500    685.7410   -565.0129     10.9550    133.4799
   453.5000    685.7410   -565.0112     11.3789    129.1918
   453.7500    685.7410   -565.0099     11.9004    126.3365
   454.0000    685.7410   -565.0091     12.5173    121.9553
   454.2500    685.7410   -565.0087     13.2254    118.7588
   454.5000    685.7410   -565.0087     14.0135    113.4684
   454.7500    685.7410   -565.0089     14.8584    109.9734
   455.0000    685.7410   -565.0091     15.7192    105.9192
   455.2500    685.7410   -565.0093     16.5366    104.5594
   455.5000    685.7410   -565.0092     17.2390    104.6099
   455.7500    685.7410   -565.0089     17.7610    105.6476
   456.0000    685.7410   -565.0084     18.0681    107.9478
   456.2500    685.7410   -565.0076     18.1706    109.6886
   456.5000    685.7410   -565.0067     18.1181    112.3256
   456.7500    685.7410   -565.0059     17.9765    113.9716
   457.0000    685.7410   -565.0050     17.8069    115.9969
   457.2500    685.7410   -565.0043     17.6540    116.8672
   457.5000    685.7410   -565.0036     17.5441    117.4001
   457.7500    685.7410   -565.0029     17.4875    117.5280
   458.0000    685.7410   -565.0023     17.4828    118.0889
   458.2500    685.7410   -565.0015     17.5217    118.8332
   458.5000    685.7410   -565.0005     17.5941    119.9748
   458.7500    685.7410   -564.9996     17.6904    120.3395
   459.0000    685.7410   -564.9986     17.8025    120.1203
   459.2500    685.7410   -564.9977     17.9241    119.7047
   459.5000    685.7410   -564.9971     18.0520    119.1275
   459.7500    685.7410   -564.9968     18.1883    118.7484
   460.0000    685.7410   -564.9969     18.3401    117.7039
   460.2500    685.7410   -564.9973     18.5155    116.4997
   460.5000    685.7410   -564.9979     18.7196    114.2145
   460.7500    685.7410   -564.9987     18.9494    112.7013
   461.0000    685.7410   -564.9992     19.1930    110.6274
   461.2500    685.7410   -564.9995     19.4321    109.2541
   461.5000    685.7410   -564.9991     19.6518    107.2113
   461.7500    685.7410   -564.9982     19.8504    106.1044
   462.0000    685.7410   -564.9964     20.0421    105.1128
   462.2500    685.7410   -564.9940     20.2498    104.7215
   462.5000    685.7410   -564.9910     20.4955    103.9009
   462.7500    685.7410   -564.9876     20.7965    102.9277
   463.0000    685.7410   -564.9841     21.1678    100.6574
   463.2500    685.7410   -564.9808     21.6234     98.5387
   463.5000    685.7410   -564.9778     22.1708     94.2254
   463.7500    685.7410   -564.9753     22.7994     90.4095
   464.0000    685.7410   -564.9733     23.4726     83.1777
   464.2500    685.7410   -564.9718     24.1307     77.6960
   464.5000    685.7410   -564.9707     24.7099     69.9537
   464.7500    685.7410   -564.9699     25.1718     66.1709
   465.0000    685.7410   -564.9693     25.5175     63.7424
   465.2500    685.7410   -564.9688     25.7759     64.3128
   465.5000    685.7410   -564.9684     25.9739     67.6194
   465.7500    685.7410   -564.9680     26.1178     70.8365
   466.0000    685.7410   -564.9676     26.1954     76.3495
   466.2500    685.7410   -564.9672     26.1892     80.0667
   466.5000    685.7410   -564.9668     26.0856     84.8399
   466.7500    685.7410   -564.9663     25.8823     86.9602
   467.0000    685.7410   -564.9658     25.5966     88.1325
   467.2500    685.7410   -564.9651     25.2689     87.7942
   467.5000    685.7410   -564.9643     24.9543     86.4558
   467.7500    685.7410   -564.9634     24.7019     85.3875
   468.0000    685.7410   -564.9626     24.5361     83.5794
   468.2500    685.7410   -564.9617     24.4536     82.1344
   468.5000    685.7410   -564.9609     24.4325     79.7517
   468.7500    685.7410   -564.9603     24.4468     78.2631
   469.0000    685.7410   -564.9599     24.4741     76.3610
   469.2500    685.7410   -564.9598     24.4946     75.1362
   469.5000    685.7410   -564.9601     24.4861     72.9610
   469.7500    685.7410   -564.9609     24.4268     71.3167
   470.0000    685.7410   -564.9622     24.3068     69.1857
   470.2500    685.7410   -564.9640     24.1404     68.4356
   470.5000    685.7410   -564.9661     23.9642     68.5540
   470.7500    685.7410   -564.9686     23.8188     69.1588
   471.0000    685.7410   -564.9713     23.7289     70.0479
   471.2500    685.7410   -564.9741     23.6959     70.3723
   471.5000    685.7410   -564.9768     23.7041     70.5422
   471.7500    685.7410   -564.9794     23.7325     70.5675
   472.0000    685.7410   -564.9816     23.7614     70.5203
   472.2500    685.7410   -564.9835     23.7722     70.4463
   472.5000    685.7410   -564.9849     23.7493     70.5511
   472.7500    685.7410   -564.9857     23.6832     71.0611
   473.0000    685.7410   -564.9861     23.5712     72.8664
   473.2500    685.7410   -564.9859     23.4136     74.7813
   473.5000    685.7410   -564.9854     23.2081     78.5164
   473.7500    685.7410   -564.9846     22.9544     81.4051
   474.0000    685.7410   -564.9837     22.6635     85.8444
   474.2500    685.7410   -564.9829     22.3634     88.4236
   474.5000    685.7410   -564.9823     22.0931     90.8472
   474.7500    685.7410   -564.9818     21.8870     91.1368
   475.0000    685.7410   -564.9816     21.7605     89.6003
   475.2500    685.7410   -564.9813     21.7064     87.6392
   475.5000    685.7410   -564.9811     21.7038     84.0247
   475.7500    685.7410   -564.9805     21.7343     81.3747
   476.0000    685.7410   -564.9796     21.7928     77.1660
   476.2500    685.7410   -564.9780     21.8885     74.4037
   476.5000    685.7410   -564.9758     22.0360     70.9766
   476.7500    685.7410   -564.9730     22.2455     69.5096
   477.0000    685.7410   -564.9695     22.5155     68.5857
   477.2500    685.7410   -564.9657     22.8292     68.4859
   477.5000    685.7410   -564.9617     23.1575     68.2760
   477.7500    685.7410   -564.9578     23.4698     67.7607
   478.0000    685.7410   -564.9542     23.7509     66.5137
   478.2500    685.7410   -564.9512     24.0109     65.7676
   478.5000    685.7410   -564.9488     24.2752     65.5229
   478.7500    685.7410   -564.9473     24.5603     66.1189
   479.0000    685.7410   -564.9464     24.8554     67.8831
   479.2500    685.7410   -564.9462     25.1291     69.3016
