~Version Information
VERS.                      2.0: CWLS Log ASCII Standard - VERSION 2.0
WRAP.                       NO: One line per depth step
~Well Information Block
STRT.FT                -8.7500: 
STOP.FT              1860.5000: 
STEP.FT                 0.2500: 
NULL.                -999.2500: 
COMP.          Pioneer Natural Resources: COMPANY
WELL.          Cortina 23-25 Tr: WELL
FLD.           Purgatorie River: FIELD
LOC.           --2521' FSL & 2345' FWL------: LOCATION
STAT.                       CO: PROVINCE
CNTY.               Las Animas: COUNTY
CTRY. USA : country
SECT. 25 : Section
TOWN. 32S : Township
RANG. 67W : Range
SRVC.          Patterson Wireline: SERVICE COMPANY
DATE.          Thu Sep 29 11:30:45 2005: LOG DATE
API.           05 071 08534 00: UNIQUE WELL ID
~Curve Information Block
DEPT.FT            0 000 00 00: Depth
CCL.                          : Casing Collar Locator
TT3.usec                      : CBL 3' Travel Time
AMP3.mV                       : CBL 3' Amplitude
GR.GAPI                       : Gamma Ray
~Parameter Information Block
~A  Depth       CCL         TT3         AMP3         GR     
# ...
   493.7500      0.0000    322.3800     29.2691    124.6667
   494.0000      0.0000    322.5693     28.5509    115.9138
   494.2500      0.0000    322.7522     27.9012    108.5212
   494.5000      0.0000    322.9056     27.3579    104.0408
   494.7500      0.0000    323.0177     26.9184    103.3933
   495.0000      0.0000    323.0902     26.5704    106.1517
   495.2500      0.0000    323.1322     26.3147    110.2244
   495.5000      0.0000    323.1519     26.1618    113.2459
   495.7500      0.0000    323.1543     26.1113    114.1831
   496.0000      0.0000    323.1461     26.1440    113.0995
   496.2500      0.0000    323.1371     26.2437    109.9289
   496.5000      0.0000    323.1295     26.4288    104.4098
   496.7500      0.0000    323.1066     26.7536     97.0999
   497.0000      0.0000    323.0380     27.2638     89.5739
   497.2500      0.0000    322.9008     27.9508     83.2209
   497.5000      0.0000    322.6989     28.7468     78.2045
   497.7500      0.0000    322.4636     29.5535     73.9239
   498.0000      0.0000    322.2371     30.2703     70.1301
   498.2500      0.0000    322.0527     30.8145     67.1025
   498.5000      0.0000    321.9242     31.1378     64.9985
   498.7500      0.0000    321.8504     31.2297     63.6383
   499.0000      0.0000    321.8276     31.1100     62.7771
   499.2500      0.0000    321.8495     30.8314     62.0829
   499.5000      0.0000    321.8958     30.4883     61.0796
   499.7500      0.0000    321.9313     30.1943     59.6478
   500.0000      0.0000    321.9272     30.0253     58.5623
   500.2500      0.0000    321.8866     29.9819     59.2592
   500.5000      0.0000    321.8427     30.0098     62.9789
   500.7500      0.0000    321.8306     30.0562     70.0625
   501.0000      0.0000    321.8600     30.1050     79.8491
   501.2500      0.0000    321.9119     30.1734     91.0195
   501.5000      0.0000    321.9565     30.2891    102.1149
   501.7500      0.0000    321.9710     30.4697    112.1041
   502.0000      0.0000    321.9495     30.7066    120.6299
   502.2500      0.0000    321.9015     30.9623    127.5835
   502.5000      0.0000    321.8444     31.1823    132.5949
   502.7500      0.0000    321.7977     31.3152    135.3218
   503.0000      0.0000    321.7839     31.3273    136.0634
   503.2500      0.0000    321.8306     31.2092    135.5496
   503.5000      0.0000    321.9604     30.9723    134.2299
   503.7500      0.0000    322.1642     30.6377    132.1242
   504.0000      0.0000    322.3784     30.2283    129.0554
   504.2500      0.0000    322.5092     29.7715    124.7162
   504.5000      0.0000    322.5034     29.3037    119.0666
   504.7500      0.0000    322.3915     28.8634    112.9336
   505.0000      0.0000    322.2523     28.4750    107.5698
   505.2500      0.0000    322.1480     28.1368    103.4978
   505.5000      0.0000    322.1033     27.8269    100.4784
   505.7500      0.0000    322.1165     27.5278     98.4684
   506.0000      0.0000    322.1678     27.2533     97.8488
   506.2500      0.0000    322.2232     27.0566     98.7822
   506.5000      0.0000    322.2530     26.9943    100.8470
   506.7500      0.0000    322.2568     27.0620    103.1403
   507.0000      0.0000    322.2670     27.1615    104.5525
   507.2500      0.0000    322.3214     27.1512    104.3540
   507.5000      0.0000    322.4309     26.9477    102.9010
   507.7500      0.0000    322.5739     26.5802    101.4330
   508.0000      0.0000    322.7169     26.1523    100.6906
   508.2500      0.0000    322.8371     25.7670     99.8745
   508.5000      0.0000    322.9267     25.4834     97.3762
   508.7500      0.0000    322.9857     25.3180     92.4092
   509.0000      0.0000    323.0133     25.2688     85.6642
   509.2500      0.0000    323.0064     25.3319     78.6662
   509.5000      0.0000    322.9652     25.4968     72.9642
   509.7500      0.0000    322.8968     25.7330     69.8170
   510.0000      0.0000    322.8133     25.9884     70.0359
   510.2500      0.0000    322.7292     26.2073     73.7026
   510.5000      0.0000    322.6602     26.3554     80.2014
   510.7500      0.0000    322.6192     26.4346     88.7757
   511.0000      0.0000    322.6074     26.4819     98.9579
   511.2500      0.0000    322.6099     26.5553    110.2981
   511.5000      0.0000    322.6247     26.7098    121.7760
   511.7500      0.0000    322.7408     26.9708    131.8008
   512.0000      0.0000    323.4224     27.3254    139.2054
   512.2500      0.0000    326.2740     27.7255    144.4601
   512.5000      0.0000    335.4169     28.0603    149.3462
   512.7500      0.0000    358.3483     28.0967    154.7490
   513.0000      0.0000    403.6404     27.5123    159.1335
   513.2500      0.0000    474.0418     26.1260    159.9623
   513.5000      0.0000    559.4425     24.1625    156.3912
   513.7500      0.0000    637.1556     22.2178    149.9559
   514.0000      0.0000    681.5580     20.8701    142.9880
   514.2500      0.0000    677.4133     20.3034    137.0936
   514.5000      0.0000    630.4803     20.2956    132.7303
   514.7500     -2.0000    568.0851     20.5022    129.2635
   515.0000      2.0000    523.6441     20.7295    125.4727
   515.2500      0.0000    513.2742     21.0154    120.7638
   515.5000      0.0000    526.2606     21.5438    116.1025
   515.7500      0.0000    539.0211     22.4484    113.4424
   516.0000      0.0000    536.3440     23.6160    114.1061
   516.2500      0.0000    518.7193     24.6963    117.7456
   516.5000      0.0000    492.9938     25.3951    122.3863
   516.7500      0.0000    461.7275     25.7289    125.2076
   517.0000      0.0000    424.7270     25.9094    123.8781
   517.2500      0.0000    386.4654     26.0553    117.8751
   517.5000      0.0000    355.3402     26.1355    108.5724
   517.7500      0.0000    336.1471     26.1193     98.0080
   518.0000      0.0000    327.2301     26.0610     87.8897
   518.2500      0.0000    324.0716     26.0575     79.6006
   518.5000      0.0000    323.1880     26.1815     74.1494
   518.7500      0.0000    322.9397     26.4472     71.5854
   519.0000      0.0000    322.8228     26.8115     70.7462
   519.2500      0.0000    322.7460     27.2094     69.7638
   519.5000      0.0000    322.6796     27.5957     66.9632
   519.7500      0.0000    322.6162     27.9522     61.8160
   520.0000      0.0000    322.5543     28.2690     55.4952
   520.2500      0.0000    322.5023     28.5359     50.2386
   520.5000      0.0000    322.4687     28.7499     47.6252
   520.7500      0.0000    322.4536     28.9174     47.4058
   521.0000      0.0000    322.4491     29.0452     48.1554
   521.2500      0.0000    322.4450     29.1393     48.8873
   521.5000      0.0000    322.4358     29.2093     49.5929
   521.7500      0.0000    322.4273     29.2602     50.2688
   522.0000      0.0000    322.4348     29.2848     50.1928
   522.2500      0.0000    322.4682     29.2738     48.6994
   522.5000      0.0000    322.5193     29.2299     46.2592
   522.7500      0.0000    322.5662     29.1702     44.2361
   523.0000      0.0000    322.5882     29.1219     43.6254
   523.2500      0.0000    322.5753     29.1187     44.2264
   523.5000      0.0000    322.5309     29.1884     45.0413
   523.7500      0.0000    322.4726     29.3300     45.4787
   524.0000      0.0000    322.4359     29.5019     46.1567
   524.2500      0.0000    322.4638     29.6444     48.2725
   524.5000      0.0000    322.5702     29.7275     52.1913
   524.7500      0.0000    322.7003     29.7803     57.0325
   525.0000      0.0000    322.7508     29.8683     61.6790
   525.2500      0.0000    322.6592     30.0406     65.8692
   525.5000      0.0000    322.4652     30.3030     70.3551
   525.7500      0.0000    322.2672     30.6312     76.3143
   526.0000      0.0000    322.1310     30.9834     84.4764
   526.2500      0.0000    322.0550     31.2932     94.1140
   526.5000      0.0000    322.0013     31.4724    102.5159
   526.7500      0.0000    321.9392     31.4420    106.3714
   527.0000      0.0000    321.8619     31.1682    104.8649
