~Version Information
VERS.                      2.0: CWLS Log ASCII Standard - VERSION 2.0
WRAP.                       NO: One line per depth step
~Well Information Block
STRT.FT                -8.2500: 
STOP.FT              1653.2500: 
STEP.FT                 0.2500: 
NULL.                -999.2500: 
COMP.          Pioneer Natural Resources: COMPANY
WELL.            Relay 12-7 Tr: WELL
FLD.           Purgatorie River: FIELD
LOC.           2025' FNL & 790' FWL--: LOCATION
PROV.                       CO: PROVINCE
CNTY.               Las Animas: COUNTRY
SRVC.          Patterson Wireline: SERVICE COMPANY
DATE.          Tue Jan 24 10:25:08 2006: LOG DATE
UWI.           05 071 08603 00: UNIQUE WELL ID
~Curve Information Block
DEPT.FT            0 000 00 00: Depth
CCL.                          : Casing Collar Locator
TT3.usec                      : CBL 3' Travel Time
AMP3.mV                       : CBL 3' Amplitude
GR.GAPI                       : Gamma Ray
~Parameter Information Block
~A  Depth       CCL         TT3         AMP3         GR     
# ...
   963.2500      0.0000    569.6494      4.6104     53.3599
   963.5000      0.0000    564.4606      4.6501     55.4710
   963.7500      0.0000    564.1418      4.7043     57.0657
   964.0000      0.0000    558.1927      4.7442     58.0127
   964.2500      0.0000    537.7568      4.7615     57.8037
   964.5000      0.0000    503.8190      4.7748     56.6748
   964.7500      0.0000    467.8188      4.7941     55.7971
   965.0000      0.0000    445.2553      4.7999     56.3001
   965.2500      0.0000    447.6404      4.7663     58.3986
   965.5000      0.0000    477.2640      4.6887     61.1806
   965.7500      0.0000    526.0730      4.5839     63.0002
   966.0000      0.0000    579.4230      4.4756     62.5702
   966.2500      0.0000    624.2049      4.3851     60.2769
   966.5000      0.0000    655.5285      4.3306     58.3080
   966.7500      0.0000    675.6784      4.3275     58.9995
   967.0000      0.0000    687.8696      4.3820     62.8138
   967.2500      0.0000    692.4136      4.4816     67.9512
   967.5000      0.0000    687.2684      4.5934     71.9069
   967.7500      0.0000    669.8320      4.6771     73.2906
   968.0000      0.0000    638.8134      4.7055     72.2534
   968.2500      0.0000    596.6911      4.6766     69.7436
   968.5000      0.0000    550.8515      4.6086     66.7001
   968.7500      0.0000    510.5568      4.5272     63.5143
   969.0000      0.0000    481.3152      4.4573     59.8187
   969.2500      0.0000    462.1926      4.4187     55.1118
   969.5000      0.0000    448.9357      4.4212     49.9496
   969.7500      0.0000    439.3581      4.4589     46.2103
   970.0000      0.0000    435.4373      4.5124     45.8083
   970.2500      0.0000    440.4525      4.5619     49.3978
   970.5000      0.0000    454.2068      4.6006     56.5631
   970.7500      0.0000    470.9347      4.6352     66.8272
   971.0000      0.0000    482.8742      4.6733     79.8105
   971.2500      0.0000    487.3323      4.7135     94.4292
   971.5000      0.0000    489.8957      4.7513    108.6487
   971.7500      0.0000    499.7291      4.7933    120.4196
   972.0000      0.0000    521.7715      4.8585    128.7891
   972.2500      0.0000    552.6536      4.9625    134.2244
   972.5000      0.0000    582.6171      5.1013    138.0150
   972.7500      0.0000    601.8695      5.2522    141.0637
   973.0000      0.0000    606.5381      5.3866    143.0885
   973.2500      0.0000    599.0255      5.4851    143.2653
   973.5000      0.0000    584.0809      5.5453    141.6043
   973.7500      0.0000    566.3118      5.5775    139.2577
   974.0000      0.0000    550.2537      5.5933    137.5889
   974.2500      0.0000    539.8890      5.5987    137.3632
   974.5000      0.0000    537.7086      5.5955    138.6418
   974.7500      0.0000    545.1127      5.5868    140.9221
   975.0000      0.0000    562.8041      5.5802    143.3725
   975.2500      0.0000    589.2004      5.5860    145.2904
   975.5000      0.0000    618.8120      5.6138    146.4926
   975.7500      0.0000    643.7805      5.6688    147.1734
   976.0000      0.0000    657.4968      5.7482    147.4094
   976.2500      0.0000    656.4130      5.8400    146.9211
   976.5000      0.0000    639.8765      5.9222    145.4492
   976.7500      0.0000    611.0122      5.9703    143.2419
   977.0000      0.0000    578.5601      5.9681    140.9072
   977.2500      0.0000    555.3873      5.9152    138.6481
   977.5000      0.0000    551.7312      5.8270    135.9933
   977.7500      0.0000    567.4531      5.7289    132.7171
   978.0000      0.0000    589.9088      5.6473    129.8836
   978.2500      0.0000    600.3270      5.6008    129.3345
   978.5000      0.0000    585.1226      5.5959    131.9493
   978.7500      0.0000    544.3864      5.6293    136.5644
   979.0000      0.0000    491.3673      5.6900    140.4495
   979.2500      0.0000    443.3622      5.7583    140.9522
   979.5000      0.0000    411.4353      5.8106    137.4549
   979.7500      0.0000    396.7964      5.8302    132.0070
   980.0000      0.0000    394.2594      5.8171    127.4769
   980.2500      0.0000    397.3453      5.7876    124.9596
   980.5000      0.0000    401.1771      5.7662    123.2943
   980.7500      0.0000    403.1957      5.7768    120.8601
   981.0000      0.0000    402.8754      5.8329    117.3416
   981.2500      0.0000    400.9424      5.9291    113.7627
   981.5000      0.0000    398.2880      6.0398    111.2231
   981.7500      0.0000    395.1103      6.1324    109.8205
   982.0000      0.0000    391.0519      6.1841    108.8013
   982.2500      0.0000    386.1927      6.1904    107.6592
   982.5000      0.0000    381.4803      6.1602    106.8066
   982.7500      0.0000    377.9645      6.1087    107.0593
   983.0000      0.0000    375.9553      6.0555    108.6854
   983.2500      0.0000    375.1189      6.0206    111.1934
   983.5000      0.0000    375.1335      6.0159    113.9922
   983.7500      0.0000    375.9871      6.0388    116.8646
   984.0000      0.0000    377.5953      6.0770    119.4504
   984.2500      0.0000    379.2721      6.1169    120.7673
   984.5000      0.0000    379.9084      6.1480    120.1108
   984.7500      0.0000    378.9417      6.1640    118.2025
   985.0000      0.0000    377.0288      6.1647    116.3984
   985.2500      0.0000    375.6363      6.1574    114.8448
   985.5000      0.0000    376.1461      6.1540    112.5248
   985.7500      0.0000    379.2691      6.1641    109.0549
   986.0000      0.0000    384.7407      6.1892    105.3090
   986.2500      0.0000    391.2746      6.2209    102.2762
   986.5000      0.0000    397.1255      6.2448    100.1737
   986.7500      0.0000    401.0106      6.2471     98.6116
   987.0000      0.0000    402.4641      6.2230     96.9777
   987.2500      0.0000    401.4015      6.1804     94.7822
   987.5000      0.0000    397.7778      6.1372     92.1212
   987.7500      0.0000    391.9622      6.1123     89.7620
   988.0000      0.0000    385.2292      6.1154     88.4295
   988.2500      0.0000    379.3993      6.1430     88.1511
   988.5000      0.0000    375.7811      6.1827     88.5623
   988.7500      0.0000    374.5609      6.2230     89.5516
   989.0000      0.0000    375.2134      6.2596     91.2099
   989.2500      0.0000    377.4002      6.2933     93.3150
   989.5000      0.0000    381.4859      6.3227     95.2563
   989.7500      0.0000    388.1711      6.3381     96.6402
   990.0000      0.0000    397.5905      6.3268     97.8405
   990.2500      0.0000    408.9621      6.2836     99.6671
   990.5000      0.0000    421.5033      6.2168    102.3608
   990.7500      0.0000    435.4650      6.1426    104.9856
   991.0000      0.0000    451.2103      6.0737    105.9125
   991.2500      0.0000    467.2536      6.0145    104.0462
   991.5000      0.0000    480.7008      5.9655     99.9285
   991.7500      0.0000    490.1304      5.9317     95.9261
   992.0000      0.0000    496.9845      5.9228     95.0590
   992.2500      0.0000    504.9542      5.9433     98.8442
   992.5000      0.0000    519.4433      5.9815    105.8286
   992.7500      0.0000    544.2927      6.0141    112.5389
   993.0000      0.0000    574.6559      6.0206    116.0484
   993.2500      0.0000    595.2259      5.9926    115.4393
   993.5000      0.0000    590.1415      5.9341    111.3653
   993.7500      0.0000    555.8947      5.8591    105.4591
   994.0000      0.0000    504.6038      5.7865    100.1861
   994.2500      0.0000    455.3177      5.7324     97.9737
   994.5000      0.0000    421.7028      5.7029     99.6594
   994.7500      0.0000    406.2881      5.6926    103.7927
   995.0000      0.0000    404.2913      5.6858    107.6421
   995.2500      0.0000    411.7355      5.6616    109.2185
   995.5000      0.0000    429.9971      5.6068    108.6720
   995.7500      0.0000    462.7656      5.5300    107.7069
   996.0000      0.0000    508.4276      5.4612    107.7265
   996.2500      0.0000    556.4273      5.4332    108.9700
   996.5000      0.0000    593.1396      5.4587    111.4016
