~Version Information
VERS.                      2.0: CWLS Log ASCII Standard - VERSION 2.0
WRAP.                       NO: One line per depth step
~Well Information Block
STRT.FT                10.0000: 
STOP.FT              1044.5000: 
STEP.FT                 0.1000: 
NULL.                -999.2500: 
COMP.          Pioneer Natural Resources: COMPANY
WELL.          Stags Leap 13-30: WELL
FLD.           Purgatorie River: FIELD
LOC.           1813' FSL & 117' FWL: LOCATION
PROV.                 Colorado: PROVINCE
CNTY.               Las Animas: COUNTRY
SRVC.                Patterson: SERVICE COMPANY
DATE.          Fri Dec 09 09:46:17 2005: LOG DATE
UWI.                          : UNIQUE WELL ID
~Curve Information Block
DEPT.FT            0 000 00 00: Depth
DCAL.in                       : CDL Caliper
RHOB.g/cc                     : CDL Bulk Density
RHOC.g/cc                     : CDL Density Correction
DPOR.pu                       : CDL Density Porosity
GR.GAPI                       : Gamma Ray
NPOR.pu                       : Neutron Porosity
~Parameter Information Block
~A  Depth       DCAL        RHOB        RHOC        DPOR         GR         NPOR    
# ...
   557.2000      8.0990      2.6021      0.0007      2.9013    136.2071     26.7789
   557.3000      8.0790      2.6147      0.0641      2.1371    131.5459     26.4803
   557.4000      8.0790      2.6376      0.1053      0.7526    131.4040     26.6161
   557.5000      8.0778      2.6527      0.1241     -0.1622    135.1358     26.6153
   557.6000      8.0778      2.6600      0.1069     -0.6031    137.9144     26.2778
   557.7000      8.0778      2.6642      0.1196     -0.8623    139.8657     26.0064
   557.8000      8.0941      2.6594      0.1031     -0.5676    141.5915     25.9475
   557.9000      8.0941      2.6388      0.1070      0.6777    141.1299     25.9225
   558.0000      8.0723      2.6132      0.0186      2.2314    137.1034     25.8929
   558.1000      8.0723      2.6021      0.0614      2.9060    131.6945     25.8852
   558.2000      8.0723      2.6025      0.0419      2.8798    130.4533     25.8165
   558.3000      8.0726      2.5938      0.0828      3.4084    133.7663     25.6969
   558.4000      8.0726      2.5713      0.0100      4.7717    136.5805     25.6088
   558.5000      8.0623      2.5588     -0.0440      5.5258    136.6775     25.5571
   558.6000      8.0623      2.5709      0.0198      4.7950    135.5524     25.5412
   558.7000      8.0623      2.5903      0.0639      3.6169    135.5062     25.4987
   558.8000      8.0673      2.5964      0.0717      3.2491    137.0076     25.4906
   558.9000      8.0673      2.5871      0.0316      3.8136    137.6250     25.5924
   559.0000      8.0781      2.5726      0.0296      4.6924    136.8674     25.6906
   559.1000      8.0781      2.5577      0.0436      5.5922    138.1992     25.6750
   559.2000      8.0781      2.5403      0.0296      6.6502    143.3615     25.3637
   559.3000      8.1554      2.5198      0.0323      7.8915    150.8411     24.7678
   559.4000      8.1554      2.5025     -0.0095      8.9383    157.0230     24.3297
   559.5000      8.1999      2.4943     -0.0175      9.4345    159.0234     24.2264
   559.6000      8.1999      2.4887      0.0257      9.7770    159.2424     24.1866
   559.7000      8.1999      2.4840      0.0047     10.0600    161.8179     24.0982
   559.8000      8.2375      2.4860      0.0833      9.9415    166.3066     23.9705
   559.9000      8.2375      2.4874      0.0534      9.8555    170.9143     23.7556
   560.0000      8.3499      2.4888      0.0540      9.7676    175.7028     23.5411
   560.1000      8.3499      2.5033      0.1049      8.8884    179.3250     23.6005
   560.2000      8.3499      2.5291      0.1581      7.3252    180.6650     23.9088
   560.3000      8.4423      2.5584      0.1384      5.5509    181.0600     23.9749
   560.4000      8.4423      2.5933      0.1449      3.4362    180.0312     23.7560
   560.5000      8.4146      2.6253      0.2047      1.4971    177.7599     23.8527
   560.6000      8.4146      2.6395      0.1777      0.6391    176.5743     24.4151
   560.7000      8.4146      2.6420      0.1527      0.4868    175.5269     25.0005
   560.8000      8.4247      2.6434      0.1470      0.3986    172.0463     25.4197
   560.9000      8.4247      2.6353      0.1718      0.8887    166.8555     25.8656
   561.0000      8.2966      2.6089      0.0604      2.4891    161.7348     26.2326
   561.1000      8.2966      2.5729      0.0690      4.6714    156.2523     26.3091
   561.2000      8.2966      2.5336      0.0688      7.0519    149.6474     26.2087
   561.3000      8.2895      2.4961     -0.0474      9.3278    142.9135     26.0763
   561.4000      8.2895      2.4739     -0.0503     10.6738    135.3154     25.8329
   561.5000      8.1603      2.4647     -0.0116     11.2322    124.7341     25.3154
   561.6000      8.1603      2.4518     -0.0272     12.0138    114.1460     24.6191
   561.7000      8.1603      2.4340     -0.0426     13.0925    108.0074     23.8858
   561.8000      8.1290      2.4195     -0.0285     13.9709    104.7338     23.1482
   561.9000      8.1290      2.4084     -0.0214     14.6452    100.6685     22.6351
   562.0000      8.1111      2.3989     -0.0081     15.2173     96.1825     22.2601
   562.1000      8.1111      2.3926     -0.0497     15.6012     93.0911     21.5566
   562.2000      8.1111      2.3858      0.0194     16.0093     91.8007     20.6082
   562.3000      8.0783      2.3796     -0.0341     16.3861     92.7549     19.9045
   562.4000      8.0783      2.3870      0.0339     15.9386     94.8700     19.5569
   562.5000      8.0768      2.4079      0.0511     14.6712     94.9316     19.3967
   562.6000      8.0768      2.4301      0.0158     13.3244     92.3234     19.2163
   562.7000      8.0768      2.4458      0.0662     12.3750     90.8259     18.9317
   562.8000      8.0591      2.4445      0.0806     12.4548     92.3445     18.6476
   562.9000      8.0591      2.4248      0.0251     13.6508     93.5184     18.3506
   563.0000      8.0561      2.4069      0.0124     14.7359     92.2851     18.1039
   563.1000      8.0561      2.4108      0.0135     14.4958     90.3539     18.1707
   563.2000      8.0561      2.4332      0.0543     13.1408     88.0643     18.5442
   563.3000      8.0455      2.4565      0.0831     11.7245     85.4707     18.8276
   563.4000      8.0455      2.4798      0.0243     10.3138     84.6868     18.9923
   563.5000      8.0618      2.5134      0.0929      8.2765     84.6742     19.3463
   563.6000      8.0618      2.5478      0.1282      6.1933     82.6504     19.7929
   563.7000      8.0618      2.5650      0.1096      5.1529     80.3200     19.9584
   563.8000      8.0585      2.5656      0.0741      5.1142     79.1467     19.6318
   563.9000      8.0585      2.5565      0.0963      5.6690     77.5171     19.0276
   564.0000      8.0436      2.5355      0.0597      6.9393     75.2530     18.6624
   564.1000      8.0436      2.5066      0.0443      8.6909     73.1498     18.5911
   564.2000      8.0436      2.4766      0.0529     10.5097     71.2581     18.4608
   564.3000      8.0349      2.4483     -0.0130     12.2265     70.6958     18.3405
   564.4000      8.0349      2.4266     -0.0173     13.5401     73.3090     18.4594
   564.5000      8.0461      2.4124     -0.0311     14.4013     77.1411     18.5646
   564.6000      8.0461      2.4045     -0.0234     14.8788     78.1427     18.2808
   564.7000      8.0461      2.4026      0.0268     14.9969     77.4921     17.7867
   564.8000      8.0794      2.4016      0.0002     15.0524     78.5435     17.5259
   564.9000      8.0794      2.3954      0.0128     15.4311     80.3744     17.4726
   565.0000      8.0871      2.3831     -0.0258     16.1778     80.9907     17.3736
   565.1000      8.0871      2.3794     -0.0350     16.3996     82.3035     17.2936
   565.2000      8.0871      2.3980     -0.0160     15.2723     86.0168     17.3481
   565.3000      8.0928      2.4271      0.0397     13.5089     89.5872     17.5334
   565.4000      8.0928      2.4405      0.0697     12.6992     90.0510     17.8142
   565.5000      8.0937      2.4320      0.0593     13.2092     89.3674     18.1288
   565.6000      8.0937      2.4227     -0.0134     13.7782     90.0239     18.3949
   565.7000      8.0937      2.4205      0.0566     13.9116     90.5265     18.4940
   565.8000      8.1008      2.4122      0.0056     14.4109     89.4163     18.4407
   565.9000      8.1008      2.4014     -0.0052     15.0660     87.4950     18.4576
   566.0000      8.1395      2.4027      0.0056     14.9881     86.3825     18.5941
   566.1000      8.1395      2.4159      0.0176     14.1879     86.8654     18.6692
   566.2000      8.1395      2.4296      0.0241     13.3553     88.8878     18.7100
   566.3000      8.1104      2.4361      0.0248     12.9665     92.3338     18.8904
   566.4000      8.1104      2.4355      0.0114     12.9977     94.6543     19.1158
   566.5000      8.0668      2.4350      0.0230     13.0294     93.7890     19.2002
   566.6000      8.0668      2.4386      0.0153     12.8151     92.0137     19.3858
   566.7000      8.0668      2.4416      0.0001     12.6294     92.5752     19.9511
