~Version Information
VERS.                      2.0: CWLS Log ASCII Standard - VERSION 2.0
WRAP.                       NO: One line per depth step
~Well Information Block
STRT.FT               315.0000: 
STOP.FT              1292.5000: 
STEP.FT                 0.1000: 
NULL.                -999.2500: 
COMP.          Pioneer Natural Resources: COMPANY
WELL.          Hot Tomatoes 22-20: WELL
FLD.           Purgatoire River: FIELD
LOC.           2120' FNL & 2585' FWL: LOCATION
CNTY.               Las Animas: COUNTY
SRVC.                Patterson: SERVICE COMPANY
DATE.          Mon Feb 27 07:06:41 2006: LOG DATE
UWI.           05 071 08701 00: UNIQUE WELL ID
STAT.                 Colorado: STATE
~Curve Information Block
DEPT.FT            0 000 00 00: Depth
DCAL.in                       : CDL Caliper
RHOB.g/cc                     : CDL Bulk Density
RHOC.g/cc                     : CDL Density Correction
DPOR.pu                       : CDL Density Porosity
GR.GAPI                       : Gamma Ray
NPOR.pu                       : Neutron Porosity
~Parameter Information Block
~A  Depth       DCAL        RHOB        RHOC        DPOR         GR         NPOR    
# ...
   631.8000      7.9903      2.4732      0.0055     10.7155    151.2562     24.0535
   631.9000      7.9903      2.5056      0.0206      8.7517    155.1307     24.1377
   632.0000      8.0103      2.5265      0.0047      7.4843    157.9412     24.0498
   632.1000      8.0103      2.5392      0.0125      6.7131    158.1226     23.9564
   632.2000      8.0103      2.5489      0.0571      6.1244    154.3932     23.9637
   632.3000      8.0343      2.5555      0.0262      5.7255    147.4955     23.9029
   632.4000      8.0343      2.5540      0.0274      5.8196    139.0150     24.0520
   632.5000      8.0259      2.5417      0.0205      6.5666    130.3377     24.7775
   632.6000      8.0259      2.5248     -0.0449      7.5892    126.6607     25.1451
   632.7000      8.0259      2.5138     -0.0340      8.2546    132.2697     24.0918
   632.8000      8.0208      2.5171     -0.0534      8.0561    140.2758     22.8070
   632.9000      8.0208      2.5372     -0.0445      6.8346    143.4230     23.1206
   633.0000      7.9995      2.5601     -0.0057      5.4511    141.6670     24.8593
   633.1000      7.9995      2.5690     -0.0239      4.9081    136.3039     26.3359
   633.2000      7.9995      2.5639      0.0066      5.2211    131.6382     26.1114
   633.3000      7.9813      2.5499     -0.0153      6.0674    133.1041     24.6180
   633.4000      7.9813      2.5312     -0.0065      7.1982    138.7728     23.5444
   633.5000      7.9802      2.5169     -0.0582      8.0646    141.8658     23.3969
   633.6000      7.9802      2.5185     -0.0243      7.9688    140.5737     23.5435
   633.7000      7.9802      2.5273      0.0028      7.4367    137.4951     23.6170
   633.8000      7.9804      2.5245      0.0051      7.6073    134.9019     23.8822
   633.9000      7.9804      2.5111     -0.0553      8.4173    131.8869     24.3399
   634.0000      7.9781      2.5016     -0.0289      8.9947    129.0969     24.7880
   634.1000      7.9781      2.5040     -0.0135      8.8491    130.7703     25.0231
   634.2000      7.9781      2.5173      0.0046      8.0419    136.6162     24.6200
   634.3000      7.9848      2.5338      0.0135      7.0394    142.4126     24.0426
   634.4000      7.9848      2.5426      0.0334      6.5108    146.4850     23.9326
   634.5000      7.9859      2.5346      0.0690      6.9959    151.8565     23.9849
   634.6000      7.9859      2.5060      0.0427      8.7266    160.1286     24.0562
   634.7000      7.9859      2.4661      0.0281     11.1437    165.2806     24.4043
   634.8000      7.9832      2.4354     -0.0024     13.0084    162.7960     24.8994
   634.9000      7.9832      2.4268     -0.0276     13.5300    158.8442     25.2818
   635.0000      7.9833      2.4405     -0.0332     12.6954    160.1941     25.5799
   635.1000      7.9833      2.4628      0.0854     11.3464    166.9908     25.6925
   635.2000      7.9833      2.4762      0.0395     10.5309    173.1030     25.4460
   635.3000      7.9831      2.4864      0.0131      9.9150    172.5221     25.0931
   635.4000      7.9831      2.5125      0.0255      8.3327    166.6802     24.9212
   635.5000      7.9787      2.5629      0.0860      5.2761    159.7546     24.9592
   635.6000      7.9787      2.6161      0.1924      2.0531    152.6202     25.3081
   635.7000      7.9787      2.6310      0.2191      1.1487    147.1660     25.7752
   635.8000      7.9831      2.6081      0.0762      2.5398    147.6152     25.7196
   635.9000      7.9831      2.5872      0.0575      3.8040    153.4597     25.2030
   636.0000      7.9797      2.5816      0.0366      4.1469    160.6022     25.0733
   636.1000      7.9797      2.5797      0.0476      4.2601    160.9735     25.6324
   636.2000      7.9797      2.5816      0.0031      4.1465    152.3006     25.9628
   636.3000      7.9825      2.5952      0.0464      3.3206    143.9193     25.2100
   636.4000      7.9825      2.6137      0.0699      2.1994    140.1835     23.8680
   636.5000      7.9772      2.6195      0.0366      1.8477    141.1956     22.5148
   636.6000      7.9772      2.6049      0.0464      2.7358    147.8880     21.1781
   636.7000      7.9772      2.5733      0.0268      4.6494    155.3664     20.1823
   636.8000      7.9788      2.5381      0.0122      6.7802    158.5664     19.9833
   636.9000      7.9788      2.5122     -0.0100      8.3533    158.5029     20.2133
   637.0000      7.9807      2.4904      0.0235      9.6730    157.1077     20.3490
   637.1000      7.9807      2.4673     -0.0339     11.0720    156.8695     20.6328
   637.2000      7.9807      2.4558     -0.0079     11.7687    160.7835     20.9359
   637.3000      7.9886      2.4592     -0.0232     11.5628    168.0234     21.1032
   637.4000      7.9886      2.4617      0.0344     11.4147    175.0213     21.4591
   637.5000      7.9887      2.4599      0.0013     11.5195    179.3098     21.8640
   637.6000      7.9887      2.4688      0.0316     10.9830    184.7527     21.8520
   637.7000      7.9887      2.4868      0.0587      9.8913    193.1651     21.4576
   637.8000      7.9987      2.4963      0.0628      9.3165    194.0543     21.1929
   637.9000      7.9987      2.4947      0.0594      9.4118    178.6975     21.3511
   638.0000      8.0249      2.4946      0.0288      9.4211    159.3258     21.8308
   638.1000      8.0249      2.5000      0.0413      9.0921    148.1746     22.1759
   638.2000      8.0249      2.5028      0.0731      8.9236    138.6048     22.0008
   638.3000      8.0182      2.4972      0.0386      9.2620    129.2353     21.5289
   638.4000      8.0182      2.4909      0.0028      9.6413    126.3261     21.3587
   638.5000      8.0136      2.4941      0.0103      9.4485    124.5984     21.5831
   638.6000      8.0136      2.5097     -0.0065      8.5024    118.4812     21.7668
   638.7000      8.0136      2.5358      0.0348      6.9222    109.2206     22.0751
   638.8000      7.9788      2.5602      0.0833      5.4431     99.8240     22.6525
   638.9000      7.9788      2.5643      0.0322      5.1934     93.3443     23.0503
   639.0000      7.9697      2.5522     -0.0069      5.9252     87.4379     23.2241
   639.1000      7.9697      2.5456      0.0491      6.3265     83.2433     23.0924
   639.2000      7.9697      2.5471      0.0299      6.2343     85.4135     22.0891
   639.3000      7.9697      2.5491      0.0350      6.1127     91.8436     20.4726
   639.4000      7.9697      2.5582     -0.0126      5.5614     99.1861     19.1212
   639.5000      7.9611      2.5759      0.0475      4.4926    104.8367     18.4911
   639.6000      7.9611      2.5774      0.0925      4.3995    107.4979     18.4641
   639.7000      7.9611      2.5487      0.0094      6.1364    110.1784     18.4951
   639.8000      7.9620      2.5159     -0.0635      8.1263    111.9370     18.6673
   639.9000      7.9620      2.5072      0.0026      8.6540    112.9010     19.6934
   640.0000      7.9695      2.5172      0.0055      8.0509    117.3669     21.2132
   640.1000      7.9695      2.5262      0.0504      7.5010    122.5920     22.0055
   640.2000      7.9695      2.5246      0.0136      7.6016    125.5782     21.7407
   640.3000      7.9828      2.5175      0.0484      8.0314    127.5417     21.0016
   640.4000      7.9828      2.5152     -0.0067      8.1714    129.8093     20.3699
   640.5000      7.9695      2.5194      0.0244      7.9136    134.2878     20.0631
   640.6000      7.9695      2.5296     -0.0442      7.2992    138.6700     20.1346
   640.7000      7.9695      2.5483      0.0375      6.1636    136.7583     20.4307
   640.8000      7.9725      2.5586      0.1173      5.5407    129.3640     20.4617
   640.9000      7.9725      2.5443      0.0116      6.4069    123.0609     20.3360
   641.0000      7.9879      2.5244     -0.0004      7.6120    120.8748     20.4681
   641.1000      7.9879      2.5168      0.0190      8.0734    117.2833     20.6003
   641.2000      7.9879      2.5167     -0.0013      8.0815    106.6798     20.6063
   641.3000      7.9986      2.5138     -0.0073      8.2516     95.1644     20.7533
