~Version Information
VERS.                      2.0: CWLS Log ASCII Standard - VERSION 2.0
WRAP.                       NO: One line per depth step
~Well Information Block
STRT.FT                 0.0000: 
STOP.FT               878.0000: 
STEP.FT                 0.2500: 
NULL.                -999.2500: 
COMP.          Pioneer Natural Resources: COMPANY
WELL.           Hartford 31-18: WELL
FLD.           Purgatorie River: FIELD
LOC.           375' FNL & 1660' FEL: LOCATION
PROV.                 Colorado: PROVINCE
CNTY.               Las Animas: COUNTRY
SRVC.                Patterson: SERVICE COMPANY
DATE.          Mon Nov 28 12:10:49 2005: LOG DATE
UWI.             05-071-08555             : UNIQUE WELL ID
~Curve Information Block
DEPT.FT            0 000 00 00: Depth
CCL.                          : Casing Collar Locator
TT3.usec                      : CBL 3' Travel Time
AMP3.mV                       : CBL 3' Amplitude
GR.GAPI                       : Gamma Ray
~Parameter Information Block
~A  Depth       CCL         TT3         AMP3         GR     
# ...
   569.5000      0.0000    667.1974      8.4751    125.0740
   569.7500      0.0000    663.6850      8.4195    121.6702
   570.0000      0.0000    667.4458      8.3867    117.4649
   570.2500      0.0000    676.9827      8.3704    113.8399
   570.5000      0.0000    684.4436      8.3905    112.3942
   570.7500      0.0000    685.7703      8.4818    113.7048
   571.0000      0.0000    685.0651      8.6343    116.6906
   571.2500      0.0000    686.5457      8.7946    119.1941
   571.5000      0.0000    688.1406      8.9230    119.3992
   571.7500      0.0000    687.3818      9.0136    117.1378
   572.0000      0.0000    687.7423      9.0667    114.0483
   572.2500      0.0000    693.3708      9.0859    112.4078
   572.5000      0.0000    701.1596      9.0892    113.7023
   572.7500      0.0000    702.4832      9.0911    117.8623
   573.0000      0.0000    692.5297      9.0879    123.1984
   573.2500      0.0000    676.4655      9.0792    126.9916
   573.5000      0.0000    664.8488      9.0893    126.8712
   573.7500      0.0000    663.1861      9.1434    122.3911
   574.0000      0.0000    668.1946      9.2307    115.4355
   574.2500      0.0000    673.7697      9.3170    108.8233
   574.5000      0.0000    678.7475      9.3853    104.2939
   574.7500      0.0000    687.0499      9.4444    101.7813
   575.0000      0.0000    699.6549      9.5073    100.3235
   575.2500      0.0000    711.4335      9.5877     99.0711
   575.5000      0.0000    718.1552      9.6992     97.3711
   575.7500      0.0000    720.5767      9.8258     94.7176
   576.0000      0.0000    721.1227      9.9218     91.2971
   576.2500      0.0000    721.1700      9.9652     88.3872
   576.5000      0.0000    721.1587      9.9836     87.5848
   576.7500      0.0000    720.9841     10.0201     89.2518
   577.0000      0.0000    719.1772     10.0923     91.7999
   577.2500      0.0000    709.8159     10.1790     92.7993
   577.5000      0.0000    679.7759     10.2584     90.8543
   577.7500      0.0000    616.8754     10.3449     86.2134
   578.0000      0.0000    528.8322     10.4517     79.9176
   578.2500      0.0000    444.6412     10.5625     73.0864
   578.5000      0.0000    389.4550     10.6694     66.8429
   578.7500      0.0000    369.0412     10.7762     61.9711
   579.0000      0.0000    376.6705     10.8589     58.3327
   579.2500      0.0000    398.0725     10.8716     55.0405
   579.5000      0.0000    412.7506     10.7945     51.3627
   579.7500      0.0000    409.1180     10.6461     47.3512
   580.0000      0.0000    395.4351     10.4644     43.7182
   580.2500      0.0000    384.8540     10.3033     41.3383
   580.5000      0.0000    380.6183     10.2181     40.7607
   580.7500      0.0000    379.7602     10.2266     41.9010
   581.0000      0.0000    379.8964     10.2874     44.1543
   581.2500      0.0000    380.3581     10.3327     46.9749
   581.5000      0.0000    381.1609     10.3200     50.3095
   581.7500      0.0000    382.4662     10.2586     54.2870
   582.0000      0.0000    385.6950     10.1975     58.5063
   582.2500      0.0000    397.1349     10.1710     61.8598
   582.5000      0.0000    430.0975     10.1712     63.2263
   582.7500      0.0000    494.1832     10.1762     62.4549
   583.0000      0.0000    576.5594     10.1603     60.7279
   583.2500      0.0000    648.0148     10.1065     59.8856
   583.5000      0.0000    691.8138     10.0405     61.2621
   583.7500      0.0000    711.8964     10.0025     64.9437
   584.0000      0.0000    718.8666      9.9834     69.7425
   584.2500      0.0000    720.5189      9.9349     73.7941
   584.5000      0.0000    720.7587      9.8300     75.5982
   584.7500      0.0000    720.7964      9.6894     74.8630
   585.0000      0.0000    720.3419      9.5617     72.3953
   585.2500      0.0000    718.1119      9.4823     69.2089
   585.5000      0.0000    712.3589      9.4514     65.8097
   585.7500      0.0000    703.3799      9.4503     62.3385
   586.0000      0.0000    695.0374      9.4602     59.3272
   586.2500      0.0000    689.9290      9.4634     57.9588
   586.5000      0.0000    686.2046      9.4602     59.1062
   586.7500      0.0000    682.4194      9.4819     62.2534
   587.0000      0.0000    679.7667      9.5453     65.8581
   587.2500      0.0000    679.7784      9.6143     68.6006
   587.5000      0.0000    683.8969      9.6489     69.8042
   587.7500      0.0000    692.5983      9.6665     69.0649
   588.0000      0.0000    702.2139      9.7139     66.3147
   588.2500      0.0000    704.4234      9.7932     62.1971
   588.5000      0.0000    689.1992      9.8562     57.8014
   588.7500      0.0000    646.7959      9.8615     53.9254
   589.0000      0.0000    574.9270      9.8124     50.7768
   589.2500      0.0000    491.6837      9.7488     48.3111
   589.5000      0.0000    427.1888      9.7090     46.6538
   589.7500      0.0000    394.5716      9.6960     46.0832
   590.0000      0.0000    384.1255      9.6820     46.5567
   590.2500      0.0000    382.1532      9.6413     47.3680
   590.5000      0.0000    381.7522      9.5857     47.5850
   590.7500      0.0000    381.1822      9.5626     46.9260
   591.0000      0.0000    380.5381      9.6011     45.9744
   591.2500      0.0000    380.0843      9.6837     45.4973
   591.5000      0.0000    380.0006      9.7849     45.8260
   591.7500      0.0000    381.6657      9.9040     46.9337
   592.0000      0.0000    391.0046     10.0437     48.7542
   592.2500      0.0000    420.3504     10.1789     51.1062
   592.5000      0.0000    477.9473     10.2747     53.4427
   592.7500      0.0000    549.8928     10.3212     55.0321
   593.0000      0.0000    607.3640     10.3281     55.5085
   593.2500      0.0000    636.8870     10.3040     55.1423
   593.5000      0.0000    647.2386     10.2500     54.5718
   593.7500      0.0000    651.8590     10.1757     54.2118
   594.0000      0.0000    658.8982     10.1133     53.7823
   594.2500      0.0000    670.8240     10.0878     52.4551
   594.5000      0.0000    684.6565     10.0880     49.7184
   594.7500      0.0000    695.5761     10.0941     46.2245
   595.0000      0.0000    700.6362     10.1108     43.6501
   595.2500      0.0000    698.4456     10.1490     43.5360
   595.5000      0.0000    691.0590     10.2034     46.2322
   595.7500      0.0000    684.8330     10.2714     50.9091
   596.0000      0.0000    685.3922     10.3585     56.4359
   596.2500      0.0000    693.5653     10.4576     62.2511
   596.5000      0.0000    705.3091     10.5586     68.4637
   596.7500      0.0000    714.7678     10.6522     75.1077
   597.0000      0.0000    718.0497     10.6846     81.4275
   597.2500      0.0000    711.7613     10.5289     86.1874
   597.5000      0.0000    691.3074     10.0610     88.7614
   597.7500      0.0000    662.2733      9.3024     89.6343
   598.0000      0.0000    649.2018      8.4195     89.6073
   598.2500      0.0000    671.1566      7.5583     88.7352
   598.5000      0.0000    720.2379      6.7692     86.4056
   598.7500      0.0000    781.1603      6.1694     82.4063
   599.0000      0.0000    838.8395      5.9818     77.6209
   599.2500      0.0000    867.7499      6.1825     73.6011
   599.5000     -2.0000    856.1761      6.4518     71.6610
   599.7500      0.0000    823.9777      6.5829     72.4088
   600.0000      2.0000    788.6157      6.5734     75.7763
   600.2500      0.0000    745.3070      6.4800     81.1052
   600.5000      0.0000    695.0079      6.5068     87.2937
   600.7500      0.0000    658.7766      7.0004     93.2653
   601.0000      0.0000    649.2186      7.9874     98.4361
   601.2500      0.0000    653.6322      8.9554    102.6324
   601.5000      0.0000    655.1423      9.4934    105.6475
   601.7500      0.0000    644.3107      9.7509    107.0854
   602.0000      0.0000    611.7265     10.0104    106.6208
   602.2500      0.0000    552.2028     10.3081    104.2992
   602.5000      0.0000    480.0691     10.5389    100.6775
   602.7500      0.0000    422.8056     10.6369     96.7878
