~Version Information
VERS.                      2.0: CWLS Log ASCII Standard - VERSION 2.0
WRAP.                       NO: One line per depth step
~Well Information Block
STRT.FT               485.0000: 
STOP.FT              1030.5000: 
STEP.FT                 0.1000: 
NULL.                -999.2500: 
COMP.          Pioneer Natural Resources: COMPANY
WELL.          Red Raider 22-15: WELL
FLD.           Purgatoire River: FIELD
LOC.           1809' FNL & 2107' FWL: LOCATION
CNTY.               Las Animas: COUNTY
SRVC.                Patterson: SERVICE COMPANY
DATE.          Tue Apr 11 10:06:17 2006: LOG DATE
UWI.           05 071 08718 00: UNIQUE WELL ID
STAT.                 Colorado: STATE
~Curve Information Block
DEPT.FT            0 000 00 00: Depth
DCAL.in                       : CDL Caliper
RHOB.g/cc                     : CDL Bulk Density
RHOC.g/cc                     : CDL Density Correction
DPOR.pu                       : CDL Density Porosity
GR.GAPI                       : Gamma Ray
NPOR.pu                       : Neutron Porosity
~Parameter Information Block
~A  Depth       DCAL        RHOB        RHOC        DPOR         GR         NPOR    
# ...
  1022.6000      7.8128      2.4395      0.0362     12.7558   -999.2500   -999.2500
  1022.7000      7.8128      2.4531      0.0473     11.9343   -999.2500   -999.2500
  1022.8000      7.8113      2.4697      0.0540     10.9259   -999.2500   -999.2500
  1022.9000      7.8113      2.4846      0.0639     10.0216   -999.2500   -999.2500
  1023.0000      7.8093      2.4892      0.0793      9.7430   -999.2500   -999.2500
  1023.1000      7.8093      2.4824      0.0586     10.1587   -999.2500   -999.2500
  1023.2000      7.8093      2.4817      0.0135     10.2006   -999.2500   -999.2500
  1023.3000      7.8012      2.4990      0.0768      9.1489   -999.2500   -999.2500
  1023.4000      7.8012      2.5202      0.0462      7.8652   -999.2500   -999.2500
  1023.5000      7.7889      2.5273      0.0780      7.4379   -999.2500   -999.2500
  1023.6000      7.7889      2.5152      0.0341      8.1670   -999.2500   -999.2500
  1023.7000      7.7889      2.4954      0.0141      9.3692   -999.2500   -999.2500
  1023.8000      7.7804      2.4778      0.0210     10.4344   -999.2500   -999.2500
  1023.9000      7.7804      2.4591      0.0391     11.5673   -999.2500   -999.2500
  1024.0000      7.7777      2.4413      0.0197     12.6476   -999.2500   -999.2500
  1024.1000      7.7777      2.4369      0.0154     12.9152   -999.2500   -999.2500
  1024.2000      7.7777      2.4491      0.0463     12.1739   -999.2500   -999.2500
  1024.3000      7.7778      2.4703      0.0181     10.8907   -999.2500   -999.2500
  1024.4000      7.7778      2.4931      0.0527      9.5096   -999.2500   -999.2500
  1024.5000      7.7818      2.5076      0.0967      8.6294   -999.2500   -999.2500
  1024.6000      7.7818      2.5119      0.0389      8.3681   -999.2500   -999.2500
  1024.7000      7.7818      2.5130      0.0664      8.3031   -999.2500   -999.2500
  1024.8000      7.7920      2.5019      0.0953      8.9731   -999.2500   -999.2500
  1024.9000      7.7920      2.4750      0.0306     10.6088   -999.2500   -999.2500
  1025.0000      7.7996      2.4511      0.0301     12.0562   -999.2500   -999.2500
  1025.1000      7.7996      2.4393      0.0482     12.7717   -999.2500   -999.2500
  1025.2000      7.7996      2.4327      0.0127     13.1674   -999.2500   -999.2500
  1025.3000      7.7977      2.4301      0.0122     13.3265   -999.2500   -999.2500
  1025.4000      7.7977      2.4347      0.0290     13.0502   -999.2500   -999.2500
  1025.5000      7.7874      2.4430      0.0418     12.5425   -999.2500   -999.2500
  1025.6000      7.7874      2.4485      0.0199     12.2121   -999.2500   -999.2500
  1025.7000      7.7874      2.4496      0.0475     12.1465   -999.2500   -999.2500
  1025.8000      7.7745      2.4440      0.0603     12.4825   -999.2500   -999.2500
  1025.9000      7.7745      2.4250      0.0415     13.6362   -999.2500   -999.2500
  1026.0000      7.7658      2.3935      0.0253     15.5459   -999.2500   -999.2500
  1026.1000      7.7658      2.3662     -0.0332     17.1973   -999.2500   -999.2500
  1026.2000      7.7658      2.3595      0.0069     17.6059   -999.2500   -999.2500
  1026.3000      7.7553      2.3718     -0.0032     16.8579   -999.2500   -999.2500
  1026.4000      7.7553      2.3947      0.0129     15.4734   -999.2500   -999.2500
  1026.5000      7.7408      2.4211      0.0154     13.8728   -999.2500   -999.2500
  1026.6000      7.7408      2.4425      0.0578     12.5783   -999.2500   -999.2500
  1026.7000      7.7408      2.4520      0.0562     12.0002   -999.2500   -999.2500
  1026.8000      7.7294      2.4517      0.0554     12.0198   -999.2500   -999.2500
  1026.9000      7.7294      2.4477      0.0704     12.2616   -999.2500   -999.2500
  1027.0000      7.7232      2.4457      0.0441     12.3803   -999.2500   -999.2500
  1027.1000      7.7232      2.4460      0.0523     12.3656   -999.2500   -999.2500
  1027.2000      7.7232      2.4384      0.0613     12.8242   -999.2500   -999.2500
  1027.3000      7.7188      2.4247      0.0201     13.6549   -999.2500   -999.2500
  1027.4000      7.7188      2.4239      0.0400     13.7055   -999.2500   -999.2500
  1027.5000      7.6717      2.4548      0.0660     11.8298   -999.2500   -999.2500
  1027.6000      7.6717      2.5409      0.0523      6.6139   -999.2500   -999.2500
  1027.7000      7.6717      2.5732      0.0443      4.6555   -999.2500   -999.2500
  1027.8000      7.2557      2.1577      0.5072     29.8376   -999.2500   -999.2500
  1027.9000      7.2557      1.2283      0.0000     86.1653   -999.2500   -999.2500
  1028.0000      5.5873      0.4173      0.0000    135.3168   -999.2500   -999.2500
  1028.1000      5.5873      0.0793   -999.2500    155.7983   -999.2500   -999.2500
  1028.2000      5.5873      0.0082   -999.2500    160.1102   -999.2500   -999.2500
  1028.3000      2.9372      0.0004   -999.2500    160.5791   -999.2500   -999.2500
  1028.4000      2.9372      0.0000   -999.2500    160.6061   -999.2500   -999.2500
  1028.5000      1.3505      0.0000   -999.2500    160.6061   -999.2500   -999.2500
  1028.6000      1.3505   -999.2500   -999.2500   -999.2500   -999.2500   -999.2500
  1028.7000      1.3505   -999.2500   -999.2500   -999.2500   -999.2500   -999.2500
  1028.8000      0.9982   -999.2500   -999.2500   -999.2500   -999.2500   -999.2500
  1028.9000      0.9982   -999.2500   -999.2500   -999.2500   -999.2500   -999.2500
  1029.0000      0.9693   -999.2500   -999.2500   -999.2500   -999.2500   -999.2500
  1029.1000      0.9693   -999.2500   -999.2500   -999.2500   -999.2500   -999.2500
  1029.2000      0.9693   -999.2500   -999.2500   -999.2500   -999.2500   -999.2500
  1029.3000   -999.2500   -999.2500   -999.2500   -999.2500   -999.2500   -999.2500
  1029.4000   -999.2500   -999.2500   -999.2500   -999.2500   -999.2500   -999.2500
  1029.5000   -999.2500   -999.2500   -999.2500   -999.2500   -999.2500   -999.2500
  1029.6000   -999.2500   -999.2500   -999.2500   -999.2500   -999.2500   -999.2500
  1029.7000   -999.2500   -999.2500   -999.2500   -999.2500   -999.2500   -999.2500
  1029.8000   -999.2500   -999.2500   -999.2500   -999.2500   -999.2500   -999.2500
  1029.9000   -999.2500   -999.2500   -999.2500   -999.2500   -999.2500   -999.2500
  1030.0000   -999.2500   -999.2500   -999.2500   -999.2500   -999.2500   -999.2500
  1030.1000   -999.2500   -999.2500   -999.2500   -999.2500   -999.2500   -999.2500
  1030.2000   -999.2500   -999.2500   -999.2500   -999.2500   -999.2500   -999.2500
  1030.3000   -999.2500   -999.2500   -999.2500   -999.2500   -999.2500   -999.2500
  1030.4000   -999.2500   -999.2500   -999.2500   -999.2500   -999.2500   -999.2500
  1030.5000   -999.2500   -999.2500   -999.2500   -999.2500   -999.2500   -999.2500
