~Version Information
VERS.                      2.0: CWLS Log ASCII Standard - VERSION 2.0
WRAP.                       NO: One line per depth step
~Well Information Block
STRT.FT               655.0000: 
STOP.FT              2623.7500: 
STEP.FT                 0.2500: 
NULL.                -999.2500: 
COMP.          Pioneer Natural Resources: COMPANY
WELL.             Aviator 12-4: WELL
FLD.           Purgatoire River: FIELD
LOC.           1969' FNL & 732' FWL--: LOCATION
CNTY.               Las Animas: COUNTY
SRVC.                Patterson: SERVICE COMPANY
DATE.          Sun Apr 09 14:25:03 2006: LOG DATE
UWI.           05 071 08714 00: UNIQUE WELL ID
STAT.                 Colorado: STATE
~Curve Information Block
DEPT.FT            0 000 00 00: Depth
SN.Ohm-m                      : IEL Short Normal
SP.mV                         : IEL Spontaneous Potential
DIR.Ohm-m                     : IEL Induction Resistivity
GR.GAPI                       : Gamma Ray
~Parameter Information Block
~A  Depth        SN          SP         DIR          GR     
# ...
  1057.0000     12.7594   -105.8336     11.0893    139.6279
  1057.2500     12.7691   -105.7209     11.1708    138.9497
  1057.5000     12.8163   -105.6144     11.2722    136.3284
  1057.7500     12.9161   -105.5086     11.3962    134.5181
  1058.0000     13.0710   -105.3998     11.5445    133.5967
  1058.2500     13.2471   -105.2867     11.7161    134.4959
  1058.5000     13.4001   -105.1706     11.9057    136.8407
  1058.7500     13.5135   -105.0540     12.1046    137.8518
  1059.0000     13.5882   -104.9404     12.3047    137.3848
  1059.2500     13.6195   -104.8321     12.5016    135.9700
  1059.5000     13.6066   -104.7293     12.6964    133.2023
  1059.7500     13.5673   -104.6299     12.8938    131.3627
  1060.0000     13.5384   -104.5294     13.0993    129.2155
  1060.2500     13.5650   -104.4224     13.3148    128.6059
  1060.5000     13.6753   -104.3040     13.5343    129.2209
  1060.7500     13.8602   -104.1709     13.7397    130.3101
  1061.0000     14.0736   -104.0227     13.9011    131.8387
  1061.2500     14.2522   -103.8617     13.9858    132.2270
  1061.5000     14.3422   -103.6926     13.9722    131.5632
  1061.7500     14.3240   -103.5221     13.8630    130.5048
  1062.0000     14.2307   -103.3573     13.6884    128.4840
  1062.2500     14.1422   -103.2049     13.4973    126.9280
  1062.5000     14.1378   -103.0697     13.3405    124.2258
  1062.7500     14.2283   -102.9530     13.2546    122.2841
  1063.0000     14.3432   -102.8514     13.2527    119.6255
  1063.2500     14.4119   -102.7566     13.3254    118.2687
  1063.5000     14.4345   -102.6565     13.4510    116.7698
  1063.7500     14.4627   -102.5382     13.6104    115.7537
  1064.0000     14.5584   -102.3925     13.7968    113.8175
  1064.2500     14.7766   -102.2182     14.0169    112.6320
  1064.5000     15.1396   -102.0246     14.2834    112.2218
  1064.7500     15.6044   -101.8311     14.6053    113.1946
  1065.0000     16.0702   -101.6636     14.9781    116.0567
  1065.2500     16.4275   -101.5489     15.3790    118.3116
  1065.5000     16.6092   -101.5082     15.7697    121.0651
  1065.7500     16.6238   -101.5530     16.1083    121.8300
  1066.0000     16.5466   -101.6833     16.3661    120.9297
  1066.2500     16.4640   -101.8890     16.5394    119.4858
  1066.5000     16.4319   -102.1527     16.6499    117.9721
  1066.7500     16.4820   -102.4533     16.7340    118.4043
  1067.0000     16.6257   -102.7683     16.8272    121.5197
  1067.2500     16.8360   -103.0757     16.9514    124.4328
  1067.5000     17.0459   -103.3546     17.1099    127.6670
  1067.7500     17.1840   -103.5875     17.2894    127.8177
  1068.0000     17.2157   -103.7614     17.4697    124.4720
  1068.2500     17.1619   -103.8707     17.6322    120.7085
  1068.5000     17.0820   -103.9184     17.7664    115.4523
  1068.7500     17.0348   -103.9157     17.8716    113.6697
  1069.0000     17.0593   -103.8802     17.9540    114.5118
  1069.2500     17.1709   -103.8310     18.0212    116.8162
  1069.5000     17.3504   -103.7848     18.0788    120.7770
  1069.7500     17.5522   -103.7518     18.1300    122.7326
  1070.0000     17.7416   -103.7342     18.1785    123.9805
  1070.2500     17.9118   -103.7270     18.2275    123.6700
  1070.5000     18.0661   -103.7202     18.2762    121.5453
  1070.7500     18.1972   -103.7017     18.3181    119.2282
  1071.0000     18.2898   -103.6611     18.3459    115.2651
  1071.2500     18.3451   -103.5907     18.3602    112.7978
  1071.5000     18.3884   -103.4874     18.3726    109.7714
  1071.7500     18.4509   -103.3527     18.3999    108.4273
  1072.0000     18.5609   -103.1919     18.4534    108.1819
  1072.2500     18.7329   -103.0135     18.5324    109.4721
  1072.5000     18.9430   -102.8285     18.6229    112.9090
  1072.7500     19.1295   -102.6488     18.7007    115.3665
  1073.0000     19.2252   -102.4865     18.7377    118.3308
  1073.2500     19.1969   -102.3520     18.7113    119.7816
  1073.5000     19.0627   -102.2536     18.6159    121.5775
  1073.7500     18.8662   -102.1959     18.4668    122.7948
  1074.0000     18.6419   -102.1793     18.2946    125.0743
  1074.2500     18.4131   -102.1998     18.1311    127.0897
  1074.5000     18.1907   -102.2484     17.9953    130.7389
  1074.7500     17.9595   -102.3129     17.8875    133.0505
  1075.0000     17.6877   -102.3790     17.7920    134.9820
  1075.2500     17.3656   -102.4333     17.6861    134.8521
  1075.5000     17.0288   -102.4658     17.5516    133.1977
  1075.7500     16.7344   -102.4731     17.3854    131.8698
  1076.0000     16.5183   -102.4595     17.2011    130.1415
  1076.2500     16.3744   -102.4368     17.0245    128.9846
  1076.5000     16.2738   -102.4221     16.8846    126.8688
  1076.7500     16.2125   -102.4341     16.8073    125.3420
  1077.0000     16.2452   -102.4878     16.8138    123.6156
  1077.2500     16.4636   -102.5915     16.9201    123.3244
  1077.5000     16.9493   -102.7444     17.1352    124.7405
  1077.7500     17.7227   -102.9372     17.4600    126.8502
  1078.0000     18.6755   -103.1549     17.8896    130.4896
  1078.2500     19.5794   -103.3803     18.4199    131.9774
  1078.5000     20.2582   -103.5981     19.0527    131.1404
  1078.7500     20.7613   -103.7975     19.7927    128.5059
  1079.0000     21.3337   -103.9733     20.6390    122.8462
  1079.2500     22.2262   -104.1252     21.5770    119.0255
  1079.5000     23.5239   -104.2567     22.5796    114.7559
  1079.7500     25.0998   -104.3727     23.6147    113.4213
  1080.0000     26.7073   -104.4786     24.6515    113.7668
  1080.2500     28.1479   -104.5799     25.6602    114.9842
  1080.5000     29.3577   -104.6820     26.6105    116.5606
  1080.7500     30.3391   -104.7906     27.4743    116.6515
  1081.0000     31.0904   -104.9110     28.2353    115.6184
  1081.2500     31.6360   -105.0465     28.8980    115.2178
  1081.5000     32.0499   -105.1960     29.4858    116.7951
  1081.7500     32.3928   -105.3521     30.0280    119.3074
  1082.0000     32.6455   -105.5004     30.5437    123.2793
  1082.2500     32.7513   -105.6212     31.0348    124.4896
  1082.5000     32.7222   -105.6938     31.4892    122.6023
  1082.7500     32.6473   -105.7010     31.8918    119.1885
  1083.0000     32.6058   -105.6350     32.2346    113.0774
  1083.2500     32.6538   -105.5003     32.5264    109.9248
  1083.5000     32.8753   -105.3143     32.7966    108.3110
  1083.7500     33.3219   -105.1043     33.0847    109.2767
  1084.0000     33.9023   -104.9026     33.4202    111.9913
  1084.2500     34.4189   -104.7393     33.8050    113.1976
  1084.5000     34.7075   -104.6361     34.2103    112.5961
  1084.7500     34.7263   -104.6020     34.5921    110.7744
  1085.0000     34.5888   -104.6319     34.9206    107.5033
  1085.2500     34.5435   -104.7086     35.2097    105.9523
  1085.5000     34.8522   -104.8082     35.5233    105.4754
  1085.7500     35.6170   -104.9049     35.9437    106.3464
  1086.0000     36.7007   -104.9775     36.5189    108.6401
  1086.2500     37.7978   -105.0123     37.2238    110.1879
  1086.5000     38.6270   -105.0050     37.9667    111.6451
  1086.7500     39.1098   -104.9599     38.6394    111.9170
  1087.0000     39.3559   -104.8885     39.1718    112.0239
  1087.2500     39.5300   -104.8066     39.5464    112.6119
  1087.5000     39.7614   -104.7322     39.7725    114.8510
  1087.7500     40.0890   -104.6817     39.8616    116.8678
  1088.0000     40.4399   -104.6681     39.8310    119.2973
  1088.2500     40.6852   -104.6976     39.7208    119.7939
  1088.5000     40.7296   -104.7680     39.5931    118.2143
  1088.7500     40.5668   -104.8689     39.5121    115.7193
  1089.0000     40.2716   -104.9826     39.5237    111.0585
  1089.2500     39.9519   -105.0878     39.6497    108.4362
  1089.5000     39.7196   -105.1628     39.8919    106.4646
  1089.7500     39.6773   -105.1901     40.2433    106.3357
  1090.0000     39.8604   -105.1591     40.6943    106.8082
  1090.2500     40.1787   -105.0668     41.2236    107.0029
