~Version Information
VERS.                      2.0: CWLS Log ASCII Standard - VERSION 2.0
WRAP.                       NO: One line per depth step
~Well Information Block
STRT.FT                -6.7500: 
STOP.FT              1250.5000: 
STEP.FT                 0.2500: 
NULL.                -999.2500: 
COMP.          Pioneer Natural Resources: COMPANY
WELL.          Irish Eyes 33-21: WELL
FLD.           Purgatorie River: FIELD
LOC.           1379' FSL & 2544' FEL--: LOCATION
PROV.                       CO: PROVINCE
CNTY.               Las Animas: COUNTRY
SRVC.          Patterson Wireline: SERVICE COMPANY
DATE.          Mon Jan 23 11:57:23 2006: LOG DATE
UWI.           05 071 08658 00: UNIQUE WELL ID
~Curve Information Block
DEPT.FT            0 000 00 00: Depth
CCL.                          : Casing Collar Locator
TT3.usec                      : CBL 3' Travel Time
AMP3.mV                       : CBL 3' Amplitude
GR.GAPI                       : Gamma Ray
~Parameter Information Block
~A  Depth       CCL         TT3         AMP3         GR     
# ...
  1232.7500      0.0000    879.6093      8.7841     68.7066
  1233.0000      0.0000    859.4772      8.8875     66.2309
  1233.2500      0.0000    848.0208      9.0303     64.5612
  1233.5000      0.0000    840.7844      9.2057     64.0824
  1233.7500      0.0000    833.9611      9.3996     64.8900
  1234.0000      0.0000    826.1422      9.5982     66.9719
  1234.2500      0.0000    818.3576      9.7961     70.1788
  1234.5000      0.0000    812.4241      9.9945     73.8960
  1234.7500      0.0000    808.8839     10.1899     76.9845
  1235.0000      0.0000    806.6748     10.3653     78.3872
  1235.2500      0.0000    804.9410     10.4994     77.8912
  1235.5000      0.0000    804.5468     10.5843     76.1457
  1235.7500      0.0000    807.2175     10.6377     73.5761
  1236.0000      0.0000    813.3354     10.7031     69.1427
  1236.2500      0.0000    820.9374     10.8438     60.7557
  1236.5000      0.0000    826.9585     11.1155     47.6210
  1236.7500      0.0000    829.4358     11.5049     31.9927
  1237.0000      0.0000    828.6415     11.8768     17.9070
  1237.2500      0.0000    826.3057     12.0125      8.1937
  1237.5000      0.0000    823.8027     11.7438      3.0264
  1237.7500      0.0000    820.9321     11.0741      0.8941
  1238.0000      0.0000    816.3812     10.1864      0.2098
  1238.2500      0.0000    809.4496      9.3433      0.0385
  1238.5000      0.0000    801.3252      8.7492      0.0049
  1238.7500      0.0000    794.7947      8.4630      0.0000
  1239.0000      0.0000    793.4515      8.4127   -999.2500
  1239.2500      0.0000    801.8927      8.4776   -999.2500
  1239.5000      0.0000    825.4906      8.5668   -999.2500
  1239.7500      0.0000    866.9484      8.6541   -999.2500
  1240.0000      0.0000    920.2698      8.7622   -999.2500
  1240.2500      0.0000    968.4581      8.9176   -999.2500
  1240.5000      0.0000    991.5409      9.1093   -999.2500
  1240.7500      0.0000    980.9244      9.2760   -999.2500
  1241.0000      0.0000    944.9579      9.3120   -999.2500
  1241.2500      0.0000    895.6599      9.0638   -999.2500
  1241.5000      0.0000    828.8911      8.3315   -999.2500
  1241.7500      0.0000    723.9202      6.9486   -999.2500
  1242.0000      0.0000    569.2432      4.9588   -999.2500
  1242.2500      0.0000    386.1635      2.7234   -999.2500
  1242.5000      0.0000    218.9973      0.7599   -999.2500
  1242.7500      0.0000    101.6377     -0.5868   -999.2500
  1243.0000      0.0000     38.0572     -1.3069   -999.2500
  1243.2500      0.0000     11.3858     -1.6070   -999.2500
  1243.5000      0.0000      2.7001     -1.7045   -999.2500
  1243.7500      0.0000      0.5009     -1.7291   -999.2500
  1244.0000      0.0000      0.0662     -1.7339   -999.2500
  1244.2500      0.0000   -999.2500   -999.2500   -999.2500
  1244.5000      0.0000   -999.2500   -999.2500   -999.2500
  1244.7500      0.0000   -999.2500   -999.2500   -999.2500
  1245.0000      0.0000   -999.2500   -999.2500   -999.2500
  1245.2500      0.0000   -999.2500   -999.2500   -999.2500
  1245.5000      0.0000   -999.2500   -999.2500   -999.2500
  1245.7500      0.0000   -999.2500   -999.2500   -999.2500
  1246.0000      0.0000   -999.2500   -999.2500   -999.2500
  1246.2500      0.0000   -999.2500   -999.2500   -999.2500
  1246.5000      0.0000   -999.2500   -999.2500   -999.2500
  1246.7500      0.0000   -999.2500   -999.2500   -999.2500
  1247.0000      0.0000   -999.2500   -999.2500   -999.2500
  1247.2500      0.0000   -999.2500   -999.2500   -999.2500
  1247.5000      0.0000   -999.2500   -999.2500   -999.2500
  1247.7500      0.0000   -999.2500   -999.2500   -999.2500
  1248.0000      0.0000   -999.2500   -999.2500   -999.2500
  1248.2500      0.0000   -999.2500   -999.2500   -999.2500
  1248.5000      0.0000   -999.2500   -999.2500   -999.2500
  1248.7500      0.0000   -999.2500   -999.2500   -999.2500
  1249.0000      0.0000   -999.2500   -999.2500   -999.2500
  1249.2500      0.0000   -999.2500   -999.2500   -999.2500
  1249.5000      0.0000   -999.2500   -999.2500   -999.2500
  1249.7500   -999.2500   -999.2500   -999.2500   -999.2500
  1250.0000   -999.2500   -999.2500   -999.2500   -999.2500
  1250.2500   -999.2500   -999.2500   -999.2500   -999.2500
  1250.5000   -999.2500   -999.2500   -999.2500   -999.2500
