~Version Information
VERS.                      2.0: CWLS Log ASCII Standard - VERSION 2.0
WRAP.                       NO: One line per depth step
~Well Information Block
STRT.FT               240.0000: 
STOP.FT               902.0000: 
STEP.FT                 0.1000: 
NULL.                -999.2500: 
COMP.          Pioneer Natural Resources: COMPANY
WELL.          Bienville 31-28: WELL
FLD.           Purgatoire River: FIELD
LOC.           1212' FNL & 2271' FEL: LOCATION
PROV.                 Colorado: PROVINCE
CNTY.               Las Animas: COUNTRY
SRVC.                Patterson: SERVICE COMPANY
DATE.          Mon Jan 16 13:39:21 2006: LOG DATE
UWI.           05 071 08666 00: UNIQUE WELL ID
~Curve Information Block
DEPT.FT            0 000 00 00: Depth
DCAL.in                       : CDL Caliper
RHOB.g/cc                     : CDL Bulk Density
RHOC.g/cc                     : CDL Density Correction
DPOR.pu                       : CDL Density Porosity
GR.GAPI                       : Gamma Ray
NPOR.pu                       : Neutron Porosity
~Parameter Information Block
~A  Depth       DCAL        RHOB        RHOC        DPOR         GR         NPOR    
# ...
   412.8000      7.9083      2.4291     -0.0292     13.3853    102.2789     22.4392
   412.9000      7.9083      2.4360     -0.0117     12.9674     99.9111     21.6559
   413.0000      7.9015      2.4514     -0.0012     12.0374     94.0525     20.9409
   413.1000      7.9015      2.4541      0.0031     11.8703     87.3489     20.4494
   413.2000      7.9015      2.4377      0.0016     12.8665     82.1428     19.9700
   413.3000      7.9920      2.4199     -0.0183     13.9435     79.0323     19.7590
   413.4000      7.9920      2.4194      0.0058     13.9733     77.6552     19.9664
   413.5000      7.9267      2.4444     -0.0027     12.4590     77.0094     20.2562
   413.6000      7.9267      2.4932      0.0621      9.5033     76.2659     20.4990
   413.7000      7.9267      2.5487      0.0945      6.1416     77.3554     20.7890
   413.8000      7.9632      2.5873      0.1108      3.7988     82.1510     21.0563
   413.9000      7.9632      2.5932      0.1568      3.4421     87.8832     21.2710
   414.0000      7.9046      2.5714      0.1110      4.7642     89.0845     21.5674
   414.1000      7.9046      2.5491      0.0228      6.1132     84.6375     21.9042
   414.2000      7.9046      2.5380      0.0513      6.7889     80.8968     22.2045
   414.3000      7.8715      2.5219      0.0247      7.7612     82.1440     22.5509
   414.4000      7.8715      2.4981      0.0500      9.2091     83.0893     22.7440
   414.5000      7.8944      2.4874     -0.0131      9.8568     81.5518     22.6704
   414.6000      7.8944      2.5049      0.0128      8.7959     81.0792     22.5774
   414.7000      7.8944      2.5369      0.1036      6.8553     82.3930     22.5021
   414.8000      7.9192      2.5602      0.0870      5.4435     85.8230     22.4178
   414.9000      7.9192      2.5663      0.0761      5.0745     91.6095     22.5198
   415.0000      7.9068      2.5617      0.1105      5.3492     95.1737     22.6684
   415.1000      7.9068      2.5595      0.0827      5.4852     93.9561     22.6354
   415.2000      7.9068      2.5595      0.1113      5.4863     93.6523     22.7700
   415.3000      7.9025      2.5387      0.1043      6.7468     96.7291     23.3472
   415.4000      7.9025      2.5019      0.0118      8.9766     99.6976     23.8938
   415.5000      7.8498      2.4910      0.0353      9.6335    103.5800     24.1998
   415.6000      7.8498      2.5166      0.0784      8.0819    111.1228     24.6615
   415.7000      7.8498      2.5571      0.1179      5.6299    119.0327     25.0157
   415.8000      7.8535      2.6015      0.1239      2.9396    124.3579     24.7426
   415.9000      7.8535      2.6396      0.1722      0.6293    128.1950     24.2476
   416.0000      7.8565      2.6530      0.1680     -0.1810    128.9331     24.0292
   416.1000      7.8565      2.6420      0.1119      0.4855    122.7361     23.9842
   416.2000      7.8565      2.6222      0.0841      1.6832    111.2597     23.9144
   416.3000      7.8648      2.5961      0.0819      3.2650    105.4342     23.7389
   416.4000      7.8648      2.5618      0.0540      5.3444    109.2058     23.6273
   416.5000      7.8763      2.5384      0.0034      6.7659    112.7285     23.7954
   416.6000      7.8763      2.5470     -0.0090      6.2448    110.6030     24.0333
   416.7000      7.8763      2.5674      0.0426      5.0061    107.8417     24.0875
   416.8000      7.9150      2.5585      0.0606      5.5484    107.5931     23.9800
   416.9000      7.9150      2.5194      0.0287      7.9176    108.7607     23.9514
   417.0000      7.9173      2.4935     -0.0487      9.4830    111.5293     24.1954
   417.1000      7.9173      2.5069     -0.0033      8.6747    113.1417     24.3073
   417.2000      7.9173      2.5373      0.0461      6.8315    109.9748     23.8888
   417.3000      7.9205      2.5563      0.0814      5.6786    104.6532     23.3049
   417.4000      7.9205      2.5602      0.0623      5.4411    100.8169     23.0409
   417.5000      7.8931      2.5651      0.0240      5.1459     98.8559     22.9468
   417.6000      7.8931      2.5844      0.1108      3.9771     96.0701     22.5863
   417.7000      7.8931      2.6105      0.1260      2.3916     90.5233     22.0873
   417.8000      7.8804      2.6350      0.1251      0.9086     81.3393     21.9119
   417.9000      7.8804      2.6605      0.1154     -0.6379     72.5675     21.8510
   418.0000      7.8655      2.6747      0.1980     -1.4995     69.2023     21.5014
   418.1000      7.8655      2.6624      0.1178     -0.7509     69.4167     21.0566
   418.2000      7.8655      2.6378      0.0505      0.7372     72.2526     20.7108
   418.3000      7.8712      2.6114      0.0803      2.3378     75.9817     20.2349
   418.4000      7.8712      2.5732      0.0336      4.6567     77.6414     19.6140
   418.5000      7.8927      2.5256     -0.0139      7.5406     76.5174     19.3745
   418.6000      7.8927      2.4808     -0.0038     10.2551     72.2425     19.6782
   418.7000      7.8927      2.4505     -0.0444     12.0917     69.2600     20.2537
   418.8000      7.8945      2.4471     -0.0304     12.2994     71.9475     20.9000
   418.9000      7.8945      2.4693     -0.0249     10.9531     76.8384     21.3461
   419.0000      7.8839      2.5072      0.0090      8.6569     78.9842     21.4166
   419.1000      7.8839      2.5472      0.0697      6.2327     80.0714     21.1652
   419.2000      7.8839      2.5663      0.0588      5.0726     83.7499     20.6141
   419.3000      7.8882      2.5531      0.0770      5.8736     88.1202     19.9450
   419.4000      7.8882      2.5250     -0.0035      7.5730     87.9416     19.6915
   419.5000      7.9078      2.5066      0.0273      8.6896     82.0150     20.0251
   419.6000      7.9078      2.5052      0.0315      8.7758     75.4162     20.2841
   419.7000      7.9078      2.5149      0.0749      8.1904     72.4038     19.9846
   419.8000      7.9016      2.5217      0.0489      7.7786     74.1035     19.3550
   419.9000      7.9016      2.5219     -0.0088      7.7666     78.4561     18.8530
   420.0000      7.8767      2.5215      0.0876      7.7854     80.8330     18.8035
   420.1000      7.8767      2.5139      0.0680      8.2484     79.6607     19.1695
   420.2000      7.8767      2.4924      0.0580      9.5497     74.9474     19.6353
   420.3000      7.8878      2.4680      0.0283     11.0323     68.9889     19.7960
   420.4000      7.8878      2.4610      0.0215     11.4521     65.0342     19.6647
   420.5000      7.8930      2.4798      0.0274     10.3139     62.5092     19.5701
   420.6000      7.8930      2.5125      0.0544      8.3350     61.7830     19.5996
   420.7000      7.8930      2.5479      0.0469      6.1881     64.5397     19.6070
   420.8000      7.8698      2.5808      0.0299      4.1962     68.6080     19.4773
   420.9000      7.8698      2.5955      0.1752      3.3002     72.0996     19.2456
   421.0000      7.8912      2.5846      0.0641      3.9652     74.0906     18.9108
   421.1000      7.8912      2.5742      0.0428      4.5925     72.4976     18.7066
   421.2000      7.8912      2.5811      0.1045      4.1751     69.1732     18.9718
   421.3000      7.8973      2.5894      0.0545      3.6737     65.5659     19.4169
   421.4000      7.8973      2.5827      0.1001      4.0816     60.8799     19.5669
   421.5000      7.8839      2.5587      0.0301      5.5316     57.7994     19.6729
   421.6000      7.8839      2.5316      0.0778      7.1775     58.1903     20.0885
   421.7000      7.8839      2.5096      0.0390      8.5074     60.4093     20.7755
   421.8000      7.9144      2.4918      0.0101      9.5878     61.6299     21.5136
   421.9000      7.9144      2.4773      0.0190     10.4682     62.3572     22.0293
   422.0000      7.9195      2.4715     -0.0358     10.8188     66.6292     22.2054
   422.1000      7.9195      2.4885     -0.0435      9.7904     73.2108     22.3542
   422.2000      7.9195      2.5267     -0.0323      7.4699     74.1112     22.7203
   422.3000      7.9095      2.5666      0.0260      5.0526     66.8159     23.1297
