~Version Information
VERS.                      2.0: CWLS Log ASCII Standard - VERSION 2.0
WRAP.                       NO: One line per depth step
~Well Information Block
STRT.FT               520.0000: 
STOP.FT              1373.0000: 
STEP.FT                 0.1000: 
NULL.                -999.2500: 
COMP.          Pioneer Natural Resources: COMPANY
WELL.            Gamma 13-3 Tr: WELL
FLD.           Purgatoire River: FIELD
LOC.           2127' FSL & 738' FWL: LOCATION
STAT.                 Colorado: State
CNTY.               Las Animas: COUNTY
CTRY.                      USA: Country
SECT.                        3: Section
TOWN.                       33S: Township
RANG.                       67W: Range
SRVC.                Patterson: SERVICE COMPANY
DATE.          Mon Sep 19 09:58:04 2005: LOG DATE
API.           05 071 08524 00: API
~Curve Information Block
DEPT.FT            0 000 00 00: Depth
DPOR.pu                       : CDL Density Porosity
GR.GAPI                       : Gamma Ray
NPOR.pu                       : Neutron Porosity
RHOB.g/cc                     : CDL Bulk Density
RHOC.g/cc                     : CDL Density Correction
DCAL.in                       : CDL Caliper
~Parameter Information Block
~A  Depth       DPOR         GR         NPOR        RHOB        RHOC        DCAL    
# ...
   683.2000     17.9659    143.8691     19.2838      2.3536      0.1280      8.3644
   683.3000     14.7705    136.7051     19.1994      2.4063      0.1613      8.2923
   683.4000     10.8094    138.8334     18.9492      2.4716      0.2370      8.2923
   683.5000      7.9941    140.2751     18.5095      2.5181      0.2726      8.2554
   683.6000      8.9891    138.0743     18.1428      2.5017      0.3291      8.2554
   683.7000     13.9413    139.8386     18.1248      2.4200      0.1881      8.2554
   683.8000     19.8195    147.5393     18.4963      2.3230      0.1145      8.2613
   683.9000     23.7519    153.4179     18.9417      2.2581      0.1141      8.2613
   684.0000     25.3017    153.4875     19.1633      2.2325      0.1327      8.2949
   684.1000     26.0622    151.7833     19.2482      2.2200      0.1927      8.2949
   684.2000     27.5711    148.6342     19.1335      2.1951      0.1227      8.2949
   684.3000     29.6358    144.0997     18.6424      2.1610      0.0291      8.2772
   684.4000     31.6603    142.3082     18.2280      2.1276      0.0510      8.2772
   684.5000     33.9115    143.7703     18.3168      2.0905      0.0302      8.1862
   684.6000     36.4269    145.7863     18.7681      2.0490     -0.0037      8.1862
   684.7000     38.9529    149.0671     19.3704      2.0073      0.0226      8.1862
   684.8000     41.9176    154.4682     19.9250      1.9584      0.0205      8.1200
   684.9000     45.9706    157.9728     20.4322      1.8915      0.0348      8.1200
   685.0000     50.3019    159.0947     21.0367      1.8200     -0.0480      8.0842
   685.1000     52.4373    159.9252     21.6098      1.7848     -0.0851      8.0842
   685.2000     51.0366    154.6338     22.0843      1.8079      0.0011      8.0842
   685.3000     47.0089    140.5798     22.6646      1.8744      0.0196      8.0480
   685.4000     41.4134    126.7406     23.4963      1.9667      0.0708      8.0480
   685.5000     34.7362    119.5768     24.4845      2.0769      0.1249      8.0463
   685.6000     27.6447    116.8000     25.3876      2.1939      0.2220      8.0463
   685.7000     21.0938    115.5008     26.1392      2.3020      0.2761      8.0463
   685.8000     16.0640    115.0287     27.0380      2.3849      0.2784      8.0949
   685.9000     13.3069    116.0317     27.9296      2.4304      0.2250      8.0949
   686.0000     12.4297    120.5192     28.0718      2.4449      0.1638      8.1326
   686.1000     11.8444    126.6607     27.4669      2.4546      0.0213      8.1326
   686.2000     10.4288    127.7791     26.7102      2.4779     -0.0096      8.1326
   686.3000      8.3268    123.0424     26.1872      2.5126      0.0179      8.1230
   686.4000      6.5147    119.7627     25.9428      2.5425      0.0738      8.1230
   686.5000      5.6812    118.8396     25.5636      2.5563      0.0055      8.1049
   686.6000      5.2859    116.4247     24.9256      2.5628     -0.0165      8.1049
   686.7000      5.0941    113.2910     24.5734      2.5659      0.0264      8.1049
   686.8000      5.6198    111.6671     24.7337      2.5573      0.0332      8.0891
   686.9000      6.6944    113.0399     25.0556      2.5395      0.0073      8.0891
   687.0000      8.3722    119.1600     25.2980      2.5119      0.0215      8.0658
   687.1000     11.4852    126.3301     25.4363      2.4605     -0.0168      8.0658
   687.2000     15.6400    127.3860     25.4845      2.3919     -0.0773      8.0658
   687.3000     18.8487    122.9763     25.4770      2.3390     -0.0886      8.0556
   687.4000     19.5475    119.9097     25.6655      2.3275     -0.0648      8.0556
   687.5000     17.8596    118.1563     26.0719      2.3553     -0.0258      8.0728
   687.6000     14.9101    113.4452     26.2033      2.4040      0.0008      8.0728
   687.7000     11.7244    107.1971     25.9006      2.4565      0.0479      8.0728
   687.8000      8.7833    103.5879     25.5128      2.5051      0.0845      8.0996
   687.9000      6.0252    104.0282     25.1956      2.5506      0.1427      8.0996
   688.0000      3.4355    102.2273     24.7221      2.5933      0.1633      8.1032
   688.1000      1.7019     90.3953     24.0594      2.6219      0.1778      8.1032
   688.2000      1.5875     73.7599     23.4675      2.6238      0.1679      8.1032
   688.3000      2.8001     67.8312     22.9028      2.6038      0.2004      8.0448
   688.4000      4.3008     76.2682     22.0747      2.5790      0.1578      8.0448
   688.5000      5.3889     87.5315     21.2788      2.5611      0.1374      7.9429
   688.6000      5.8291     94.4899     21.1591      2.5538      0.1105      7.9429
   688.7000      5.5303     97.4495     21.4831      2.5587      0.1095      7.9429
   688.8000      4.8034     98.0811     21.5210      2.5707      0.1187      7.8947
   688.9000      4.1542     98.5038     21.1497      2.5815      0.1521      7.8947
   689.0000      3.6347     98.4534     20.6627      2.5900      0.1367      7.9227
   689.1000      3.2284     97.8499     20.3685      2.5967      0.1298      7.9227
   689.2000      3.2292     98.4074     20.2611      2.5967      0.1155      7.9227
   689.3000      3.4462    101.3603     20.0909      2.5931      0.0490      7.9720
   689.4000      3.7356    108.1482     20.1216      2.5884      0.1045      7.9720
   689.5000      4.4944    115.5420     20.6243      2.5758      0.0655      8.0039
   689.6000      5.7244    117.4353     21.3317      2.5555      0.0667      8.0039
   689.7000      7.2206    114.7852     21.7818      2.5309      0.0387      8.0039
   689.8000      8.7936    115.1810     21.7296      2.5049      0.0745      8.0169
   689.9000     10.4709    120.4150     21.6277      2.4772      0.0301      8.0169
   690.0000     12.6589    124.3448     22.1263      2.4411      0.0346      8.0196
   690.1000     15.1748    126.4212     23.1669      2.3996     -0.0097      8.0196
   690.2000     16.5961    128.8860     23.9450      2.3762     -0.0671      8.0196
   690.3000     15.9982    129.2174     24.1129      2.3860     -0.0229      8.0241
   690.4000     14.1631    124.5990     24.3657      2.4163      0.0194      8.0241
   690.5000     12.2389    113.8602     25.0808      2.4481      0.0536      8.0349
   690.6000     11.0178    104.4451     25.7385      2.4682      0.0469      8.0349
   690.7000     10.5127    106.0694     25.9428      2.4765      0.0585      8.0349
   690.8000     10.2321    116.5544     25.7450      2.4812      0.0797      8.0405
   690.9000     10.0537    126.9754     25.4565      2.4841      0.0664      8.0405
   691.0000      9.4152    130.5465     25.4134      2.4946      0.0477      8.0348
   691.1000      6.9607    128.6775     25.4703      2.5351      0.0186      8.0348
   691.2000      2.3789    127.4245     25.3275      2.6107      0.1198      8.0348
   691.3000     -2.7791    126.7778     24.8929      2.6959      0.0985      8.0235
   691.4000     -7.3472    120.4950     24.2366      2.7712      0.1629      8.0235
   691.5000    -10.8015    108.1574     23.8057      2.8282      0.1838      8.0106
   691.6000    -12.4224     98.1586     23.9256      2.8550      0.1730      8.0106
   691.7000    -12.2496     96.2773     24.2149      2.8521      0.1611      8.0106
   691.8000    -10.5364    101.3702     24.1363      2.8239      0.1762      8.0007
   691.9000     -7.3726    107.4728     23.9959      2.7716      0.0767      8.0007
   692.0000     -3.6007    108.9668     24.2969      2.7094      0.0439      7.9908
   692.1000      0.2152    104.4891     24.7738      2.6464     -0.0308      7.9908
   692.2000      3.6799     97.4244     24.8752      2.5893     -0.0838      7.9908
   692.3000      6.1297     95.7768     24.5765      2.5489     -0.0399      8.0066
   692.4000      7.6237    101.8312     24.3761      2.5242      0.0270      8.0066
   692.5000      8.4080    111.5844     24.4563      2.5113      0.0011      8.0511
   692.6000      8.7529    120.8437     24.4388      2.5056      0.0465      8.0511
   692.7000      9.4249    124.8102     24.1351      2.4945     -0.0065      8.0511
