~Version Information
VERS.                      2.0: CWLS Log ASCII Standard - VERSION 2.0
WRAP.                       NO: One line per depth step
~Well Information Block
STRT.FT                -5.0000: 
STOP.FT               912.2500: 
STEP.FT                 0.2500: 
NULL.                -999.2500: 
COMP.          Pioneer Natural Resources: COMPANY
WELL.               Ernie 31-6: WELL
FLD.           Purgatoire River: FIELD
LOC.           681' FNL & 2138' FEL: LOCATION
CNTY.               Las Animas: COUNTY
SRVC.                         : SERVICE COMPANY
DATE.          Tue Jun 27 10:36:58 2006: LOG DATE
UWI.           05 071 08716 00: UNIQUE WELL ID
STAT.                       CO: STATE
~Curve Information Block
DEPT.FT            0 000 00 00: Depth
GR.GAPI                       : Gamma Ray
CCL.                          : Casing Collar Locator
TT3.usec                      : CBL 3' Travel Time
AMP3.mV                       : CBL 3' Amplitude
~Parameter Information Block
~A  Depth        GR         CCL         TT3         AMP3    
# ...
   866.0000     72.7257      0.0000    689.4481      7.5910
   866.2500     72.3208      0.0000    683.4934      7.6287
   866.5000     71.6479      0.0000    671.6660      7.6800
   866.7500     70.8215      0.0000    657.7840      7.7294
   867.0000     70.1382      0.0000    649.2111      7.7579
   867.2500     70.1414      0.0000    650.9701      7.7554
   867.5000     71.2108      0.0000    662.0773      7.7378
   867.7500     72.7634      0.0000    677.6331      7.7395
   868.0000     73.2740      0.0000    692.8738      7.7852
   868.2500     71.5774      0.0000    704.7969      7.8692
   868.5000     68.0885      0.0000    711.9379      7.9586
   868.7500     64.5759      0.0000    714.3628      8.0106
   869.0000     62.9443      0.0000    713.6130      7.9911
   869.2500     64.1688      0.0000    711.7328      7.8921
   869.5000     67.7573      0.0000    710.0825      7.7407
   869.7500     71.8844      0.0000    708.9731      7.5854
   870.0000     74.4878      0.0000    707.9770      7.4612
   870.2500     74.8154      0.0000    706.2680      7.3724
   870.5000     73.9412      0.0000    703.0012      7.3105
   870.7500     73.5998      0.0000    698.0240      7.2735
   871.0000     74.5935      0.0000    692.2637      7.2597
   871.2500     76.2705      0.0000    686.1737      7.2543
   871.5000     77.3096      0.0000    676.9475      7.2369
   871.7500     77.0154      0.0000    658.9673      7.2005
   872.0000     76.0102      0.0000    630.1496      7.1534
   872.2500     75.5265      0.0000    598.1234      7.1064
   872.5000     75.9216      0.0000    576.9219      7.0645
   872.7500     76.2643      0.0000    575.0245      7.0317
   873.0000     75.6809      0.0000    587.6667      7.0141
   873.2500     74.7033      0.0000    602.6669      7.0116
   873.5000     74.7390      0.0000    612.8038      7.0081
   873.7500     76.4685      0.0000    620.2694      6.9781
   874.0000     79.2628      0.0000    629.7861      6.9075
   874.2500     81.8924      0.0000    640.9933      6.8052
   874.5000     83.4415      0.0000    648.8104      6.6927
   874.7500     83.7026      0.0000    648.9377      6.5828
   875.0000     82.8997      0.0000    642.1242      6.4685
   875.2500     81.2610      0.0000    634.9850      6.3247
   875.5000     79.1737      0.0000    636.8946      6.1204
   875.7500     77.3706      0.0000    653.5620      5.8464
   876.0000     76.3584      0.0000    681.9471      5.5447
   876.2500     75.9484      0.0000    711.3784      5.2949
   876.5000     75.6690      0.0000    730.0337      5.1520
   876.7500     75.1440      0.0000    731.8315      5.1162
   877.0000     73.8576      0.0000    719.3800      5.1852
   877.2500     71.1531      0.0000    701.2785      5.3921
   877.5000     66.7906      0.0000    686.4345      5.7385
   877.7500     61.2584      0.0000    680.2262      6.1238
   878.0000     55.4966      0.0000    683.8538      6.3929
   878.2500     50.5480      0.0000    694.8579      6.4518
   878.5000     47.4955      1.0510    708.2183      6.3349
   878.7500     47.3526      0.0000    719.0649      6.1781
   879.0000     50.5242      0.0000    725.3033      6.1155
   879.2500     56.1555      0.0000    727.2941      6.1731
   879.5000     62.4255      0.0000    725.7172      6.2839
   879.7500     67.7985      0.0000    720.9609      6.4234
   880.0000     71.8111      0.0000    713.8889      6.6683
   880.2500     74.7401      0.0000    706.0110      7.0784
   880.5000     77.0471      0.0000    699.1276      7.5756
   880.7500     79.1869      0.0000    695.1101      7.9980
   881.0000     81.3942      0.0000    695.1656      8.2466
   881.2500     83.2688      0.0000    698.6828      8.3430
   881.5000     83.7528      0.0000    703.2659      8.3694
   881.7500     81.8523      0.0000    706.3036      8.3888
   882.0000     77.5989      0.0000    706.4036      8.4171
   882.2500     72.3427      0.0000    703.5822      8.4400
   882.5000     68.0717      0.0000    698.6606      8.4417
   882.7500     66.2075      0.0000    692.6117      8.4200
   883.0000     66.7496      0.0000    686.1915      8.3781
   883.2500     68.3710      0.0000    680.0121      8.3139
   883.5000     69.3593      0.0000    674.7745      8.2208
   883.7500     68.7660      0.0000    671.1192      8.1029
   884.0000     67.0232      0.0000    669.2116      7.9856
   884.2500     65.5049      0.0000    668.6901      7.9081
   884.5000     65.3232      0.0000    669.0916      7.8942
   884.7500     66.4581      0.0000    670.3260      7.9252
   885.0000     68.2007      0.0000    672.7812      7.9473
   885.2500     70.4355      0.0000    676.8196      7.9131
   885.5000     73.9445      0.0000    681.9489      7.8153
   885.7500     79.0397      0.0000    686.5674      7.6831
   886.0000     84.4037      0.0000    688.8870      7.5530
   886.2500     87.8208      0.0000    688.1687      7.4467
   886.5000     87.7218      0.0000    685.0114      7.3732
   886.7500     83.8336      0.0000    680.7328      7.3398
   887.0000     77.0750      0.0000    676.6644      7.3508
   887.2500     69.3083      0.0000    673.6714      7.3931
   887.5000     62.5868      0.0000    671.9369      7.4358
   887.7500     58.0632      0.0000    671.1293      7.4537
   888.0000     55.6249      0.0000    670.7911      7.4496
   888.2500     54.4781      0.0000    670.6035      7.4446
   888.5000     53.9189      0.0000    670.4244      7.4481
   888.7500     53.8752      0.0000    670.2271      7.4490
   889.0000     55.0269      0.0000    670.0457      7.4391
   889.2500     58.1149      0.0000    669.9736      7.4344
   889.5000     62.8526      0.0000    670.2339      7.4601
   889.7500     67.7143      0.0000    671.2850      7.5200
   890.0000     71.0077      0.0000    673.8015      7.5944
   890.2500     72.1726      0.0000    678.2645      7.6653
   890.5000     71.9728      0.0000    684.1917      7.7296
   890.7500     71.6234      0.0000    689.8060      7.7871
   891.0000     71.9124      0.0000    693.1119      7.8297
   891.2500     72.9392      0.0000    693.8427      7.8486
   891.5000     74.2088      0.0000    694.1120      7.8464
   891.7500     74.8827      0.0000    696.4951      7.8371
   892.0000     74.4229      0.0000    701.2051      7.8332
   892.2500     73.2391      0.0000    705.4044      7.8344
   892.5000     72.3174      0.0000    705.6201      7.8322
   892.7500     72.0056      0.0000    701.0593      7.8262
   893.0000     71.6298      0.0000    694.5911      7.8286
   893.2500     70.5390      0.0000    690.3735      7.8506
   893.5000     69.0845      0.0000    690.4072      7.8930
   893.7500     68.1781      0.0000    693.3403      7.9510
   894.0000     68.1871      0.0000    696.3614      8.0159
   894.2500     68.6731      0.0000    697.8790      8.0695
   894.5000     68.9821      0.0000    698.2101      8.0905
   894.7500     68.9435      0.0000    698.1855      8.0739
   895.0000     69.1987      0.0000    698.0375      8.0353
   895.2500     70.8198      0.0000    697.8703      7.9958
   895.5000     74.1844      0.0000    698.3130      7.9710
   895.7500     78.2005      0.0000    699.9402      7.9728
   896.0000     81.1268      0.0000    702.4182      8.0083
   896.2500     82.2159      0.0000    704.7841      8.0768
   896.5000     82.1252      0.0000    706.3428      8.1724
   896.7500     81.6351      0.0000    706.9225      8.2892
   897.0000     80.4647      0.0000    705.8979      8.4066
   897.2500     77.7215      0.0000    700.1586      8.4532
   897.5000     73.4569      0.0000    681.4619      8.2794
   897.7500     69.4069      0.0000    635.8875      7.6776
   898.0000     67.8340      0.0000    550.2922      6.4876
   898.2500     69.5057      0.0000    425.5228      4.7591
   898.5000     72.9264      0.0000    284.0400      2.8226
   898.7500     75.6352      0.0000    159.1400      1.1313
   899.0000     76.1318      0.0000     73.2801     -0.0223
   899.2500     74.6343      0.0000     27.3157     -0.6366
