~Version Information
VERS.                      2.0: CWLS Log ASCII Standard - VERSION 2.0
WRAP.                       NO: One line per depth step
~Well Information Block
STRT.FT               621.2500: 
STOP.FT               951.7500: 
STEP.FT                 0.2500: 
NULL.                -999.2500: 
COMP.          Pioneer Natural Resources: COMPANY
WELL.          Screamin 12-29 Tr: WELL
FLD.           Purgatoire River: FIELD
LOC.           1979' FNL & 532' FWL--: LOCATION
CNTY.               Las Animas: COUNTY
SRVC.                Patterson: SERVICE COMPANY
DATE.          Fri Mar 31 01:01:50 2006: LOG DATE
UWI.           05 071 08660 00: UNIQUE WELL ID
STAT.                 Colorado: STATE
~Curve Information Block
DEPT.FT            0 000 00 00: Depth
SN.Ohm-m                      : IEL Short Normal
SP.mV                         : IEL Spontaneous Potential
DIR.Ohm-m                     : IEL Induction Resistivity
GR.GAPI                       : Gamma Ray
~Parameter Information Block
~A  Depth        SN          SP         DIR          GR     
# ...
   855.7500    601.5111   -553.5228     16.4522    100.3534
   856.0000    601.5111   -553.5296     17.0431    109.0521
   856.2500    601.5111   -553.5297     17.3662    113.2582
   856.5000    601.5111   -553.5242     17.4246    116.2629
   856.7500    601.5111   -553.5145     17.2794    116.2303
   857.0000    601.5111   -553.5023     17.0197    114.4639
   857.2500    601.5111   -553.4890     16.7293    113.1496
   857.5000    601.5111   -553.4761     16.4677    112.3642
   857.7500    601.5111   -553.4646     16.2704    113.0410
   858.0000    601.5111   -553.4551     16.1546    115.7716
   858.2500    601.5111   -553.4484     16.1223    118.2529
   858.5000    601.5111   -553.4446     16.1605    121.5551
   858.7500    601.5111   -553.4441     16.2440    122.4472
   859.0000    601.5111   -553.4467     16.3476    119.9853
   859.2500    601.5111   -553.4520     16.4623    115.0786
   859.5000    601.5111   -553.4595     16.6046    103.2922
   859.7500    601.5111   -553.4684     16.8103     94.0707
   860.0000    601.5111   -553.4782     17.1173     82.1055
   860.2500    601.5111   -553.4880     17.5457     77.2528
   860.5000    601.5111   -553.4974     18.0849     75.7939
   860.7500    601.5111   -553.5065     18.6899     78.1039
   861.0000    601.5111   -553.5154     19.2890     84.2219
   861.2500    601.5111   -553.5248     19.8018     88.7414
   861.5000    601.5111   -553.5351     20.1642     94.9337
   861.7500    601.5111   -553.5469     20.3504     98.5587
   862.0000    601.5111   -553.5601     20.3839    103.3337
   862.2500    601.5111   -553.5744     20.3293    105.9976
   862.5000    601.5111   -553.5890     20.2690    109.0146
   862.7500    601.5111   -553.6028     20.2749    110.3132
   863.0000    601.5111   -553.6149     20.3886    110.8942
   863.2500    601.5111   -553.6245     20.6188    110.0423
   863.5000    601.5111   -553.6307     20.9527    106.7357
   863.7500    601.5111   -553.6335     21.3745    103.5664
   864.0000    601.5111   -553.6327     21.8783     98.3605
   864.2500    601.5111   -553.6287     22.4656     94.9741
   864.5000    601.5111   -553.6225     23.1298     90.3255
   864.7500    601.5111   -553.6151     23.8391     87.6471
   865.0000    601.5111   -553.6078     24.5338     84.5073
   865.2500    601.5111   -553.6021     25.1406     83.1799
   865.5000    601.5111   -553.5992     25.5971     82.6235
   865.7500    601.5111   -553.5992     25.8693     83.0951
   866.0000    601.5111   -553.6017     25.9500     84.0207
   866.2500    601.5111   -553.6047     25.8458     83.9873
   866.5000    601.5111   -553.6049     25.5650     82.4556
   866.7500    601.5111   -553.5983     25.1114     80.9384
   867.0000    601.5111   -553.5810     24.4805     79.4380
   867.2500    601.5111   -553.5498     23.6622     79.6067
   867.5000    601.5111   -553.5038     22.6527     81.8043
   867.7500    601.5111   -553.4446     21.4705     84.3390
   868.0000    601.5111   -553.3769     20.1608     89.4296
   868.2500    601.5111   -553.3069     18.7836     93.6458
   868.5000    601.5111   -553.2419     17.3991    101.0524
   868.7500    601.5111   -553.1876     16.0634    106.3921
   869.0000    601.5111   -553.1475     14.8308    114.2162
   869.2500    601.5111   -553.1224     13.7503    118.9237
   869.5000    601.5111   -553.1104     12.8548    124.9323
   869.7500    601.5111   -553.1082     12.1531    128.3184
   870.0000    601.5111   -553.1124     11.6299    132.9023
   870.2500    601.5111   -553.1210     11.2516    135.7631
   870.5000    601.5111   -553.1331     10.9774    139.3668
   870.7500    601.5111   -553.1494     10.7696    140.9016
   871.0000    601.5111   -553.1709     10.6016    141.6107
   871.2500    601.5111   -553.1989     10.4604    141.2469
   871.5000    601.5111   -553.2338     10.3433    140.2588
   871.7500    601.5111   -553.2748     10.2531    139.8561
   872.0000    601.5111   -553.3204     10.1944    140.3997
   872.2500    601.5111   -553.3684     10.1705    141.6921
   872.5000    601.5111   -553.4164     10.1818    144.6709
   872.7500    601.5111   -553.4625     10.2258    146.8507
   873.0000    601.5111   -553.5055     10.3003    149.3741
   873.2500    601.5111   -553.5450     10.4082    149.9771
   873.5000    601.5111   -553.5812     10.5631    148.5328
   873.7500    601.5111   -553.6146     10.7884    145.8317
   874.0000    601.5111   -553.6455     11.1135    139.2242
   874.2500    601.5111   -553.6741     11.5665    133.1739
   874.5000    601.5111   -553.7000     12.1697    121.7349
   874.7500    601.5111   -553.7228     12.9369    112.8543
   875.0000    601.5111   -553.7421     13.8724     99.0197
   875.2500    601.5111   -553.7576     14.9682     90.4508
   875.5000    601.5111   -553.7695     16.1951     79.7266
   875.7500    601.5111   -553.7786     17.4904     74.2722
   876.0000    601.5111   -553.7856     18.7503     69.1220
   876.2500    601.5111   -553.7914     19.8419     68.1306
   876.5000    601.5111   -553.7964     20.6411     70.4715
   876.7500    601.5111   -553.8008     21.0785     74.0081
   877.0000    601.5111   -553.8039     21.1644     80.7008
   877.2500    601.5111   -553.8052     20.9756     85.3994
   877.5000    601.5111   -553.8035     20.6209     92.2900
   877.7500    601.5111   -553.7982     20.2072     96.6098
   878.0000    601.5111   -553.7886     19.8198    102.2592
   878.2500    601.5111   -553.7746     19.5154    105.1826
   878.5000    601.5111   -553.7563     19.3221    107.8647
   878.7500    601.5111   -553.7341     19.2446    108.3897
   879.0000    601.5111   -553.7089     19.2737    107.6082
   879.2500    601.5111   -553.6812     19.3956    106.5764
   879.5000    601.5111   -553.6517     19.5950    105.1184
   879.7500    601.5111   -553.6210     19.8517    104.2999
   880.0000    601.5111   -553.5894     20.1346    102.9977
   880.2500    601.5111   -553.5569     20.4006    102.0485
   880.5000    601.5111   -553.5238     20.6027    100.8895
   880.7500    601.5111   -553.4901     20.7048    100.5793
   881.0000    601.5111   -553.4560     20.6965    101.2578
   881.2500    601.5111   -553.4217     20.5969    102.7227
   881.5000    601.5111   -553.3878     20.4420    106.5092
   881.7500    601.5111   -553.3549     20.2649    109.6778
   882.0000    601.5111   -553.3240     20.0837    114.0022
   882.2500    601.5111   -553.2961     19.9030    115.7741
   882.5000    601.5111   -553.2724     19.7266    116.0669
   882.7500    601.5111   -553.2540     19.5665    114.8372
   883.0000    601.5111   -553.2420     19.4433    111.8179
   883.2500    601.5111   -553.2369     19.3786    109.6977
   883.5000    601.5111   -553.2391     19.3881    107.1733
   883.7500    601.5111   -553.2483     19.4777    106.0247
   884.0000    601.5111   -553.2637     19.6411    104.7255
   884.2500    601.5111   -553.2842     19.8577    103.9145
   884.5000    601.5111   -553.3085     20.0927    102.9447
   884.7500    601.5111   -553.3353     20.3065    102.8394
   885.0000    601.5111   -553.3638     20.4709    103.9906
   885.2500    601.5111   -553.3934     20.5818    105.5896
   885.5000    601.5111   -553.4237     20.6588    108.7950
   885.7500    601.5111   -553.4548     20.7325    111.2483
   886.0000    601.5111   -553.4865     20.8279    115.1501
   886.2500    601.5111   -553.5184     20.9555    117.6026
   886.5000    601.5111   -553.5499     21.1130    120.0938
   886.7500    601.5111   -553.5796     21.2927    120.4338
   887.0000    601.5111   -553.6060     21.4866    118.8987
   887.2500    601.5111   -553.6273     21.6846    116.9907
   887.5000    601.5111   -553.6417     21.8713    113.7498
   887.7500    601.5111   -553.6476     22.0259    111.6258
   888.0000    601.5111   -553.6440     22.1293    108.6371
   888.2500    601.5111   -553.6302     22.1697    106.8466
   888.5000    601.5111   -553.6065     22.1418    104.5666
   888.7500    601.5111   -553.5740     22.0437    103.2868
   889.0000    601.5111   -553.5347     21.8740    101.7348
