~Version Information
VERS.                      2.0: CWLS Log ASCII Standard - VERSION 2.0
WRAP.                       NO: One line per depth step
~Well Information Block
STRT.FT                 0.0000: 
STOP.FT              2072.7500: 
STEP.FT                 0.2500: 
NULL.                -999.2500: 
COMP.          Pioneer Natural Resources: COMPANY
WELL.          Greenwood 43-29 Tr: WELL
FLD.           Purgatorie River: FIELD
LOC.           1478' FSL & 744' FEL: LOCATION
STAT.                 Colorado: State
CNTY.               Las Animas: COUNTY
CTRY. USA : Country
SECT. 29 : Section
TOWN. 32S : Township
RANG. 67W : Range
SRVC.                Patterson: SERVICE COMPANY
DATE.          Tue Sep 06 12:54:40 2005: LOG DATE
API. 05-071-08478                          : UNIQUE WELL ID
~Curve Information Block
DEPT.FT            0 000 00 00: Depth
GR.GAPI                       : Gamma Ray
CCL.                          : Casing Collar Locator
TT3.usec                      : CBL 3' Travel Time
AMP3.mV                       : CBL 3' Amplitude
~Parameter Information Block
~A  Depth        GR         CCL         TT3         AMP3    
# ...
   938.0000    138.4574      0.0000    793.0578      9.1266
   938.2500    136.6323      0.0000    797.8648      9.1247
   938.5000    135.1285      0.0000    806.1611      9.1561
   938.7500    135.4427      0.0000    813.4981      9.2178
   939.0000    137.5304      0.0000    813.5421      9.2970
   939.2500    140.5403      0.0000    806.3318      9.3854
   939.5000    143.5732      0.0000    798.1531      9.4722
   939.7500    145.8298      0.0000    793.3381      9.5191
   940.0000    146.6567      0.0000    791.5436      9.4760
   940.2500    145.6503      0.0000    791.0970      9.3339
   940.5000    142.7597      0.0000    791.0632      9.1363
   940.7500    138.4360      0.0000    791.0930      8.9366
   941.0000    133.5322      0.0000    791.0674      8.7676
   941.2500    128.7611      0.0000    790.9958      8.6411
   941.5000    124.2921      0.0000    790.9603      8.5458
   941.7500    120.0677      0.0000    791.2194      8.4534
   942.0000    116.3671      0.0000    792.6134      8.3550
   942.2500    113.8345      0.0000    796.3896      8.2761
   942.5000    113.1188      0.0000    801.8936      8.2434
   942.7500    114.6886      0.0000    804.9752      8.2665
   943.0000    118.5383      0.0000    802.5491      8.3619
   943.2500    123.5874      0.0000    797.1968      8.5535
   943.5000    127.7723      0.0000    793.1557      8.8300
   943.7500    129.5407      0.0000    791.4633      9.1238
   944.0000    129.3002      0.0000    791.0447      9.3578
   944.2500    128.9185      0.0000    791.0031      9.5094
   944.5000    129.7873      0.0000    791.0670      9.6092
   944.7500    131.6447      0.0000    791.1822      9.6903
   945.0000    133.0928      0.0000    791.2377      9.7622
   945.2500    132.8947      0.0000    791.1820      9.8259
   945.5000    130.8889      0.0000    791.0453      9.8851
   945.7500    128.0923      0.0000    790.5864      9.9336
   946.0000    126.0124      0.0000    788.0406      9.9631
   946.2500    125.3675      0.0000    776.7024      9.9921
   946.5000    125.1040      0.0000    744.1239     10.0453
   946.7500    123.0537      0.0000    688.3682     10.1061
   947.0000    117.9433      0.0000    640.6412     10.1377
   947.2500    110.5622      0.0000    642.9916     10.1355
   947.5000    102.9762      0.0000    693.1865     10.1164
   947.7500     97.1117      0.0000    748.1085     10.0880
   948.0000     94.1592      0.0000    779.0087     10.0592
   948.2500     94.6300      0.0000    789.1234     10.0462
   948.5000     98.2805      0.0000    790.7783     10.0516
   948.7500    104.0310      0.0000    790.5967     10.0630
   949.0000    110.4985      0.0000    790.4276     10.0719
   949.2500    116.8756      0.0000    790.7918     10.0721
   949.5000    123.1261      0.0000    792.3818     10.0423
   949.7500    129.2235      0.0000    796.0702      9.9650
   950.0000    134.3386      0.0000    801.1866      9.8617
   950.2500    136.8457      0.0000    804.5359      9.7820
   950.5000    135.1502      0.0000    803.2015      9.7532
   950.7500    128.8186      0.0000    793.7802      9.7577
   951.0000    119.2131      0.0000    768.9456      9.7519
   951.2500    108.9979      0.0000    733.1327      9.7014
   951.5000    100.9444      0.0000    716.7852      9.6036
   951.7500     96.9746      0.0000    739.9451      9.4756
   952.0000     97.6727      0.0000    777.6545      9.3289
   952.2500    102.1787      0.0000    797.4777      9.1633
   952.5000    108.6847      0.0000    799.5929      8.9881
   952.7500    115.3725      0.0000    800.2668      8.8382
   953.0000    121.1908      0.0000    806.5322      8.7506
   953.2500    126.0010      0.0000    813.7218      8.7234
   953.5000    129.8563      0.0000    815.0330      8.7298
   953.7500    131.9749      0.0000    811.0844      8.7533
   954.0000    130.9706      0.0000    807.4998      8.7844
   954.2500    126.7305      0.0000    805.3014      8.8156
   954.5000    121.7310      0.0000    802.4257      8.8516
   954.7500    119.6604      0.0000    800.7493      8.9047
   955.0000    122.5525      0.0000    802.3019      8.9777
   955.2500    129.4405      0.0000    803.5636      9.0561
   955.5000    137.5750      0.0000    800.7286      9.1132
   955.7500    144.5913      0.0000    795.7124      9.1278
   956.0000    149.5973      0.0000    792.2584      9.1134
   956.2500    152.7052      0.0000    791.0810      9.1230
   956.5000    154.0627      0.0000    791.0317      9.1992
   956.7500    153.5747      0.0000    791.3090      9.3260
   957.0000    151.5511      0.0000    791.5561      9.4503
   957.2500    149.3337      0.0000    791.5148      9.5358
   957.5000    148.6264      0.0000    791.2036      9.5843
   957.7500    149.7193      0.0000    790.8406      9.6145
   958.0000    150.8382      0.0000    790.5403      9.6394
   958.2500    149.9413      0.0000    790.6437      9.6604
   958.5000    146.8749      0.0000    792.6022      9.6690
   958.7500    143.2015      0.0000    798.5779      9.6619
   959.0000    140.4519      0.0000    807.3735      9.6564
   959.2500    139.2395      0.0000    811.9727      9.6658
   959.5000    139.4561      0.0000    807.5645      9.6707
   959.7500    140.2825      0.0000    798.8605      9.6417
   960.0000    140.1602      0.0000    792.7642      9.5790
   960.2500    137.6289      0.0000    790.4940      9.5102
   960.5000    132.4748      0.0000    790.0222      9.4496
   960.7500    125.9555      0.0000    789.9328      9.3859
   961.0000    120.0149      0.0000    789.8625      9.3185
   961.2500    116.1992      0.0000    789.9674      9.2710
   961.5000    114.7859      0.0000    790.8463      9.2524
   961.7500    114.6838      0.0000    794.2249      9.2403
   962.0000    114.5475      0.0000    803.4522      9.2194
   962.2500    114.1782      0.0000    820.1599      9.2067
   962.5000    114.5151      0.0000    838.5549      9.2190
   962.7500    116.3316      0.0000    848.8086      9.2442
   963.0000    119.4670      0.0000    848.5155      9.2632
   963.2500    123.2018      0.0000    843.9283      9.2723
   963.5000    126.7373      0.0000    840.6111      9.2745
   963.7500    129.4668      0.0000    839.2877      9.2744
   964.0000    131.4428      0.0000    838.7168      9.2958
   964.2500    133.4899      0.0000    838.2275      9.3804
   964.5000    136.2987      0.0000    837.8405      9.5365
   964.7500    139.4210      0.0000    837.6072      9.7047
   965.0000    141.6090      0.0000    837.4067      9.8124
   965.2500    142.1787      0.0000    836.9702      9.8407
   965.5000    141.5034      0.0000    835.3890      9.8077
   965.7500    139.9188      0.0000    830.7148      9.7180
   966.0000    136.7353      0.0000    821.5915      9.5728
   966.2500    131.0302      0.0000    810.1517      9.4111
   966.5000    123.3302      0.0000    801.1329      9.2945
   966.7500    115.9579      0.0000    797.4932      9.2451
   967.0000    111.4686      0.0000    799.0161      9.2337
   967.2500    110.9056      0.0000    803.1747      9.2188
   967.5000    113.5438      0.0000    805.6514      9.1701
   967.7500    117.9279      0.0000    803.9794      9.0660
   968.0000    122.9212      0.0000    800.9945      8.8518
   968.2500    127.8977      0.0000    802.4075      8.3959
   968.5000    132.1891      0.0000    813.2803      7.6437
   968.7500    134.6404      0.0000    833.7997      6.9343
   969.0000    134.0915      0.0000    854.5253      6.7499
   969.2500    130.5497      0.0000    864.1644      6.9174
   969.5000    125.6620      0.0000    863.0436      6.8358
   969.7500    121.5049      0.0000    859.8557      6.4672
   970.0000    118.7655      0.0000    863.8790      6.1808
   970.2500    116.4477      0.0000    884.6987      6.0993
   970.5000    113.4677      0.0000    918.6472      6.1331
   970.7500    109.9339      0.0000    937.3888      6.2009
   971.0000    106.3703      0.0000    920.6174      6.3189
   971.2500    102.2928      0.0000    884.9910      6.6901
