~Version Information
VERS.                      2.0: CWLS Log ASCII Standard - VERSION 2.0
WRAP.                       NO: One line per depth step
~Well Information Block
STRT.FT                -6.5000: 
STOP.FT              1758.0000: 
STEP.FT                 0.2500: 
NULL.                -999.2500: 
COMP.          Pioneer Natural Resources: COMPANY
WELL.           Rolls 14-14 Tr: WELL
FLD.           Purgatorie River: FIELD
LOC.           473' FSL & 817' FWL--: LOCATION
PROV.                       CO: PROVINCE
CNTY.               Las Animas: COUNTRY
SRVC.          Patterson Wireline: SERVICE COMPANY
DATE.          Mon Aug 08 11:51:25 2005: LOG DATE
UWI.           05 071 08454 00: UNIQUE WELL ID
~Curve Information Block
DEPT.FT            0 000 00 00: Depth
CCL.                          : Casing Collar Locator
TT3.usec                      : CBL 3' Travel Time
AMP3.mV                       : CBL 3' Amplitude
GR.GAPI                       : Gamma Ray
~Parameter Information Block
~A  Depth       CCL         TT3         AMP3         GR     
# ...
   328.5000      0.0000    800.2409      6.0880     83.7085
   328.7500      0.0000    800.1014      6.1110     85.9234
   329.0000      0.0000    799.9713      6.1349     89.2989
   329.2500      0.0000    799.8457      6.1461     92.0865
   329.5000      0.0000    799.7017      6.1444     92.9237
   329.7500      0.0000    799.5328      6.1381     91.7447
   330.0000      0.0000    799.3791      6.1332     89.7853
   330.2500      0.0000    799.3114      6.1282     88.6591
   330.5000      0.0000    799.3797      6.1190     89.1372
   330.7500      0.0000    799.5696      6.1069     90.7014
   331.0000      0.0000    799.7709      6.0993     92.1775
   331.2500      0.0000    799.7453      6.1018     92.5938
   331.5000      0.0000    799.1116      6.1108     91.5067
   331.7500      0.0000    797.4916      6.1189     89.1132
   332.0000      0.0000    794.9041      6.1246     86.4760
   332.2500      0.0000    792.0521      6.1317     85.1461
   332.5000      0.0000    789.8356      6.1406     85.8914
   332.7500      0.0000    788.2912      6.1473     87.9123
   333.0000      0.0000    786.4451      6.1482     89.6445
   333.2500      0.0000    783.7274      6.1417     90.2200
   333.5000      0.0000    781.1000      6.1271     89.8641
   333.7500      0.0000    780.0704      6.1062     89.1831
   334.0000      0.0000    780.8691      6.0863     88.4523
   334.2500      0.0000    782.2806      6.0760     87.3759
   334.5000      0.0000    782.9677      6.0791     85.2772
   334.7500      0.0000    782.4010      6.0914     81.7281
   335.0000      0.0000    781.0417      6.1029     77.1323
   335.2500      0.0000    780.2919      6.1036     72.5666
   335.5000      0.0000    781.6897      6.0902     69.0892
   335.7500      0.0000    785.4418      6.0706     67.2026
   336.0000      0.0000    789.9451      6.0604     66.7991
   336.2500      0.0000    792.8721      6.0737     67.4905
   336.5000      0.0000    792.3839      6.1175     68.8621
   336.7500      0.0000    787.6331      6.1936     70.2750
   337.0000      0.0000    779.2746      6.3016     70.6636
   337.2500      0.0000    770.4059      6.4322     69.1015
   337.5000      0.0000    766.7465      6.5508     65.7810
   337.7500      0.0000    774.7894      6.5862     62.1234
   338.0000      0.0000    798.3136      6.4567     59.5453
   338.2500      0.0000    835.0009      6.1341     58.0663
   338.5000      0.0000    875.3237      5.6886     56.3522
   338.7500      0.0000    905.9473      5.2525     53.3283
   339.0000      0.0000    917.5859      4.9311     49.5903
   339.2500     -1.7151    911.2869      4.7485     46.9432
   339.5000     -2.0000    896.0712      4.6692     46.6604
   339.7500      0.0000    880.3660      4.6505     48.4734
   340.0000      0.0000    866.5501      4.6687     51.1099
   340.2500      0.0000    852.2672      4.7151     53.3131
   340.5000      0.0000    834.8689      4.7930     54.3051
   340.7500      0.0000    815.1245      4.9282     53.7890
   341.0000      0.0000    797.8108      5.1584     51.8792
   341.2500      0.0000    788.2153      5.4893     49.0908
   341.5000      0.0000    787.7659      5.8594     46.3465
   341.7500      0.0000    793.6736      6.1716     44.7031
   342.0000      0.0000    802.1388      6.3662     44.7162
   342.2500      0.0000    810.5068      6.4563     46.0456
   342.5000      0.0000    816.8281      6.4979     47.8427
   342.7500      0.0000    819.3151      6.5402     49.4641
   343.0000      0.0000    817.1700      6.6017     50.6514
   343.2500      0.0000    811.3008      6.6761     51.1878
   343.5000      0.0000    803.4174      6.7497     50.7909
   343.7500      0.0000    794.6976      6.8166     49.4792
   344.0000      0.0000    786.1021      6.8830     47.7609
   344.2500      0.0000    779.7508      6.9584     46.2473
   344.5000      0.0000    778.3552      7.0449     45.3505
   344.7500      0.0000    782.4214      7.1363     45.4630
   345.0000      0.0000    789.1896      7.2255     46.9602
   345.2500      0.0000    795.2861      7.3088     49.7276
   345.5000      0.0000    799.5427      7.3857     52.9880
   345.7500      0.0000    802.6290      7.4622     55.9479
   346.0000      0.0000    804.9800      7.5512     58.4673
   346.2500      0.0000    806.0742      7.6637     60.8353
   346.5000      0.0000    805.4583      7.7941     63.1021
   346.7500      0.0000    803.6369      7.9204     64.9917
   347.0000      0.0000    801.6790      8.0205     66.3242
   347.2500      0.0000    800.4152      8.0913     67.0575
   347.5000      0.0000    800.3195      8.1494     66.8500
   347.7500      0.0000    801.8100      8.2137     65.1303
   348.0000      0.0000    804.8771      8.2866     61.9382
   348.2500      0.0000    807.8297      8.3558     58.3899
   348.5000      0.0000    806.6661      8.4137     55.9246
   348.7500      0.0000    797.1042      8.4695     55.1050
   349.0000      0.0000    778.9841      8.5387     55.3350
   349.2500      0.0000    758.6741      8.6213     55.6050
   349.5000      0.0000    745.3643      8.6945     55.1420
   349.7500      0.0000    743.8256      8.7285     53.5004
   350.0000      0.0000    751.4787      8.7134     50.7691
   350.2500      0.0000    762.7438      8.6696     48.0216
   350.5000      0.0000    774.7020      8.6316     46.9991
   350.7500      0.0000    787.7015      8.6212     48.8423
   351.0000      0.0000    801.9719      8.6341     53.1451
   351.2500      0.0000    815.5870      8.6490     58.3962
   351.5000      0.0000    825.9318      8.6473     63.4552
   351.7500      0.0000    831.9882      8.6249     68.6285
   352.0000      0.0000    834.6373      8.5920     75.0576
   352.2500      0.0000    835.3901      8.5641     82.9882
   352.5000      0.0000    835.3748      8.5516     90.9675
   352.7500      0.0000    835.1589      8.5543     96.8769
   353.0000      0.0000    834.9705      8.5632     99.5150
   353.2500      0.0000    834.8523      8.5655     99.1113
   353.5000      0.0000    834.7661      8.5501     96.5940
   353.7500      0.0000    834.6566      8.5146     92.7014
   354.0000      0.0000    834.5101      8.4687     87.9101
   354.2500      0.0000    834.3587      8.4267     82.9391
   354.5000      0.0000    834.2453      8.3946     78.8338
   354.7500      0.0000    834.1886      8.3676     76.3105
   355.0000      0.0000    834.1647      8.3422     75.0821
   355.2500      0.0000    834.1155      8.3272     73.8861
   355.5000      0.0000    833.9883      8.3379     71.3334
   355.7500      0.0000    833.7753      8.3814     67.1522
   356.0000      0.0000    833.4785      8.4492     62.7427
   356.2500      0.0000    832.9965      8.5239     60.0978
   356.5000      0.0000    832.0392      8.5876     59.9024
   356.7500      0.0000    830.2690      8.6271     60.9566
   357.0000      0.0000    827.7462      8.6391     61.6282
   357.2500      0.0000    825.3064      8.6336     61.6477
   357.5000      0.0000    824.1965      8.6298     62.3268
   357.7500      0.0000    825.0160      8.6427     65.1378
   358.0000      0.0000    827.1323      8.6712     70.1102
   358.2500      0.0000    829.3261      8.6998     75.6342
   358.5000      0.0000    830.8188      8.7114     79.9315
   358.7500      0.0000    831.5243      8.6960     82.5824
   359.0000      0.0000    831.5920      8.6497     84.2779
   359.2500      0.0000    830.9736      8.5711     85.3192
   359.5000      0.0000    829.4461      8.4623     85.2210
   359.7500      0.0000    827.0546      8.3325     83.9247
   360.0000      0.0000    824.5003      8.1972     82.5165
   360.2500      0.0000    822.7392      8.0738     82.1655
   360.5000      0.0000    821.9106      7.9719     82.7476
   360.7500      0.0000    820.9445      7.8868     83.0284
   361.0000      0.0000    818.5392      7.8031     82.1207
   361.2500      0.0000    814.2927      7.7081     80.3921
   361.5000      0.0000    808.7763      7.6009     78.8722
   361.7500      0.0000    802.9615      7.4903     78.2546
