~Version Information
VERS.                      2.0: CWLS Log ASCII Standard - VERSION 2.0
WRAP.                       NO: One line per depth step
~Well Information Block
STRT.FT                 0.0000: 
STOP.FT               712.5000: 
STEP.FT                 0.2500: 
NULL.                -999.2500: 
COMP.          Pioneer Natural Resources: COMPANY
WELL.                Mia 21-18: WELL
FLD.           Purgatorie River: FIELD
LOC.           1067' FNL & 1824' FWL: LOCATION
PROV.                 Colorado: PROVINCE
CNTY.               Las Animas: COUNTRY
SRVC.                Patterson: SERVICE COMPANY
DATE.          Mon Nov 28 13:12:22 2005: LOG DATE
UWI.           05-071-08559               : UNIQUE WELL ID
~Curve Information Block
DEPT.FT            0 000 00 00: Depth
CCL.                          : Casing Collar Locator
TT3.usec                      : CBL 3' Travel Time
AMP3.mV                       : CBL 3' Amplitude
GR.GAPI                       : Gamma Ray
~Parameter Information Block
~A  Depth       CCL         TT3         AMP3         GR     
# ...
   368.5000      0.0000    724.0143     14.7480     99.1402
   368.7500      0.0000    723.6894     14.8051     99.5596
   369.0000      0.0000    723.3408     14.7842     99.4930
   369.2500      0.0000    722.8995     14.6596     98.6558
   369.5000      0.0000    721.7321     14.4457     97.8787
   369.7500      0.0000    718.7833     14.1703     98.3713
   370.0000      0.0000    714.5497     13.8923    100.7929
   370.2500      0.0000    712.3880     13.7128    105.0230
   370.5000      0.0000    714.6399     13.6652    110.3842
   370.7500      0.0000    718.9501     13.6681    115.9404
   371.0000      0.0000    721.8559     13.6352    120.8907
   371.2500      0.0000    722.5812     13.5376    124.8345
   371.5000      0.0000    721.4739     13.3794    127.5249
   371.7500      0.0000    718.2410     13.1874    128.5730
   372.0000      0.0000    713.6884     13.0010    127.8449
   372.2500      0.0000    711.2999     12.8576    126.0176
   372.5000      0.0000    713.4976     12.7877    124.1839
   372.7500      0.0000    717.9648     12.8046    122.8910
   373.0000      0.0000    721.1765     12.8840    122.0457
   373.2500      0.0000    722.4156     12.9582    121.5912
   373.5000      0.0000    722.7149     12.9633    121.6563
   373.7500      0.0000    722.8517     12.8880    122.0733
   374.0000      0.0000    722.9920     12.7670    122.2385
   374.2500      0.0000    723.0306     12.6467    121.4677
   374.5000      0.0000    722.7664     12.5384    119.2890
   374.7500      0.0000    721.6182     12.4060    115.6303
   375.0000      0.0000    718.6254     12.2391    110.9744
   375.2500      0.0000    714.3060     12.0991    106.2339
   375.5000      0.0000    712.0355     12.0444    102.4252
   375.7500      0.0000    714.1989     12.0606    100.4509
   376.0000      0.0000    718.4714     12.0958    100.7649
   376.2500      0.0000    721.2719     12.1108    102.8684
   376.5000      0.0000    720.8285     12.0782    105.4663
   376.7500      0.0000    714.0637     11.9802    107.4733
   377.0000      0.0000    695.7488     11.8107    108.8535
   377.2500      0.0000    669.2022     11.5759    110.4360
   377.5000      0.0000    653.0252     11.3167    112.9187
   377.7500      0.0000    659.0817     11.0727    115.9976
   378.0000      0.0000    676.4216     10.7271    118.4468
   378.2500      0.0000    695.6360     10.0003    118.9669
   378.5000      0.0000    724.1891      8.8708    116.8120
   378.7500      0.0000    773.0358      7.7968    111.8388
   379.0000      0.0000    838.1159      7.1617    104.7023
   379.2500      2.0000    888.0729      6.8831     97.2374
   379.5000      0.0000    898.6129      6.7407     91.8388
   379.7500     -2.0000    891.3991      6.6503     89.8111
   380.0000      0.0000    893.7312      6.5877     90.6089
   380.2500      0.0000    896.9106      6.5087     92.9963
   380.5000      0.0000    877.3555      6.3820     96.4372
   380.7500      0.0000    827.0414      6.2215    100.8277
   381.0000      0.0000    764.9573      6.0674    105.4930
   381.2500      0.0000    718.2064      6.0576    109.3705
   381.5000      0.0000    694.7111      6.4092    112.0449
   381.7500      0.0000    688.4929      7.0733    113.9246
   382.0000      0.0000    696.9777      7.6785    115.4271
   382.2500      0.0000    716.0699      7.9808    116.6524
   382.5000      0.0000    729.6387      8.0754    117.9911
   382.7500      0.0000    716.0535      8.1473    120.2948
   383.0000      0.0000    668.2192      8.2535    123.8612
   383.2500      0.0000    613.6021      8.3655    127.4311
   383.5000      0.0000    598.2443      8.4577    128.6725
   383.7500      0.0000    631.9152      8.5278    125.8736
   384.0000      0.0000    677.5228      8.5957    119.1238
   384.2500      0.0000    705.7162      8.6699    109.8876
   384.5000      0.0000    721.3392      8.7257     99.9179
   384.7500      0.0000    734.4056      8.7381     90.9872
   385.0000      0.0000    739.5496      8.7045     85.0157
   385.2500      0.0000    725.6873      8.6365     83.2838
   385.5000      0.0000    683.5818      8.5622     85.4230
   385.7500      0.0000    612.7827      8.5352     89.8129
   386.0000      0.0000    541.4266      8.6009     94.9383
   386.2500      0.0000    516.6432      8.7511     99.8431
   386.5000      0.0000    554.7605      8.9251    103.4857
   386.7500      0.0000    623.8204      9.0581    104.7880
   387.0000      0.0000    682.1730      9.1377    103.9333
   387.2500      0.0000    713.8581      9.2220    102.9258
   387.5000      0.0000    725.8244      9.3773    103.9207
   387.7500      0.0000    729.0041      9.5859    106.8932
   388.0000      0.0000    728.8745      9.7721    109.6004
   388.2500      0.0000    725.9402      9.9034    110.1180
   388.5000      0.0000    718.7581     10.0117    108.8309
   388.7500      0.0000    708.9703     10.1360    107.6305
   389.0000      0.0000    704.1180     10.2693    107.9329
   389.2500      0.0000    709.2725     10.3801    109.9891
   389.5000      0.0000    719.1954     10.4600    113.2383
   389.7500      0.0000    726.2939     10.4980    116.5369
   390.0000      0.0000    729.1113     10.4740    118.6455
   390.2500      0.0000    729.4725     10.4171    119.2159
   390.5000      0.0000    727.4655     10.3627    119.0008
   390.7500      0.0000    718.3427     10.2789    118.9269
   391.0000      0.0000    691.3233     10.1323    119.4516
   391.2500      0.0000    638.4818      9.9396    120.7029
   391.5000      0.0000    569.8608      9.7035    122.4530
   391.7500      0.0000    507.2105      9.4192    123.8133
   392.0000      0.0000    461.5956      9.1160    123.5600
   392.2500      0.0000    434.4146      8.7361    121.1324
   392.5000      0.0000    431.3553      8.1003    117.2043
   392.7500      0.0000    458.1404      7.2413    113.0843
   393.0000      0.0000    508.2002      6.5706    109.5067
   393.2500      0.0000    558.1708      6.3376    105.9868
   393.5000      0.0000    580.3198      6.2258    101.2706
   393.7500      0.0000    567.3790      5.9468     94.4213
   394.0000      0.0000    537.2177      5.7099     85.5968
   394.2500      0.0000    519.8212      5.7021     76.0395
   394.5000     -2.0000    539.8246      5.7793     67.3596
   394.7500      2.0000    587.7903      5.8230     60.6092
   395.0000      0.0000    630.7197      5.8875     55.8326
   395.2500      0.0000    655.3364      6.0457     52.3068
   395.5000      0.0000    661.0369      6.3977     49.1961
   395.7500      0.0000    632.5416      7.1905     46.2934
   396.0000      0.0000    561.9416      8.4771     44.3057
   396.2500      0.0000    476.2568      9.6371     44.2326
   396.5000      0.0000    410.9628     10.0587     46.3705
   396.7500      0.0000    374.6259     10.0104     49.9210
   397.0000      0.0000    356.4244     10.0412     53.4064
   397.2500      0.0000    347.3181     10.2623     55.4015
   397.5000      0.0000    343.5165     10.5237     55.2613
   397.7500      0.0000    342.5087     10.6976     53.5930
   398.0000      0.0000    342.5746     10.7517     51.8510
   398.2500      0.0000    343.7338     10.7343     50.9736
   398.5000      0.0000    347.7727     10.7154     50.4150
   398.7500      0.0000    356.7571     10.7234     48.8181
   399.0000      0.0000    371.3948     10.7183     45.5395
   399.2500      0.0000    392.6519     10.6355     41.2977
   399.5000      0.0000    423.8394     10.4586     37.4559
   399.7500      0.0000    470.0328     10.2406     34.8876
   400.0000      0.0000    534.6467     10.0465     33.4607
   400.2500      0.0000    606.6658      9.8870     32.3916
   400.5000      0.0000    659.8342      9.7247     31.0342
   400.7500      0.0000    681.3398      9.5232     29.4076
   401.0000      0.0000    683.1160      9.2638     28.0605
   401.2500      0.0000    680.3087      8.9424     27.5180
   401.5000      0.0000    678.2619      8.5862     27.8681
   401.7500      0.0000    677.0554      8.2569     28.7525
