~Version Information
 VERS.                                  2.0 : CWLS LAS VERSION
 WRAP.                                   NO : WRAPING MODE
 SWARE .                 MController 2.5.0J : SOFTWARE VERSION
~Well Information
 WELL.                         State 16-44R : WELL
 COMP.                Petrogulf Corporation : COMPANY
 FLD.                      Purgatoire River : FIELD
 LOC.                SE/SE Sec 16 T33S R67W : LOCATION
 DATE.                          10/20-21/05 : DATE(S) LOGGED
 SRVC.       BLANCO Geological Services LLC : SERVICE COMPANY
 STAT.                                   CO : STATE
 CNTY.                           Las Animas : COUNTY
 CTRY.                                  USA : COUNTRY
 API.                       05-071-08457-00 : API NUMBER
 STRT.FT                               1.00 : START DEPTH
 STOP.FT                            1629.00 : STOP DEPTH
 STEP.FT                               1.00 : DEPTH INCREMENT
 NULL.                                -9999 : NULL VALUE
~Curve information
 DEPTH.FT                                   :
 ROP.MIN/FT                                 :
 GAS.UNITS                                  :
~ASCII Log data
# ...
       401.0         0.30         13.7 
       402.0         0.23         14.2 
       403.0         0.20         12.0 
       404.0         0.28         10.1 
       405.0         0.37         11.2 
       406.0         0.33         10.9 
       407.0         0.17         10.8 
       408.0         0.17         10.9 
       409.0         0.20         16.0 
       410.0         0.17         27.7 
       411.0         0.17         42.4 
       412.0         0.10         49.5 
       413.0         0.13         58.4 
       414.0         0.10         74.9 
       415.0         0.13        131.6 
       416.0         1.18        161.9 
       417.0         0.30         22.4 
       418.0         0.30         15.9 
       419.0         0.33         13.6 
       420.0         0.33         13.7 
       421.0         0.33         13.3 
       422.0         0.30         11.9 
       423.0         0.30         13.2 
       424.0         0.37         12.8 
       425.0         0.33         12.2 
       426.0         0.30         10.7 
       427.0         0.32          9.0 
       428.0         0.23         12.8 
       429.0         0.20         14.2 
       430.0         0.20         14.8 
       431.0         0.20         13.8 
       432.0         0.10         12.3 
       433.0         0.20         11.0 
       434.0         0.40          6.7 
       435.0         0.33          6.3 
       436.0         0.27          6.7 
       437.0         0.13          7.2 
       438.0         0.17          6.2 
       439.0         0.13          5.7 
       440.0         0.17          7.5 
       441.0         0.13         13.7 
       442.0         0.17         23.6 
       443.0         0.18         35.8 
       444.0         0.17         46.2 
       445.0         0.20        119.7 
       446.0         1.20        164.2 
       447.0         0.27         28.7 
       448.0         0.17         23.7 
       449.0         0.23         20.2 
       450.0         0.23         18.5 
       451.0         0.23         17.6 
       452.0         0.30         17.8 
       453.0         0.35         21.8 
       454.0         0.30         21.1 
       455.0         0.30         16.8 
       456.0         0.33         14.3 
       457.0         0.37         14.4 
       458.0         0.23         11.0 
       459.0         0.20         18.5 
       460.0         0.17         27.9 
       461.0         0.17         35.6 
       462.0         0.20         37.1 
       463.0         0.17         38.6 
       464.0         0.13         38.2 
       465.0         0.17         36.2 
       466.0         0.17         33.9 
       467.0         0.30         30.5 
       468.0         0.38         23.5 
       469.0         0.27         22.4 
       470.0         0.27         24.9 
       471.0         0.23         34.8 
       472.0         0.20         63.9 
       473.0         0.20         91.5 
       474.0         0.17        116.6 
       475.0         0.20        308.1 
       476.0         1.30        417.5 
       477.0         0.32         44.0 
       478.0         0.20         41.5 
       479.0         0.13         38.1 
       480.0         0.10         35.5 
       481.0         0.13         34.1 
       482.0         0.13         33.9 
       483.0         0.13         34.5 
       484.0         0.17         35.1 
       485.0         0.20         34.0 
       486.0         0.17         33.4 
       487.0         0.13         33.8 
       488.0         0.17         35.5 
       489.0         0.23         37.6 
       490.0         0.23         39.1 
       491.0         0.20         39.4 
       492.0         0.20         38.8 
       493.0         0.27         38.3 
       494.0         0.23         38.0 
       495.0         0.25         37.7 
       496.0         0.23         38.1 
       497.0         0.20         38.1 
       498.0         0.23         38.3 
       499.0         0.17         37.9 
       500.0         0.20         34.2 
       501.0         0.20         25.2 
       502.0         0.17         35.2 
       503.0         0.20         63.8 
       504.0         0.23         96.7 
       505.0         0.23        121.7 
       506.0         1.48       1174.2 
       507.0         0.27         80.7 
       508.0         0.33         61.0 
       509.0         0.27         44.6 
       510.0         0.27         30.9 
       511.0         0.30         30.4 
       512.0         0.30         36.3 
       513.0         0.17         37.2 
       514.0         0.17         37.2 
       515.0         0.13         35.5 
       516.0         0.17         34.9 
       517.0         0.17         34.0 
       518.0         0.17         34.5 
       519.0         0.23         35.5 
       520.0         0.25         38.4 
       521.0         0.20         39.0 
       522.0         0.20         38.7 
       523.0         0.23         37.5 
       524.0         0.23         37.3 
       525.0         0.40         37.6 
       526.0         0.27         36.7 
       527.0         0.23         36.4 
       528.0         0.33         36.9 
       529.0         0.27         36.3 
       530.0         0.27         34.7 
       531.0         0.30         34.3 
       532.0         0.28         32.3 
       533.0         0.23         22.4 
       534.0         0.27         43.4 
       535.0         0.27         70.7 
       536.0         1.60       1280.8 
       537.0         0.30        440.0 
       538.0         0.33         58.7 
       539.0         0.27         43.8 
       540.0         0.28         37.5 
       541.0         0.23         34.2 
       542.0         0.23         33.7 
       543.0         0.23         33.0 
       544.0         0.23         32.3 
       545.0         0.20         32.2 
       546.0         0.23         32.2 
       547.0         0.23         32.1 
       548.0         0.23         32.1 
       549.0         0.23         32.3 
       550.0         0.23         32.2 
       551.0         0.23         32.2 
       552.0         0.23         32.0 
       553.0         0.23         32.0 
       554.0         0.25         32.3 
       555.0         0.23         32.7 
       556.0         0.23         32.7 
       557.0         0.23         33.1 
       558.0         0.27         33.1 
       559.0         0.23         32.9 
       560.0         0.23         32.2 
       561.0         0.23         31.4 
       562.0         0.23         24.3 
       563.0         0.27         16.4 
       564.0         0.23         36.8 
       565.0         0.23         62.5 
       566.0         1.28        406.1 
       567.0         0.53         92.2 
       568.0         0.53         41.5 
       569.0         0.40         43.0 
       570.0         0.30         41.0 
       571.0         0.40         35.8 
       572.0         0.48         29.6 
       573.0         0.40         29.6 
       574.0         0.37         42.6 
       575.0         0.30         47.5 
       576.0         0.30         47.7 
       577.0         0.23         46.9 
       578.0         0.17         46.1 
       579.0         0.33         45.8 
       580.0         0.53         45.6 
       581.0         0.67         44.4 
       582.0         0.65         44.5 
       583.0         0.63         44.6 
       584.0         0.60         40.0 
       585.0         0.40         33.0 
       586.0         0.17         32.4 
       587.0         0.13         29.2 
       588.0         0.13         28.0 
       589.0         0.17         32.8 
       590.0         0.27         34.4 
       591.0         0.17         32.1 
       592.0         0.15         26.3 
       593.0         0.13         25.9 
       594.0         0.20         43.1 
       595.0         0.20         69.6 
       596.0         2.33        468.0 
       597.0         0.37         55.0 
       598.0         0.28         45.8 
       599.0         0.23         44.2 
       600.0         0.27         44.0 
