~Version Information
VERS.                      2.0: CWLS Log ASCII Standard - VERSION 2.0
WRAP.                       NO: One line per depth step
~Well Information Block
STRT.FT                10.0000: 
STOP.FT              1350.5000: 
STEP.FT                 0.1000: 
NULL.                -999.2500: 
COMP.          Pioneer Natural Resources: COMPANY
WELL.              Dicks 32-5R: WELL
FLD.           Purgatorie River: FIELD
LOC.           1485' FNL & 1684' FEL: LOCATION
PROV.                 Colorado: PROVINCE
CNTY.               Las Animas: COUNTRY
SRVC.                Patterson: SERVICE COMPANY
DATE.          Fri Dec 09 10:06:15 2005: LOG DATE
UWI.                          : UNIQUE WELL ID
~Curve Information Block
DEPT.FT            0 000 00 00: Depth
DCAL.in                       : CDL Caliper
RHOB.g/cc                     : CDL Bulk Density
RHOC.g/cc                     : CDL Density Correction
DPOR.pu                       : CDL Density Porosity
GR.GAPI                       : Gamma Ray
NPOR.pu                       : Neutron Porosity
~Parameter Information Block
~A  Depth       DCAL        RHOB        RHOC        DPOR         GR         NPOR    
# ...
   451.6000     -3.1029      2.1950      1.9756     -0.0091     71.2646     25.2246
   451.7000     -3.1029      2.1928      1.9811     -0.0091     72.9369     24.9748
   451.8000     -3.1029      2.2000      2.0051     -0.0090     75.5703     24.7236
   451.9000     -3.1029      2.2033      2.0199     -0.0089     76.7871     24.5845
   452.0000     -3.1029      2.1940      2.0515     -0.0091     73.3300     24.5225
   452.1000     -3.1029      2.1758      1.9916     -0.0095     67.6479     24.6701
   452.2000     -3.1029      2.1683      1.9475     -0.0096     64.4120     24.9273
   452.3000     -3.1029      2.1835      1.9664     -0.0093     64.7525     24.9818
   452.4000     -3.1029      2.2137      1.9822     -0.0087     67.0256     24.9895
   452.5000     -3.1029      2.2415      2.0197     -0.0082     68.4380     25.0858
   452.6000     -3.1029      2.2480      2.0311     -0.0080     68.3431     24.8821
   452.7000     -3.1029      2.2275      2.0270     -0.0085     68.5371     24.3213
   452.8000     -3.1029      2.1984      1.9670     -0.0090     69.8464     23.7611
   452.9000     -3.1029      2.1850      2.0116     -0.0093     71.4704     23.5680
   453.0000     -3.1029      2.1920      1.9902     -0.0092     72.4726     23.8835
   453.1000     -3.1029      2.2066      2.0598     -0.0089     73.0329     24.4602
   453.2000     -3.1029      2.2176      2.0487     -0.0087     73.2955     24.9482
   453.3000     -3.1029      2.2248      2.0573     -0.0085     72.8188     25.1631
   453.4000     -3.1029      2.2228      2.0602     -0.0085     71.5770     25.0719
   453.5000     -3.1029      2.2097      2.0012     -0.0088     71.4762     24.8550
   453.6000     -3.1029      2.2035      2.0069     -0.0089     73.9976     24.8425
   453.7000     -3.1029      2.2195      1.9892     -0.0086     77.2645     24.9259
   453.8000     -3.1029      2.2482      2.0072     -0.0080     79.0117     25.0390
   453.9000     -3.1029      2.2647      2.0490     -0.0077     79.5651     25.5413
   454.0000     -3.1029      2.2545      2.0220     -0.0079     78.8579     26.0612
   454.1000     -3.1029      2.2251      1.9863     -0.0085     76.6097     25.9269
   454.2000     -3.1029      2.1932      1.9527     -0.0091     76.0053     25.5530
   454.3000     -3.1029      2.1709      1.9342     -0.0096     78.6084     25.5693
   454.4000     -3.1029      2.1567      1.9454     -0.0099     81.0269     25.7159
   454.5000     -3.1029      2.1426      1.9450     -0.0102     81.0511     25.6715
   454.6000     -3.1029      2.1348      1.8849     -0.0103     79.5753     25.6240
   454.7000     -3.1029      2.1428      1.9469     -0.0102     77.1383     25.6943
   454.8000     -3.1029      2.1558      2.0055     -0.0099     74.7125     25.8554
   454.9000     -3.1029      2.1679      1.9279     -0.0096     74.4783     26.1410
   455.0000     -3.1029      2.1914      1.9872     -0.0092     76.7161     26.4920
   455.1000     -3.1029      2.2177      2.0304     -0.0087     79.2619     26.4590
   455.2000     -3.1029      2.2246      2.0249     -0.0085     80.4234     25.9307
   455.3000     -3.1029      2.2153      1.9871     -0.0087     80.2772     25.4956
   455.4000     -3.1029      2.2047      2.0060     -0.0089     79.2282     25.3304
   455.5000     -3.1029      2.1970      1.9566     -0.0091     77.4011     25.2975
   455.6000     -3.1029      2.1913      1.9852     -0.0092     74.5057     25.5712
   455.7000     -3.1029      2.1827      2.0022     -0.0094     71.6775     25.9285
   455.8000     -3.1029      2.1641      1.9645     -0.0097     71.1051     25.9635
   455.9000     -3.1029      2.1286      1.9790     -0.0104     72.1868     25.7426
   456.0000     -3.1029      2.0752      1.9424     -0.0115     72.9214     25.4253
   456.1000     -3.1029      2.0151      1.9146     -0.0127     73.3173     25.2387
   456.2000     -3.1029      1.9639      1.9330     -0.0137     74.3218     25.3459
   456.3000     -3.1029      1.9411      1.8978     -0.0142     74.9895     25.5407
   456.4000     -3.1029      1.9975      1.8969     -0.0131     73.3782     25.5633
   456.5000     -3.1029      2.1912      1.9496     -0.0092     70.4683     25.4935
   456.6000     -3.1029      2.4793      2.1663     -0.0034     69.7308     25.6458
   456.7000     -3.1029      2.7264      2.2525      0.0015     71.0966     26.1020
   456.8000     -3.1029      2.8702      2.3237      0.0044     71.8445     26.4011
   456.9000     -3.1029      2.9326      2.3653      0.0057     72.0101     26.0944
   457.0000     -3.1029      2.8951      2.4384      0.0049     72.6792     25.7198
   457.1000     -3.1029      2.7087      2.2920      0.0012     72.6032     25.9560
   457.2000     -3.1029      2.4329      1.6400     -0.0043     71.1189     26.4364
   457.3000     -3.1029      2.2190      1.4891     -0.0086     70.3241     26.5326
   457.4000     -3.1029      2.1232      1.5584     -0.0105     72.4658     26.1007
   457.5000     -3.1029      2.0929      1.5337     -0.0111     78.4170     25.3404
   457.6000     -3.1029      2.0899      1.4805     -0.0112     85.5479     24.6955
   457.7000     -3.1029      2.1040      1.5240     -0.0109     88.0868     24.6064
   457.8000     -3.1029      2.1099      1.5880     -0.0108     84.0178     25.0855
   457.9000     -3.1029      2.0911      1.5046     -0.0112     77.9172     25.5554
   458.0000     -3.1029      2.0630      1.4843     -0.0117     74.5424     25.5407
   458.1000     -3.1029      2.0388      1.5118     -0.0122     75.1062     25.3459
   458.2000     -3.1029      2.0164      1.4717     -0.0127     78.3095     25.3203
   458.3000     -3.1029      1.9993      1.4203     -0.0130     81.1218     25.3527
   458.4000     -3.1029      1.9984      1.4690     -0.0130     82.3470     25.3542
   458.5000     -3.1029      2.0217      1.4155     -0.0126     83.0480     25.3650
   458.6000     -3.1029      2.0649      1.5055     -0.0117     82.8230     25.2460
   458.7000     -3.1029      2.1002      1.5644     -0.0110     80.7499     24.9398
   458.8000     -3.1029      2.1122      1.5135     -0.0108     78.4288     24.8990
   458.9000     -3.1029      2.1220      1.4655     -0.0106     78.8967     25.2986
   459.0000     -3.1029      2.1420      1.4994     -0.0102     81.8137     25.5585
   459.1000     -3.1029      2.1514      1.5562     -0.0100     83.5862     25.4373
   459.2000     -3.1029      2.1342      1.4910     -0.0103     82.2668     25.3370
   459.3000     -3.1029      2.1127      1.4766     -0.0108     79.6285     25.4004
   459.4000     -3.1029      2.1104      1.5334     -0.0108     78.3891     25.3476
   459.5000     -3.1029      2.1175      1.5412     -0.0107     78.9980     25.0084
   459.6000     -3.1029      2.1186      1.5447     -0.0106     80.2594     24.6728
   459.7000     -3.1029      2.1076      1.5305     -0.0109     82.0677     24.7407
   459.8000     -3.1029      2.0810      1.5118     -0.0114     84.4044     25.1264
   459.9000     -3.1029      2.0429      1.4978     -0.0121     84.6790     25.4525
   460.0000     -3.1029      2.0094      1.4495     -0.0128     81.7700     25.7278
   460.1000     -3.1029      1.9921      1.4868     -0.0132     79.3860     26.0795
   460.2000     -3.1029      1.9940      1.4311     -0.0131     80.2971     26.1756
   460.3000     -3.1029      2.0186      1.4612     -0.0126     82.8603     25.8123
   460.4000     -3.1029      2.0562      1.4972     -0.0119     85.2693     25.5656
   460.5000      8.1608      2.0946      1.4625     -0.0111     87.4138     25.8610
   460.6000      8.1608      2.1350      1.5246     -0.0103     88.8152     26.3063
   460.7000      8.1608      2.1696      1.5456     -0.0096     89.9223     26.5284
   460.8000      8.1689      2.1894      1.5169     -0.0092     90.9075     26.7201
   460.9000      8.1689      2.2104      1.4869     -0.0088     90.5939     27.0260
   461.0000      8.1699      2.2434      1.5628     -0.0081     90.1158     27.0777
   461.1000      8.1699      2.2716      1.5786     -0.0076     89.9205     26.9252
