~Version Information
VERS.                      2.0: CWLS Log ASCII Standard - VERSION 2.0
WRAP.                       NO: One line per depth step
~Well Information Block
STRT.FT                -6.7500: 
STOP.FT              1661.0000: 
STEP.FT                 0.2500: 
NULL.                -999.2500: 
COMP.          Pioneer Natural Resources: COMPANY
WELL.           Pedri 42-33 Tr: WELL
FLD.           Purgatorie River: FIELD
LOC.           1933'' FNL & 662' FEL--: LOCATION
PROV.                       CO: PROVINCE
CNTY.               Las Animas: COUNTRY
SRVC.          Patterson Wireline: SERVICE COMPANY
DATE.          Tue Dec 27 08:53:52 2005: LOG DATE
UWI.           05 071 08640 00: UNIQUE WELL ID
~Curve Information Block
DEPT.FT            0 000 00 00: Depth
CCL.                          : Casing Collar Locator
TT3.usec                      : CBL 3' Travel Time
AMP3.mV                       : CBL 3' Amplitude
GR.GAPI                       : Gamma Ray
~Parameter Information Block
~A  Depth       CCL         TT3         AMP3         GR     
# ...
   428.7500      0.0000    727.9872      6.7491     42.5300
   429.0000      0.0000    710.1487      6.8408     39.1688
   429.2500      0.0000    697.3260      6.9197     40.1431
   429.5000      0.0000    687.3512      6.9875     43.9873
   429.7500      0.0000    678.2816      7.0436     48.5611
   430.0000      0.0000    670.1822      7.0858     52.1934
   430.2500      0.0000    666.2873      7.1159     54.3500
   430.5000      0.0000    671.2736      7.1406     55.2017
   430.7500      0.0000    688.2430      7.1669     54.6997
   431.0000      0.0000    717.0248      7.1970     52.5630
   431.2500      0.0000    753.9525      7.2284     49.1135
   431.5000      0.0000    792.4880      7.2593     45.5568
   431.7500      0.0000    825.5472      7.2892     43.2208
   432.0000      0.0000    848.8962      7.3144     42.8008
   432.2500      0.0000    862.4106      7.3269     44.2140
   432.5000      0.0000    868.3781      7.3212     46.6341
   432.7500      0.0000    869.5121      7.3021     48.5676
   433.0000      0.0000    868.2289      7.2837     48.4888
   433.2500      0.0000    866.3450      7.2794     46.0026
   433.5000      0.0000    864.7577      7.2931     42.4941
   433.7500      0.0000    863.5121      7.3179     40.4316
   434.0000      0.0000    862.1036      7.3420     41.7894
   434.2500      0.0000    859.5691      7.3556     46.8635
   434.5000      0.0000    854.6900      7.3555     54.3767
   434.7500      0.0000    847.0239      7.3459     62.5032
   435.0000      0.0000    838.2697      7.3370     69.6508
   435.2500      0.0000    831.7734      7.3399     74.4391
   435.5000      0.0000    829.4524      7.3613     75.6720
   435.7500      0.0000    829.7990      7.3979     73.0723
   436.0000      0.0000    830.5139      7.4383     68.0880
   436.2500      0.0000    832.1959      7.4701     63.3067
   436.5000      0.0000    837.1328      7.4885     60.5211
   436.7500      0.0000    845.2337      7.5000     59.4316
   437.0000      0.0000    853.7537      7.5188     58.4341
   437.2500      0.0000    860.3926      7.5573     56.3572
   437.5000      0.0000    864.2469      7.6172     53.2258
   437.7500      0.0000    864.5026      7.6899     49.9283
   438.0000      0.0000    860.7067      7.7656     47.5228
   438.2500      0.0000    854.2071      7.8398     46.4200
   438.5000      0.0000    847.7827      7.9120     45.9272
   438.7500      0.0000    843.5018      7.9815     44.8883
   439.0000      0.0000    841.2143      8.0480     42.9626
   439.2500      0.0000    839.1752      8.1162     40.9743
   439.5000      0.0000    835.8228      8.1940     39.9433
   439.7500      0.0000    830.2185      8.2837     40.1539
   440.0000      0.0000    820.8898      8.3767     41.1921
   440.2500      0.0000    806.3966      8.4577     42.3530
   440.5000      0.0000    788.5729      8.5147     42.8570
   440.7500      0.0000    773.3325      8.5438     42.2091
   441.0000      0.0000    765.6313      8.5453     40.6783
   441.2500      0.0000    764.1215      8.5154     39.1406
   441.5000      0.0000    762.4276      8.4352     38.2710
   441.7500      0.0000    754.8887      8.2677     38.0746
   442.0000      0.0000    740.4284      7.9812     38.1648
   442.2500      0.0000    723.4943      7.5981     38.2022
   442.5000      0.0000    714.2143      7.2093     37.9672
   442.7500      0.0000    725.9984      6.9106     37.3391
   443.0000      0.0000    768.0452      6.7332     36.4698
   443.2500      0.0000    835.5645      6.6561     35.8376
   443.5000      0.0000    907.3502      6.6538     35.9129
   443.7500      0.0000    957.6268      6.6997     36.7793
   444.0000      2.0000    974.0636      6.7543     38.2272
   444.2500     -2.0000    962.9847      6.7880     40.1810
   444.5000      0.0000    936.5724      6.8155     42.8092
   444.7500      0.0000    900.0444      6.9008     46.3074
   445.0000      0.0000    854.4990      7.1260     51.0353
   445.2500      0.0000    807.1448      7.5323     57.8672
   445.5000      0.0000    771.6028      8.0630     67.6543
   445.7500      0.0000    757.3069      8.5679     79.9302
   446.0000      0.0000    761.9146      8.8904     92.5362
   446.2500      0.0000    774.9703      8.9696    102.8422
   446.5000      0.0000    787.0533      8.8616    109.3309
   446.7500      0.0000    794.6981      8.6708    112.3240
   447.0000      0.0000    798.7985      8.4753    113.4637
   447.2500      0.0000    800.5946      8.3071    114.2238
   447.5000      0.0000    799.9467      8.1720    114.4899
   447.7500      0.0000    796.5746      8.0635    112.7893
   448.0000      0.0000    791.6453      7.9678    108.2815
   448.2500      0.0000    787.2543      7.8738    102.2243
   448.5000      0.0000    784.8356      7.7847     96.9802
   448.7500      0.0000    784.5504      7.7157     93.8350
   449.0000      0.0000    785.6929      7.6806     92.2930
   449.2500      0.0000    787.0979      7.6785     91.2986
   449.5000      0.0000    787.5334      7.6929     90.5197
   449.7500      0.0000    786.3810      7.7009     90.2479
   450.0000      0.0000    783.9543      7.6885     90.4962
   450.2500      0.0000    780.8619      7.6599     90.6514
   450.5000      0.0000    777.2394      7.6319     89.9814
   450.7500      0.0000    772.9716      7.6175     88.2488
   451.0000      0.0000    768.5148      7.6188     85.8419
   451.2500      0.0000    764.9343      7.6329     83.5998
   451.5000      0.0000    763.0493      7.6597     82.5439
   451.7500      0.0000    763.0629      7.6983     83.3264
   452.0000      0.0000    764.9622      7.7409     85.4281
   452.2500      0.0000    768.4769      7.7729     87.1924
   452.5000      0.0000    772.6326      7.7815     87.1980
   452.7500      0.0000    776.1257      7.7648     85.3654
   453.0000      0.0000    778.2856      7.7337     82.3136
   453.2500      0.0000    779.3333      7.7016     78.2400
   453.5000      0.0000    779.8469      7.6742     73.1931
   453.7500      0.0000    780.2493      7.6507     67.9750
   454.0000      0.0000    780.6783      7.6321     63.8518
   454.2500      0.0000    780.9488      7.6261     61.3341
   454.5000      0.0000    780.4037      7.6419     59.9186
   454.7500      0.0000    778.0544      7.6818     59.1687
   455.0000      0.0000    773.4872      7.7367     59.5262
   455.2500      0.0000    767.8813      7.7895     61.7758
   455.5000      0.0000    763.6271      7.8268     65.9082
   455.7500      0.0000    762.5898      7.8508     70.6949
   456.0000      0.0000    764.8777      7.8776     74.6232
   456.2500      0.0000    769.1123      7.9216     77.3834
   456.5000      0.0000    773.4475      7.9825     80.1186
   456.7500      0.0000    776.4159      8.0476     84.0340
   457.0000      0.0000    777.1997      8.1020     89.1289
   457.2500      0.0000    775.3822      8.1328     94.3764
   457.5000      0.0000    770.7797      8.1287     98.6660
   457.7500      0.0000    763.8042      8.0851    101.3491
   458.0000      0.0000    755.8422      8.0083    102.3940
   458.2500      0.0000    748.7729      7.9131    102.4023
   458.5000      0.0000    743.8685      7.8173    102.0862
   458.7500      0.0000    741.2115      7.7355    101.5966
   459.0000      0.0000    740.0756      7.6737    100.8738
   459.2500      0.0000    739.6458      7.6256    100.3923
   459.5000      0.0000    739.4093      7.5780    100.6007
   459.7500      0.0000    739.1580      7.5217    100.7761
   460.0000      0.0000    738.8496      7.4586     99.3942
   460.2500      0.0000    738.5045      7.3974     95.8110
   460.5000      0.0000    738.1629      7.3454     91.2154
   460.7500      0.0000    737.8729      7.3067     87.7790
   461.0000      0.0000    737.6822      7.2867     86.8202
   461.2500      0.0000    737.6337      7.2917     87.5953
   461.5000      0.0000    737.7322      7.3243     87.9872
   461.7500      0.0000    737.8904      7.3788     86.5947
   462.0000      0.0000    737.9476      7.4427     83.8816
