~Version Information
VERS.                      2.0: CWLS Log ASCII Standard - VERSION 2.0
WRAP.                       NO: One line per depth step
~Well Information Block
STRT.FT                -8.2500: 
STOP.FT              2119.7500: 
STEP.FT                 0.2500: 
NULL.                -999.2500: 
COMP.          Pioneer Natural Resources: COMPANY
WELL.          Hemisphere 32-24: WELL
FLD.           Purgatorie River: FIELD
LOC.           1850' FNL & 2284' FEL--: LOCATION
PROV.                       CO: PROVINCE
CNTY.               Las Animas: COUNTRY
SRVC.          Patterson Wireline: SERVICE COMPANY
DATE.          Sat Aug 27 08:06:42 2005: LOG DATE
UWI.           05 071 08440 00: UNIQUE WELL ID
~Curve Information Block
DEPT.FT            0 000 00 00: Depth
CCL.                          : Casing Collar Locator
TT3.usec                      : CBL 3' Travel Time
AMP3.mV                       : CBL 3' Amplitude
GR.GAPI                       : Gamma Ray
~Parameter Information Block
~A  Depth       CCL         TT3         AMP3         GR     
# ...
  1264.7500      0.0000    662.0508      5.0507    128.0726
  1265.0000      0.0000    656.1071      5.0255    120.1557
  1265.2500      0.0000    657.4432      4.9894    110.8798
  1265.5000      0.0000    667.1951      4.9427    102.2568
  1265.7500      0.0000    683.4597      4.8937     95.8689
  1266.0000      0.0000    701.7015      4.8584     92.7463
  1266.2500      0.0000    717.1108      4.8524     93.2101
  1266.5000      0.0000    727.1898      4.8818     96.8490
  1266.7500      0.0000    732.3300      4.9388    102.5691
  1267.0000      0.0000    734.2928      5.0072    108.7015
  1267.2500      0.0000    734.3885      5.0710    113.3972
  1267.5000      0.0000    732.6490      5.1194    115.2472
  1267.7500      0.0000    727.9991      5.1463    113.7353
  1268.0000      0.0000    719.2585      5.1491    109.4290
  1268.2500      0.0000    706.6745      5.1325    103.8644
  1268.5000      0.0000    692.7819      5.1095     98.9506
  1268.7500      0.0000    681.2450      5.0952     96.2181
  1269.0000      0.0000    674.3417      5.0981     96.4677
  1269.2500      0.0000    671.4153      5.1177     99.7263
  1269.5000      0.0000    669.6405      5.1486    105.1552
  1269.7500      0.0000    666.0146      5.1878    111.0667
  1270.0000      0.0000    658.9551      5.2346    115.5819
  1270.2500      0.0000    649.2040      5.2853    117.9023
  1270.5000      0.0000    640.0906      5.3279    119.0437
  1270.7500      0.0000    635.9994      5.3482    120.9435
  1271.0000      0.0000    639.0051      5.3447    124.6291
  1271.2500      0.0000    647.0740      5.3335    129.2366
  1271.5000      0.0000    656.2500      5.3357    132.7846
  1271.7500      0.0000    664.0139      5.3584    133.8105
  1272.0000      0.0000    670.1327      5.3892    132.2473
  1272.2500      0.0000    675.4302      5.4087    128.9474
  1272.5000      0.0000    680.5350      5.4031    124.9326
  1272.7500      0.0000    685.0655      5.3687    121.2491
  1273.0000      0.0000    687.5799      5.3077    118.6854
  1273.2500      0.0000    687.1453      5.2250    116.8349
  1273.5000      0.0000    685.1995      5.1279    113.9459
  1273.7500      0.0000    684.9404      5.0278    108.5174
  1274.0000      0.0000    688.5618      4.9379    101.0177
  1274.2500      0.0000    695.5765      4.8683     93.8515
  1274.5000      0.0000    703.4988      4.8245     89.8104
  1274.7500      0.0000    709.2946      4.8051     90.2276
  1275.0000      0.0000    710.6622      4.8009     94.0322
  1275.2500      0.0000    707.3846      4.7954     98.4817
  1275.5000      0.0000    701.8331      4.7719    101.0939
  1275.7500      0.0000    697.6581      4.7219    101.0421
  1276.0000      0.0000    697.7958      4.6497     98.9068
  1276.2500      0.0000    703.1336      4.5715     95.5486
  1276.5000      0.0000    712.0629      4.5093     91.6519
  1276.7500      0.0000    721.3455      4.4825     88.2489
  1277.0000      0.0000    728.1345      4.4994     86.9451
  1277.2500      0.0000    731.3210      4.5542     88.8993
  1277.5000      0.0000    730.9240      4.6306     93.5890
  1277.7500      0.0000    726.7698      4.7072     98.8980
  1278.0000      0.0000    718.4136      4.7618    102.6244
  1278.2500      0.0000    706.5135      4.7783    104.0911
  1278.5000      0.0000    693.8754      4.7533    104.5228
  1278.7500      0.0000    684.3008      4.6977    105.8591
  1279.0000      0.0000    679.6235      4.6302    109.0034
  1279.2500      0.0000    677.5508      4.5674    113.1963
  1279.5000      0.0000    672.6584      4.5194    117.3077
  1279.7500      0.0000    660.5412      4.4930    121.5313
  1280.0000      0.0000    642.2041      4.4945    127.1627
  1280.2500      0.0000    624.3563      4.5255    134.5147
  1280.5000      0.0000    614.3115      4.5756    141.4826
  1280.7500      0.0000    614.1871      4.6252    144.6333
  1281.0000      0.0000    620.3226      4.6598    141.8167
  1281.2500      0.0000    627.2043      4.6789    133.7848
  1281.5000      0.0000    630.8582      4.6901    123.5430
  1281.7500      0.0000    630.1976      4.6978    114.2418
  1282.0000      0.0000    627.6200      4.7011    107.3749
  1282.2500      0.0000    628.0848      4.6991    102.5418
  1282.5000      0.0000    635.9167      4.6953     98.6378
  1282.7500      0.0000    651.8719      4.6959     95.0421
  1283.0000      0.0000    672.9406      4.7039     91.8702
  1283.2500      0.0000    693.9933      4.7167     89.6579
  1283.5000      0.0000    709.5953      4.7290     88.8576
  1283.7500      0.0000    715.4495      4.7362     89.1752
  1284.0000      0.0000    709.0084      4.7368     89.4831
  1284.2500      0.0000    689.4849      4.7322     88.6933
  1284.5000      0.0000    658.3553      4.7247     86.5868
  1284.7500      0.0000    620.3812      4.7173     83.8712
  1285.0000      0.0000    583.5094      4.7140     81.9607
  1285.2500      0.0000    556.5720      4.7226     82.6313
  1285.5000      0.0000    546.1428      4.7504     87.0665
  1285.7500      0.0000    554.5016      4.7949     94.6080
  1286.0000      0.0000    578.9799      4.8385    102.4034
  1286.2500      0.0000    612.5890      4.8575    106.8446
  1286.5000      0.0000    646.7277      4.8405    105.9611
  1286.7500      0.0000    675.1506      4.7982    100.5779
  1287.0000      0.0000    696.0441      4.7571     93.2103
  1287.2500      0.0000    710.7253      4.7418     86.2592
  1287.5000      0.0000    720.9563      4.7603     81.3481
  1287.7500      0.0000    727.5247      4.8041     79.4569
  1288.0000      0.0000    730.4506      4.8616     80.8321
  1288.2500      0.0000    729.7264      4.9264     84.8582
  1288.5000      0.0000    725.9133      4.9941     90.4987
  1288.7500      0.0000    720.4312      5.0566     96.9808
  1289.0000      0.0000    715.0145      5.1054    104.1455
  1289.2500      0.0000    710.3782      5.1345    112.1647
  1289.5000      0.0000    705.5635      5.1373    120.9013
  1289.7500      0.0000    699.0528      5.1064    129.5945
  1290.0000      0.0000    690.5176      5.0422    137.1397
  1290.2500      0.0000    681.3536      4.9594    142.4274
  1290.5000      0.0000    673.6508      4.8796    144.4125
  1290.7500      0.0000    668.8169      4.8176    142.4304
  1291.0000      0.0000    667.1943      4.7771    136.8566
  1291.2500      0.0000    668.6620      4.7551    129.3601
  1291.5000      0.0000    673.0267      4.7493    122.2803
  1291.7500      0.0000    679.5981      4.7613    117.5079
  1292.0000      0.0000    686.7446      4.7948    115.7313
  1292.2500      0.0000    692.4548      4.8516    116.6401
  1292.5000      0.0000    695.4741      4.9280    119.6462
  1292.7500      0.0000    695.8376      5.0146    124.1843
  1293.0000      0.0000    694.5813      5.0989    129.6191
  1293.2500      0.0000    693.2688      5.1708    135.2355
  1293.5000      0.0000    693.4418      5.2266    140.3709
  1293.7500      0.0000    695.8247      5.2687    144.5536
  1294.0000      0.0000    699.8097      5.3027    147.8356
  1294.2500      0.0000    703.7338      5.3338    151.0626
  1294.5000      0.0000    705.6622      5.3619    155.2483
  1294.7500      0.0000    704.4614      5.3789    160.3222
  1295.0000      0.0000    700.8328      5.3726    165.1516
  1295.2500      0.0000    696.7411      5.3335    169.1935
  1295.5000      0.0000    692.5344      5.2562    173.2394
  1295.7500      0.0000    685.1217      5.1381    177.9201
  1296.0000      0.0000    671.4728      4.9823    182.3810
  1296.2500      0.0000    655.0120      4.8103    185.0922
  1296.5000      0.0000    646.4756      4.6633    185.2296
  1296.7500      0.0000    655.8238      4.5711    182.6358
  1297.0000      0.0000    683.1943      4.5164    176.8507
  1297.2500      0.0000    718.9178      4.4532    167.0824
  1297.5000      0.0000    751.9765      4.3622    153.6832
  1297.7500      0.0000    776.9699      4.2676    139.1817
  1298.0000     -2.0000    793.3503      4.2052    126.8640
