~Version Information
VERS.                      2.0: CWLS Log ASCII Standard - VERSION 2.0
WRAP.                       NO: One line per depth step
~Well Information Block
STRT.FT               673.2000: 
STOP.FT              1510.5000: 
STEP.FT                 0.1000: 
NULL.                -999.2500: 
COMP.          Pioneer Natural Resources: COMPANY
WELL.          Hammerhead 24-24 Tr: WELL
FLD.           Purgatoire River: FIELD
LOC.           953' FSL & 1922' FWL: LOCATION
PROV.                 Colorado: PROVINCE
CNTY.               Las Animas: COUNTRY
SRVC.                Patterson: SERVICE COMPANY
DATE.          Mon Jan 30 07:27:57 2006: LOG DATE
UWI.           05 071 08669 00: UNIQUE WELL ID
~Curve Information Block
DEPT.FT            0 000 00 00: Depth
DCAL.in                       : CDL Caliper
RHOB.g/cc                     : CDL Bulk Density
RHOC.g/cc                     : CDL Density Correction
DPOR.pu                       : CDL Density Porosity
GR.GAPI                       : Gamma Ray
~Parameter Information Block
~A  Depth       DCAL        RHOB        RHOC        DPOR         GR     
# ...
  1334.0000      7.9526      2.4515      0.0861     12.0276    159.7591
  1334.1000      7.9526      2.4225      0.0548     13.7858    154.6837
  1334.2000      7.9526      2.3711     -0.0131     16.9004    147.6260
  1334.3000      7.9516      2.3101     -0.0185     20.6024    138.9750
  1334.4000      7.9516      2.2387     -0.0151     24.9264    128.4622
  1334.5000      7.9518      2.1564     -0.0722     29.9159    114.1599
  1334.6000      7.9518      2.0792     -0.0943     34.5962    101.6354
  1334.7000      7.9518      2.0055     -0.0597     39.0624    101.5281
  1334.8000      7.9530      1.9119     -0.0442     44.7344    110.4253
  1334.9000      7.9530      1.8131     -0.1237     50.7218    115.0102
  1335.0000      7.9509      1.7653     -0.1424     53.6156    113.2334
  1335.1000      7.9509      1.7901     -0.0404     52.1152    112.2519
  1335.2000      7.9509      1.8557      0.0337     48.1411    115.1033
  1335.3000      7.9367      1.9355      0.0554     43.3040    119.1903
  1335.4000      7.9367      2.0346      0.0969     37.2945    121.2626
  1335.5000      7.9109      2.1612      0.1671     29.6214    121.1639
  1335.6000      7.9109      2.3015      0.2431     21.1223    121.1968
  1335.7000      7.9109      2.4218      0.2519     13.8280    123.9997
  1335.8000      7.8939      2.4953      0.2259      9.3784    130.4149
  1335.9000      7.8939      2.5314      0.0895      7.1860    137.7956
  1336.0000      7.8886      2.5572      0.1009      5.6229    140.5463
  1336.1000      7.8886      2.5790      0.0998      4.3049    138.0528
  1336.2000      7.8886      2.5938      0.0881      3.4036    133.1133
  1336.3000      7.8872      2.6013      0.0831      2.9522    126.2045
  1336.4000      7.8872      2.5943      0.1380      3.3781    120.9769
  1336.5000      7.8869      2.5749      0.0730      4.5488    122.6477
  1336.6000      7.8869      2.5654      0.0498      5.1266    128.1373
  1336.7000      7.8869      2.5721      0.0615      4.7239    130.2002
  1336.8000      7.8868      2.5744      0.0841      4.5796    128.7221
  1336.9000      7.8868      2.5603      0.0463      5.4342    131.5269
  1337.0000      7.9338      2.5453      0.0327      6.3462    143.2660
  1337.1000      7.9338      2.5494      0.0316      6.0988    154.7202
  1337.2000      7.9338      2.5637      0.0573      5.2301    158.0341
  1337.3000      7.9329      2.5578      0.0913      5.5869    159.8235
  1337.4000      7.9329      2.5212      0.0493      7.8079    162.7213
  1337.5000      7.9324      2.4781     -0.0372     10.4202    162.8586
  1337.6000      7.9324      2.4567     -0.0021     11.7166    160.7078
  1337.7000      7.9324      2.4608     -0.0036     11.4644    156.1190
  1337.8000      7.9326      2.4792      0.0376     10.3493    149.1187
  1337.9000      7.9326      2.5052      0.0109      8.7742    144.6353
  1338.0000      7.9329      2.5387      0.0542      6.7458    145.3187
  1338.1000      7.9329      2.5656      0.0859      5.1165    144.4536
  1338.2000      7.9329      2.5664      0.0551      5.0689    138.3791
  1338.3000      7.9322      2.5463      0.0480      6.2837    132.9048
  1338.4000      7.9322      2.5280      0.0383      7.3911    128.6303
  1338.5000      7.9310      2.5256      0.0001      7.5369    119.0420
  1338.6000      7.9310      2.5360      0.0573      6.9112    108.4326
  1338.7000      7.9310      2.5467      0.0285      6.2605    107.0456
  1338.8000      7.9309      2.5469      0.0554      6.2483    112.7468
  1338.9000      7.9309      2.5313      0.0577      7.1948    118.8231
  1339.0000      7.9314      2.5131      0.0188      8.2996    122.8460
  1339.1000      7.9314      2.5111      0.0183      8.4196    123.4841
  1339.2000      7.9314      2.5216      0.0541      7.7821    121.7854
  1339.3000      7.9321      2.5309      0.0088      7.2189    117.5200
  1339.4000      7.9321      2.5360      0.0582      6.9070    111.1045
  1339.5000      7.9322      2.5353      0.0537      6.9529    108.6502
  1339.6000      7.9322      2.5286      0.0042      7.3605    110.5676
  1339.7000      7.9322      2.5213      0.0937      7.7982    107.8421
  1339.8000      7.9316      2.5173      0.0140      8.0426     99.0411
  1339.9000      7.9316      2.5161      0.0424      8.1137     91.8426
  1340.0000      7.9306      2.5129      0.0282      8.3105     88.2763
  1340.1000      7.9306      2.5116      0.0062      8.3897     85.4050
  1340.2000      7.9306      2.5165      0.0513      8.0906     81.1332
  1340.3000      7.9306      2.5179      0.0257      8.0078     77.1415
  1340.4000      7.9306      2.5120      0.0385      8.3638     79.4506
  1340.5000      7.9317      2.5068      0.0113      8.6797     90.4820
  1340.6000      7.9317      2.5056      0.0519      8.7485    101.5763
  1340.7000      7.9317      2.5055      0.0215      8.7568    105.2829
  1340.8000      7.9327      2.5066      0.0160      8.6920    104.5945
  1340.9000      7.9327      2.5061      0.0385      8.7184    104.3251
  1341.0000      7.9327      2.5023      0.0287      8.9516    106.5092
  1341.1000      7.9327      2.5002      0.0265      9.0760    109.6014
  1341.2000      7.9327      2.5004      0.0135      9.0679    113.1248
  1341.3000      7.9315      2.4995      0.0351      9.1202    120.2912
  1341.4000      7.9315      2.5029      0.0003      8.9151    129.4633
  1341.5000      7.9289      2.5208     -0.0024      7.8281    136.1903
  1341.6000      7.9289      2.5466      0.0579      6.2667    139.0652
  1341.7000      7.9289      2.5618      0.0482      5.3461    137.5473
  1341.8000      7.9281      2.5678      0.0020      4.9832    137.5522
  1341.9000      7.9281      2.5820     -0.0028      4.1213    146.3341
  1342.0000      7.9296      2.6063      0.0347      2.6457    158.6818
  1342.1000      7.9296      2.6198      0.1015      1.8317    162.4760
  1342.2000      7.9296      2.6053      0.0724      2.7091    155.0061
  1342.3000      7.9310      2.5718      0.0402      4.7419    145.4230
  1342.4000      7.9310      2.5407      0.0436      6.6222    141.9533
  1342.5000      7.9303      2.5293     -0.0188      7.3140    144.1190
  1342.6000      7.9303      2.5445      0.0271      6.3916    146.4310
  1342.7000      7.9303      2.5733      0.0673      4.6500    147.2124
  1342.8000      7.9291      2.5910      0.0678      3.5786    146.6408
  1342.9000      7.9291      2.5856      0.0809      3.9058    146.4913
  1343.0000      7.9291      2.5689      0.0150      4.9159    150.0944
  1343.1000      7.9291      2.5626      0.0365      5.2945    154.0257
  1343.2000      7.9291      2.5673      0.0815      5.0122    155.0025
  1343.3000      7.9292      2.5715      0.0516      4.7570    153.2688
  1343.4000      7.9292      2.5784      0.0643      4.3373    149.5970
  1343.5000      7.9295      2.5910      0.0642      3.5758    147.4361
  1343.6000      7.9295      2.5991      0.0861      3.0853    149.8529
  1343.7000      7.9295      2.5973      0.0368      3.1915    154.8074
  1343.8000      7.9313      2.5891      0.0695      3.6935    160.4413
  1343.9000      7.9313      2.5741      0.0322      4.6025    166.8584
  1344.0000      7.9327      2.5599      0.0127      5.4598    171.9272
  1344.1000      7.9327      2.5612      0.0215      5.3803    175.3739
  1344.2000      7.9327      2.5781      0.0663      4.3605    177.6492
  1344.3000      7.9311      2.5956      0.0435      3.2992    175.4928
  1344.4000      7.9311      2.6033      0.0271      2.8332    168.4861
  1344.5000      7.9290      2.5940      0.0571      3.3970    161.3254
  1344.6000      7.9290      2.5661      0.0040      5.0865    155.6785
  1344.7000      7.9290      2.5399     -0.0263      6.6728    150.7677
  1344.8000      7.9279      2.5321      0.0198      7.1485    146.8748
  1344.9000      7.9279      2.5347      0.0429      6.9859    143.8722
  1345.0000      7.9273      2.5398      0.0379      6.6772    139.9744
  1345.1000      7.9273      2.5481      0.0265      6.1754    134.4498
