~Version Information
VERS.                      2.0: CWLS Log ASCII Standard - VERSION 2.0
WRAP.                       NO: One line per depth step
~Well Information Block
STRT.FT                -7.7500: 
STOP.FT              1420.5000: 
STEP.FT                 0.2500: 
NULL.                -999.2500: 
COMP.          Pioneer Natural Resources: COMPANY
WELL.          Parklane 43-34 Tr: WELL
FLD.           Purgatorie River: FIELD
LOC.           1643' FSL & 966' FEL--: LOCATION
PROV.                       CO: PROVINCE
CNTY.               Las Animas: COUNTRY
SRVC.          Patterson Wireline: SERVICE COMPANY
DATE.          Tue Aug 02 11:35:27 2005: LOG DATE
UWI.           05 071 08452 00: UNIQUE WELL ID
~Curve Information Block
DEPT.FT            0 000 00 00: Depth
CCL.                          : Casing Collar Locator
TT3.usec                      : CBL 3' Travel Time
AMP3.mV                       : CBL 3' Amplitude
GR.GAPI                       : Gamma Ray
~Parameter Information Block
~A  Depth       CCL         TT3         AMP3         GR     
# ...
   829.7500      0.0000    843.4105     11.4905     86.6522
   830.0000      0.0000    846.0753     11.5682     93.2442
   830.2500      0.0000    846.9742     11.6309    101.4615
   830.5000      0.0000    847.2239     11.6873    108.9002
   830.7500      0.0000    847.3085     11.7367    114.1291
   831.0000      0.0000    847.2609     11.7662    117.2541
   831.2500      0.0000    846.8206     11.7621    119.4897
   831.5000      0.0000    845.4059     11.7219    121.8343
   831.7500      0.0000    842.0452     11.6539    123.9497
   832.0000      0.0000    835.6943     11.5708    124.5278
   832.2500      0.0000    826.1480     11.4834    122.7243
   832.5000      0.0000    815.0273     11.3993    119.0301
   832.7500      0.0000    805.7457     11.3223    115.1465
   833.0000      0.0000    801.9201     11.2506    113.4080
   833.2500      0.0000    805.1504     11.1784    115.5521
   833.5000      0.0000    813.9492     11.1001    121.0629
   833.7500      0.0000    824.7481     11.0139    126.9623
   834.0000      0.0000    834.1570     10.9219    129.9758
   834.2500      0.0000    840.7073     10.8277    129.0611
   834.5000      0.0000    845.0233     10.7337    125.8003
   834.7500      0.0000    848.6617     10.6386    122.8262
   835.0000      0.0000    852.5499     10.5384    122.2484
   835.2500      0.0000    856.0610     10.4305    124.8697
   835.5000      0.0000    857.5775     10.3175    129.7986
   835.7500      0.0000    856.2321     10.2083    134.9142
   836.0000      0.0000    852.9365     10.1143    138.5919
   836.2500      0.0000    849.5047     10.0431    141.0821
   836.5000      0.0000    847.1061      9.9927    143.7131
   836.7500      0.0000    845.7050      9.9521    146.8957
   837.0000      0.0000    844.4254      9.9087    149.6439
   837.2500      0.0000    841.8469      9.8539    150.9606
   837.5000      0.0000    836.1947      9.7862    150.5816
   837.7500      0.0000    826.0452      9.7102    148.1566
   838.0000      0.0000    811.3462      9.6365    143.0123
   838.2500      0.0000    793.5510      9.5788    135.3097
   838.5000      0.0000    774.8222      9.5478    126.4344
   838.7500      0.0000    757.7394      9.5423    117.7386
   839.0000      0.0000    745.6946      9.5505    109.7187
   839.2500      0.0000    742.2869      9.5616    102.8270
   839.5000      0.0000    749.2444      9.5753     98.2955
   839.7500      0.0000    764.6216      9.5941     97.4419
   840.0000      0.0000    783.2418      9.6126    100.2247
   840.2500      0.0000    799.5754      9.6198    104.8970
   840.5000      0.0000    810.7919      9.6158    109.4083
   840.7500      0.0000    817.4977      9.6188    113.1247
   841.0000      0.0000    822.2324      9.6489    117.0387
   841.2500      0.0000    827.3011      9.7077    122.4492
   841.5000      0.0000    833.2540      9.7789    129.5374
   841.7500      0.0000    838.8605      9.8494    136.7060
   842.0000      0.0000    842.4488      9.9211    141.0431
   842.2500      0.0000    843.2194     10.0032    140.2889
   842.5000      0.0000    841.5593     10.0998    135.1049
   842.7500      0.0000    838.5871     10.2062    128.9643
   843.0000      0.0000    835.1871     10.3102    125.2367
   843.2500      0.0000    831.0886     10.3934    124.5300
   843.5000      0.0000    825.4096     10.4405    124.9109
   843.7500      0.0000    818.6570     10.4521    124.2219
   844.0000      0.0000    813.4453     10.4481    122.0813
   844.2500      0.0000    812.5286     10.4484    119.9408
   844.5000      0.0000    816.5672     10.4384    119.2892
   844.7500      0.0000    824.0087     10.3537    119.9099
   845.0000      0.0000    831.9042     10.1086    120.1274
   845.2500      0.0000    836.7419      9.6713    118.6336
   845.5000      0.0000    836.6503      9.1401    115.9313
   845.7500      0.0000    834.7864      8.7188    114.0925
   846.0000      0.0000    839.5947      8.5493    115.0021
   846.2500      0.0000    858.4032      8.5737    118.5182
   846.5000      0.0000    888.7441      8.6198    122.5186
   846.7500      0.0000    917.5172      8.5985    125.0460
   847.0000      0.0000    931.2550      8.5498    126.2525
   847.2500      0.0000    927.1494      8.5316    127.9665
   847.5000      2.0000    912.0728      8.5485    131.3943
   847.7500      0.0000    892.2666      8.5794    135.6422
   848.0000      0.0000    868.4268      8.6336    138.7369
   848.2500      0.0000    841.0069      8.7730    139.6396
   848.5000      0.0000    815.6196      9.0742    138.6473
   848.7500      0.0000    800.3784      9.5410    136.2595
   849.0000      0.0000    798.9878     10.0610    132.7020
   849.2500      0.0000    808.1022     10.4868    128.4764
   849.5000      0.0000    820.7524     10.7470    124.3649
   849.7500      0.0000    830.9092     10.8575    120.6530
   850.0000      0.0000    835.3885     10.8609    116.8591
   850.2500      0.0000    833.5975     10.7931    112.4115
   850.5000      0.0000    826.7228     10.6842    107.3121
   850.7500      0.0000    816.7774     10.5624    101.7979
   851.0000      0.0000    805.6792     10.4541     95.5205
   851.2500      0.0000    795.0485     10.3809     87.7473
   851.5000      0.0000    786.5182     10.3493     78.6831
   851.7500      0.0000    781.5931     10.3422     70.0836
   852.0000      0.0000    780.9677     10.3308     64.2016
   852.2500      0.0000    783.9611     10.2985     62.5399
   852.5000      0.0000    788.6135     10.2522     65.5937
   852.7500      0.0000    792.8091     10.2078     72.8096
   853.0000      0.0000    795.8614     10.1716     82.3653
   853.2500      0.0000    798.7074     10.1375     91.6496
   853.5000      0.0000    802.3789     10.0988     98.6131
   853.7500      0.0000    807.0918     10.0576    102.7561
   854.0000      0.0000    813.0001     10.0245    104.9092
   854.2500      0.0000    820.4697     10.0106    106.4109
   854.5000      0.0000    828.9956     10.0211    108.4182
   854.7500      0.0000    836.8669     10.0542    111.3296
   855.0000      0.0000    842.5021     10.1032    114.4460
   855.2500      0.0000    845.6249     10.1590    116.4109
   855.5000      0.0000    846.9861     10.2109    116.2665
   855.7500      0.0000    847.4622     10.2478    114.2447
   856.0000      0.0000    847.5483     10.2615    111.7285
   856.2500      0.0000    847.3224     10.2493    110.4514
   856.5000      0.0000    846.5370     10.2138    111.3779
   856.7500      0.0000    844.8101     10.1612    114.1868
   857.0000      0.0000    842.0432     10.0961    117.9164
   857.2500      0.0000    838.7986     10.0200    121.6813
   857.5000      0.0000    836.0649      9.9344    124.6260
   857.7500      0.0000    834.5139      9.8434    126.1819
   858.0000      0.0000    834.1898      9.7526    126.9909
   858.2500      0.0000    834.7897      9.6656    128.6419
   858.5000      0.0000    835.7806      9.5827    131.7399
   858.7500      0.0000    836.4984      9.5038    135.0673
   859.0000      0.0000    836.8248      9.4280    137.4047
   859.2500      0.0000    837.5497      9.3533    139.3026
   859.5000      0.0000    839.4510      9.2808    141.9335
   859.7500      0.0000    842.2416      9.2178    144.6267
   860.0000      0.0000    844.8676      9.1733    144.8591
   860.2500      0.0000    846.5377      9.1493    140.9823
   860.5000      0.0000    847.0393      9.1380    134.2105
   860.7500      0.0000    846.2215      9.1282    127.6372
   861.0000      0.0000    843.5468      9.1148    123.7971
   861.2500      0.0000    838.3725      9.1008    123.1779
   861.5000      0.0000    830.8270      9.0927    124.4551
   861.7500      0.0000    822.3333      9.0945    125.7690
   862.0000      0.0000    814.9396      9.1048    125.8606
   862.2500      0.0000    809.9534      9.1193    124.3925
   862.5000      0.0000    807.3098      9.1328    121.8170
   862.7500      0.0000    806.1421      9.1423    119.2744
   863.0000      0.0000    805.6621      9.1485    118.2937
