~Version Information
VERS.                      2.0: CWLS Log ASCII Standard - VERSION 2.0
WRAP.                       NO: One line per depth step
~Well Information Block
STRT.FT               260.0000: 
STOP.FT               713.2500: 
STEP.FT                 0.2500: 
NULL.                -999.2500: 
COMP.          Pioneer Natural Resources: COMPANY
WELL.           Quintessa 23-7: WELL
FLD.           Purgatoire River: FIELD
LOC.           1964' FSL & 2589' FWL--: LOCATION
PROV.                 Colorado: PROVINCE
CNTY.               Las Animas: COUNTRY
SRVC.                Patterson: SERVICE COMPANY
DATE.          Fri Nov 18 16:07:34 2005: LOG DATE
UWI.           05 071 08558 00: UNIQUE WELL ID
~Curve Information Block
DEPT.FT            0 000 00 00: Depth
SN.Ohm-m                      : IEL Short Normal
SP.mV                         : IEL Spontaneous Potential
DIR.Ohm-m                     : IEL Induction Resistivity
GR.GAPI                       : Gamma Ray
~Parameter Information Block
~A  Depth        SN          SP         DIR          GR     
# ...
   327.0000     12.3581    114.1596     11.0660    125.5022
   327.2500     12.3302    114.2514     11.0773    124.8344
   327.5000     12.2511    114.3636     11.0771    123.7071
   327.7500     12.1547    114.4962     11.0683    122.4417
   328.0000     12.0791    114.6485     11.0471    119.2613
   328.2500     12.0377    114.8199     11.0078    116.6206
   328.5000     12.0116    115.0094     10.9476    113.4393
   328.7500     11.9730    115.2161     10.8690    112.7673
   329.0000     11.9084    115.4390     10.7781    114.4671
   329.2500     11.8170    115.6767     10.6808    116.8846
   329.5000     11.7039    115.9271     10.5797    120.6980
   329.7500     11.5795    116.1876     10.4738    122.5104
   330.0000     11.4521    116.4548     10.3591    123.8811
   330.2500     11.3168    116.7242     10.2300    124.3565
   330.5000     11.1586    116.9905     10.0797    125.1168
   330.7500     10.9680    117.2474      9.9032    125.5335
   331.0000     10.7500    117.4881      9.7005    125.3661
   331.2500     10.5218    117.7055      9.4771    124.7216
   331.5000     10.3062    117.8921      9.2428    123.8264
   331.7500     10.1241    118.0405      9.0091    123.7785
   332.0000      9.9868    118.1436      8.7877    124.6836
   332.2500      9.8904    118.1943      8.5908    125.7769
   332.5000      9.8179    118.1862      8.4311    127.8905
   332.7500      9.7522    118.1136      8.3210    129.4119
   333.0000      9.6908    117.9720      8.2702    131.1559
   333.2500      9.6498    117.7582      8.2830    131.4653
   333.5000      9.6542    117.4715      8.3570    130.2445
   333.7500      9.7191    117.1136      8.4840    128.4692
   334.0000      9.8365    116.6889      8.6539    125.0453
   334.2500      9.9845    116.2048      8.8602    122.7034
   334.5000     10.1549    115.6710      9.1027    119.8135
   334.7500     10.3682    115.0986      9.3869    118.6457
   335.0000     10.6588    114.4990      9.7184    118.4503
   335.2500     11.0507    113.8822     10.0963    119.5025
   335.5000     11.5449    113.2560     10.5092    122.6974
   335.7500     12.1172    112.6244     10.9352    125.2475
   336.0000     12.7186    111.9875     11.3460    127.6133
   336.2500     13.2809    111.3413     11.7142    127.1996
   336.5000     13.7342    110.6783     12.0227    123.7907
   336.7500     14.0417    109.9885     12.2727    120.8021
   337.0000     14.2352    109.2613     12.4850    117.2326
   337.2500     14.4061    108.4872     12.6921    115.9488
   337.5000     14.6448    107.6597     12.9262    115.4090
   337.7500     14.9796    106.7773     13.2113    115.4527
   338.0000     15.3785    105.8450     13.5616    115.0067
   338.2500     15.8051    104.8753     13.9834    113.8433
   338.5000     16.2723    103.8888     14.4788    110.4213
   338.7500     16.8472    102.9134     15.0482    106.9913
   339.0000     17.6075    101.9831     15.6929    100.2342
   339.2500     18.5823    101.1358     16.4148     95.0498
   339.5000     19.7195    100.4103     17.2123     87.6065
   339.7500     20.9043     99.8430     18.0696     83.5097
   340.0000     22.0076     99.4648     18.9470     78.5825
   340.2500     22.9233     99.2982     19.7804     75.7020
   340.5000     23.5761     99.3550     20.4961     72.0936
   340.7500     23.9292     99.6352     21.0347     70.8458
   341.0000     24.0021    100.1270     21.3630     71.7496
   341.2500     23.8561    100.8069     21.4674     74.1301
   341.5000     23.5414    101.6420     21.3389     79.3301
   341.7500     23.0619    102.5921     20.9704     83.3557
   342.0000     22.3978    103.6121     20.3697     90.0049
   342.2500     21.5567    104.6550     19.5730     94.8131
   342.5000     20.5923    105.6749     18.6444    102.0393
   342.7500     19.5777    106.6286     17.6628    106.3017
   343.0000     18.5773    107.4786     16.7040    111.0863
   343.2500     17.6436    108.1941     15.8280    113.1488
   343.5000     16.8135    108.7527     15.0721    115.3126
   343.7500     16.0975    109.1407     14.4530    116.8847
   344.0000     15.4851    109.3541     13.9717    120.3257
   344.2500     14.9750    109.3979     13.6227    123.1373
   344.5000     14.5963    109.2858     13.4003    126.5156
   344.7500     14.3988    109.0393     13.3034    127.1172
   345.0000     14.4240    108.6857     13.3350    124.8981
   345.2500     14.6814    108.2566     13.4989    121.9681
   345.5000     15.1358    107.7857     13.7935    117.1143
   345.7500     15.7130    107.3064     14.2075    114.0977
   346.0000     16.3257    106.8505     14.7170    109.7893
   346.2500     16.9104    106.4461     15.2881    106.9653
   346.5000     17.4457    106.1166     15.8824    103.1389
   346.7500     17.9391    105.8799     16.4623    101.1283
   347.0000     18.3938    105.7482     16.9921     99.1600
   347.2500     18.7871    105.7274     17.4365     98.6426
   347.5000     19.0826    105.8176     17.7628     99.2677
   347.7500     19.2595    106.0129     17.9502    100.6615
   348.0000     19.3206    106.3020     18.0012    104.0095
   348.2500     19.2725    106.6687     17.9452    106.9356
   348.5000     19.1061    107.0931     17.8287    112.4026
   348.7500     18.7984    107.5529     17.6961    116.8134
   349.0000     18.3326    108.0255     17.5726    123.8476
   349.2500     17.7268    108.4898     17.4568    127.6458
   349.5000     17.0433    108.9283     17.3296    129.5691
   349.7500     16.3639    109.3290     17.1718    127.6658
   350.0000     15.7516    109.6859     16.9803    121.4711
   350.2500     15.2456    109.9995     16.7711    117.0771
   350.5000     14.8853    110.2759     16.5688    113.0151
   350.7500     14.7132    110.5250     16.3925    112.2949
   351.0000     14.7335    110.7590     16.2458    112.2528
   351.2500     14.8788    110.9901     16.1139    111.4780
   351.5000     15.0347    111.2286     15.9686    108.5695
   351.7500     15.1006    111.4821     15.7790    106.3613
   352.0000     15.0386    111.7542     15.5234    104.5272
   352.2500     14.8816    112.0453     15.1972    104.6510
   352.5000     14.6978    112.3520     14.8119    106.3198
   352.7500     14.5318    112.6685     14.3894    108.0954
   353.0000     14.3734    112.9872     13.9552    111.7642
   353.2500     14.1822    113.2993     13.5329    114.9150
   353.5000     13.9392    113.5960     13.1420    120.0430
   353.7500     13.6669    113.8691     12.7966    122.9718
   354.0000     13.4064    114.1115     12.5063    125.4548
   354.2500     13.1849    114.3181     12.2763    125.5794
   354.5000     13.0087    114.4862     12.1085    123.9142
   354.7500     12.8752    114.6154     12.0017    122.2006
   355.0000     12.7819    114.7082     11.9512    119.7531
   355.2500     12.7276    114.7694     11.9472    118.3737
   355.5000     12.7092    114.8064     11.9759    116.2173
   355.7500     12.7211    114.8276     12.0235    114.4287
   356.0000     12.7585    114.8430     12.0811    111.3526
   356.2500     12.8190    114.8626     12.1452    109.4341
   356.5000     12.8985    114.8961     12.2139    107.4119
   356.7500     12.9852    114.9521     12.2819    106.8422
   357.0000     13.0593    115.0379     12.3405    107.2988
   357.2500     13.1045    115.1588     12.3814    108.4813
   357.5000     13.1185    115.3178     12.3988    111.2866
   357.7500     13.1097    115.5163     12.3879    113.4057
   358.0000     13.0813    115.7534     12.3414    115.8208
   358.2500     13.0216    116.0270     12.2494    116.2956
   358.5000     12.9096    116.3335     12.1023    115.0273
   358.7500     12.7323    116.6687     11.8947    113.4123
   359.0000     12.5013    117.0273     11.6288    111.5502
   359.2500     12.2497    117.4035     11.3158    111.4705
   359.5000     12.0080    117.7905     10.9749    113.1701
   359.7500     11.7831    118.1802     10.6301    115.0072
   360.0000     11.5641    118.5630     10.3049    118.1227
   360.2500     11.3398    118.9275     10.0161    120.4212
