~Version Information
VERS.                      2.0: CWLS Log ASCII Standard - VERSION 2.0
WRAP.                       NO: One line per depth step
~Well Information Block
STRT.FT               330.0000: 
STOP.FT              1923.5000: 
STEP.FT                 0.1000: 
NULL.                -999.2500: 
COMP.          Pioneer Natural Resources: COMPANY
WELL.          State Wildlife 32-16 Tr: WELL
FLD.           Purgatoire River: FIELD
LOC.           1838' FNL & 1850' FEL: LOCATION
STAT.                 Colorado: State
CNTY.               Las Animas: COUNTY
CTRY. USA : Country
SECT. 16 : Section
TOWN. 32S : Township
RANG. 66W : Range
SRVC.                Patterson: SERVICE COMPANY
DATE.          Mon Nov 14 07:20:48 2005: LOG DATE
API.           05 071 08568 00: UNIQUE WELL ID
~Curve Information Block
DEPT.FT            0 000 00 00: Depth
DCAL.in                       : CDL Caliper
RHOB.g/cc                     : CDL Bulk Density
RHOC.g/cc                     : CDL Density Correction
DPOR.pu                       : CDL Density Porosity
GR.GAPI                       : Gamma Ray
NPOR.pu                       : Neutron Porosity
~Parameter Information Block
~A  Depth       DCAL        RHOB        RHOC        DPOR         GR         NPOR    
# ...
   646.8000      8.1916      2.5819      0.0347      4.1280    129.8556     28.2151
   646.9000      8.1916      2.5808      0.0317      4.1934    136.0068     28.1161
   647.0000      8.1899      2.5774      0.0588      4.4023    137.3622     28.0853
   647.1000      8.1899      2.5663      0.0510      5.0699    138.7266     27.7956
   647.2000      8.1899      2.5526     -0.0276      5.9005    147.6395     27.1694
   647.3000      8.1877      2.5482      0.0345      6.1708    161.7395     27.0871
   647.4000      8.1877      2.5508      0.0065      6.0103    172.1440     27.7133
   647.5000      8.1887      2.5572      0.0326      5.6262    171.8421     28.0848
   647.6000      8.1887      2.5644      0.0222      5.1869    163.8065     27.8357
   647.7000      8.1887      2.5645     -0.0179      5.1811    157.4061     27.6329
   647.8000      8.2014      2.5573     -0.0120      5.6164    154.3389     28.0552
   647.9000      8.2014      2.5535      0.0018      5.8455    150.7632     28.7640
   648.0000      8.1993      2.5574      0.0201      5.6126    145.2392     29.1532
   648.1000      8.1993      2.5629      0.0273      5.2759    140.7873     29.0543
   648.2000      8.1993      2.5689      0.0076      4.9156    139.5777     28.6959
   648.3000      8.2010      2.5774      0.0159      4.3991    139.7247     28.3803
   648.4000      8.2010      2.5790      0.0751      4.3047    141.2122     28.1231
   648.5000      8.2025      2.5690      0.0040      4.9099    147.3200     27.9845
   648.6000      8.2025      2.5592      0.0541      5.5023    156.1866     27.9700
   648.7000      8.2025      2.5617     -0.0072      5.3512    159.1989     28.0270
   648.8000      8.2174      2.5801      0.0491      4.2343    156.0098     27.8867
   648.9000      8.2174      2.5967      0.0298      3.2288    154.5915     27.4130
   649.0000      8.2110      2.5907      0.0665      3.5958    155.0406     27.1203
   649.1000      8.2110      2.5675     -0.0038      5.0006    150.5033     27.2805
   649.2000      8.2110      2.5495     -0.0113      6.0913    141.7967     27.6009
   649.3000      8.2098      2.5418      0.0171      6.5574    139.3868     27.7122
   649.4000      8.2098      2.5448     -0.0549      6.3754    148.6944     27.5888
   649.5000      8.2088      2.5616      0.0253      5.3571    160.2736     27.4525
   649.6000      8.2088      2.5778      0.0233      4.3749    165.0227     27.4947
   649.7000      8.2088      2.5808      0.0210      4.1956    167.2983     27.8197
   649.8000      8.2040      2.5699      0.0453      4.8527    170.1090     28.3677
   649.9000      8.2040      2.5548      0.0341      5.7681    168.7436     29.0449
   650.0000      8.2033      2.5503      0.0157      6.0417    163.3609     29.4019
   650.1000      8.2033      2.5587      0.0236      5.5339    160.3122     28.9435
   650.2000      8.2033      2.5636      0.0980      5.2371    163.6461     28.0474
   650.3000      8.2223      2.5532      0.0287      5.8674    170.5540     27.3455
   650.4000      8.2223      2.5478     -0.0473      6.1927    175.1876     26.6827
   650.5000      8.2210      2.5650      0.0279      5.1514    174.0691     25.9372
   650.6000      8.2210      2.5822      0.0474      4.1121    170.4119     25.4603
   650.7000      8.2210      2.5746      0.0773      4.5704    169.2633     25.3409
   650.8000      8.2272      2.5539      0.0364      5.8268    167.8655     25.5568
   650.9000      8.2272      2.5421      0.0132      6.5418    163.0291     26.1647
   651.0000      8.2381      2.5347      0.0586      6.9909    158.6175     26.7428
   651.1000      8.2381      2.5218      0.0085      7.7723    159.6895     26.7238
   651.2000      8.2381      2.5142      0.0142      8.2321    164.5673     26.3479
   651.3000      8.2581      2.5145     -0.0182      8.2149    165.4763     26.2061
   651.4000      8.2581      2.5048      0.0369      8.7984    159.1923     26.4005
   651.5000      8.2863      2.4875     -0.0479      9.8490    153.2603     26.6066
   651.6000      8.2863      2.4914      0.0016      9.6140    155.5387     26.8790
   651.7000      8.2863      2.5114      0.0383      8.4029    160.3915     27.6326
   651.8000      8.2572      2.5165      0.0438      8.0885    159.4375     28.7225
   651.9000      8.2572      2.5071      0.0473      8.6621    155.2772     29.6215
   652.0000      8.2584      2.5050      0.0382      8.7870    156.8193     30.1567
   652.1000      8.2584      2.5255      0.0451      7.5458    166.0767     30.3244
   652.2000      8.2584      2.5615      0.1622      5.3628    175.7178     29.8884
   652.3000      8.1987      2.5918      0.0969      3.5277    178.9377     28.9762
   652.4000      8.1987      2.6081      0.1331      2.5390    175.6677     28.4101
   652.5000      8.1884      2.6097      0.1437      2.4404    168.8874     28.5166
   652.6000      8.1884      2.6061      0.1041      2.6635    162.8829     28.9269
   652.7000      8.1884      2.6114      0.1101      2.3372    159.7548     29.3600
   652.8000      8.1807      2.6130      0.1700      2.2415    158.0965     29.3777
   652.9000      8.1807      2.5942      0.0959      3.3807    155.8578     28.7806
   653.0000      8.1798      2.5702      0.0251      4.8351    154.6068     28.0843
   653.1000      8.1798      2.5578      0.0493      5.5873    155.1627     27.7424
   653.2000      8.1798      2.5558     -0.0114      5.7120    155.0033     27.8587
   653.3000      8.1778      2.5572      0.0298      5.6246    154.3237     28.2214
   653.4000      8.1778      2.5628     -0.0121      5.2863    151.3972     28.3727
   653.5000      8.1830      2.5778      0.0303      4.3730    144.4489     28.1194
   653.6000      8.1830      2.5844      0.0225      3.9729    134.5723     27.5086
   653.7000      8.1830      2.5660     -0.0237      5.0912    125.6159     26.7564
   653.8000      8.1786      2.5399     -0.0041      6.6748    123.2307     26.4206
   653.9000      8.1786      2.5255      0.0161      7.5443    127.4513     26.7647
   654.0000      8.1750      2.5274     -0.0125      7.4283    134.9207     27.0772
   654.1000      8.1750      2.5431      0.0156      6.4808    142.1555     26.7194
   654.2000      8.1750      2.5597      0.0343      5.4703    142.2947     26.1772
   654.3000      8.1773      2.5657      0.0456      5.1081    136.4145     26.0199
   654.4000      8.1773      2.5646     -0.0007      5.1745    135.6712     26.1860
   654.5000      8.1762      2.5620      0.0199      5.3329    141.9268     26.5754
   654.6000      8.1762      2.5589      0.0188      5.5230    148.0347     27.0241
   654.7000      8.1762      2.5655      0.0078      5.1205    150.7289     27.3075
   654.8000      8.1735      2.5880      0.0646      3.7554    150.6664     27.3157
   654.9000      8.1735      2.6121      0.0631      2.2963    146.6141     27.0001
   655.0000      8.1783      2.6175      0.0808      1.9711    141.7158     26.6077
   655.1000      8.1783      2.5973      0.0347      3.1970    143.2472     26.4304
   655.2000      8.1783      2.5678      0.0460      4.9848    148.4088     26.5659
   655.3000      8.1794      2.5488      0.0105      6.1335    149.8012     26.8531
   655.4000      8.1794      2.5396      0.0392      6.6908    148.0847     26.8788
   655.5000      8.1781      2.5353      0.0027      6.9509    147.4002     26.4105
   655.6000      8.1781      2.5449      0.0196      6.3721    147.7651     25.9191
   655.7000      8.1781      2.5696      0.0561      4.8734    147.1125     25.9662
   655.8000      8.1753      2.5939      0.0422      3.3975    145.3952     26.2041
   655.9000      8.1753      2.6004      0.0860      3.0036    144.0597     26.0335
   656.0000      8.1758      2.5867      0.0514      3.8384    144.0096     25.5048
   656.1000      8.1758      2.5626      0.0333      5.2987    144.3104     25.1363
   656.2000      8.1758      2.5284      0.0282      7.3724    143.3742     25.1591
   656.3000      8.1758      2.4860     -0.0114      9.9410    141.3522     25.4097
