~Version Information
VERS.                      2.0: CWLS Log ASCII Standard - VERSION 2.0
WRAP.                       NO: One line per depth step
~Well Information Block
STRT.FT                 0.0000: 
STOP.FT              1871.2500: 
STEP.FT                 0.2500: 
NULL.                -999.2500: 
COMP.          Petrogulf Corporation: COMPANY
WELL.             Norton 9-14R: WELL
FLD.           Purgatorie River: FIELD
LOC.           725' FSL & 1103' FWL: LOCATION
STAT.                 Colorado: State
CNTY.               Las Animas: COUNTY
CTRY. USA : Country
SECT. 9 : Section
TOWN. 33S : Township
RANG. 67W : Range
SRVC.                Patterson: SERVICE COMPANY
DATE.          Thu Nov 10 13:05:53 2005: LOG DATE
API. 05-071-08444                         : UNIQUE WELL ID
~Curve Information Block
DEPT.FT            0 000 00 00: Depth
CCL.                          : Casing Collar Locator
TT3.usec                      : CBL 3' Travel Time
AMP3.mV                       : CBL 3' Amplitude
GR.GAPI                       : Gamma Ray
~Parameter Information Block
~A  Depth       CCL         TT3         AMP3         GR     
# ...
   234.5000      0.0000    433.9783      9.3122     38.9907
   234.7500      0.0000    438.0600      9.1646     39.0460
   235.0000      0.0000    439.2976      9.0607     39.7686
   235.2500      0.0000    438.3503      8.9656     40.6934
   235.5000      0.0000    434.1519      8.8689     41.2878
   235.7500      0.0000    425.8270      8.7875     41.5184
   236.0000      0.0000    415.7033      8.7369     41.6796
   236.2500      0.0000    408.4946      8.7094     41.9036
   236.5000      0.0000    406.9319      8.6818     42.0067
   236.7500      0.0000    409.2941      8.6501     41.7298
   237.0000      0.0000    410.8812      8.6393     41.0028
   237.2500      0.0000    408.9639      8.6612     40.0074
   237.5000      0.0000    406.0466      8.6985     39.0917
   237.7500      0.0000    406.2108      8.7444     38.6226
   238.0000      0.0000    410.2448      8.8112     38.7284
   238.2500      0.0000    415.9161      8.8908     39.0757
   238.5000      0.0000    421.6931      8.9527     39.1481
   238.7500      0.0000    427.5876      8.9872     38.9287
   239.0000      0.0000    432.4594      9.0153     39.0000
   239.2500      0.0000    434.2625      9.0528     39.6597
   239.5000      0.0000    432.1188      9.0955     40.2183
   239.7500      0.0000    426.8061      9.1408     39.6005
   240.0000      0.0000    420.3052      9.1895     37.6153
   240.2500      0.0000    413.7040      9.2226     35.4025
   240.5000      0.0000    406.6873      9.2137     34.6310
   240.7500      0.0000    399.8416      9.1651     36.3439
   241.0000      0.0000    393.7639      9.1050     40.3722
   241.2500      0.0000    386.7507      9.0533     45.6132
   241.5000      0.0000    376.7839      9.0008     50.9167
   241.7500      0.0000    365.1596      8.9228     55.8975
   242.0000      0.0000    355.6909      8.8287     60.9168
   242.2500      0.0000    350.4251      8.7635     66.2544
   242.5000      0.0000    348.3524      8.6873     71.4989
   242.7500      0.0000    347.2558      8.4624     75.9171
   243.0000      0.0000    345.0676      8.1418     79.1557
   243.2500      0.0000    341.5527      8.0028     81.2863
   243.5000      0.0000    339.3076      8.0699     82.4011
   243.7500      0.0000    339.7065      8.1898     82.5238
   244.0000      0.0000    339.0196      8.5213     81.8207
   244.2500      0.0000    333.0154      9.2040     80.7112
   244.5000      0.0000    323.2119      9.9996     79.8891
   244.7500     -2.0000    314.9841     10.6489     80.1466
   245.0000      2.0000    311.9557     11.1184     81.8183
   245.2500      0.0000    315.4192     11.4387     84.4240
   245.5000      0.0000    325.9636     11.5862     87.0060
   245.7500      0.0000    342.0302     11.6575     88.6732
   246.0000      0.0000    361.3843     11.8746     88.8856
   246.2500      0.0000    384.7570     12.1641     87.7160
   246.5000      0.0000    409.8265     12.2879     85.9566
   246.7500      0.0000    427.8370     12.3073     84.6637
   247.0000      0.0000    434.7387     12.2524     84.4676
   247.2500      0.0000    434.8905     11.9346     85.2075
   247.5000      0.0000    432.4134     11.3525     86.0464
   247.7500      0.0000    427.1150     10.7217     86.2478
   248.0000      0.0000    417.6840     10.1928     86.0135
   248.2500      0.0000    405.7130      9.7883     86.0445
   248.5000      0.0000    394.5969      9.4922     86.1356
   248.7500      0.0000    384.7363      9.2933     84.9410
   249.0000      0.0000    373.8940      9.1733     81.5499
   249.2500      0.0000    362.3340      9.1031     76.7962
   249.5000      0.0000    353.2900      9.0529     72.6163
   249.7500      0.0000    348.4303      8.9989     70.4033
   250.0000      0.0000    346.4693      8.9347     70.2627
   250.2500      0.0000    345.6491      8.8736     71.5864
   250.5000      0.0000    345.2352      8.8206     73.8360
   250.7500      0.0000    345.1485      8.7597     76.6155
   251.0000      0.0000    345.3353      8.6901     79.3477
   251.2500      0.0000    345.6052      8.6356     81.3207
   251.5000      0.0000    345.7738      8.6178     82.0882
   251.7500      0.0000    345.7705      8.6464     81.6582
   252.0000      0.0000    345.6318      8.6997     80.4183
   252.2500      0.0000    345.4456      8.7348     79.1845
   252.5000      0.0000    345.2943      8.7548     79.2289
   252.7500      0.0000    345.1984      8.8086     81.6762
   253.0000      0.0000    345.0476      8.9260     86.4326
   253.2500      0.0000    344.5042      9.1067     91.7780
   253.5000      0.0000    342.7167      9.3308     95.2776
   253.7500      0.0000    338.1112      9.5606     95.4019
   254.0000      0.0000    329.6938      9.7703     92.5415
   254.2500      0.0000    319.4065      9.9645     88.4823
   254.5000      0.0000    311.1897     10.1627     84.7433
   254.7500      0.0000    306.9563     10.3755     81.5001
   255.0000      0.0000    305.7923     10.5933     78.2445
   255.2500      0.0000    306.7997     10.8016     75.0794
   255.5000      0.0000    310.7707     10.9840     72.7565
   255.7500      0.0000    318.5840     11.1193     71.6241
   256.0000      0.0000    328.3265     11.2045     71.3378
   256.2500      0.0000    336.0375     11.2466     71.7948
   256.5000      0.0000    339.8016     11.2312     73.6638
   256.7500      0.0000    340.7369     11.1418     77.5801
   257.0000      0.0000    340.5112     11.0015     83.1316
   257.2500      0.0000    339.9781     10.8605     88.9612
   257.5000      0.0000    339.5046     10.7540     93.7377
   257.7500      0.0000    339.2810     10.6911     96.8191
   258.0000      0.0000    339.3116     10.6570     98.1127
   258.2500      0.0000    339.6323     10.6141     97.5673
   258.5000      0.0000    340.8362     10.5356     94.8852
   258.7500      0.0000    343.8956     10.4392     89.8335
   259.0000      0.0000    348.2268     10.3704     82.9252
   259.2500      0.0000    350.6335     10.3645     75.5128
   259.5000      0.0000    348.8904     10.4208     68.8656
   259.7500      0.0000    344.8976     10.5056     63.3749
   260.0000      0.0000    341.6369     10.5892     58.9670
   260.2500      0.0000    340.1575     10.6611     55.9747
   260.5000      0.0000    341.7830     10.7037     55.1129
   260.7500      0.0000    353.0694     10.6817     56.7378
   261.0000      0.0000    387.9883     10.5758     60.4885
   261.2500      0.0000    455.7931     10.4092     65.7777
   261.5000      0.0000    540.3899     10.2198     72.4373
   261.7500      0.0000    608.4355     10.0129     80.5134
   262.0000      0.0000    642.8187      9.7613     89.2941
   262.2500      0.0000    650.2701      9.4628     96.9351
   262.5000      0.0000    644.3867      9.1687    101.4503
   262.7500      0.0000    635.9815      8.9348    102.0723
   263.0000      0.0000    630.6242      8.7756     99.6894
   263.2500      0.0000    628.5950      8.6664     96.2119
   263.5000      0.0000    628.0378      8.5720     93.4282
   263.7500      0.0000    627.3334      8.4796     92.0427
   264.0000      0.0000    624.5414      8.4076     91.7051
   264.2500      0.0000    616.1088      8.3866     92.0934
   264.5000      0.0000    598.6053      8.4344     93.6949
   264.7500      0.0000    571.7382      8.5328     97.1063
   265.0000      0.0000    535.4789      8.6333    101.6422
   265.2500      0.0000    488.4991      8.7004    105.1278
   265.5000      0.0000    437.6176      8.7474    105.3653
   265.7500      0.0000    398.0954      8.8106    101.9194
   266.0000      0.0000    377.0876      8.8877     96.6441
   266.2500      0.0000    368.3219      8.9399     92.4498
   266.5000      0.0000    362.4217      8.9576     91.1911
   266.7500      0.0000    354.4404      8.9687     92.4978
   267.0000      0.0000    345.0077      8.9940     94.4675
   267.2500      0.0000    337.5123      9.0378     95.2321
   267.5000      0.0000    333.5712      9.0944     94.0204
   267.7500      0.0000    332.1039      9.1514     91.3363
