~Version Information
VERS.                      2.0: CWLS Log ASCII Standard - VERSION 2.0
WRAP.                       NO: One line per depth step
~Well Information Block
STRT.FT               970.0000: 
STOP.FT              1881.0000: 
STEP.FT                 0.1000: 
NULL.                -999.2500: 
COMP.          Petrogulf Corporation: COMPANY
WELL.             Norton 9-14R: WELL
FLD.           Purgatorie River: FIELD
LOC.           725' FSL & 1103' FWL: LOCATION
PROV.                 Colorado: PROVINCE
CNTY.               Las Animas: COUNTRY
SRVC.                Patterson: SERVICE COMPANY
DATE.          Fri Oct 07 07:52:23 2005: LOG DATE
UWI.                          : UNIQUE WELL ID
~Curve Information Block
DEPT.FT            0 000 00 00: Depth
DCAL.in                       : CDL Caliper
RHOB.g/cc                     : CDL Bulk Density
RHOC.g/cc                     : CDL Density Correction
DPOR.pu                       : CDL Density Porosity
GR.GAPI                       : Gamma Ray
NPOR.pu                       : Neutron Porosity
~Parameter Information Block
~A  Depth       DCAL        RHOB        RHOC        DPOR         GR         NPOR    
# ...
  1507.6000      7.9337      2.5244      0.0183      7.6094    142.2753     26.5576
  1507.7000      7.9337      2.5227      0.0200      7.7135    147.3885     26.8979
  1507.8000      7.9196      2.5327      0.0589      7.1075    152.4338     26.7160
  1507.9000      7.9196      2.5508      0.0860      6.0104    155.3028     26.1068
  1508.0000      7.9145      2.5629      0.0776      5.2808    155.6088     25.5695
  1508.1000      7.9145      2.5648      0.0958      5.1656    154.4440     25.4453
  1508.2000      7.9145      2.5601      0.1283      5.4478    154.2814     25.4842
  1508.3000      7.9059      2.5486      0.1211      6.1473    156.0263     25.6883
  1508.4000      7.9059      2.5329      0.0955      7.0986    160.3415     26.2179
  1508.5000      7.9117      2.5199      0.0526      7.8846    167.1275     26.7886
  1508.6000      7.9117      2.5071      0.0686      8.6618    170.3850     27.3336
  1508.7000      7.9117      2.4922      0.0370      9.5639    167.3086     27.9629
  1508.8000      7.9216      2.4900      0.0292      9.6965    165.3063     28.4329
  1508.9000      7.9216      2.5034      0.1115      8.8831    168.0567     28.6007
  1509.0000      7.9998      2.5147      0.1014      8.2028    172.2153     28.8148
  1509.1000      7.9998      2.5170      0.0985      8.0593    177.6892     29.3666
  1509.2000      7.9998      2.5157      0.1038      8.1378    183.0272     29.8944
  1509.3000      8.0416      2.5197      0.0808      7.8958    183.9502     29.9944
  1509.4000      8.0416      2.5464      0.0642      6.2809    181.8549     29.7565
  1509.5000      8.0092      2.5938      0.1727      3.4051    179.9162     29.4340
  1509.6000      8.0092      2.6341      0.1491      0.9611    180.1746     29.0395
  1509.7000      8.0092      2.6499      0.1744      0.0040    181.4857     28.4798
  1509.8000      7.9647      2.6434      0.1174      0.4020    180.6500     27.8139
  1509.9000      7.9647      2.6298      0.0557      1.2226    176.9696     27.1891
  1510.0000      7.9532      2.6226      0.0369      1.6618    171.4711     26.7496
  1510.1000      7.9532      2.6159      0.0448      2.0665    166.1912     26.5912
  1510.2000      7.9532      2.5987      0.0525      3.1112    161.6735     26.6993
  1510.3000      7.9524      2.5758      0.0109      4.4993    159.4189     26.7037
  1510.4000      7.9524      2.5595      0.0193      5.4832    160.5734     26.2626
  1510.5000      7.9539      2.5506      0.0094      6.0267    160.0327     25.6622
  1510.6000      7.9539      2.5482     -0.0150      6.1716    154.9675     25.3521
  1510.7000      7.9539      2.5553      0.0123      5.7384    152.1263     25.3469
  1510.8000      7.9577      2.5587      0.0699      5.5345    153.6000     25.5909
  1510.9000      7.9577      2.5531     -0.0322      5.8737    152.4806     26.1638
  1511.0000      7.9627      2.5607      0.0063      5.4142    150.6838     26.7773
  1511.1000      7.9627      2.5768      0.0874      4.4337    157.8143     27.0141
  1511.2000      7.9627      2.5749      0.0963      4.5524    171.6885     27.0188
  1511.3000      7.9687      2.5579      0.0918      5.5797    179.2859     27.0867
  1511.4000      7.9687      2.5360      0.1482      6.9092    178.6068     27.1732
  1511.5000      7.9867      2.5039      0.0875      8.8541    179.5056     27.1368
  1511.6000      7.9867      2.4645      0.0576     11.2439    184.7225     27.1885
  1511.7000      7.9867      2.4336      0.0405     13.1141    188.0541     27.4316
  1511.8000      7.9943      2.4240      0.0352     13.6941    186.6364     27.4089
  1511.9000      7.9943      2.4306      0.0530     13.2979    183.4389     27.1732
  1512.0000      8.0327      2.4364      0.0789     12.9453    179.5452     27.1414
  1512.1000      8.0327      2.4370      0.0513     12.9110    175.5858     27.1820
  1512.2000      8.0327      2.4408      0.0481     12.6789    173.7756     27.2398
  1512.3000      8.0371      2.4533      0.0416     11.9239    172.9155     27.4703
  1512.4000      8.0371      2.4747      0.0734     10.6237    170.1417     27.9060
  1512.5000      8.0158      2.5028      0.0790      8.9227    164.6662     28.4158
  1512.6000      8.0158      2.5287      0.0952      7.3542    155.5897     28.6784
  1512.7000      8.0158      2.5407      0.1372      6.6215    144.6508     28.6124
  1512.8000      7.9536      2.5514      0.0096      5.9776    136.4550     28.3997
  1512.9000      7.9536      2.5812      0.0523      4.1678    131.1521     28.0377
  1513.0000      7.9340      2.6160      0.0665      2.0610    123.1996     27.4589
  1513.1000      7.9340      2.6344      0.0570      0.9437    112.7170     26.8962
  1513.2000      7.9340      2.6395      0.0313      0.6386    107.2582     26.4443
  1513.3000      7.9195      2.6376      0.0458      0.7538    107.1212     25.7223
  1513.4000      7.9195      2.6240      0.0874      1.5737    106.0880     24.5433
  1513.5000      7.8804      2.6035      0.0056      2.8160    103.4310     23.3195
  1513.6000      7.8804      2.5950      0.0142      3.3346    101.3739     22.4799
  1513.7000      7.8804      2.5950      0.0628      3.3343    101.4204     21.9137
  1513.8000      7.8020      2.5875      0.0156      3.7888    103.5630     21.2861
  1513.9000      7.8020      2.5784      0.0104      4.3380    104.3214     20.7303
  1514.0000      7.7836      2.5724      0.0850      4.7025    102.7970     20.8208
  1514.1000      7.7836      2.5576      0.0710      5.5990    102.8519     21.7873
  1514.2000      7.7836      2.5312      0.0875      7.1996    107.6696     23.0131
  1514.3000      7.7787      2.5040      0.0530      8.8511    115.9058     23.7151
  1514.4000      7.7787      2.4825      0.0747     10.1538    122.6234     23.9044
  1514.5000      7.7772      2.4612      0.0230     11.4444    125.9082     24.2095
  1514.6000      7.7772      2.4484     -0.0487     12.2165    130.1129     25.0160
  1514.7000      7.7772      2.4663      0.0196     11.1355    137.1202     26.0279
  1514.8000      7.9194      2.5131      0.0551      8.2942    142.0865     26.5882
  1514.9000      7.9194      2.5635      0.0857      5.2451    141.2318     26.5501
  1515.0000      7.9543      2.5870      0.1270      3.8170    137.3530     26.4713
  1515.1000      7.9543      2.5736      0.1061      4.6322    133.1638     26.5546
  1515.2000      7.9543      2.5495      0.0146      6.0912    128.8551     26.5592
  1515.3000      7.9488      2.5419      0.0232      6.5534    127.4757     26.4431
  1515.4000      7.9488      2.5430      0.0500      6.4835    130.6366     26.2184
  1515.5000      7.9424      2.5403      0.0316      6.6478    134.4182     25.8313
  1515.6000      7.9424      2.5365      0.0540      6.8796    135.8589     25.2962
  1515.7000      7.9424      2.5316      0.0355      7.1767    136.2856     24.6652
  1515.8000      7.9328      2.5276     -0.0145      7.4168    134.8088     24.0548
  1515.9000      7.9328      2.5312      0.0395      7.2009    129.6064     23.6917
  1516.0000      7.9325      2.5365      0.0822      6.8814    122.4576     23.6727
  1516.1000      7.9325      2.5333      0.0636      7.0743    116.8602     23.7934
  1516.2000      7.9325      2.5225      0.0487      7.7288    113.5410     23.8994
  1516.3000      7.9242      2.5097      0.0871      8.5042    112.3407     23.9575
  1516.4000      7.9242      2.4990      0.0462      9.1487    113.1011     24.0362
  1516.5000      7.9213      2.5000      0.0064      9.0920    113.2472     24.1543
  1516.6000      7.9213      2.5186      0.0688      7.9662    109.8939     24.1642
  1516.7000      7.9213      2.5500      0.0444      6.0619    103.6046     24.1000
  1516.8000      7.9229      2.5858      0.0771      3.8883     98.4354     24.1102
  1516.9000      7.9229      2.6149      0.1083      2.1274     98.0516     24.1204
  1517.0000      7.9229      2.6314      0.1055      1.1280     99.4116     24.0461
  1517.1000      7.9229      2.6358      0.1230      0.8629     97.3745     24.0164
