~Version Information
VERS.                      2.0: CWLS Log ASCII Standard - VERSION 2.0
WRAP.                       NO: One line per depth step
~Well Information Block
STRT.FT               547.0000: 
STOP.FT              1685.5000: 
STEP.FT                 0.2500: 
NULL.                -999.2500: 
COMP.          Pioneer Natural Resources: COMPANY
WELL.           Pedri 42-33 Tr: WELL
FLD.           Purgatorie River: FIELD
LOC.           1933' FNL & 662' FEL: LOCATION
PROV.                 Colorado: PROVINCE
CNTY.               Las Animas: COUNTRY
SRVC.                Patterson: SERVICE COMPANY
DATE.          Mon Dec 19 10:09:44 2005: LOG DATE
UWI.                          : UNIQUE WELL ID
~Curve Information Block
DEPT.FT            0 000 00 00: Depth
DIR.Ohm-m                     : IEL Induction Resistivity
GR.GAPI                       : Gamma Ray
~Parameter Information Block
~A  Depth       DIR          GR     
# ...
  1048.7500      0.2050    104.4259
  1049.0000      0.3930    100.5474
  1049.2500      0.8100     97.6405
  1049.5000      2.0981     94.2460
  1049.7500     18.3483     92.5727
  1050.0000 100000.0000     89.7806
  1050.2500 100000.0000     87.3292
  1050.5000 100000.0000     83.8346
  1050.7500 100000.0000     82.8931
  1051.0000 100000.0000     84.6796
  1051.2500 100000.0000     87.3463
  1051.5000 100000.0000     91.1665
  1051.7500 100000.0000     92.6611
  1052.0000 100000.0000     93.6027
  1052.2500 100000.0000     94.0862
  1052.5000 100000.0000     95.1414
  1052.7500 100000.0000     95.6859
  1053.0000 100000.0000     95.2302
  1053.2500 100000.0000     93.9244
  1053.5000 100000.0000     91.4010
  1053.7500 100000.0000     90.2062
  1054.0000 100000.0000     90.2447
  1054.2500 100000.0000     91.8205
  1054.5000 100000.0000     96.8183
  1054.7500 100000.0000    101.8885
  1055.0000 100000.0000    111.3881
  1055.2500 100000.0000    118.0400
  1055.5000 100000.0000    126.1873
  1055.7500 100000.0000    129.1667
  1056.0000     41.1165    129.3484
  1056.2500     21.2763    127.3672
  1056.5000     16.2804    123.5212
  1056.7500     14.4376    121.5269
  1057.0000     13.7641    120.3618
  1057.2500     13.6506    120.8075
  1057.5000     13.8864    122.6629
  1057.7500     14.4255    124.1082
  1058.0000     15.2937    125.8479
  1058.2500     16.5301    126.6981
  1058.5000     18.1401    127.6988
  1058.7500     20.0534    127.8539
  1059.0000     22.1070    125.8512
  1059.2500     24.0810    122.2426
  1059.5000     25.7857    113.2845
  1059.7500     27.1388    105.6024
  1060.0000     28.1726     93.1928
  1060.2500     28.9835     85.3286
  1060.5000     29.6702     75.8973
  1060.7500     30.2934     72.3514
  1061.0000     30.8618     73.0305
  1061.2500     31.3400     77.9232
  1061.5000     31.6717     90.5968
  1061.7500     31.8042    100.7319
  1062.0000     31.7058    114.8106
  1062.2500     31.3776    121.8999
  1062.5000     30.8581    127.9353
  1062.7500     30.2200    128.8635
  1063.0000     29.5525    126.1467
  1063.2500     28.9366    122.1043
  1063.5000     28.4240    113.8217
  1063.7500     28.0306    107.7232
  1064.0000     27.7430     99.9564
  1064.2500     27.5319     97.2405
  1064.5000     27.3643     98.6320
  1064.7500     27.2122    103.0329
  1065.0000     27.0556    112.4965
  1065.2500     26.8817    118.8900
  1065.5000     26.6809    126.1369
  1065.7500     26.4422    128.7484
  1066.0000     26.1528    129.7184
  1066.2500     25.7997    129.2610
  1066.5000     25.3727    128.3476
  1066.7500     24.8683    127.9083
  1067.0000     24.2932    127.2101
  1067.2500     23.6672    126.2736
  1067.5000     23.0214    123.2088
  1067.7500     22.3931    119.7767
  1068.0000     21.8198    113.5869
  1068.2500     21.3360    110.2543
  1068.5000     20.9716    108.7963
  1068.7500     20.7466    110.4511
  1069.0000     20.6602    115.3624
  1069.2500     20.6792    119.0568
  1069.5000     20.7387    124.1322
  1069.7500     20.7677    127.2872
  1070.0000     20.7320    132.2598
  1070.2500     20.6618    135.7633
  1070.5000     20.6391    140.5051
  1070.7500     20.7580    142.6643
  1071.0000     21.0922    143.6980
  1071.2500     21.6844    142.8945
  1071.5000     22.5515    140.1284
  1071.7500     23.6928    138.0077
  1072.0000     25.0936    135.4350
  1072.2500     26.7204    133.8180
  1072.5000     28.5102    129.5913
  1072.7500     30.3633    124.7045
  1073.0000     32.1497    114.9615
  1073.2500     33.7292    108.2928
  1073.5000     34.9690    100.3504
  1073.7500     35.7522     96.8707
  1074.0000     35.9925     93.5402
  1074.2500     35.6673     91.8150
  1074.5000     34.8416     89.3931
  1074.7500     33.6515     88.1976
  1075.0000     32.2503     88.2251
  1075.2500     30.7588     90.0746
  1075.5000     29.2473     95.5010
  1075.7500     27.7482     99.9203
  1076.0000     26.2816    105.5452
  1076.2500     24.8742    107.9947
  1076.5000     23.5609    110.2650
  1076.7500     22.3753    111.4230
  1077.0000     21.3379    112.9881
  1077.2500     20.4528    113.9697
  1077.5000     19.7128    115.9574
  1077.7500     19.1073    118.1384
  1078.0000     18.6308    122.7386
  1078.2500     18.2863    125.8866
  1078.5000     18.0832    128.6381
  1078.7500     18.0306    128.3397
  1079.0000     18.1283    125.1138
  1079.2500     18.3630    122.3537
  1079.5000     18.7108    119.7375
  1079.7500     19.1482    119.6800
  1080.0000     19.6614    121.4407
  1080.2500     20.2436    122.8780
  1080.5000     20.8821    123.9310
  1080.7500     21.5464    123.3391
  1081.0000     22.1931    120.1655
  1081.2500     22.7846    116.7512
  1081.5000     23.3037    110.5361
  1081.7500     23.7451    106.1076
  1082.0000     24.0955     99.6198
  1082.2500     24.3225     95.9393
  1082.5000     24.3850     92.6532
  1082.7500     24.2548     92.3433
  1083.0000     23.9308     93.8332
  1083.2500     23.4359     94.8850
  1083.5000     22.8043     94.5520
  1083.7500     22.0711     92.7922
  1084.0000     21.2694     89.4892
  1084.2500     20.4342     88.5532
  1084.5000     19.6031     91.3425
  1084.7500     18.8120     96.2020
  1085.0000     18.0883    106.5737
  1085.2500     17.4460    114.2572
  1085.5000     16.8870    124.5977
  1085.7500     16.4074    129.4910
  1086.0000     16.0047    132.8639
  1086.2500     15.6819    132.8170
  1086.5000     15.4459    130.7981
  1086.7500     15.3026    128.9384
  1087.0000     15.2511    126.2171
  1087.2500     15.2808    124.7586
  1087.5000     15.3734    123.1339
  1087.7500     15.5064    121.9691
  1088.0000     15.6579    119.1139
  1088.2500     15.8079    116.4396
  1088.5000     15.9381    112.4226
  1088.7500     16.0307    110.5382
  1089.0000     16.0703    109.4955
  1089.2500     16.0491    109.8721
  1089.5000     15.9735    111.4013
  1089.7500     15.8652    112.5037
  1090.0000     15.7545    113.2345
  1090.2500     15.6710    112.8347
  1090.5000     15.6347    111.6690
  1090.7500     15.6506    111.5516
  1091.0000     15.7070    114.0773
  1091.2500     15.7800    117.8850
  1091.5000     15.8431    125.7077
  1091.7500     15.8774    131.0816
  1092.0000     15.8752    137.3214
  1092.2500     15.8374    139.5245
  1092.5000     15.7689    139.5815
  1092.7500     15.6800    137.8852
  1093.0000     15.5877    134.3347
  1093.2500     15.5151    132.2453
  1093.5000     15.4856    130.1762
  1093.7500     15.5149    129.2711
  1094.0000     15.6062    128.0007
  1094.2500     15.7485    127.1094
  1094.5000     15.9206    125.9532
  1094.7500     16.0972    125.4881
  1095.0000     16.2572    125.5284
  1095.2500     16.3900    126.2144
  1095.5000     16.4968    128.1044
  1095.7500     16.5836    129.3477
  1096.0000     16.6538    129.8741
  1096.2500     16.7048    129.1809
  1096.5000     16.7354    127.7448
  1096.7500     16.7535    127.2104
  1097.0000     16.7766    126.6346
  1097.2500     16.8242    125.4134
  1097.5000     16.9068    121.2368
  1097.7500     17.0213    117.3125
  1098.0000     17.1529    111.7607
  1098.2500     17.2813    109.4314
  1098.5000     17.3859    108.8459
  1098.7500     17.4477    110.2336
  1099.0000     17.4505    114.1598
  1099.2500     17.3864    117.4101
  1099.5000     17.2625    122.0276
  1099.7500     17.1027    124.2040
  1100.0000     16.9409    125.3236
  1100.2500     16.8088    124.6179
  1100.5000     16.7260    121.9683
  1100.7500     16.6950    119.7803
  1101.0000     16.7009    117.4893
  1101.2500     16.7159    117.6364
  1101.5000     16.7078    121.1774
  1101.7500     16.6515    125.2019
  1102.0000     16.5379    131.1557
  1102.2500     16.3753    133.2668
  1102.5000     16.1832    131.7944
  1102.7500     15.9841    128.0800
  1103.0000     15.7980    121.0455
  1103.2500     15.6418    116.8885
  1103.5000     15.5285    112.2489
  1103.7500     15.4670    109.9583
  1104.0000     15.4616    107.5822
  1104.2500     15.5124    107.0399
