~Version Information
VERS.                      2.0: CWLS Log ASCII Standard - VERSION 2.0
WRAP.                       NO: One line per depth step
~Well Information Block
STRT.FT               330.0000: 
STOP.FT              1972.5000: 
STEP.FT                 0.1000: 
NULL.                -999.2500: 
COMP.          Pioneer Natural Resources: COMPANY
WELL.           Willys 32-8 Tr: WELL
FLD.           Purgatoire River: FIELD
LOC.           1843' FNL & 2355' FEL: LOCATION
CNTY.               Las Animas: COUNTY
SRVC.                Patterson: SERVICE COMPANY
DATE.          Thu Feb 09 10:31:59 2006: LOG DATE
UWI.           05 071 08688 00: UNIQUE WELL ID
STAT.                 Colorado: STATE
~Curve Information Block
DEPT.FT            0 000 00 00: Depth
DCAL.in                       : CDL Caliper
RHOB.g/cc                     : CDL Bulk Density
RHOC.g/cc                     : CDL Density Correction
DPOR.pu                       : CDL Density Porosity
GR.GAPI                       : Gamma Ray
~Parameter Information Block
~A  Depth       DCAL        RHOB        RHOC        DPOR         GR     
# ...
  1528.4000      7.9230      1.7966     -0.0900     51.7230    122.1698
  1528.5000      7.9411      1.7546     -0.1129     54.2692    120.0027
  1528.6000      7.9411      1.7802     -0.0572     52.7162    119.8120
  1528.7000      7.9411      1.8471      0.0902     48.6633    119.5162
  1528.8000      7.9551      1.9284      0.0890     43.7343    117.8943
  1528.9000      7.9551      2.0350      0.1736     37.2738    115.2098
  1529.0000      7.9830      2.1835      0.2507     28.2730    112.0516
  1529.1000      7.9830      2.3380      0.3490     18.9085    108.8777
  1529.2000      7.9830      2.4315      0.3372     13.2401    105.5495
  1529.3000      7.9757      2.4607      0.1811     11.4730    104.7464
  1529.4000      7.9757      2.4898      0.1031      9.7109    110.8105
  1529.5000      7.9423      2.5438      0.1651      6.4354    118.2201
  1529.6000      7.9423      2.5870      0.1530      3.8174    119.1442
  1529.7000      7.9423      2.5975      0.1554      3.1808    117.3783
  1529.8000      7.9347      2.5916      0.1187      3.5404    118.2175
  1529.9000      7.9347      2.5900      0.1340      3.6392    118.0910
  1530.0000      7.9024      2.5966      0.1080      3.2341    113.5106
  1530.1000      7.9024      2.6095      0.0784      2.4562    110.6389
  1530.2000      7.9024      2.6238      0.0974      1.5890    114.1645
  1530.3000      7.9035      2.6360      0.0642      0.8470    119.5991
  1530.4000      7.9035      2.6568      0.0308     -0.4124    123.5005
  1530.5000      7.9292      2.6890      0.1131     -2.3654    127.8971
  1530.6000      7.9292      2.7041      0.1401     -3.2790    132.0389
  1530.7000      7.9292      2.6844      0.0729     -2.0870    131.6481
  1530.8000      7.9178      2.6479      0.0458      0.1275    128.1413
  1530.9000      7.9178      2.6130      0.0225      2.2415    125.6182
  1531.0000      7.9308      2.5848     -0.0494      3.9533    121.9027
  1531.1000      7.9308      2.5656     -0.0094      5.1134    114.4561
  1531.2000      7.9308      2.5542      0.0405      5.8065    108.1412
  1531.3000      7.9102      2.5486      0.0139      6.1464    105.1025
  1531.4000      7.9102      2.5557      0.0204      5.7153    102.2740
  1531.5000      7.9100      2.5787      0.0605      4.3203     99.7821
  1531.6000      7.9100      2.6062      0.0742      2.6575    101.2713
  1531.7000      7.9100      2.6218      0.1055      1.7077    107.3047
  1531.8000      7.8920      2.6186      0.0974      1.9045    112.3045
  1531.9000      7.8920      2.6115      0.0545      2.3352    111.2822
  1532.0000      7.8974      2.6226      0.0856      1.6597    105.8453
  1532.1000      7.8974      2.6436      0.1442      0.3883    100.2470
  1532.2000      7.8974      2.6496      0.1357      0.0247     96.4803
  1532.3000      7.8917      2.6420      0.1397      0.4855     94.5342
  1532.4000      7.8917      2.6408      0.1141      0.5551     95.0963
  1532.5000      7.8823      2.6485      0.1551      0.0881     99.4262
  1532.6000      7.8823      2.6525      0.1400     -0.1493    104.3054
  1532.7000      7.8823      2.6607      0.0993     -0.6487    105.0283
  1532.8000      7.8845      2.6848      0.1691     -2.1072    102.5416
  1532.9000      7.8845      2.7023      0.1812     -3.1723    100.3158
  1533.0000      7.8915      2.6898      0.1162     -2.4131    100.7120
  1533.1000      7.8915      2.6547      0.0893     -0.2868    103.6827
  1533.2000      7.8915      2.6127      0.0326      2.2622    107.4259
  1533.3000      7.8809      2.5710      0.0183      4.7870    109.8506
  1533.4000      7.8809      2.5416     -0.0284      6.5703    111.4331
  1533.5000      7.8843      2.5429     -0.0090      6.4920    113.5843
  1533.6000      7.8843      2.5731      0.0817      4.6627    116.2069
  1533.7000      7.8843      2.6041      0.0790      2.7822    118.8546
  1533.8000      7.8905      2.6104      0.0633      2.4001    120.6605
  1533.9000      7.8905      2.5885      0.0417      3.7292    120.4788
  1534.0000      7.8970      2.5647     -0.0629      5.1718    116.4022
  1534.1000      7.8970      2.5683      0.0300      4.9496    110.6025
  1534.2000      7.8970      2.5906      0.0367      3.5991    109.2941
  1534.3000      7.9003      2.6029      0.0607      2.8528    114.2106
  1534.4000      7.9003      2.5861      0.0498      3.8719    122.0144
  1534.5000      7.9128      2.5485     -0.0204      6.1544    128.1869
  1534.6000      7.9128      2.5227     -0.1027      7.7171    128.2892
  1534.7000      7.9128      2.5273     -0.0267      7.4347    125.1451
  1534.8000      7.9177      2.5400      0.0815      6.6649    125.9930
  1534.9000      7.9177      2.5390     -0.0110      6.7291    129.9441
  1535.0000      7.9205      2.5338      0.0145      7.0396    133.4634
  1535.1000      7.9205      2.5355      0.0273      6.9380    134.7820
  1535.2000      7.9205      2.5480      0.0307      6.1800    133.1318
  1535.3000      7.9013      2.5684      0.0401      4.9475    131.2499
  1535.4000      7.9013      2.5774      0.1391      4.3981    130.9728
  1535.5000      7.9119      2.5616      0.0756      5.3579    133.1316
  1535.6000      7.9119      2.5342      0.0450      7.0177    138.8453
  1535.7000      7.9119      2.5117      0.0511      8.3837    145.3723
  1535.8000      7.9178      2.4926      0.0667      9.5417    147.3315
  1535.9000      7.9178      2.4661      0.0505     11.1436    144.1632
  1536.0000      7.9119      2.4226      0.0590     13.7839    141.2979
  1536.1000      7.9119      2.3719     -0.0097     16.8536    141.9609
  1536.2000      7.9119      2.3530     -0.0187     17.9983    144.1415
  1536.3000      7.9192      2.3859      0.0515     16.0037    144.8338
  1536.4000      7.9192      2.4569      0.1095     11.7058    142.0087
  1536.5000      7.9114      2.5415      0.1929      6.5728    137.3793
  1536.6000      7.9114      2.6041      0.2291      2.7846    129.6766
  1536.7000      7.9114      2.6285      0.2089      1.3027    114.6159
  1536.8000      7.9145      2.6434      0.1332      0.3987     97.2317
  1536.9000      7.9145      2.6756      0.1639     -1.5522     86.4054
  1537.0000      7.8943      2.7200      0.1369     -4.2402     82.4006
  1537.1000      7.8943      2.7664      0.0461     -7.0550     79.0094
  1537.2000      7.8943      2.8046      0.0568     -9.3717     74.7819
  1537.3000      7.8919      2.8162      0.1226    -10.0743     72.0969
  1537.4000      7.8919      2.8053      0.0136     -9.4120     70.9363
  1537.5000      7.8461      2.8022      0.0321     -9.2239     70.9662
  1537.6000      7.8461      2.8160      0.0677    -10.0624     73.3667
  1537.7000      7.8461      2.8288      0.0381    -10.8384     76.8282
  1537.8000      7.8300      2.8278      0.0154    -10.7765     76.7041
  1537.9000      7.8300      2.8237     -0.0069    -10.5258     71.4444
  1538.0000      7.8617      2.8322     -0.0065    -11.0433     63.3877
  1538.1000      7.8617      2.8426      0.0317    -11.6707     57.8388
  1538.2000      7.8617      2.8348     -0.0004    -11.1978     59.3868
  1538.3000      7.8630      2.8103      0.0241     -9.7123     65.1747
  1538.4000      7.8630      2.7833     -0.0239     -8.0809     68.5548
  1538.5000      7.8637      2.7750     -0.0471     -7.5769     67.8495
  1538.6000      7.8637      2.7852      0.0505     -8.1959     67.4808
  1538.7000      7.8637      2.7817     -0.0125     -7.9801     69.3841
  1538.8000      7.8556      2.7477     -0.0089     -5.9186     69.2188
  1538.9000      7.8556      2.7080     -0.0267     -3.5164     65.1292
  1539.0000      7.8472      2.7090     -0.0700     -3.5748     60.9990
  1539.1000      7.8472      2.7586      0.0008     -6.5828     59.3649
  1539.2000      7.8472      2.8142      0.0313     -9.9530     59.6074
  1539.3000      7.8451      2.8481     -0.0147    -12.0034     60.9491
  1539.4000      7.8451      2.8560      0.0958    -12.4870     61.5795
  1539.5000      7.8485      2.8331      0.0070    -11.0954     60.2684
