~Version Information
VERS.                      2.0: CWLS Log ASCII Standard - VERSION 2.0
WRAP.                       NO: One line per depth step
~Well Information Block
STRT.FT               310.0000: 
STOP.FT               815.0000: 
STEP.FT                 0.2500: 
NULL.                -999.2500: 
COMP.          Pioneer Natural Resources: COMPANY
WELL.           Weissach 32-32: WELL
FLD.           Purgatorie River: FIELD
LOC.           2193' FNL & 2256' FEL: LOCATION
STAT.                 Colorado: State
CNTY.               Las Animas: COUNTY
CTRY. USA : Country
SECT. 32 : Section
TOWN. 33S : Township
RANG. 65W : Range
SRVC.                Patterson: SERVICE COMPANY
DATE.          Mon Sep 26 09:20:51 2005: LOG DATE
API. 05-071-08523                         : UNIQUE WELL ID
~Curve Information Block
DEPT.FT            0 000 00 00: Depth
SN.Ohm-m                      : IEL Short Normal
SP.mV                         : IEL Spontaneous Potential
DIR.Ohm-m                     : IEL Induction Resistivity
GR.GAPI                       : Gamma Ray
~Parameter Information Block
~A  Depth        SN          SP         DIR          GR     
# ...
   779.0000     32.8276    163.7336     26.5852     52.0337
   779.2500     34.5600    163.2802     28.6146     55.0329
   779.5000     36.0129    162.8819     38.1113     55.9540
   779.7500     37.8395    162.5613     28.7447     66.9191
   780.0000     40.3313    162.0019     30.0761     60.8555
   780.2500     43.0918    161.5833     30.8555     69.3113
   780.5000     45.7525    161.7590     35.2174     68.3432
   780.7500     49.0823    162.3579     31.8444     66.6185
   781.0000     52.8332    162.8533     32.9771     53.5134
   781.2500     56.5805    163.8504     33.7677     55.2056
   781.5000     59.2442    164.1813     36.4711     55.9847
   781.7500     61.4716    163.8544     33.5871     57.6789
   782.0000     61.6982    164.1082     34.2595     35.8663
   782.2500     60.7525    164.6527     38.4879     52.8974
   782.5000     59.0640    164.4295     66.3842     58.0748
   782.7500     56.7368    165.1185     40.6671     42.3659
   783.0000     53.3334    165.6439     52.0698     45.1794
   783.2500     49.8957    166.2524     31.2786     49.1847
   783.5000     46.0814    167.2890     28.7002     40.6845
   783.7500     42.6656    167.3610     27.4947     43.4263
   784.0000     39.6223    168.0037     26.0662     42.0256
   784.2500     36.0095    168.6727     27.0368     55.8478
   784.5000     33.2958    169.5199     29.5740     56.2321
   784.7500     31.1078    170.1132     24.1764     69.6434
   785.0000     29.4804    171.1971     22.7971     69.4678
   785.2500     27.6136    172.4653     22.4694     65.3289
   785.5000     26.3854    173.0209     22.8085     75.9212
   785.7500     25.5810    173.7216     23.9650     69.5288
   786.0000     24.4510    174.4037     23.9202     83.8142
   786.2500     24.0223    175.0070     30.6072     85.9115
   786.5000     23.6026    174.3544     21.7913     80.8760
   786.7500     23.5973    173.7290     20.7497     87.5113
   787.0000     23.0817    173.2290     21.7551     97.4622
   787.2500     22.8280    172.8084     25.2770     86.5049
   787.5000     22.9959    171.6718     21.0011     94.3359
   787.7500     23.7578    170.6801     20.5710     94.9072
   788.0000     24.9675    169.9705     21.7948     78.4329
   788.2500     23.9659    169.0981     20.3562     72.4210
   788.5000     23.9927    168.1237     20.5906     79.4079
   788.7500     24.4020    167.4599     20.8598     65.7871
   789.0000     23.6341    166.1283     20.0695     57.4088
   789.2500     24.3306    164.5406     21.0820     59.3710
   789.5000     24.6820    163.5638     20.6541     74.2548
   789.7500     22.8457    162.7382     22.1823     77.8775
   790.0000     22.3844    162.3822     28.0991     62.8173
   790.2500     22.0572    162.4596     20.8874     61.9357
   790.5000     21.8656    161.9050     22.1779     66.6980
   790.7500     21.6127    161.5996     18.7924     77.7070
   791.0000     20.8049    161.0820     18.3879     66.0409
   791.2500     20.2439    160.4810     18.5657     69.1364
   791.5000     19.4350    160.2538     17.3627     69.3226
   791.7500     18.6575    159.9129     18.0955     78.1539
   792.0000     18.1499    159.5890     16.6379     72.0685
   792.2500     17.6566    158.9216     16.4638     79.3429
   792.5000     17.8567    158.6014     17.6823     96.3962
   792.7500     16.6312    158.7964     16.1911     99.3400
   793.0000     16.1152    159.3799     15.9684    101.7085
   793.2500     15.7811    159.4957     15.8791    101.5675
   793.5000     16.0753    160.0979     16.5983    127.7715
   793.7500     16.3153    161.0104     21.8791    114.3262
   794.0000     16.7287    161.6776     15.4503    113.9887
   794.2500     17.1716    162.8845     14.8578    110.5952
   794.5000     17.0516    164.1589     14.8595    107.6418
   794.7500     17.0552    165.6889     15.9361    101.1526
   795.0000     17.8010    167.2848     15.4861    116.4319
   795.2500     18.3927    168.9593     16.3781     96.3655
   795.5000     18.5043    170.4984     20.5759     97.4123
   795.7500     18.2602    171.4868     18.2140    106.8439
   796.0000     18.6058    172.3387     16.9093    110.5091
   796.2500     19.7871    173.6914     19.3917    118.8964
   796.5000     19.5101    173.8378     17.9109    123.7069
   796.7500     20.2271    174.8727     18.5846     81.3239
   797.0000     20.1675    175.4995     17.6655      2.5509
   797.2500     20.8882    175.6050     18.0183      0.0139
   797.5000     22.9720    176.1777     18.3673   -999.2500
   797.7500     22.8861    175.8342     18.3706   -999.2500
   798.0000     23.6545    175.5888     18.6430   -999.2500
   798.2500     24.3660    175.4316     19.4106   -999.2500
   798.5000     24.9494    174.2735     21.1249   -999.2500
   798.7500     25.8727    173.1395     19.9532   -999.2500
   799.0000     26.7197    172.2706     19.9598   -999.2500
   799.2500     27.1412    171.5667     22.6047   -999.2500
   799.5000     27.6252    170.8601     31.0398   -999.2500
   799.7500     27.9017    169.5776     20.9221   -999.2500
   800.0000     27.9544    168.6104     20.7724   -999.2500
   800.2500     27.1343    167.4895     22.7809   -999.2500
   800.5000     26.8153    166.3413     23.9665   -999.2500
   800.7500     27.0796    164.7924     25.0612   -999.2500
   801.0000     28.0031    163.7761     38.7133   -999.2500
   801.2500     28.7444    163.3571     25.4328   -999.2500
   801.5000     29.4745    162.6039     30.4193   -999.2500
   801.7500     30.4081    162.0203     23.9225   -999.2500
   802.0000     31.6914    162.0669     22.6603   -999.2500
   802.2500     34.0884    161.7161     23.3566   -999.2500
   802.5000     34.4159    161.8951     25.8903   -999.2500
   802.7500     34.9410    161.5519     21.1099   -999.2500
   803.0000     35.1423    161.5748     22.6469   -999.2500
   803.2500     34.5265    161.5149     22.5579   -999.2500
   803.5000     33.2394    161.6082     23.0057   -999.2500
   803.7500     31.4329    162.1899     22.4940   -999.2500
   804.0000     29.2382    163.1020     23.1772   -999.2500
   804.2500     27.1352    164.2495     22.4907   -999.2500
   804.5000     25.9320    164.7838     22.4465   -999.2500
   804.7500     25.0219    165.4990     21.8384   -999.2500
   805.0000     24.7312    166.1395     21.1844   -999.2500
   805.2500     22.6112    166.0929     21.0351   -999.2500
   805.5000     22.0869    165.4946     20.7127   -999.2500
   805.7500     22.9409    165.1597     23.2054   -999.2500
   806.0000     22.8699    165.0125     98.0912   -999.2500
   806.2500     23.3818    164.1072    194.2827   -999.2500
   806.5000     23.6039    163.3379   2699.3755   -999.2500
   806.7500     23.2642    162.5845   1496.3657   -999.2500
   807.0000     23.3331    161.3265   1441.5328   -999.2500
   807.2500     23.9916    160.1891   1240.7401   -999.2500
   807.5000     23.4542    158.7038    662.6422   -999.2500
   807.7500     23.9003    157.8571   1115.6984   -999.2500
   808.0000     22.5446    157.0570    793.6127   -999.2500
   808.2500     22.1363    156.7989   1140.6896   -999.2500
   808.5000     22.0238    156.5806   1178.5996   -999.2500
   808.7500     22.1958    155.5969   1827.9550   -999.2500
   809.0000     22.6613    155.3171 100000.0000   -999.2500
   809.2500     22.3627    154.9696 100000.0000   -999.2500
   809.5000     22.5977    154.8746 100000.0000   -999.2500
   809.7500     22.8307    154.7877 100000.0000   -999.2500
   810.0000     23.1941    154.3220 100000.0000   -999.2500
   810.2500     23.2650    154.1301 100000.0000   -999.2500
   810.5000     23.1007    153.7281 100000.0000   -999.2500
   810.7500     23.1446    153.1743 100000.0000   -999.2500
   811.0000     22.8774    152.7874 100000.0000   -999.2500
   811.2500     22.4914    152.4644 100000.0000   -999.2500
   811.5000     22.3298    136.3000 100000.0000   -999.2500
   811.7500     22.5299     16.2846 100000.0000   -999.2500
   812.0000     20.4186      0.0403 100000.0000   -999.2500
   812.2500     -0.1917   -999.2500 100000.0000   -999.2500
