~Version Information
VERS.                      2.0: CWLS Log ASCII Standard - VERSION 2.0
WRAP.                       NO: One line per depth step
~Well Information Block
STRT.FT               240.0000: 
STOP.FT              1043.5000: 
STEP.FT                 0.2500: 
NULL.                -999.2500: 
COMP.          Pioneer Natural Resources: COMPANY
WELL.          Stags Leap 13-30: WELL
FLD.           Purgatorie River: FIELD
LOC.           1813' FSL & 117' FWL: LOCATION
PROV.                 Colorado: PROVINCE
CNTY.               Las Animas: COUNTRY
SRVC.                Patterson: SERVICE COMPANY
DATE.          Thu Dec 08 19:20:57 2005: LOG DATE
UWI.                          : UNIQUE WELL ID
~Curve Information Block
DEPT.FT            0 000 00 00: Depth
DIR.Ohm-m                     : IEL Induction Resistivity
GR.GAPI                       : Gamma Ray
~Parameter Information Block
~A  Depth       DIR          GR     
# ...
   964.7500     25.6145    106.0245
   965.0000     25.2982    104.8713
   965.2500     24.9434    103.6264
   965.5000     24.6477    101.3426
   965.7500     24.4908     99.9138
   966.0000     24.5094     98.3777
   966.2500     24.6908     97.8560
   966.5000     24.9816     97.9484
   966.7500     25.3057     98.7917
   967.0000     25.5898    101.7291
   967.2500     25.7858    104.9309
   967.5000     25.8805    110.9921
   967.7500     25.8913    115.0321
   968.0000     25.8548    119.5667
   968.2500     25.8160    121.1231
   968.5000     25.8178    121.4596
   968.7500     25.8935    120.7511
   969.0000     26.0611    118.8987
   969.2500     26.3203    117.4301
   969.5000     26.6544    115.4706
   969.7500     27.0383    114.6508
   970.0000     27.4517    114.2765
   970.2500     27.8873    114.3492
   970.5000     28.3414    114.1783
   970.7500     28.7964    113.3647
   971.0000     29.2141    110.4547
   971.2500     29.5524    107.4417
   971.5000     29.7879    102.2637
   971.7500     29.9207     99.1083
   972.0000     29.9575     95.7375
   972.2500     29.8966     94.6377
   972.5000     29.7285     94.6498
   972.7500     29.4465     95.4905
   973.0000     29.0553     97.4430
   973.2500     28.5735     99.0640
   973.5000     28.0303    101.9493
   973.7500     27.4615    103.9709
   974.0000     26.9015    106.3036
   974.2500     26.3746    106.9734
   974.5000     25.8906    106.7003
   974.7500     25.4531    106.0369
   975.0000     25.0765    104.9520
   975.2500     24.7938    104.4317
   975.5000     24.6393    104.3240
   975.7500     24.6178    104.8585
   976.0000     24.6883    106.6617
   976.2500     24.7799    108.4797
   976.5000     24.8291    111.7685
   976.7500     24.8080    113.8975
   977.0000     24.7219    116.1133
   977.2500     24.5868    116.6597
   977.5000     24.4087    116.1556
   977.7500     24.1796    115.0352
   978.0000     23.8873    112.2043
   978.2500     23.5285    109.7953
   978.5000     23.1130    106.7477
   978.7500     22.6590    106.1376
   979.0000     22.1859    108.3015
   979.2500     21.7114    111.4195
   979.5000     21.2482    116.7938
   979.7500     20.7998    119.7369
   980.0000     20.3589    122.1332
   980.2500     19.9158    122.3654
   980.5000     19.4697    121.4475
   980.7500     19.0340    120.7184
   981.0000     18.6299    120.5143
   981.2500     18.2757    121.1350
   981.5000     17.9792    122.6389
   981.7500     17.7365    123.5648
   982.0000     17.5384    124.5165
   982.2500     17.3791    124.9762
   982.5000     17.2616    125.7309
   982.7500     17.1945    126.3638
   983.0000     17.1845    127.3933
   983.2500     17.2306    127.9386
   983.5000     17.3243    128.2000
   983.7500     17.4542    127.9749
   984.0000     17.6099    127.3899
   984.2500     17.7852    127.0583
   984.5000     17.9783    126.6325
   984.7500     18.1903    126.2262
   985.0000     18.4230    125.4193
   985.2500     18.6766    124.9875
   985.5000     18.9485    124.9196
   985.7500     19.2310    125.3108
   986.0000     19.5078    126.3361
   986.2500     19.7532    127.0912
   986.5000     19.9357    127.8166
   986.7500     20.0269    127.7492
   987.0000     20.0111    126.7557
   987.2500     19.8916    125.7495
   987.5000     19.6925    124.2221
   987.7500     19.4541    123.3037
   988.0000     19.2232    122.0529
   988.2500     19.0381    121.3245
   988.5000     18.9140    120.5142
   988.7500     18.8392    120.2164
   989.0000     18.7841    120.1499
   989.2500     18.7183    120.2922
   989.5000     18.6226    120.4643
   989.7500     18.4882    120.3503
   990.0000     18.3082    119.9062
   990.2500     18.0737    119.7623
   990.5000     17.7812    120.4028
   990.7500     17.4445    121.5091
   991.0000     17.0958    123.8238
   991.2500     16.7723    125.4450
   991.5000     16.4969    127.4435
   991.7500     16.2693    128.1891
   992.0000     16.0708    127.8964
   992.2500     15.8768    126.6535
   992.5000     15.6672    123.9447
   992.7500     15.4343    122.4295
   993.0000     15.1864    121.7200
   993.2500     14.9470    122.2947
   993.5000     14.7448    123.9349
   993.7500     14.6005    125.1051
   994.0000     14.5171    126.5121
   994.2500     14.4818    126.9405
   994.5000     14.4755    126.3783
   994.7500     14.4824    125.2548
   995.0000     14.4922    123.2388
   995.2500     14.4965    122.2367
   995.5000     14.4859    121.6611
   995.7500     14.4518    121.7097
   996.0000     14.3907    121.7702
   996.2500     14.3074    121.5012
   996.5000     14.2133    120.4686
   996.7500     14.1218    119.4129
   997.0000     14.0414    117.4708
   997.2500     13.9732    116.1045
   997.5000     13.9128    114.4056
   997.7500     13.8543    113.8648
   998.0000     13.7927    114.4432
   998.2500     13.7240    115.7507
   998.5000     13.6445    118.3800
   998.7500     13.5527    119.9443
   999.0000     13.4523    121.1556
   999.2500     13.3518    120.9618
   999.5000     13.2604    133.0325
   999.7500     13.1824    130.4734
  1000.0000     13.1160    125.7172
  1000.2500     13.0561    122.5850
  1000.5000     13.0006    131.1478
  1000.7500     12.9547    128.7945
  1001.0000     12.9303    125.6689
  1001.2500     12.9424    123.7334
  1001.5000     13.0033    138.2133
  1001.7500     13.1199    135.9153
  1002.0000     13.2935    131.7844
  1002.2500     13.5211    128.7469
  1002.5000     13.7957    124.9158
  1002.7500     14.1048    123.5285
  1003.0000     14.4287    123.4740
  1003.2500     14.7414    124.3679
  1003.5000     15.0176    125.9472
  1003.7500     15.2413    126.6000
  1004.0000     15.4099    126.5912
  1004.2500     15.5289    125.9691
  1004.5000     15.6012    124.1830
  1004.7500     15.6184    122.2948
  1005.0000     15.5605    118.2540
  1005.2500     15.4044    115.1724
  1005.5000     15.1371    111.7844
  1005.7500     14.7639    111.3574
  1006.0000     14.3103    113.4935
  1006.2500     13.8142    115.7681
  1006.5000     13.3179    118.6104
  1006.7500     12.8605    119.8015
  1007.0000     12.4735    121.3277
  1007.2500     12.1774    122.9083
  1007.5000     11.9808    127.1519
  1007.7500     11.8795    131.6802
  1008.0000     11.8592    141.5780
  1008.2500     11.9000    150.2935
  1008.5000     11.9816    165.9589
  1008.7500     12.0890    177.4935
  1009.0000     12.2160    194.7702
  1009.2500     12.3668    204.6736
  1009.5000     12.5555    213.2315
  1009.7500     12.8051    212.5743
  1010.0000     13.1432    200.7119
  1010.2500     13.5976    186.8206
  1010.5000     14.1901    161.7693
  1010.7500     14.9301    145.2573
  1011.0000     15.8074    124.2819
  1011.2500     16.7849    113.6698
  1011.5000     17.7950    102.8251
  1011.7500     18.7441     98.5058
  1012.0000     19.5300     95.1381
  1012.2500     20.0677     94.2301
  1012.5000     20.3137     94.1453
  1012.7500     20.2760     94.8677
  1013.0000     20.0053     97.0538
  1013.2500     19.5752     98.9984
  1013.5000     19.0631    101.9745
  1013.7500     18.5376    103.6494
  1014.0000     18.0504    105.3287
  1014.2500     17.6311    105.8307
  1014.5000     17.2847    105.8372
  1014.7500     16.9954    105.5743
  1015.0000     16.7381    105.3200
  1015.2500     16.4955    105.6360
  1015.5000     16.2684    107.4156
  1015.7500     16.0713    109.4837
  1016.0000     15.9163    113.1252
  1016.2500     15.7995    115.2313
  1016.5000     15.7012    117.0926
  1016.7500     15.5945    117.3466
  1017.0000     15.4552    116.3528
  1017.2500     15.2663    114.8915
  1017.5000     15.0194    111.9885
  1017.7500     14.7153    110.1093
  1018.0000     14.3638    108.3376
  1018.2500     13.9809    108.1329
  1018.5000     13.5820    109.0592
  1018.7500     13.1773    110.0695
  1019.0000     12.7716    111.3433
  1019.2500     12.3680    111.6958
  1019.5000     11.9705    111.3594
  1019.7500     11.5836    110.7516
  1020.0000     11.2080    109.9765
  1020.2500     10.8400    110.1114
