~Version Information
VERS.                      2.0: CWLS Log ASCII Standard - VERSION 2.0
WRAP.                       NO: One line per depth step
~Well Information Block
STRT.FT               645.0000: 
STOP.FT              2131.0000: 
STEP.FT                 0.1000: 
NULL.                -999.2500: 
COMP.          Pioneer Natural Resources: COMPANY
WELL.          Gunslinger 13-24: WELL
FLD.           Purgatoire River: FIELD
LOC.           1968' FSL & 633' FWL: LOCATION
PROV.                 Colorado: PROVINCE
CNTY.               Las Animas: COUNTRY
SRVC.                Patterson: SERVICE COMPANY
DATE.          Sat Jul 30 08:07:53 2005: LOG DATE
UWI.           05 071 08442 00: UNIQUE WELL ID
~Curve Information Block
DEPT.FT            0 000 00 00: Depth
DCAL.in                       : CDL Caliper
RHOB.g/cc                     : CDL Bulk Density
RHOC.g/cc                     : CDL Density Correction
DPOR.pu                       : CDL Density Porosity
GR.GAPI                       : Gamma Ray
NPOR.pu                       : Neutron Porosity
~Parameter Information Block
~A  Depth       DCAL        RHOB        RHOC        DPOR         GR         NPOR    
# ...
  1230.6000      8.1569      2.4838      0.1609     10.0751    134.7629     30.1583
  1230.7000      8.1569      2.4360      0.1090     12.9727    133.1658     30.6029
  1230.8000      8.1433      2.3962      0.0982     15.3790    137.6755     31.2930
  1230.9000      8.1433      2.3812      0.0220     16.2921    146.7445     31.4050
  1231.0000      8.1582      2.4002      0.0331     15.1421    151.9884     30.4684
  1231.1000      8.1582      2.4483      0.0776     12.2271    149.0869     29.0169
  1231.2000      8.1582      2.5147      0.1036      8.2025    144.7177     27.9732
  1231.3000      8.1386      2.5939      0.1682      3.3981    143.2254     27.8512
  1231.4000      8.1386      2.6713      0.2660     -1.2919    144.1507     28.4492
  1231.5000      8.1322      2.7191      0.3730     -4.1853    149.2266     29.0877
  1231.6000      8.1322      2.7212      0.3795     -4.3179    156.2122     29.3026
  1231.7000      8.1322      2.6849      0.2755     -2.1144    159.4036     29.0138
  1231.8000      8.1422      2.6281      0.1955      1.3250    158.8970     28.2166
  1231.9000      8.1422      2.5770      0.0212      4.4223    156.7032     27.5348
  1232.0000      8.1515      2.5538      0.0324      5.8323    154.1434     27.6217
  1232.1000      8.1515      2.5517      0.0115      5.9551    152.2724     28.1653
  1232.2000      8.1515      2.5356      0.1455      6.9309    150.2928     28.7193
  1232.3000      8.0940      2.4762      0.0938     10.5359    151.2558     28.6188
  1232.4000      8.0940      2.3824      0.0174     16.2207    152.8387     27.7643
  1232.5000      8.0962      2.2712     -0.0055     22.9555    148.5544     27.4620
  1232.6000      8.0962      2.1496     -0.0741     30.3245    144.4693     28.1983
  1232.7000      8.0962      2.0345     -0.0713     37.3007    146.8601     29.2809
  1232.8000      8.1076      1.9340     -0.0851     43.3970    151.1011     30.3803
  1232.9000      8.1076      1.8262     -0.0908     49.9260    152.8852     31.3902
  1233.0000      8.1292      1.6908     -0.1012     58.1351    152.4125     32.0071
  1233.1000      8.1292      1.5533     -0.0978     66.4666    149.2116     31.7856
  1233.2000      8.1292      1.4776     -0.0615     71.0520    145.0338     30.9438
  1233.3000      8.1451      1.5033      0.0537     69.4982    146.2001     30.6592
  1233.4000      8.1451      1.6098      0.1701     63.0438    150.1854     31.6490
  1233.5000      8.2487      1.7504      0.2171     54.5218    148.8470     33.1768
  1233.6000      8.2487      1.8927      0.2524     45.8965    143.2436     33.8560
  1233.7000      8.2487      2.0223      0.3020     38.0428    138.2249     33.5310
  1233.8000      8.5409      2.1365      0.3453     31.1203    137.7321     33.1132
  1233.9000      8.5409      2.2343      0.3590     25.1933    144.4995     32.8650
  1234.0000      9.1922      2.2982      0.4049     21.3240    156.1247     32.4615
  1234.1000      9.1922      2.3083      0.3783     20.7063    163.2842     31.9186
  1234.2000      9.1922      2.2824      0.2610     22.2784    158.2059     31.3072
  1234.3000      9.3660      2.2584      0.2483     23.7338    146.9917     30.5998
  1234.4000      9.3660      2.2419      0.2009     24.7307    138.0812     30.1224
  1234.5000      9.1870      2.2075      0.1697     26.8161    133.5370     30.2713
  1234.6000      9.1870      2.1405      0.0458     30.8794    135.3938     31.2186
  1234.7000      9.1870      2.0513      0.0404     36.2868    144.9305     32.6225
  1234.8000      8.8615      1.9555     -0.0108     42.0898    157.5818     33.6034
  1234.9000      8.8615      1.8689     -0.0262     47.3381    163.8590     33.6365
  1235.0000      8.2643      1.7986      0.0040     51.6016    159.0145     33.1199
  1235.1000      8.2643      1.7345     -0.0507     55.4823    153.4993     32.8373
  1235.2000      8.2643      1.6631     -0.0597     59.8151    156.3388     33.0770
  1235.3000      8.2037      1.5767     -0.0553     65.0489    160.5763     33.4582
  1235.4000      8.2037      1.4956     -0.0904     69.9634    158.5561     33.3285
  1235.5000      8.2911      1.4526     -0.0080     72.5693    150.7663     32.8199
  1235.6000      8.2911      1.4417      0.0206     73.2289    139.9054     32.4571
  1235.7000      8.2911      1.4328      0.0163     73.7704    126.8754     32.2962
  1235.8000      8.3745      1.4151      0.0053     74.8436    114.4191     32.3589
  1235.9000      8.3745      1.4009     -0.0453     75.7052    105.0207     32.6554
  1236.0000      8.4797      1.4015      0.0205     75.6646     99.2515     33.2208
  1236.1000      8.4797      1.4089      0.0625     75.2171     96.1314     34.1452
  1236.2000      8.4797      1.4067      0.0647     75.3526     91.1894     35.1957
  1236.3000      8.6520      1.3847      0.0369     76.6874     81.0025     35.7952
  1236.4000      8.6520      1.3464     -0.0100     79.0079     69.3839     35.5623
  1236.5000      8.7429      1.3126     -0.0235     81.0569     60.8163     34.8321
  1236.6000      8.7429      1.2987      0.0106     81.9000     55.9978     33.9456
  1236.7000      8.7429      1.3001      0.0411     81.8138     54.0355     33.0831
  1236.8000      8.5985      1.3174     -0.0138     80.7664     53.5429     33.1667
  1236.9000      8.5985      1.3664      0.0354     77.7913     54.3201     34.2046
  1237.0000      8.5451      1.4530      0.0446     72.5427     55.0941     34.6276
  1237.1000      8.5451      1.5712      0.0471     65.3818     53.9267     33.9872
  1237.2000      8.5451      1.7156      0.0941     56.6314     53.4708     33.3469
  1237.3000      8.6200      1.8724      0.1855     47.1276     56.3955     33.0890
  1237.4000      8.6200      2.0173      0.2155     38.3475     60.9228     32.7598
  1237.5000      8.7193      2.1424      0.2436     30.7629     64.9956     32.1418
  1237.6000      8.7193      2.2721      0.2078     22.9033     67.9599     31.2742
  1237.7000      8.7193      2.4187      0.2475     14.0207     70.2410     30.1567
  1237.8000      8.6828      2.5427      0.2578      6.5005     74.6974     28.4539
  1237.9000      8.6828      2.5988      0.2085      3.1043     84.3806     26.0074
  1238.0000      8.4527      2.5963      0.0936      3.2561     97.1529     23.7965
  1238.1000      8.4527      2.5807      0.0523      4.1997    106.9299     22.9083
  1238.2000      8.4527      2.5702      0.0994      4.8353    111.5488     23.0853
  1238.3000      8.1460      2.5599      0.0370      5.4619    113.8193     23.0300
  1238.4000      8.1460      2.5592      0.0401      5.5034    115.6453     22.0957
  1238.5000      8.0951      2.5744      0.0459      4.5811    115.7724     21.2723
  1238.6000      8.0951      2.5916      0.0485      3.5379    116.4524     21.5466
  1238.7000      8.0951      2.5950      0.0508      3.3328    122.0147     22.3337
  1238.8000      8.0758      2.5810      0.0514      4.1835    131.0647     22.2816
  1238.9000      8.0758      2.5665      0.0168      5.0596    139.6656     20.9643
  1239.0000      8.0328      2.5672      0.0242      5.0166    143.0132     19.4466
  1239.1000      8.0328      2.5738      0.0181      4.6183    141.1511     19.1583
  1239.2000      8.0328      2.5826     -0.0043      4.0837    140.1236     20.0108
  1239.3000      8.0225      2.6010      0.0716      2.9718    141.8947     20.7675
  1239.4000      8.0225      2.6163      0.1048      2.0432    143.5616     21.1485
  1239.5000      8.0122      2.6076      0.0845      2.5678    143.6780     21.5195
  1239.6000      8.0122      2.5795      0.0165      4.2722    146.4135     21.5777
  1239.7000      8.0122      2.5625      0.0012      5.3054    149.3576     21.1093
  1239.8000      7.9967      2.5705      0.0296      4.8183    143.2248     20.5209
  1239.9000      7.9967      2.5827      0.0250      4.0763    133.0493     20.0952
  1240.0000      8.0121      2.5778      0.0335      4.3777    131.0762     19.6334
  1240.1000      8.0121      2.5596      0.0269      5.4812    134.6715     19.4773
