~Version Information
VERS.                      2.0: CWLS Log ASCII Standard - VERSION 2.0
WRAP.                       NO: One line per depth step
~Well Information Block
STRT.FT               452.0000: 
STOP.FT              1726.5000: 
STEP.FT                 0.1000: 
NULL.                -999.2500: 
COMP.          Pioneer Natural Resources: COMPANY
WELL.          Parrothead 31-31 Tr: WELL
FLD.           Purgatoire River: FIELD
LOC.           496' FNL & 1546' FEL: LOCATION
PROV.                 Colorado: PROVINCE
CNTY.               Las Animas: COUNTRY
SRVC.                Patterson: SERVICE COMPANY
DATE.          Thu Nov 10 07:29:36 2005: LOG DATE
UWI.           05 071 08610 00: UNIQUE WELL ID
~Curve Information Block
DEPT.FT            0 000 00 00: Depth
DCAL.in                       : CDL Caliper
RHOB.g/cc                     : CDL Bulk Density
RHOC.g/cc                     : CDL Density Correction
DPOR.pu                       : CDL Density Porosity
GR.GAPI                       : Gamma Ray
NPOR.pu                       : Neutron Porosity
~Parameter Information Block
~A  Depth       DCAL        RHOB        RHOC        DPOR         GR         NPOR    
   452.0000      4.8141      2.3368      2.0000     -0.0063     68.2035     13.0838
   452.1000      4.8141      2.3220      2.0000     -0.0066     66.1744     13.1774
   452.2000      4.8141      2.3083      2.0000     -0.0068     65.0644     12.7526
   452.3000      4.8226      2.3078      2.0000     -0.0068     62.6264     12.6765
   452.4000      4.8226      2.3133      2.0000     -0.0067     56.7651     12.5804
   452.5000      4.8173      2.3154      2.0000     -0.0067     53.8998     12.0866
   452.6000      4.8173      2.3174      2.0000     -0.0067     60.1878     11.7188
   452.7000      4.8173      2.3260      2.0000     -0.0065     68.9772     11.7530
   452.8000      4.8047      2.3390      2.0000     -0.0062     71.1508     12.1400
   452.9000      4.8047      2.3508      2.0000     -0.0060     69.9473     12.5359
   453.0000      4.8154      2.3571      2.0000     -0.0059     70.0339     12.4512
   453.1000      4.8154      2.3541      2.0000     -0.0059     68.2888     11.8336
   453.2000      4.8154      2.3405      2.0000     -0.0062     64.1207     10.9963
   453.3000      4.8087      2.3223      2.0000     -0.0066     60.3965     10.4967
   453.4000      4.8087      2.3147      2.0000     -0.0067     58.3104     10.8595
   453.5000      4.8158      2.3231      2.0000     -0.0065     57.1279     11.7860
   453.6000      4.8158      2.3321      2.0000     -0.0064     56.7155     12.1746
   453.7000      4.8158      2.3289      2.0000     -0.0064     59.3053     11.3672
   453.8000      4.8210      2.3160      2.0000     -0.0067     64.1432     10.0684
   453.9000      4.8210      2.2998      0.5015     -0.0070     64.5230      9.5400
   454.0000      4.8135      2.2856      0.4449     -0.0073     59.0321     10.1359
   454.1000      4.8135      2.2783      0.4725     -0.0074     53.9476     10.9250
   454.2000      4.8135      2.2758      0.4831     -0.0075     50.5892     10.8717
   454.3000      4.8127      2.2748      0.4684     -0.0075     47.3219     10.3429
   454.4000      4.8127      2.2737      0.4756     22.8073     44.5441     10.3140
   454.5000      4.8175      2.2684      0.4816     23.1279     42.8420     11.0459
   454.6000      4.8175      2.2613      0.4696     23.5590     43.2723     12.2264
   454.7000      4.8175      2.2624      0.4372     23.4887     46.5292     13.3340
   454.8000      4.8126      2.2714      0.4903     22.9447     50.0418     13.9460
   454.9000      4.8126      2.2782      0.4745     22.5326     51.9336     14.4351
   455.0000      4.8146      2.2769      0.4738     22.6146     54.7506     15.3311
   455.1000      4.8146      2.2681      0.4770     23.1439     61.1553     15.9358
   455.2000      4.8146      2.2636      0.4467     23.4211     71.6970     15.7325
   455.3000      4.8097      2.2733      0.4710     22.8319     83.6062     15.5329
   455.4000      4.8097      2.2916      0.4936     21.7184     91.5380     15.9776
   455.5000      4.8249      2.3074      0.4973     20.7652     95.1299     16.8815
   455.6000      4.8249      2.3131      0.4978     20.4211    100.4614     17.8922
   455.7000      4.8249      2.3083      0.5129     20.7069    109.8634     18.6446
   455.8000      4.8238      2.3031      0.4539     21.0262    118.0353     18.6337
   455.9000      4.8238      2.3070      0.4746     20.7858    120.8505     17.7011
   456.0000      4.8223      2.3171      0.4816     20.1747    120.8746     16.5292
   456.1000      4.8223      2.3268      0.5161     19.5907    121.8784     16.2077
   456.2000      4.8223      2.3352      0.4930     19.0802    125.1635     17.1810
   456.3000      4.8181      2.3480      0.4846     18.3031    131.8566     18.5486
   456.4000      4.8181      2.3661      0.5235     17.2083    140.0823     19.0198
   456.5000      4.8208      2.3766      0.5328     16.5700    146.7844     18.8405
   456.6000      4.8208      2.3700      0.5115     16.9716    150.8218     18.8691
   456.7000      4.8208      2.3520      0.4961     18.0627    148.8139     19.0453
   456.8000      4.8317      2.3351      0.4886     19.0846    143.1504     19.2808
   456.9000      4.8317      2.3253      0.4622     19.6817    144.2408     20.0307
   457.0000      4.8116      2.3201      0.4715     19.9958    152.7694     20.7334
   457.1000      4.8116      2.3222      0.4542     19.8676    160.3395     20.3155
   457.2000      4.8116      2.3395      0.4895     18.8165    161.2852     19.3110
   457.3000      4.8174      2.3773      0.4795     16.5280    153.9796     18.7896
   457.4000      4.8174      2.4363      0.5002     12.9508    144.5314     18.9391
   457.5000      4.8083      2.5040      0.5220      8.8512    139.7057     20.0454
   457.6000      4.8083      2.5593      0.5276      5.4975    137.7760     21.9515
   457.7000      4.8083      2.5926      0.5081      3.4771    139.8846     23.1259
   457.8000      4.8149      2.5962      0.5709      3.2614    147.9809     22.8211
   457.9000      4.8149      2.5506      0.5347      6.0263    152.5173     21.9126
   458.0000      4.8258      2.4380      0.4992     12.8466    149.3447     20.9945
   458.1000      4.8258      2.2470      0.3629     24.4251    144.8955     19.9951
   458.2000      4.8258      1.9783      0.2380     40.7099    140.0017     19.2975
   458.3000      4.8235      1.6582      0.1479     60.1085    131.6870     19.5621
   458.4000      4.8235      1.3377      0.0280     79.5334    124.2707     20.3871
   458.5000      4.8389      1.0707     -0.0251     95.7139    125.8564     20.8602
   458.6000      4.8389      0.8905     -0.0659    106.6351    131.5883     20.9460
   458.7000      4.8389      0.8046      0.0114    111.8446    131.2991     20.6277
   458.8000      4.8044      0.7920      0.0640    112.6043    125.3121     19.5533
   458.9000      4.8044      0.8024      0.2366    111.9767    120.1545     17.9640
   459.0000      4.7781      0.7849      0.1657    113.0348    123.9962     16.7377
   459.1000      4.7781      0.7392      0.0263    115.8063    132.9275     16.3571
   459.2000      4.7781      0.7139     -0.1240    117.3366    136.6790     16.4549
   459.3000      4.7822      0.7775     -0.3371    113.4860    136.7617     16.6799
   459.4000      4.7822      0.9876     -0.4172    100.7508    137.0462     16.8915
   459.5000      4.7943      1.3380     -0.3122     79.5138    136.7902     16.9448
   459.6000      4.7943      1.7546     -0.1790     54.2687    134.6795     16.7955
   459.7000      4.7943      2.1738     -0.0419     28.8623    129.4603     16.2737
   459.8000      4.8045      2.5751      0.2233      4.5387    122.4400     15.9514
   459.9000      4.8045      2.9276      0.5770    -16.8216    116.6755     16.3071
   460.0000      4.8283      3.1684      0.8250    -31.4179    115.4929     16.8147
   460.1000      4.8283      3.2460      0.8731    -36.1186    117.4852     17.2191
   460.2000      4.8283      3.1412      0.6247    -29.7710    117.1529     17.7257
   460.3000      4.8336      2.8410      0.4370    -11.5756    115.8155     17.8447
   460.4000      4.8336      2.3770      0.1346     16.5480    117.0390     17.0672
   460.5000      4.8430      1.9638     -0.2349     41.5909    116.2814     15.9706
   460.6000      4.8430      1.8819     -0.2708     46.5505    107.5978     15.1528
   460.7000      4.8430      2.1160     -0.0996     32.3618     97.3274     14.5265
   460.8000      5.2029      2.3907     -0.0765     15.7181     94.9608     14.1771
   460.9000      5.2029      2.5486     -0.1364      6.1455     94.6283     14.4594
   461.0000      7.9149      2.6223     -0.0863      1.6806     90.8563     15.0985
   461.1000      7.9149      2.6388      0.0649      0.6765     90.0943     15.6101
   461.2000      7.9149      2.5730      0.0350      4.6663     95.8617     16.0479
   461.3000      8.2843      2.4573     -0.3806     11.6767    106.9985     16.3921
   461.4000      8.2843      2.3660     -0.3509     17.2131    125.0991     16.2922
   461.5000      8.2850      2.3103     -0.4068     20.5852    142.4462     15.6588
