~Version Information
VERS.                      2.0: CWLS Log ASCII Standard - VERSION 2.0
WRAP.                       NO: One line per depth step
~Well Information Block
STRT.FT               673.2000: 
STOP.FT              1510.5000: 
STEP.FT                 0.1000: 
NULL.                -999.2500: 
COMP.          Pioneer Natural Resources: COMPANY
WELL.          Hammerhead 24-24 Tr: WELL
FLD.           Purgatoire River: FIELD
LOC.           953' FSL & 1922' FWL: LOCATION
PROV.                 Colorado: PROVINCE
CNTY.               Las Animas: COUNTRY
SRVC.                Patterson: SERVICE COMPANY
DATE.          Mon Jan 30 07:27:57 2006: LOG DATE
UWI.           05 071 08669 00: UNIQUE WELL ID
~Curve Information Block
DEPT.FT            0 000 00 00: Depth
DCAL.in                       : CDL Caliper
RHOB.g/cc                     : CDL Bulk Density
RHOC.g/cc                     : CDL Density Correction
DPOR.pu                       : CDL Density Porosity
GR.GAPI                       : Gamma Ray
~Parameter Information Block
~A  Depth       DCAL        RHOB        RHOC        DPOR         GR     
# ...
   684.4000   -999.2500   -999.2500   -999.2500   -999.2500     94.5692
   684.5000   -999.2500   -999.2500   -999.2500   -999.2500     91.9789
   684.6000   -999.2500   -999.2500   -999.2500   -999.2500     83.0942
   684.7000   -999.2500   -999.2500   -999.2500   -999.2500     76.0281
   684.8000   -999.2500   -999.2500   -999.2500   -999.2500     72.1621
   684.9000   -999.2500   -999.2500   -999.2500   -999.2500     70.1059
   685.0000   -999.2500   -999.2500   -999.2500   -999.2500     68.4163
   685.1000   -999.2500   -999.2500   -999.2500   -999.2500     66.9645
   685.2000   -999.2500   -999.2500   -999.2500   -999.2500     65.7801
   685.3000   -999.2500   -999.2500   -999.2500   -999.2500     65.9901
   685.4000   -999.2500   -999.2500   -999.2500   -999.2500     69.0003
   685.5000   -999.2500   -999.2500   -999.2500   -999.2500     70.7340
   685.6000   -999.2500   -999.2500   -999.2500   -999.2500     69.1070
   685.7000   -999.2500   -999.2500   -999.2500   -999.2500     67.5432
   685.8000   -999.2500   -999.2500   -999.2500   -999.2500     68.1937
   685.9000   -999.2500   -999.2500   -999.2500   -999.2500     70.7574
   686.0000   -999.2500   -999.2500   -999.2500   -999.2500     73.5479
   686.1000   -999.2500   -999.2500   -999.2500   -999.2500     73.9839
   686.2000   -999.2500   -999.2500   -999.2500   -999.2500     69.8475
   686.3000   -999.2500   -999.2500   -999.2500   -999.2500     63.6347
   686.4000   -999.2500   -999.2500   -999.2500   -999.2500     61.1989
   686.5000   -999.2500   -999.2500   -999.2500   -999.2500     62.5687
   686.6000   -999.2500   -999.2500   -999.2500   -999.2500     63.9877
   686.7000   -999.2500   -999.2500   -999.2500   -999.2500     65.4784
   686.8000   -999.2500   -999.2500   -999.2500   -999.2500     66.5647
   686.9000   -999.2500   -999.2500   -999.2500   -999.2500     64.2029
   687.0000   -999.2500   -999.2500   -999.2500   -999.2500     58.4630
   687.1000   -999.2500   -999.2500   -999.2500   -999.2500     53.7609
   687.2000   -999.2500   -999.2500   -999.2500   -999.2500     53.8735
   687.3000   -999.2500   -999.2500   -999.2500   -999.2500     56.4436
   687.4000   -999.2500   -999.2500   -999.2500   -999.2500     56.2018
   687.5000   -999.2500   -999.2500   -999.2500   -999.2500     53.2159
   687.6000   -999.2500   -999.2500   -999.2500   -999.2500     50.0959
   687.7000   -999.2500   -999.2500   -999.2500   -999.2500     48.5479
   687.8000   -999.2500   -999.2500   -999.2500   -999.2500     50.8492
   687.9000   -999.2500   -999.2500   -999.2500   -999.2500     56.8822
   688.0000   -999.2500   -999.2500   -999.2500   -999.2500     62.1674
   688.1000   -999.2500   -999.2500   -999.2500   -999.2500     63.1246
   688.2000   -999.2500   -999.2500   -999.2500   -999.2500     61.7844
   688.3000   -999.2500   -999.2500   -999.2500   -999.2500     62.5243
   688.4000   -999.2500   -999.2500   -999.2500   -999.2500     65.2924
   688.5000   -999.2500   -999.2500   -999.2500   -999.2500     65.2421
   688.6000   -999.2500   -999.2500   -999.2500   -999.2500     60.8183
   688.7000   -999.2500   -999.2500   -999.2500   -999.2500     57.8202
   688.8000   -999.2500   -999.2500   -999.2500   -999.2500     60.8930
   688.9000   -999.2500   -999.2500   -999.2500   -999.2500     67.6969
   689.0000   -999.2500   -999.2500   -999.2500   -999.2500     73.3285
   689.1000   -999.2500   -999.2500   -999.2500   -999.2500     73.3304
   689.2000   -999.2500   -999.2500   -999.2500   -999.2500     68.3513
   689.3000   -999.2500   -999.2500   -999.2500   -999.2500     63.5633
   689.4000   -999.2500   -999.2500   -999.2500   -999.2500     61.4920
   689.5000   -999.2500   -999.2500   -999.2500   -999.2500     61.3914
   689.6000   -999.2500   -999.2500   -999.2500   -999.2500     61.4757
   689.7000   -999.2500   -999.2500   -999.2500   -999.2500     59.9409
   689.8000   -999.2500   -999.2500   -999.2500   -999.2500     57.0326
   689.9000   -999.2500   -999.2500   -999.2500   -999.2500     54.5410
   690.0000   -999.2500   -999.2500   -999.2500   -999.2500     54.6358
   690.1000   -999.2500   -999.2500      0.0703   -999.2500     59.6672
   690.2000   -999.2500   -999.2500      0.0362   -999.2500     66.3629
   690.3000   -999.2500   -999.2500      0.1097   -999.2500     67.6101
   690.4000   -999.2500   -999.2500      0.0968   -999.2500     63.8923
   690.5000      3.1474   -999.2500      0.1270   -999.2500     60.8852
   690.6000      3.1474      2.0441      0.0739     36.7240     61.2208
   690.7000      3.1474      2.0372      0.1446     37.1366     64.5997
   690.8000      3.1478      2.0210      0.1042     38.1237     68.0475
   690.9000      3.1478      1.9988      0.0719     39.4684     68.4068
   691.0000      3.1483      1.9725      0.1244     41.0590     68.0739
   691.1000      3.1483      1.9405      0.0878     43.0001     70.8005
   691.2000      3.1483      1.9185      0.0545     44.3309     73.9973
   691.3000      3.1503      1.9203      0.0865     44.2233     74.2228
   691.4000      3.1503      1.9301      0.1255     43.6310     73.4770
   691.5000      3.1526      1.9321      0.0919     43.5068     74.4041
   691.6000      3.1526      1.9307      0.0637     43.5968     76.1512
   691.7000      3.1526      1.9271      0.1149     43.8148     74.7373
   691.8000      3.1533      1.9188      0.0688     44.3133     71.2549
   691.9000      3.1533      1.9120      0.0752     44.7265     70.6638
   692.0000      3.1529      1.9150      0.0720     44.5429     72.1660
   692.1000      3.1529      1.9365      0.0799     43.2410     73.5706
   692.2000      3.1529      1.9768      0.1403     40.8019     73.4633
   692.3000      3.1529      2.0217      0.1480     38.0774     71.6684
   692.4000      3.1529      2.0553      0.1922     36.0399     71.5999
   692.5000      3.1515      2.0692      0.1915     35.2003     74.4639
   692.6000      3.1515      2.0657      0.1882     35.4112     77.3019
   692.7000      3.1515      2.0528      0.1994     36.1938     78.6604
   692.8000      3.1480      2.0354      0.1659     37.2511     78.4321
   692.9000      3.1480      2.0166      0.1478     38.3851     75.3662
   693.0000      3.1459      2.0007      0.1575     39.3505     72.0999
   693.1000      3.1459      1.9901      0.1376     39.9950     73.9032
   693.2000      3.1459      1.9825      0.1571     40.4529     79.0308
   693.3000      3.1460      1.9762      0.1112     40.8357     81.2767
   693.4000      3.1460      1.9764      0.1403     40.8215     81.5809
   693.5000      3.1480      1.9843      0.1253     40.3434     82.8046
   693.6000      3.1480      1.9912      0.1662     39.9284     83.4440
   693.7000      3.1480      1.9887      0.1496     40.0783     80.6438
   693.8000      3.1497      1.9829      0.1214     40.4329     75.5154
   693.9000      3.1497      1.9859      0.1525     40.2469     74.0673
   694.0000      3.1511      2.0012      0.1620     39.3239     78.1730
   694.1000      3.1511      2.0227      0.1807     38.0189     79.6866
   694.2000      3.1511      2.0349      0.2092     37.2798     74.1509
   694.3000      3.1522      2.0286      0.1751     37.6633     69.2512
   694.4000      3.1522      2.0214      0.1519     38.0957     69.0986
   694.5000      3.1532      2.0297      0.1731     37.5933     71.8440
   694.6000      3.1532      2.0427      0.1875     36.8078     76.7676
   694.7000      3.1532      2.0491      0.1737     36.4191     81.8402
   694.8000      3.1541      2.0531      0.1739     36.1729     83.4409
   694.9000      3.1541      2.0616      0.1870     35.6620     81.2744
   695.0000      3.1527      2.0775      0.1653     34.6997     79.6299
   695.1000      3.1527      2.0976      0.2061     33.4776     80.8760
   695.2000      3.1527      2.1123      0.2157     32.5887     83.8760
   695.3000      3.1503      2.1141      0.2011     32.4764     85.2682
   695.4000      3.1503      2.1041      0.1819     33.0823     83.0363
   695.5000      3.1485      2.0918      0.1947     33.8281     80.4979
