~Version Information
 VERS.                                  2.0 : CWLS LAS VERSION
 WRAP.                                   NO : WRAPING MODE
 SWARE .                 MController 2.5.3A : SOFTWARE VERSION
~Well Information
 WELL.                           Ryan 41-17 : WELL
 COMP.  Pioneer Natural Resources USA, Inc. : COMPANY
 FLD.                      Purgatoire River : FIELD
 LOC.             NE/NE Sec. 17, T33S, R65W : LOCATION
 DATE.                           03/16/2006 : DATE(S) LOGGED
 SRVC.                  Entrada GeoSciences : SERVICE COMPANY
 STAT.                             Colorado : STATE
 CNTY.                           Las Animas : COUNTY
 CTRY.                        United States : COUNTRY
 API.                       05-071-08719-00 : API NUMBER
 STRT.FT                             250.00 : START DEPTH
 STOP.FT                            1155.00 : STOP DEPTH
 STEP.FT                               1.00 : DEPTH INCREMENT
 NULL.                                -9999 : NULL VALUE
~Curve information
 DEPTH.FT                                   :
 ROP.MIN/FT                                 :
 GAS.UNITS                                  :
~ASCII Log data
# ...
      450.00         0.27         16.8 
      451.00         0.27         17.2 
      452.00         0.33         16.9 
      453.00         0.27         16.9 
      454.00         0.27         16.4 
      455.00         0.28         16.8 
      456.00         0.23         16.4 
      457.00         0.23        138.2 
      458.00         0.27         26.0 
      459.00         0.07         26.0 
      460.00         0.27         23.6 
      461.00         0.27         20.2 
      462.00         0.27         20.0 
      463.00         0.33         24.0 
      464.00         0.10         24.0 
      465.00         0.20         24.1 
      466.00         0.27         21.5 
      467.00         0.27         21.0 
      468.00         0.27         17.7 
      469.00         0.23         17.1 
      470.00         0.32         16.8 
      471.00         0.23         17.1 
      472.00         0.27         16.6 
      473.00         0.23         16.6 
      474.00         0.47         16.7 
      475.00         0.27         16.6 
      476.00         0.27         17.0 
      477.00         0.20         17.7 
      478.00         0.10         20.0 
      479.00         0.33         20.3 
      480.00         0.23         20.9 
      481.00         0.37         19.2 
      482.00         0.22         18.8 
      483.00         0.07         18.6 
      484.00         0.27         19.0 
      485.00         0.03         19.0 
      486.00         0.30         19.0 
      487.00         0.30         18.9 
      488.00         0.27        113.3 
      489.00         0.27         51.4 
      490.00         0.27         35.3 
      491.00         0.57         28.9 
      492.00         0.27         22.8 
      493.00         0.23         22.0 
      494.00         0.30         21.9 
      495.00         0.23         25.1 
      496.00         0.13         25.1 
      497.00         0.27         26.8 
      498.00         0.28         26.0 
      499.00         0.30         26.0 
      500.00         0.30         25.0 
      501.00         0.27         24.4 
      502.00         0.27         23.4 
      503.00         0.03         23.3 
      504.00         0.30         22.5 
      505.00         0.33         22.0 
      506.00         0.33         22.0 
      507.00         0.27         21.6 
      508.00         0.40         22.1 
      509.00         0.27         21.4 
      510.00         0.10         21.4 
      511.00         0.35         21.3 
      512.00         0.37         21.7 
      513.00         0.33         20.9 
      514.00         0.33         20.7 
      515.00         0.30         20.8 
      516.00         0.23         20.7 
      517.00         0.27         21.4 
      518.00         0.23        119.1 
      519.00         0.27         56.7 
      520.00         0.27         43.7 
      521.00         0.40         32.1 
      522.00         0.28         27.6 
      523.00         0.23         25.0 
      524.00         0.33         24.7 
      525.00         0.33         23.3 
      526.00         0.37         22.8 
      527.00         0.33         22.2 
      528.00         0.33         21.8 
      529.00         0.33         21.5 
      530.00         0.30         20.6 
      531.00         0.27         21.0 
      532.00         0.23         22.0 
      533.00         0.23         23.2 
      534.00         0.25         23.4 
      535.00         0.23         22.9 
      536.00         0.20         22.7 
      537.00         0.23         22.6 
      538.00         0.23         21.7 
      539.00         0.17         21.7 
      540.00         0.30         21.3 
      541.00         0.40         22.2 
      542.00         0.30         22.1 
      543.00         0.27         21.1 
      544.00         0.30         21.3 
      545.00         0.40         20.7 
      546.00         0.22         20.7 
      547.00         0.37         18.8 
      548.00         0.27         19.8 
      549.00         0.37        105.7 
      550.00         0.27         38.5 
      551.00         0.53         37.2 
      552.00         0.30         29.8 
      553.00         0.30         27.1 
      554.00         0.17         25.2 
      555.00         0.23         23.7 
      556.00         0.23         22.8 
      557.00         0.20         22.8 
      558.00         0.27         21.8 
      559.00         0.30         21.8 
      560.00         0.23         22.0 
      561.00         0.20         22.1 
      562.00         0.17         21.1 
      563.00         0.20         21.4 
      564.00         0.23         21.4 
      565.00         0.28         22.3 
      566.00         0.13         22.7 
      567.00         0.33         22.4 
      568.00         0.27         21.9 
      569.00         0.30         22.7 
      570.00         0.23         23.4 
      571.00         0.27         22.4 
      572.00         0.27         21.8 
      573.00         0.33         21.4 
      574.00         0.20         21.4 
      575.00         0.23         21.8 
      576.00         0.30         22.1 
      577.00         0.27         22.6 
      578.00         0.38        102.7 
      579.00         0.27         33.8 
      580.00         0.27         30.0 
      581.00         0.37         27.3 
      582.00         0.27         23.8 
      583.00         0.20         23.0 
      584.00         0.17         22.2 
      585.00         0.20         22.0 
      586.00         0.13         21.9 
      587.00         0.20         21.9 
      588.00         0.20         22.1 
      589.00         0.17         23.6 
      590.00         0.13         29.4 
      591.00         0.27         34.7 
      592.00         0.33         35.5 
      593.00         0.17         33.6 
      594.00         0.17         33.6 
      595.00         0.23         33.3 
      596.00         0.37         33.4 
      597.00         0.22         31.4 
      598.00         0.23         30.9 
      599.00         0.23         31.1 
      600.00         0.30         30.7 
      601.00         0.27         29.4 
      602.00         0.23         29.4 
      603.00         0.20         29.1 
      604.00         0.23         28.8 
      605.00         0.23         28.9 
      606.00         0.20         28.9 
      607.00         0.20         29.3 
      608.00         0.27         27.7 
      609.00         0.27        148.3 
      610.00         0.28         45.5 
      611.00         0.53         44.1 
      612.00         0.27         35.6 
      613.00         0.30         32.2 
      614.00         0.32         28.4 
      615.00         0.33         27.8 
      616.00         0.27         27.8 
      617.00         0.30         27.8 
      618.00         0.23         27.3 
      619.00         0.20         26.6 
      620.00         0.27         25.8 
      621.00         0.30         24.8 
      622.00         0.30         25.5 
      623.00         0.33         25.6 
      624.00         0.33         24.8 
      625.00         0.32         25.1 
      626.00         0.23         24.4 
      627.00         0.20         24.2 
      628.00         0.27         23.4 
      629.00         0.30         22.6 
      630.00         0.30         22.5 
      631.00         0.23         22.7 
      632.00         0.43         25.6 
      633.00         0.20         25.8 
      634.00         0.27         25.3 
      635.00         0.23         24.5 
      636.00         0.13         26.6 
      637.00         0.30         27.9 
      638.00         0.32         27.2 
      639.00         0.30        185.3 
      640.00         0.27         29.9 
      641.00         0.73         32.4 
      642.00         0.30         34.4 
      643.00         0.30         35.3 
      644.00         0.33         31.6 
      645.00         0.37         29.2 
      646.00         0.32         28.8 
      647.00         0.33         28.1 
      648.00         0.30         28.4 
      649.00         0.30         28.2 
