~Version Information
 VERS.                                  2.0 : CWLS LAS VERSION
 WRAP.                                   NO : WRAPING MODE
 SWARE .                 MController 2.5.0N : SOFTWARE VERSION
~Well Information
 WELL.                        Avant 14-3 Tr : WELL
 COMP.  Pioneer Natural Resources USA, Inc. : COMPANY
 FLD.                      Purgatoire River : FIELD
 LOC.               SW/SW Sec 3 T33S  R67W  : LOCATION
 DATE.                             08/18/05 : DATE(S) LOGGED
 SRVC.       BLANCO Geological Services LLC : SERVICE COMPANY
 STAT.                                   CO : STATE
 CNTY.                           Las Animas : COUNTY
 CTRY.                                  USA : COUNTRY
 API.                       05 071 08463 00 : API NUMBER
 STRT.FT                             585.00 : START DEPTH
 STOP.FT                            1345.00 : STOP DEPTH
 STEP.FT                               1.00 : DEPTH INCREMENT
 NULL.                                -9999 : NULL VALUE
~Curve information
 DEPTH.FT                                   :
 ROP.MIN/FT                                 :
 GAS.UNITS                                  :
~ASCII Log data
# ...
      1185.0         0.27         11.2 
      1186.0         0.23         10.5 
      1187.0         0.37         10.3 
      1188.0         0.27         10.8 
      1189.0         0.22         12.1 
      1190.0         0.20         12.3 
      1191.0         0.13         12.3 
      1192.0         0.30         12.1 
      1193.0         0.17         11.8 
      1194.0         0.27         11.1 
      1195.0         0.23         11.2 
      1196.0         0.63         16.4 
      1197.0         0.23         17.1 
      1198.0         0.27         16.9 
      1199.0         0.33         15.9 
      1200.0         0.27         14.2 
      1201.0         0.23         14.3 
      1202.0         0.22         15.6 
      1203.0         0.30         19.7 
      1204.0         0.33         23.6 
      1205.0         0.23         24.3 
      1206.0         0.20         24.7 
      1207.0         0.30         23.4 
      1208.0         0.20         22.0 
      1209.0         0.20         19.0 
      1210.0         0.27         17.6 
      1211.0         0.23         15.4 
      1212.0         0.23         14.5 
      1213.0         0.23         13.9 
      1214.0         0.20         14.1 
      1215.0         0.28         14.0 
      1216.0         0.17         13.3 
      1217.0         0.10         13.5 
      1218.0         0.27         12.8 
      1219.0         0.23         12.6 
      1220.0         0.20         11.9 
      1221.0         0.17         11.1 
      1222.0         0.23         11.2 
      1223.0         0.23         10.8 
      1224.0         0.20         11.0 
      1225.0         1.62         18.7 
      1226.0         0.23         16.6 
      1227.0         0.33         15.5 
      1228.0         0.30         14.0 
      1229.0         0.20         13.7 
      1230.0         0.20         14.4 
      1231.0         0.17         15.1 
      1232.0         0.20         15.3 
      1233.0         0.20         15.6 
      1234.0         0.13         15.0 
      1235.0         0.20         14.8 
      1236.0         0.13         14.4 
      1237.0         0.17         14.2 
      1238.0         0.20         13.5 
      1239.0         0.20         13.0 
      1240.0         0.20         13.0 
      1241.0         0.22         12.9 
      1242.0         0.20         12.6 
      1243.0         0.20         12.7 
      1244.0         0.20         12.0 
      1245.0         0.20         12.0 
      1246.0         0.20         11.4 
      1247.0         0.17         11.7 
      1248.0         0.17         11.3 
      1249.0         0.20         11.5 
      1250.0         0.17         11.4 
      1251.0         0.13         10.8 
      1252.0         0.13         10.9 
      1253.0         0.20         10.6 
      1254.0         0.23         10.4 
      1255.0         0.27          9.9 
      1256.0         1.32         17.2 
      1257.0         0.30         16.1 
      1258.0         0.30         15.1 
      1259.0         0.30         13.7 
      1260.0         0.30         12.9 
      1261.0         0.23         12.6 
      1262.0         0.23         13.0 
      1263.0         0.23         13.3 
      1264.0         0.27         13.1 
      1265.0         0.30         12.6 
      1266.0         0.28         12.4 
      1267.0         0.20         11.9 
      1268.0         0.23         11.9 
      1269.0         0.23         11.3 
      1270.0         0.27         11.1 
      1271.0         0.27         11.1 
      1272.0         0.23         10.4 
      1273.0         0.27         10.9 
      1274.0         0.27         11.1 
      1275.0         0.27         10.9 
      1276.0         0.27         10.6 
      1277.0         0.23         11.0 
      1278.0         0.27         11.2 
      1279.0         0.20         10.5 
      1280.0         0.22         10.1 
      1281.0         0.30         10.2 
      1282.0         0.33         10.6 
      1283.0         0.23         10.6 
      1284.0         0.23         10.1 
      1285.0         0.27          9.8 
      1286.0         1.33         20.5 
      1287.0         0.47         21.6 
      1288.0         0.55         20.0 
      1289.0         0.37         15.7 
      1290.0         0.43         13.7 
      1291.0         0.47         13.4 
      1292.0         0.37         13.2 
      1293.0         0.30         13.0 
      1294.0         0.27         12.5 
      1295.0         0.27         12.1 
      1296.0         0.28         12.0 
      1297.0         0.23         11.7 
      1298.0         0.20         11.3 
      1299.0         0.20         11.3 
      1300.0         0.23         11.8 
      1301.0         0.20         11.7 
      1302.0         0.23         11.5 
      1303.0         0.20         12.0 
      1304.0         0.23         11.5 
      1305.0         0.23         11.7 
      1306.0         0.20         12.3 
      1307.0         0.20         13.6 
      1308.0         0.20         15.0 
      1309.0         0.23         16.5 
      1310.0         0.23         16.7 
      1311.0         0.13         16.5 
      1312.0         0.28         16.7 
      1313.0         0.40         16.1 
      1314.0         0.30         14.1 
      1315.0         0.37         13.6 
      1316.0         1.57         37.0 
      1317.0         0.27         36.9 
      1318.0         0.38         36.5 
      1319.0         0.20         34.8 
      1320.0         0.10         34.1 
      1321.0         0.17         32.8 
      1322.0         0.50         32.4 
      1323.0         0.27         25.5 
      1324.0         0.63         23.4 
      1325.0         0.27         23.2 
      1326.0         0.23         23.1 
      1327.0         0.27         22.0 
      1328.0         0.23         20.8 
      1329.0         0.23         20.1 
      1330.0         0.25         19.3 
      1331.0         0.33         18.5 
      1332.0         0.33         17.8 
      1333.0         0.33         17.3 
      1334.0         0.37         16.7 
      1335.0         0.33         15.9 
      1336.0         0.37         15.4 
      1337.0         0.30         15.0 
      1338.0         0.27         14.8 
      1339.0         0.27         15.9 
      1340.0         0.27         17.5 
      1341.0         0.25         18.3 
      1342.0         0.20         18.4 
      1343.0         0.17         18.2 
      1344.0         0.23         17.1 
      1345.0         0.20         15.2 
