~Version Information
VERS.                      2.0: CWLS Log ASCII Standard - VERSION 2.0
WRAP.                       NO: One line per depth step
~Well Information Block
STRT.FT               660.0000: 
STOP.FT              2491.0000: 
STEP.FT                 0.2500: 
NULL.                -999.2500: 
COMP.          Petrogulf Corporation: COMPANY
WELL.          Montoya 18-11V-B: WELL
FLD.           Purgatorie River: FIELD
LOC.           848' FNL & 619' FWL: LOCATION
PROV.                 Colorado: PROVINCE
CNTY.               Las Animas: COUNTRY
SRVC.                Patterson: SERVICE COMPANY
DATE.          Wed Oct 05 04:34:17 2005: LOG DATE
UWI.                          : UNIQUE WELL ID
~Curve Information Block
DEPT.FT            0 000 00 00: Depth
SP.mV                         : DIL Spontaneous Potential
RILD.Ohm-m                    : DIL Deep Resistivity
RILM.Ohm-m                    : DIL Medium Resistivity
RLL3.Ohm-m                    : DIL Shallow Resistivity
GR.GAPI                       : Gamma Ray
~Parameter Information Block
~A  Depth        SP         RILD        RILM        RLL3         GR     
# ...
  1724.0000    183.4024     11.3342     12.3465     20.2360     98.4713
  1724.2500    184.1586     10.6406     11.1481     14.4876    105.7363
  1724.5000    184.7344      9.9987     10.1557     11.1023    117.2282
  1724.7500    185.1233      9.4071      9.3395      9.4395    124.6390
  1725.0000    185.3445      8.8651      8.6679      8.7331    134.3484
  1725.2500    185.4368      8.3747      8.1131      8.4450    139.1251
  1725.5000    185.4504      7.9410      7.6530      8.2984    142.8089
  1725.7500    185.4374      7.5692      7.2712      8.1840    143.2045
  1726.0000    185.4396      7.2621      6.9561      8.0745    142.7763
  1726.2500    185.4792      7.0189      6.6996      7.9769    143.2501
  1726.5000    185.5567      6.8354      6.4956      7.9063    146.0822
  1726.7500    185.6587      6.7053      6.3397      7.8745    148.7615
  1727.0000    185.7688      6.6227      6.2279      7.8880    152.3073
  1727.2500    185.8763      6.5823      6.1569      7.9479    153.8892
  1727.5000    185.9766      6.5803      6.1241      8.0500    155.0862
  1727.7500    186.0678      6.6140      6.1275      8.1821    155.2554
  1728.0000    186.1440      6.6816      6.1661      8.3234    155.2789
  1728.2500    186.1885      6.7817      6.2395      8.4536    155.7383
  1728.5000    186.1702      6.9133      6.3484      8.5747    157.3317
  1728.7500    186.0485      7.0753      6.4936      8.7251    158.3702
  1729.0000    185.7865      7.2671      6.6759      8.9647    158.2568
  1729.2500    185.3636      7.4883      6.8958      9.3337    156.4194
  1729.5000    184.7807      7.7394      7.1538      9.8229    151.2113
  1729.7500    184.0592      8.0215      7.4498     10.3802    146.9300
  1730.0000    183.2356      8.3365      7.7843     10.9465    140.8674
  1730.2500    182.3532      8.6873      8.1583     11.4869    137.5523
  1730.5000    181.4505      9.0769      8.5738     11.9987    133.8629
  1730.7500    180.5534      9.5084      9.0336     12.5066    132.1946
  1731.0000    179.6737      9.9837      9.5417     13.0583    130.1344
  1731.2500    178.8131     10.5030     10.1019     13.7197    128.1994
  1731.5000    177.9679     11.0656     10.7183     14.5595    123.2913
  1731.7500    177.1326     11.6702     11.3939     15.6125    118.7545
  1732.0000    176.3024     12.3162     12.1311     16.8381    111.3871
  1732.2500    175.4748     13.0033     12.9314     18.1115    107.0874
  1732.5000    174.6453     13.7318     13.7956     19.2795    102.8452
  1732.7500    173.8016     14.5019     14.7242     20.2567    101.8585
  1733.0000    172.9199     15.3138     15.7173     21.0953    102.9466
  1733.2500    171.9686     16.1669     16.7739     21.9839    104.6388
  1733.5000    170.9209     17.0580     17.8910     23.1906    106.4882
  1733.7500    169.7689     17.9795     19.0626     24.9787    106.1765
  1734.0000    168.5300     18.9199     20.2793     27.4801    103.0659
  1734.2500    167.2416     19.8665     21.5298     30.5476     99.8613
  1734.5000    165.9461     20.8103     22.8020     33.7284     94.3583
  1734.7500    164.6809     21.7486     24.0844     36.4963     90.2233
  1735.0000    163.4777     22.6820     25.3658     38.6249     83.0423
  1735.2500    162.3681     23.6096     26.6338     40.3513     78.0331
  1735.5000    161.3849     24.5233     27.8725     42.1344     71.9158
  1735.7500    160.5557     25.4079     29.0616     44.2315     69.5541
  1736.0000    159.8967     26.2440     30.1788     46.4843     68.3494
  1736.2500    159.4143     27.0144     31.2043     48.4417     68.1334
  1736.5000    159.1107     27.7107     32.1254     49.6374     66.7422
  1736.7500    158.9867     28.3357     32.9400     49.8486     64.4622
  1737.0000    159.0347     28.9006     33.6560     49.2574     59.3067
  1737.2500    159.2281     29.4177     34.2884     48.3888     55.4531
  1737.5000    159.5188     29.8959     34.8559     47.7708     50.2439
  1737.7500    159.8469     30.3410     35.3778     47.5758     47.4164
  1738.0000    160.1589     30.7575     35.8731     47.5980     44.1108
  1738.2500    160.4234     31.1477     36.3600     47.5802     42.5737
  1738.5000    160.6342     31.5060     36.8546     47.5433     41.4571
  1738.7500    160.8028     31.8157     37.3668     47.8354     41.4204
  1739.0000    160.9475     32.0519     37.8961     48.9189     41.8569
  1739.2500    161.0868     32.1907     38.4276     51.0913     42.0861
  1739.5000    161.2390     32.2184     38.9299     54.3128     41.7254
  1739.7500    161.4262     32.1382     39.3596     58.2146     40.6885
  1740.0000    161.6768     31.9707     39.6693     62.2595     37.6721
  1740.2500    162.0219     31.7520     39.8194     65.9336     34.9254
  1740.5000    162.4877     31.5271     39.7904     68.8436     30.7958
  1740.7500    163.0899     31.3433     39.5911     70.6770     28.7385
  1741.0000    163.8320     31.2409     39.2610     71.0862     27.2940
  1741.2500    164.7041     31.2432     38.8650     69.6351     27.3433
  1741.5000    165.6799     31.3510     38.4815     65.9795     28.5371
  1741.7500    166.7152     31.5442     38.1881     60.2990     29.9807
  1742.0000    167.7504     31.7900     38.0486     53.6309     33.2102
  1742.2500    168.7225     32.0512     38.1030     47.5907     36.1073
  1742.5000    169.5842     32.2910     38.3620     43.5025     41.4341
  1742.7500    170.3200     32.4740     38.8052     41.7231     45.4776
  1743.0000    170.9494     32.5732     39.3826     41.8305     51.7378
  1743.2500    171.5143     32.5819     40.0203     43.3340     55.4824
  1743.5000    172.0588     32.5261     40.6318     45.9944     59.3946
  1743.7500    172.6177     32.4624     41.1353     49.4537     60.4550
  1744.0000    173.2124     32.4592     41.4735     52.8188     59.4293
  1744.2500    173.8507     32.5736     41.6299     54.9245     57.0146
  1744.5000    174.5275     32.8371     41.6348     55.1320     51.5790
  1744.7500    175.2289     33.2546     41.5571     53.7865     47.8956
  1745.0000    175.9432     33.8085     41.4864     51.8154     44.5770
  1745.2500    176.6667     34.4612     41.5141     49.9448     44.2926
  1745.5000    177.3994     35.1553     41.7168     48.3681     45.2312
  1745.7500    178.1331     35.8184     42.1477     47.0454     45.4207
  1746.0000    178.8450     36.3755     42.8286     46.1220     44.0756
  1746.2500    179.5011     36.7598     43.7403     45.9880     42.3847
  1746.5000    180.0693     36.9108     44.8074     46.9967     39.3940
  1746.7500    180.5319     36.7589     45.8765     49.1681     37.2935
  1747.0000    180.8941     36.2187     46.6988     52.1419     34.0818
  1747.2500    181.1838     35.2077     46.9393     55.3878     31.9145
  1747.5000    181.4454     33.6905     46.2436     58.4567     28.6753
  1747.7500    181.7333     31.7172     44.3699     61.0312     26.7029
  1748.0000    182.1041     29.4239     41.3267     62.7366     24.6192
  1748.2500    182.6038     26.9917     37.4103     62.9231     24.1230
  1748.5000    183.2536     24.5935     33.0906     60.7159     24.8928
  1748.7500    184.0406     22.3583     28.8275     55.4715     26.5116
  1749.0000    184.9206     20.3586     24.9427     47.4002     31.4317
  1749.2500    185.8320     18.6143     21.5924     37.7978     37.2207
  1749.5000    186.7131     17.1079     18.8058     28.5229     50.4974
  1749.7500    187.5180     15.8032     16.5392     21.0611     61.8514
  1750.0000    188.2226     14.6609     14.7183     15.9376     80.1032
  1750.2500    188.8222     13.6490     13.2633     12.8402     91.4774
  1750.5000    189.3225     12.7448     12.1014     11.1274    105.5605
  1750.7500    189.7283     11.9335     11.1705     10.2315    112.6110
  1751.0000    190.0364     11.2056     10.4205      9.7828    120.0047
  1751.2500    190.2356     10.5564      9.8120      9.5682    123.3143
  1751.5000    190.3140      9.9841      9.3144      9.4673    126.7553
  1751.7500    190.2705      9.4880      8.9044      9.4176    128.4962
