~Version Information
VERS.                      2.0: CWLS Log ASCII Standard - VERSION 2.0
WRAP.                       NO: One line per depth step
~Well Information Block
STRT.FT                 0.0000: 
STOP.FT              1981.7500: 
STEP.FT                 0.2500: 
NULL.                -999.2500: 
COMP.          Petrogulf Corporation: COMPANY
WELL.          Collister 17-31R: WELL
FLD.           Purgatorie River: FIELD
LOC.           962' FNL & 1520' FEL: LOCATION
STAT.                 Colorado: State
CNTY.               Las Animas: COUNTY
CTRY. USA : Country
SECT. 17 : Section
TOWN. 33S : Township
RANG. 67W : Range
SRVC.                Patterson: SERVICE COMPANY
DATE.          Fri Jan 06 10:32:29 2006: LOG DATE
API. 05-071-08436                         : UNIQUE WELL ID
~Curve Information Block
DEPT.FT            0 000 00 00: Depth
CCL.                          : Casing Collar Locator
TT3.usec                      : CBL 3' Travel Time
AMP3.mV                       : CBL 3' Amplitude
GR.GAPI                       : Gamma Ray
~Parameter Information Block
~A  Depth       CCL         TT3         AMP3         GR     
# ...
   402.0000      0.0000    613.7758      7.5210     74.1548
   402.2500      0.0000    604.6608      7.5668     72.0422
   402.5000      0.0000    598.1407      7.6087     69.7332
   402.7500      0.0000    600.1140      7.5833     67.7037
   403.0000      0.0000    608.2384      7.5369     66.3526
   403.2500      0.0000    613.6879      7.5308     65.9756
   403.5000      0.0000    616.6581      7.4430     66.5456
   403.7500      0.0000    626.5258      7.2359     67.4132
   404.0000      0.0000    643.7032      7.2182     67.3173
   404.2500      0.0000    658.8196      7.5357     64.9757
   404.5000      0.0000    667.7626      7.8943     59.9197
   404.7500      2.0000    674.0123      8.0461     52.8536
   405.0000     -2.0000    680.9495      8.0318     45.2976
   405.2500      0.0000    686.9185      7.9735     38.8306
   405.5000      0.0000    686.9756      7.9391     34.3098
   405.7500      0.0000    680.2437      7.9590     31.6021
   406.0000      0.0000    670.8055      8.0008     30.0807
   406.2500      0.0000    656.5396      7.9215     29.3657
   406.5000      0.0000    628.0258      7.7576     29.5502
   406.7500      0.0000    590.9180      7.8459     30.7861
   407.0000      0.0000    572.2290      8.2206     32.8009
   407.2500      0.0000    586.2349      8.4716     34.9458
   407.5000      0.0000    615.5441      8.3938     36.7373
   407.7500      0.0000    636.4382      8.1688     38.1821
   408.0000      0.0000    640.4141      7.9849     39.4695
   408.2500      0.0000    633.7733      7.8791     40.5201
   408.5000      0.0000    627.4644      7.8330     41.0573
   408.7500      0.0000    625.4980      7.8246     41.0650
   409.0000      0.0000    625.2565      7.8288     40.9423
   409.2500      0.0000    624.6481      7.8285     41.0696
   409.5000      0.0000    623.6967      7.8227     41.3192
   409.7500      0.0000    622.7565      7.8076     41.1285
   410.0000      0.0000    621.8916      7.7597     40.0537
   410.2500      0.0000    621.0889      7.6636     38.2821
   410.5000      0.0000    620.3300      7.5294     36.6881
   410.7500      0.0000    619.6291      7.3752     36.3063
   411.0000      0.0000    619.1132      7.2413     37.5911
   411.2500      0.0000    618.9037      7.1756     40.2131
   411.5000      0.0000    618.9277      7.1754     43.6754
   411.7500      0.0000    618.9832      7.2126     48.0222
   412.0000      0.0000    618.9536      7.2782     53.7647
   412.2500      0.0000    618.6995      7.3529     61.1765
   412.5000      0.0000    617.2736      7.3916     69.9105
   412.7500      0.0000    611.8723      7.3574     79.3096
   413.0000      0.0000    597.9781      7.2674     88.7666
   413.2500      0.0000    571.4936      7.1877     97.6084
   413.5000      0.0000    532.9574      7.1697    105.0269
   413.7500      0.0000    491.8309      7.2105    110.6272
   414.0000      0.0000    462.4077      7.2664    114.8352
   414.2500      0.0000    453.5363      7.3080    118.1475
   414.5000      0.0000    467.7641      7.3693    119.9297
   414.7500      0.0000    502.3033      7.4956    118.6260
   415.0000      0.0000    540.1542      7.6730    113.5627
   415.2500      0.0000    554.3008      7.8515    106.2964
   415.5000      0.0000    533.6565      8.0013     99.9397
   415.7500      0.0000    494.7517      8.1535     97.1580
   416.0000      0.0000    461.8651      8.3643     98.5394
   416.2500      0.0000    444.3747      8.6344    102.2919
   416.5000      0.0000    436.7870      8.9276    105.3131
   416.7500      0.0000    430.6614      9.2441    105.0200
   417.0000      0.0000    420.8769      9.5978    100.7579
   417.2500      0.0000    406.8269      9.9510     93.7837
   417.5000      0.0000    392.5209     10.2562     86.1330
   417.7500      0.0000    383.7832     10.5174     79.5306
   418.0000      0.0000    382.3755     10.7433     74.8636
   418.2500      0.0000    385.8351     10.8915     72.0957
   418.5000      0.0000    393.9529     10.9190     70.6857
   418.7500      0.0000    406.3837     10.8762     70.3361
   419.0000      0.0000    418.5258     10.8405     71.0765
   419.2500      0.0000    430.1687     10.7724     72.4722
   419.5000      0.0000    448.6046     10.5753     73.3681
   419.7500      0.0000    477.1707     10.2569     72.8732
   420.0000      0.0000    509.7206      9.9177     71.1734
   420.2500      0.0000    540.0056      9.6146     68.9569
   420.5000      0.0000    566.6040      9.3269     66.4131
   420.7500      0.0000    586.4974      9.0210     63.2347
   421.0000      0.0000    597.6375      8.6851     59.4193
   421.2500      0.0000    604.6124      8.3433     55.5969
   421.5000      0.0000    611.7305      8.0453     52.4710
   421.7500      0.0000    617.7953      7.8318     50.1367
   422.0000      0.0000    620.8419      7.7133     48.0403
   422.2500      0.0000    621.4877      7.6595     45.5637
   422.5000      0.0000    621.1829      7.6162     42.6054
   422.7500      0.0000    620.6110      7.5508     39.5961
   423.0000      0.0000    619.8641      7.4781     37.0950
   423.2500      0.0000    618.4553      7.4319     35.5151
   423.5000      0.0000    614.2733      7.4156     35.1219
   423.7500      0.0000    604.0139      7.4188     35.9706
   424.0000      0.0000    589.6229      7.4486     37.7119
   424.2500      0.0000    582.9528      7.5008     39.6717
   424.5000      0.0000    593.1809      7.5542     41.3915
   424.7500      0.0000    613.2433      7.5940     43.0793
   425.0000      0.0000    627.5938      7.6144     45.5241
   425.2500      0.0000    626.5181      7.6322     49.7642
   425.5000      0.0000    614.2014      7.6700     56.7912
   425.7500      0.0000    602.2277      7.7211     66.9474
   426.0000      0.0000    590.8705      7.7649     79.1434
   426.2500      0.0000    567.0216      7.7905     90.9615
   426.5000      0.0000    521.9070      7.8065    100.0530
   426.7500      0.0000    466.0320      7.8416    105.5541
   427.0000      0.0000    421.4177      7.9044    108.1434
   427.2500      0.0000    398.2995      7.9784    109.0211
   427.5000      0.0000    390.0295      8.0641    109.0278
   427.7500      0.0000    386.5316      8.1660    108.4526
   428.0000      0.0000    381.8343      8.2689    107.3135
   428.2500      0.0000    374.2214      8.3605    105.6357
   428.5000      0.0000    366.3463      8.4190    103.3694
   428.7500      0.0000    361.7168      8.4130    100.2120
   429.0000      0.0000    359.0628      8.3703     95.8461
   429.2500      0.0000    354.9643      8.3793     90.3433
   429.5000      0.0000    349.8802      8.4949     84.2215
   429.7500      0.0000    346.2626      8.6899     78.2861
   430.0000      0.0000    344.5751      8.8890     73.4780
   430.2500      0.0000    343.8812      9.0204     70.5052
   430.5000      0.0000    343.4797      9.0422     69.2532
   430.7500      0.0000    343.1921      8.9427     68.6645
   431.0000      0.0000    343.1008      8.7511     67.6521
   431.2500      0.0000    343.2583      8.5461     66.3041
   431.5000      0.0000    343.5754      8.4059     65.8133
   431.7500      0.0000    343.9223      8.3444     66.9471
   432.0000      0.0000    344.2396      8.3147     68.9605
   432.2500      0.0000    344.5307      8.2713     70.5441
   432.5000      0.0000    344.7805      8.2214     71.7497
   432.7500      0.0000    344.9413      8.1826     74.4238
   433.0000      0.0000    345.0058      8.1257     80.3548
   433.2500      0.0000    345.0324      8.0349     89.0982
   433.5000      0.0000    345.0862      7.9640     97.8552
   433.7500      0.0000    345.1970      7.9568    103.5284
   434.0000      0.0000    345.3178      7.9895    104.7075
   434.2500      0.0000    345.2717      8.0297    101.7945
   434.5000      0.0000    344.8827      8.0748     96.0489
   434.7500      0.0000    344.2333      8.1249     89.0683
   435.0000      0.0000    343.6563      8.1692     82.5336
   435.2500      0.0000    343.5957      8.1678     77.6692
