~Version Information
VERS.                      2.0: CWLS Log ASCII Standard - VERSION 2.0
WRAP.                       NO: One line per depth step
~Well Information Block
STRT.FT                -7.7500: 
STOP.FT              1793.5000: 
STEP.FT                 0.2500: 
NULL.                -999.2500: 
COMP.          Pioneer Natural Resources: COMPANY
WELL.           Loews 41-32 Tr: WELL
FLD.           Purgatorie River: FIELD
LOC.           706' FNL & 224' FEL--: LOCATION
CNTY.               Las Animas: COUNTY
SRVC.          Patterson Wireline: SERVICE COMPANY
DATE.          Fri Feb 24 11:31:48 2006: LOG DATE
UWI.           05 071 08690 00: UNIQUE WELL ID
STAT.                       CO: STATE
~Curve Information Block
DEPT.FT            0 000 00 00: Depth
CCL.                          : Casing Collar Locator
TT3.usec                      : CBL 3' Travel Time
AMP3.mV                       : CBL 3' Amplitude
GR.GAPI                       : Gamma Ray
~Parameter Information Block
~A  Depth       CCL         TT3         AMP3         GR     
# ...
  1767.7500      0.0000    714.1165      8.7782     84.7489
  1768.0000      0.0000    715.4330      8.7385     86.7128
  1768.2500      0.0000    719.3405      8.7380     87.6500
  1768.5000      0.0000    726.5300      8.7919     87.1826
  1768.7500      0.0000    736.0994      8.9050     85.5880
  1769.0000      0.0000    745.1815      9.0759     83.4194
  1769.2500      0.0000    750.6331      9.3023     81.1259
  1769.5000      0.0000    751.3821      9.5730     79.1026
  1769.7500      0.0000    748.9282      9.8551     77.8657
  1770.0000      0.0000    745.6122     10.0986     77.8426
  1770.2500      0.0000    742.6247     10.2596     78.8288
  1770.5000      0.0000    739.4135     10.3234     79.8474
  1770.7500      0.0000    734.3413     10.3088     79.9555
  1771.0000      0.0000    725.2739     10.2556     79.3643
  1771.2500      0.0000    710.3841     10.2046     79.6882
  1771.5000      0.0000    690.7222     10.1752     82.9700
  1771.7500      0.0000    673.0765     10.1548     90.3059
  1772.0000      0.0000    667.6885     10.1109    101.1020
  1772.2500      0.0000    679.7160     10.0204    113.4046
  1772.5000      0.0000    703.5192      9.8896    124.7923
  1772.7500      0.0000    727.5142      9.7516    133.2290
  1773.0000      0.0000    743.5804      9.6454    137.8773
  1773.2500      0.0000    750.6000      9.5917    139.5262
  1773.5000      0.0000    751.5286      9.5799    139.9087
  1773.7500      0.0000    749.8762      9.5754    140.4532
  1774.0000      0.0000    748.1192      9.5470    141.6215
  1774.2500      0.0000    747.0745      9.4890    142.6629
  1774.5000      0.0000    746.0989      9.4192    141.6042
  1774.7500      0.0000    744.5945      9.3540    136.3886
  1775.0000      0.0000    743.6223      9.2929    126.8725
  1775.2500      0.0000    746.0511      9.2307    115.5580
  1775.5000      0.0000    754.7211      9.1774    106.1104
  1775.7500      0.0000    769.5552      9.1567    101.3396
  1776.0000      0.0000    786.0578      9.1823    102.3144
  1776.2500      0.0000    797.5339      9.2378    108.3168
  1776.5000      0.0000    799.4633      9.2831    117.0833
  1776.7500      0.0000    791.6754      9.2815    125.9409
  1777.0000      0.0000    777.2043      9.2233    133.5316
  1777.2500      0.0000    760.3833      9.1266    140.2328
  1777.5000      0.0000    745.3569      9.0175    146.7860
  1777.7500      0.0000    734.4757      8.9129    152.9523
  1778.0000      0.0000    727.4843      8.8196    157.5876
  1778.2500      0.0000    722.7702      8.7441    159.5856
  1778.5000      0.0000    719.3641      8.6954    158.6772
  1778.7500      0.0000    717.5401      8.6820    155.3637
  1779.0000      0.0000    718.0519      8.7100    149.5782
  1779.2500      0.0000    721.2143      8.7876    139.2303
  1779.5000      0.0000    726.3840      8.9244    121.0843
  1779.7500      0.0000    732.1239      9.1227     94.3644
  1780.0000      0.0000    737.1854      9.3673     63.4339
  1780.2500      0.0000    741.3537      9.6247     35.7083
  1780.5000      0.0000    745.0503      9.8544     16.4802
  1780.7500      0.0000    748.3597     10.0246      6.1453
  1781.0000      0.0000    750.8726     10.1223      1.8329
  1781.2500      0.0000    752.2198     10.1520      0.4332
  1781.5000      0.0000    752.2751     10.1252      0.0803
  1781.7500      0.0000    750.9390     10.0511      0.0105
  1782.0000      0.0000    748.1452      9.9377      0.0000
  1782.2500      0.0000    744.2145      9.7989   -999.2500
  1782.5000      0.0000    740.0284      9.6530   -999.2500
  1782.7500      0.0000    736.7048      9.5147   -999.2500
  1783.0000      0.0000    734.9672      9.3883   -999.2500
  1783.2500      0.0000    734.4575      9.2701   -999.2500
  1783.5000      0.0000    733.4868      9.1537   -999.2500
  1783.7500      0.0000    729.4141      9.0285   -999.2500
  1784.0000      0.0000    718.5612      8.8620   -999.2500
  1784.2500      0.0000    693.9708      8.5642   -999.2500
  1784.5000      0.0000    643.4334      7.9677   -999.2500
  1784.7500      0.0000    554.5490      6.8982   -999.2500
  1785.0000      0.0000    427.8821      5.3462   -999.2500
  1785.2500      0.0000    285.3213      3.5780   -999.2500
  1785.5000      0.0000    159.7837      2.0091   -999.2500
  1785.7500      0.0000     73.5604      0.9266   -999.2500
  1786.0000      0.0000     27.4169      0.3457   -999.2500
  1786.2500      0.0000      8.1823      0.1032   -999.2500
  1786.5000      0.0000      1.9376      0.0245   -999.2500
  1786.7500      0.0000      0.3586      0.0045   -999.2500
  1787.0000      0.0000      0.0477      0.0006   -999.2500
  1787.2500      0.0000   -999.2500   -999.2500   -999.2500
  1787.5000      0.0000   -999.2500   -999.2500   -999.2500
  1787.7500      0.0000   -999.2500   -999.2500   -999.2500
  1788.0000      0.0000   -999.2500   -999.2500   -999.2500
  1788.2500      0.0000   -999.2500   -999.2500   -999.2500
  1788.5000      0.0000   -999.2500   -999.2500   -999.2500
  1788.7500      0.0000   -999.2500   -999.2500   -999.2500
  1789.0000      0.0000   -999.2500   -999.2500   -999.2500
  1789.2500      0.0000   -999.2500   -999.2500   -999.2500
  1789.5000      0.0000   -999.2500   -999.2500   -999.2500
  1789.7500      0.0000   -999.2500   -999.2500   -999.2500
  1790.0000      0.0000   -999.2500   -999.2500   -999.2500
  1790.2500      0.0000   -999.2500   -999.2500   -999.2500
  1790.5000      0.0000   -999.2500   -999.2500   -999.2500
  1790.7500      0.0000   -999.2500   -999.2500   -999.2500
  1791.0000      0.0000   -999.2500   -999.2500   -999.2500
  1791.2500      0.0000   -999.2500   -999.2500   -999.2500
  1791.5000      0.0000   -999.2500   -999.2500   -999.2500
  1791.7500      0.0000   -999.2500   -999.2500   -999.2500
  1792.0000      0.0000   -999.2500   -999.2500   -999.2500
  1792.2500      0.0000   -999.2500   -999.2500   -999.2500
  1792.5000      0.0000   -999.2500   -999.2500   -999.2500
  1792.7500      0.0000   -999.2500   -999.2500   -999.2500
  1793.0000   -999.2500   -999.2500   -999.2500   -999.2500
  1793.2500   -999.2500   -999.2500   -999.2500   -999.2500
  1793.5000   -999.2500   -999.2500   -999.2500   -999.2500
