~Version Information
VERS.                      2.0: CWLS Log ASCII Standard - VERSION 2.0
WRAP.                       NO: One line per depth step
~Well Information Block
STRT.FT                 0.0000: 
STOP.FT              1147.5000: 
STEP.FT                 0.2500: 
NULL.                -999.2500: 
COMP.          Pioneer Natural Resources: COMPANY
WELL.          Tin Barn 14-20 TR: WELL
FLD.           Purgatorie River: FIELD
LOC.           925 FSL & 1151 FWL: LOCATION
PROV.                 Colorado: PROVINCE
CNTY.               Las Animas: COUNTRY
SRVC.                Patterson: SERVICE COMPANY
DATE.          Wed Jan 18 12:02:25 2006: LOG DATE
UWI.                          : UNIQUE WELL ID
~Curve Information Block
DEPT.FT            0 000 00 00: Depth
CCL.                          : Casing Collar Locator
TT3.usec                      : CBL 3' Travel Time
AMP3.mV                       : CBL 3' Amplitude
GR.GAPI                       : Gamma Ray
~Parameter Information Block
~A  Depth       CCL         TT3         AMP3         GR     
# ...
   502.5000      0.0000    765.4180     16.2778     86.7856
   502.7500      0.0000    754.3962     16.0278     87.5290
   503.0000      0.0000    724.2185     16.0096     88.5531
   503.2500      0.0000    678.7061     16.2662     88.4406
   503.5000      0.0000    647.6901     16.6283     86.4103
   503.7500      0.0000    652.8076     16.9030     82.8040
   504.0000      0.0000    668.3052     17.1188     78.4766
   504.2500      0.0000    646.1999     17.4743     74.2184
   504.5000      0.0000    566.6339     18.0350     70.9249
   504.7500      0.0000    457.5284     18.6323     69.6336
   505.0000      0.0000    368.3931     19.1172     70.7530
   505.2500      0.0000    322.1248     19.5621     73.3878
   505.5000      0.0000    306.5611     20.0859     75.8771
   505.7500      0.0000    303.0639     20.6425     77.1163
   506.0000      0.0000    302.4513     21.1472     77.1530
   506.2500      0.0000    302.2730     21.5956     76.5170
   506.5000      0.0000    302.2417     21.9172     75.3657
   506.7500      0.0000    302.7316     21.9844     73.5217
   507.0000      0.0000    305.7558     21.8267     71.1093
   507.2500      0.0000    318.4053     21.5730     68.7695
   507.5000      0.0000    352.0246     21.2104     67.2780
   507.7500      0.0000    404.6583     20.6518     67.1320
   508.0000      0.0000    450.0127     19.9943     68.1863
   508.2500      0.0000    475.4729     19.4782     69.3552
   508.5000      0.0000    505.5803     19.1949     69.0852
   508.7500      0.0000    544.0858     19.0319     66.7172
   509.0000      0.0000    556.9242     18.9038     63.2433
   509.2500      0.0000    549.1290     18.8358     60.3406
   509.5000      0.0000    573.0601     18.8050     58.7681
   509.7500      0.0000    642.0167     18.7030     58.0030
   510.0000      0.0000    712.6313     18.4996     57.2922
   510.2500      0.0000    751.3262     18.2884     56.5822
   510.5000      0.0000    761.4631     18.1266     56.2335
   510.7500      0.0000    758.2217     17.9897     56.2221
   511.0000      0.0000    751.3716     17.8955     56.0189
   511.2500      0.0000    744.2546     17.8918     55.0700
   511.5000      0.0000    736.9684     17.9382     53.1772
   511.7500      0.0000    730.5917     17.9743     50.6191
   512.0000      0.0000    726.7947     18.0426     48.0744
   512.2500      0.0000    725.4279     18.1651     46.3543
   512.5000      0.0000    725.2546     18.2211     46.0340
   512.7500      0.0000    725.4196     18.1123     47.0591
   513.0000      0.0000    725.8370     17.9073     48.4572
   513.2500      0.0000    727.4727     17.6919     48.7698
   513.5000      0.0000    732.4265     17.4239     47.2810
   513.7500      0.0000    742.0594     17.0698     44.7040
   514.0000      0.0000    754.0410     16.7411     42.4235
   514.2500      0.0000    763.6228     16.5461     41.2889
   514.5000      0.0000    768.5742     16.4321     41.1877
   514.7500      0.0000    770.2413     16.3050     41.4151
   515.0000      0.0000    770.6219     16.1870     41.4070
   515.2500      0.0000    770.6880     16.1520     41.4202
   515.5000      0.0000    770.4607     16.1920     42.5185
   515.7500      0.0000    768.9911     16.2556     45.6224
   516.0000      0.0000    764.4218     16.3751     50.4202
   516.2500      0.0000    756.1268     16.6210     55.2483
   516.5000      0.0000    747.5138     16.9628     58.1801
   516.7500      0.0000    742.7338     17.3124     58.4475
   517.0000      0.0000    739.5026     17.6379     56.9189
   517.2500      0.0000    728.0375     17.9250     55.2616
   517.5000      0.0000    692.3154     18.1499     54.7337
   517.7500      0.0000    618.9450     18.3762     55.6679
   518.0000      0.0000    523.9733     18.7252     57.7198
   518.2500      0.0000    455.3480     19.1667     60.2276
   518.5000      0.0000    450.5506     19.4586     62.3941
   518.7500      0.0000    501.3300     19.3847     63.5632
   519.0000      0.0000    551.9805     19.0045     63.6925
   519.2500      0.0000    544.1840     18.5895     63.4046
   519.5000      0.0000    482.0098     18.3439     63.1929
   519.7500      0.0000    420.3157     18.2721     62.7690
   520.0000      0.0000    395.3897     18.2725     61.6369
   520.2500      0.0000    406.1270     18.2549     60.0058
   520.5000      0.0000    432.6738     18.2233     58.6046
   520.7500      0.0000    444.5806     18.3156     57.9682
   521.0000      0.0000    424.5137     18.6650     58.4445
   521.2500      0.0000    389.0040     19.1895     60.3845
   521.5000      0.0000    361.5886     19.6679     63.5209
   521.7500      0.0000    346.2820     20.0295     66.4583
   522.0000      0.0000    337.8712     20.3827     67.5744
   522.2500      0.0000    333.6313     20.7595     66.4373
   522.5000      0.0000    332.1607     21.0056     63.9706
   522.7500      0.0000    331.9991     20.9813     61.5406
   523.0000      0.0000    332.1939     20.7375     60.3731
   523.2500      0.0000    332.3578     20.4171     61.3602
   523.5000      0.0000    332.3788     20.0986     64.4408
   523.7500      0.0000    332.3008     19.8088     67.9907
   524.0000      0.0000    332.2583     19.5525     69.4957
   524.2500      0.0000    332.3296     19.2826     67.4307
   524.5000      0.0000    332.4978     18.9731     62.6009
   524.7500      0.0000    333.2260     18.7218     57.6029
   525.0000      0.0000    337.8101     18.6422     55.0899
   525.2500      0.0000    357.1090     18.5898     56.4211
   525.5000      0.0000    409.8272     18.1029     61.3022
   525.7500      0.0000    503.8862     16.8109     68.0060
   526.0000      0.0000    611.0172     14.9953     73.9373
   526.2500      0.0000    679.7424     13.5330     76.6981
   526.5000      0.0000    677.4061     13.0572     75.3847
   526.7500      0.0000    606.9438     13.4425     71.1330
   527.0000      2.0000    502.8571     14.2090     66.2781
   527.2500     -2.0000    413.3379     15.0425     62.8369
   527.5000     -2.0000    363.3837     15.9020     61.6112
   527.7500      0.0000    343.4969     17.0208     62.3187
   528.0000      0.0000    333.6995     18.9666     64.1530
   528.2500      0.0000    322.2806     22.1976     66.0949
   528.5000      0.0000    308.5161     25.8444     66.9674
   528.7500      0.0000    298.2522     27.8943     65.7803
   529.0000      0.0000    295.1879     27.8354     62.5106
   529.2500      0.0000    296.6253     27.2509     58.4521
   529.5000      0.0000    298.4156     27.1303     55.5269
   529.7500      0.0000    299.2481     27.0762     55.0663
   530.0000      0.0000    299.5212     26.7089     56.9003
   530.2500      0.0000    299.6288     26.0933     59.3926
   530.5000      0.0000    299.7111     25.3558     60.7687
   530.7500      0.0000    299.8155     24.5627     60.7784
   531.0000      0.0000    299.9429     23.7861     60.8556
   531.2500      0.0000    300.0618     23.0843     62.4152
   531.5000      0.0000    300.1677     22.4490     65.1935
   531.7500      0.0000    300.2862     21.8621     67.4326
   532.0000      0.0000    300.4263     21.3544     67.5601
   532.2500      0.0000    300.5792     20.9436     65.5195
   532.5000      0.0000    300.7310     20.5805     62.5663
   532.7500      0.0000    300.8615     20.2267     60.1279
   533.0000      0.0000    300.9636     19.9185     59.0869
   533.2500      0.0000    301.0618     19.7121     59.8180
   533.5000      0.0000    301.1801     19.6318     62.2185
   533.7500      0.0000    301.3023     19.6732     65.4244
   534.0000      0.0000    301.4181     19.7998     67.8771
   534.2500      0.0000    301.5587     19.9684     68.1275
   534.5000      0.0000    301.7168     20.2195     65.8255
   534.7500      0.0000    301.8005     20.7065     61.9508
   535.0000      0.0000    301.7104     21.5688     57.9925
   535.2500      0.0000    301.4099     22.7649     54.8346
   535.5000      0.0000    300.9479     24.0588     52.4191
   535.7500      0.0000    300.4639     25.1794     50.4093
