~Version Information
VERS.                      2.0: CWLS Log ASCII Standard - VERSION 2.0
WRAP.                       NO: One line per depth step
~Well Information Block
STRT.FT               322.3000: 
STOP.FT              1375.0000: 
STEP.FT                 0.1000: 
NULL.                -999.2500: 
COMP.          Pioneer Natural Resources: COMPANY
WELL.          Buffet 41-36 Tr: WELL
FLD.           Purgatoire River: FIELD
LOC.           119' FNL & 271' FEL: LOCATION
PROV.                 Colorado: PROVINCE
CNTY.               Las Animas: COUNTRY
SRVC.                Patterson: SERVICE COMPANY
DATE.          Thu Dec 29 07:13:13 2005: LOG DATE
UWI.           05 071 08627 00: UNIQUE WELL ID
~Curve Information Block
DEPT.FT            0 000 00 00: Depth
DCAL.in                       : CDL Caliper
RHOB.g/cc                     : CDL Bulk Density
RHOC.g/cc                     : CDL Density Correction
DPOR.pu                       : CDL Density Porosity
GR.GAPI                       : Gamma Ray
~Parameter Information Block
~A  Depth       DCAL        RHOB        RHOC        DPOR         GR     
# ...
   815.1000      8.0573      2.5665      0.0271      5.0583    120.2849
   815.2000      8.0573      2.5749      0.0205      4.5497    122.8736
   815.3000      8.0577      2.5762      0.0205      4.4750    124.7695
   815.4000      8.0577      2.5792      0.0044      4.2936    127.9480
   815.5000      8.0585      2.5909      0.0297      3.5829    133.3974
   815.6000      8.0585      2.6146      0.0404      2.1438    138.4162
   815.7000      8.0585      2.6471      0.0660      0.1750    137.0077
   815.8000      8.0580      2.6736      0.0715     -1.4320    128.3883
   815.9000      8.0580      2.6788      0.0469     -1.7470    123.0795
   816.0000      8.0582      2.6661      0.0250     -0.9760    128.6114
   816.1000      8.0582      2.6540     -0.0238     -0.2445    134.8459
   816.2000      8.0582      2.6493      0.0186      0.0419    130.9669
   816.3000      8.0627      2.6390      0.0112      0.6646    123.8854
   816.4000      8.0627      2.6161     -0.0371      2.0561    125.3859
   816.5000      8.0714      2.5827     -0.0310      4.0818    135.3778
   816.6000      8.0714      2.5440     -0.0383      6.4214    146.3578
   816.7000      8.0714      2.5217     -0.0477      7.7734    154.0520
   816.8000      8.0781      2.5330     -0.0527      7.0936    159.0074
   816.9000      8.0781      2.5563      0.0086      5.6760    161.0118
   817.0000      8.0813      2.5569      0.0224      5.6439    158.1896
   817.1000      8.0813      2.5370     -0.0077      6.8486    152.2367
   817.2000      8.0813      2.5263      0.0066      7.4980    144.3044
   817.3000      8.0822      2.5377      0.0168      6.8061    135.9723
   817.4000      8.0822      2.5596     -0.0158      5.4789    131.7794
   817.5000      8.0790      2.5686      0.0241      4.9345    131.2775
   817.6000      8.0790      2.5464      0.0066      6.2778    132.2144
   817.7000      8.0790      2.5011     -0.0001      9.0213    134.0236
   817.8000      8.0723      2.4632     -0.1051     11.3208    132.4117
   817.9000      8.0723      2.4548     -0.0262     11.8290    123.2948
   818.0000      8.0652      2.4683     -0.0374     11.0120    111.6437
   818.1000      8.0652      2.4864     -0.0597      9.9170    107.3494
   818.2000      8.0652      2.4954     -0.0067      9.3717    113.2583
   818.3000      8.0599      2.4972     -0.0942      9.2586    121.0183
   818.4000      8.0599      2.5185     -0.0375      7.9700    122.0504
   818.5000      8.0597      2.5594      0.1414      5.4885    118.9107
   818.6000      8.0597      2.5890      0.1576      3.6942    118.6701
   818.7000      8.0597      2.6036      0.1431      2.8146    121.0765
   818.8000      8.0647      2.6153      0.1599      2.1048    123.0580
   818.9000      8.0647      2.6192      0.1629      1.8669    123.9920
   819.0000      8.0725      2.6071      0.1506      2.5971    124.3256
   819.1000      8.0725      2.5792      0.1318      4.2891    127.3657
   819.2000      8.0725      2.5456      0.0841      6.3245    133.9592
   819.3000      8.0809      2.5241      0.0416      7.6311    136.8069
   819.4000      8.0809      2.5159      0.0650      8.1299    133.9132
   819.5000      8.0889      2.5057      0.0361      8.7449    134.1559
   819.6000      8.0889      2.4959     -0.0103      9.3392    139.8049
   819.7000      8.0889      2.4998      0.0154      9.1058    144.5005
   819.8000      8.0942      2.5108      0.0687      8.4338    146.6286
   819.9000      8.0942      2.5133      0.0890      8.2868    149.1829
   820.0000      8.0976      2.5122      0.0509      8.3505    150.0928
   820.1000      8.0976      2.5253      0.0620      7.5591    146.8396
   820.2000      8.0976      2.5497      0.0744      6.0812    142.2083
   820.3000      8.0998      2.5574      0.1176      5.6110    138.7335
   820.4000      8.0998      2.5253      0.0633      7.5572    138.1249
   820.5000      8.0994      2.4751     -0.0015     10.5979    138.7384
   820.6000      8.0994      2.4514     -0.0246     12.0348    137.4620
   820.7000      8.0994      2.4528      0.0404     11.9515    137.8209
   820.8000      8.1044      2.4376      0.0344     12.8740    141.9915
   820.9000      8.1044      2.3895     -0.0174     15.7883    148.2616
   821.0000      8.1213      2.3242     -0.0347     19.7432    155.9434
   821.1000      8.1213      2.2558     -0.0564     23.8926    156.3693
   821.2000      8.1213      2.1945     -0.0793     27.6073    146.0951
   821.3000      8.1303      2.1514     -0.0658     30.2181    138.2274
   821.4000      8.1303      2.1222     -0.0159     31.9876    138.6030
   821.5000      8.1175      2.0873     -0.0204     34.1058    137.6242
   821.6000      8.1175      2.0404     -0.0275     36.9435    131.7201
   821.7000      8.1175      1.9990     -0.0582     39.4560    129.4469
   821.8000      8.1031      1.9824     -0.0204     40.4600    132.3963
   821.9000      8.1031      1.9916      0.0226     39.9038    134.4190
   822.0000      8.0987      2.0096      0.0411     38.8116    131.2654
   822.1000      8.0987      2.0172      0.0559     38.3527    127.5005
   822.2000      8.0987      2.0030      0.0655     39.2134    131.0946
   822.3000      8.1001      1.9671      0.0586     41.3854    136.1730
   822.4000      8.1001      1.9293      0.0033     43.6779    132.6726
   822.5000      8.1036      1.9226      0.0070     44.0825    123.6854
   822.6000      8.1036      1.9575      0.0802     41.9681    117.9100
   822.7000      8.1036      2.0125      0.1066     38.6360    119.4591
   822.8000      8.1066      2.0650      0.1199     35.4543    124.4845
   822.9000      8.1066      2.1040      0.1675     33.0922    127.4639
   823.0000      8.1083      2.1245      0.1692     31.8486    128.0868
   823.1000      8.1083      2.1347      0.1236     31.2298    125.7413
   823.2000      8.1083      2.1572      0.1198     29.8644    121.9304
   823.3000      8.1089      2.1957      0.1814     27.5305    122.4204
   823.4000      8.1089      2.2239      0.1355     25.8212    128.3643
   823.5000      8.1085      2.2308      0.0525     25.4090    133.9053
   823.6000      8.1085      2.2342      0.0528     25.2010    132.4759
   823.7000      8.1085      2.2438      0.1056     24.6169    126.3124
   823.8000      8.1081      2.2535      0.1146     24.0312    123.8940
   823.9000      8.1081      2.2647      0.1147     23.3502    127.8199
   824.0000      8.1080      2.2825      0.1259     22.2745    134.6900
   824.1000      8.1080      2.3022      0.1000     21.0771    140.3661
   824.2000      8.1080      2.3169      0.1018     20.1893    145.1873
   824.3000      8.1074      2.3324      0.0604     19.2501    152.0324
   824.4000      8.1074      2.3580      0.1273     17.6966    158.5403
   824.5000      8.1068      2.3834      0.1371     16.1577    160.8333
   824.6000      8.1068      2.4004      0.0967     15.1302    158.5738
   824.7000      8.1068      2.4163      0.1101     14.1653    153.9937
   824.8000      8.1066      2.4363      0.0869     12.9510    149.8829
   824.9000      8.1066      2.4631      0.0716     11.3257    147.1877
   825.0000      8.1067      2.4995      0.1204      9.1193    143.6713
   825.1000      8.1067      2.5384      0.1637      6.7642    138.9723
   825.2000      8.1067      2.5592      0.2123      5.5044    138.5067
   825.3000      8.1064      2.5507      0.1821      6.0196    146.8686
   825.4000      8.1064      2.5316      0.1315      7.1782    157.7897
   825.5000      8.1050      2.5297      0.1036      7.2883    158.7958
   825.6000      8.1050      2.5471      0.1341      6.2343    149.5671
   825.7000      8.1050      2.5612      0.1161      5.3843    140.2609
   825.8000      8.1030      2.5523      0.1255      5.9182    136.9361
   825.9000      8.1030      2.5202      0.0451      7.8650    139.6944
   826.0000      8.1002      2.4825      0.0419     10.1508    145.8498
   826.1000      8.1002      2.4528      0.0478     11.9527    150.6413
   826.2000      8.1002      2.4338     -0.0001     13.1016    149.0236
