~Version Information
VERS.                      2.0: CWLS Log ASCII Standard - VERSION 2.0
WRAP.                       NO: One line per depth step
~Well Information Block
STRT.FT               245.0000: 
STOP.FT              1273.7000: 
STEP.FT                 0.1000: 
NULL.                -999.2500: 
COMP.          Pioneer Natural Resources: COMPANY
WELL.                 Ray 34-6: WELL
FLD.           Purgatoire River: FIELD
LOC.           684' FSL & 2254' FEL--: LOCATION
CNTY.               Las Animas: COUNTY
SRVC.                Patterson: SERVICE COMPANY
DATE.          Fri May 26 09:17:30 2006: LOG DATE
UWI.           05 071 08695 00: UNIQUE WELL ID
STAT.                 Colorado: STATE
~Curve Information Block
DEPT.FT            0 000 00 00: Depth
DCAL.in                       : CDL Caliper
RHOB.g/cc                     : CDL Bulk Density
RHOC.g/cc                     : CDL Density Correction
DPOR.pu                       : CDL Density Porosity
NPOR.pu                       : Neutron Porosity
GR.GAPI                       : Gamma Ray
~Parameter Information Block
~A  Depth       DCAL        RHOB        RHOC        DPOR        NPOR         GR     
# ...
   312.2000      8.0817      2.5700     -0.0001      4.8482     25.5219    100.1752
   312.3000      8.0755      2.5752      0.0043      4.5321     25.4439    100.5866
   312.4000      8.0755      2.5843      0.0351      3.9842     25.8546    100.2633
   312.5000      8.0711      2.5849      0.0742      3.9448     26.3147     99.3500
   312.6000      8.0711      2.5753      0.0025      4.5278     26.3676     99.2611
   312.7000      8.0711      2.5667      0.0336      5.0502     26.0273    100.3781
   312.8000      8.0683      2.5647      0.0185      5.1705     25.3572    102.4083
   312.9000      8.0683      2.5629      0.0524      5.2796     24.3988    104.4232
   313.0000      8.0646      2.5586      0.0097      5.5366     23.5183    106.1939
   313.1000      8.0646      2.5636     -0.0029      5.2345     23.2845    106.4186
   313.2000      8.0646      2.5879      0.0224      3.7616     23.8935    102.4605
   313.3000      8.0621      2.6344      0.0079      0.9469     24.6189     94.4731
   313.4000      8.0621      2.6943      0.0590     -2.6820     24.7587     86.4146
   313.5000      8.0598      2.7388      0.1196     -5.3822     24.9169     82.7808
   313.6000      8.0598      2.7553      0.0631     -6.3807     25.9455     83.4952
   313.7000      8.0598      2.7678      0.0965     -7.1385     27.6583     85.1944
   313.8000      8.0567      2.7904      0.1035     -8.5095     29.4927     85.0861
   313.9000      8.0567      2.8117      0.0780     -9.8013     31.2627     81.0099
   314.0000      8.0548      2.8185      0.0830    -10.2149     32.7915     74.1310
   314.1000      8.0548      2.8049      0.0347     -9.3865     33.9263     70.2816
   314.2000      8.0548      2.7773     -0.0210     -7.7123     34.7377     70.8749
   314.3000      8.0556      2.7402     -0.0005     -5.4678     35.1492     71.4733
   314.4000      8.0556      2.6896     -0.0568     -2.3994     35.0410     71.3192
   314.5000      8.0607      2.6296     -0.0974      1.2374     34.3885     74.5971
   314.6000      8.0607      2.5740     -0.0716      4.6062     33.1420     81.5160
   314.7000      8.0607      2.5481     -0.0891      6.1768     31.5235     87.0817
   314.8000      8.0661      2.5584      0.0295      5.5491     29.9758     89.6859
   314.9000      8.0661      2.5707      0.0565      4.8037     28.6947     92.2146
   315.0000      8.0675      2.5610      0.0157      5.3937     27.7019     93.9472
   315.1000      8.0675      2.5399      0.0208      6.6701     26.9913     92.6632
   315.2000      8.0675      2.5214      0.0344      7.7910     26.4019     90.8668
   315.3000      8.0666      2.5102      0.0201      8.4721     25.8971     91.8335
   315.4000      8.0666      2.5140     -0.0057      8.2445     25.6256     95.7338
   315.5000      8.0665      2.5324      0.0571      7.1294     25.3753     99.5400
   315.6000      8.0665      2.5473      0.0472      6.2254     24.7460    101.1876
   315.7000      8.0665      2.5451      0.0708      6.3560     23.9294    101.1858
   315.8000      8.0641      2.5330      0.0375      7.0883     23.4540    100.0665
   315.9000      8.0641      2.5320      0.0148      7.1519     23.4166     98.9582
   316.0000      8.0580      2.5496      0.0749      6.0836     23.4430     99.7562
   316.1000      8.0580      2.5715      0.0980      4.7594     23.4514    102.4799
   316.2000      8.0580      2.5865      0.0722      3.8512     23.5959    103.0230
   316.3000      8.0547      2.5929      0.0677      3.4587     23.8144     96.4312
   316.4000      8.0547      2.5895      0.0439      3.6649     23.9969     86.1802
   316.5000      8.0554      2.5833      0.0151      4.0414     24.2220     82.6339
   316.6000      8.0554      2.5818      0.0620      4.1349     24.6116     88.2786
   316.7000      8.0554      2.5796      0.0526      4.2661     25.0149     94.9166
   316.8000      8.0563      2.5738      0.0123      4.6198     25.2761     95.5766
   316.9000      8.0563      2.5690     -0.0070      4.9110     25.3367     91.6190
   317.0000      8.0556      2.5696      0.0247      4.8703     25.1998     89.6511
   317.1000      8.0556      2.5751      0.0299      4.5410     25.0142     92.4823
   317.2000      8.0556      2.5810      0.0165      4.1820     24.8324     96.0470
   317.3000      8.0537      2.5867      0.0472      3.8337     24.6821     96.9900
   317.4000      8.0537      2.5920      0.0634      3.5136     24.5458     94.0543
   317.5000      8.0520      2.5905      0.0713      3.6047     24.2540     89.2657
   317.6000      8.0520      2.5727      0.0852      4.6819     23.8034     89.1276
   317.7000      8.0520      2.5439      0.0272      6.4284     23.4964     94.5993
   317.8000      8.0514      2.5279      0.0102      7.3992     23.2928    101.4047
   317.9000      8.0514      2.5363      0.0091      6.8896     22.8219    105.9488
   318.0000      8.0513      2.5615      0.0243      5.3651     22.3324    105.7608
   318.1000      8.0513      2.5903      0.0672      3.6194     22.2511    101.8195
   318.2000      8.0513      2.6056      0.0868      2.6883     22.3032     96.4945
   318.3000      8.0499      2.5952      0.0818      3.3185     22.1620     91.4881
   318.4000      8.0499      2.5674      0.0392      5.0066     22.1272     88.8526
   318.5000      8.0499      2.5464      0.0287      6.2759     22.6699     88.9988
   318.6000      8.0499      2.5433      0.0600      6.4646     23.6814     89.4758
   318.7000      8.0499      2.5544      0.0083      5.7957     24.5908     90.2791
   318.8000      8.0526      2.5777      0.0432      4.3833     25.0674     93.4082
   318.9000      8.0526      2.6032      0.0494      2.8383     25.2227     97.1563
   319.0000      8.0546      2.6174      0.0706      1.9729     25.2074    100.2389
   319.1000      8.0546      2.6170      0.0543      2.0008     25.0512    102.6566
   319.2000      8.0546      2.6058      0.0423      2.6763     24.8449    101.8224
   319.3000      8.0555      2.5927      0.0582      3.4746     24.7055     97.5989
   319.4000      8.0555      2.5816      0.0520      4.1464     24.6387     93.8321
   319.5000      8.0539      2.5710      0.0917      4.7887     24.5966     91.1137
   319.6000      8.0539      2.5715      0.0265      4.7551     24.5834     87.6398
   319.7000      8.0539      2.5949      0.0722      3.3414     24.4766     85.3883
   319.8000      8.0514      2.6173      0.1060      1.9802     24.2224     86.5978
   319.9000      8.0514      2.6147      0.0979      2.1400     24.1038     88.4061
   320.0000      8.0494      2.6072      0.0316      2.5942     24.1021     87.3244
   320.1000      8.0494      2.6180      0.0401      1.9388     23.8673     83.5077
   320.2000      8.0494      2.6335      0.0683      0.9986     23.6734     79.8184
   320.3000      8.0460      2.6372      0.0855      0.7749     23.9624     78.2072
   320.4000      8.0460      2.6345      0.0774      0.9399     24.4262     78.1990
   320.5000      8.0419      2.6359      0.0670      0.8522     24.6969     78.1019
   320.6000      8.0419      2.6464      0.0336      0.2175     24.9051     77.1489
   320.7000      8.0419      2.6607      0.0313     -0.6474     25.0443     74.3578
   320.8000      8.0423      2.6651      0.0567     -0.9149     24.9065     70.9572
   320.9000      8.0423      2.6556      0.0289     -0.3424     24.6828     70.1709
   321.0000      8.0458      2.6369      0.0561      0.7924     24.7396     69.9354
   321.1000      8.0458      2.6033      0.0445      2.8279     24.7886     67.6617
   321.2000      8.0458      2.5590      0.0087      5.5161     24.5462     66.3464
   321.3000      8.0485      2.5285     -0.0251      7.3661     24.2592     68.4723
   321.4000      8.0485      2.5253     -0.0204      7.5549     23.9728     72.1031
   321.5000      8.0504      2.5366      0.0081      6.8713     23.6332     75.1161
   321.6000      8.0504      2.5374      0.0233      6.8256     23.3551     76.2939
   321.7000      8.0504      2.5247     -0.0058      7.5969     23.3336     75.8560
