~Version Information
VERS.                      2.0: CWLS Log ASCII Standard - VERSION 2.0
WRAP.                       NO: One line per depth step
~Well Information Block
STRT.FT               615.0000: 
STOP.FT              1607.0000: 
STEP.FT                 0.1000: 
NULL.                -999.2500: 
COMP.          Pioneer Natural Resources: COMPANY
WELL.          Galloway 32-13 Tr: WELL
FLD.           Purgatoire River: FIELD
LOC.           1910' FNL & 2002' FEL: LOCATION
PROV.                 Colorado: PROVINCE
CNTY.               Las Animas: COUNTRY
SRVC.                Patterson: SERVICE COMPANY
DATE.          Mon Nov 14 07:13:22 2005: LOG DATE
UWI.           05 071 08608 00: UNIQUE WELL ID
~Curve Information Block
DEPT.FT            0 000 00 00: Depth
DCAL.in                       : CDL Caliper
RHOB.g/cc                     : CDL Bulk Density
RHOC.g/cc                     : CDL Density Correction
DPOR.pu                       : CDL Density Porosity
GR.GAPI                       : Gamma Ray
NPOR.pu                       : Neutron Porosity
~Parameter Information Block
~A  Depth       DCAL        RHOB        RHOC        DPOR         GR         NPOR    
# ...
  1335.0000      8.3445      2.3637      0.2080     17.3530    125.6690     31.9961
  1335.1000      8.3445      2.4723      0.2293     10.7720    134.2873     32.4313
  1335.2000      8.3445      2.5397      0.2008      6.6822    147.2527     32.3205
  1335.3000      8.1226      2.5511      0.1172      5.9944    154.7200     31.2178
  1335.4000      8.1226      2.5422      0.0444      6.5338    151.9137     29.5916
  1335.5000      7.9498      2.5441      0.0704      6.4160    145.5294     28.3006
  1335.6000      7.9498      2.5537      0.0689      5.8366    140.8771     27.7321
  1335.7000      7.9498      2.5634      0.0598      5.2486    134.8889     27.7980
  1335.8000      7.9176      2.5701      0.1052      4.8414    126.9802     27.9483
  1335.9000      7.9176      2.5661      0.0813      5.0826    123.0474     27.5591
  1336.0000      7.9589      2.5527      0.0771      5.8954    126.3131     26.5562
  1336.1000      7.9589      2.5453      0.0215      6.3476    131.9242     25.6598
  1336.2000      7.9589      2.5561      0.0387      5.6905    132.7933     25.5266
  1336.3000      7.8861      2.5717      0.0933      4.7437    131.2350     25.8926
  1336.4000      7.8861      2.5688      0.0835      4.9229    133.8681     26.2466
  1336.5000      7.8491      2.5522      0.0486      5.9274    139.2377     26.8248
  1336.6000      7.8491      2.5428      0.0248      6.4941    142.0322     28.0511
  1336.7000      7.8491      2.5421      0.0711      6.5405    143.0564     29.2124
  1336.8000      7.8626      2.5352      0.0845      6.9580    144.7962     29.0235
  1336.9000      7.8626      2.5243      0.0498      7.6167    146.0819     27.7023
  1337.0000      7.8695      2.5250     -0.0001      7.5777    146.2707     26.8060
  1337.1000      7.8695      2.5334      0.0740      7.0668    148.6916     26.6735
  1337.2000      7.8695      2.5384      0.0397      6.7609    153.9836     26.5488
  1337.3000      7.9159      2.5474      0.1043      6.2208    155.2561     26.7600
  1337.4000      7.9159      2.5594      0.0661      5.4928    148.6524     27.7153
  1337.5000      7.9424      2.5542      0.1174      5.8051    141.9102     28.5754
  1337.6000      7.9424      2.5296      0.0399      7.2977    142.9603     28.3567
  1337.7000      7.9424      2.5161     -0.0057      8.1154    148.3535     27.1516
  1337.8000      7.9456      2.5319      0.0581      7.1579    153.3293     26.0722
  1337.9000      7.9456      2.5609      0.0716      5.3973    157.7972     26.2388
  1338.0000      7.9454      2.5851      0.0797      3.9359    160.1191     27.6695
  1338.1000      7.9454      2.5913      0.0975      3.5583    157.9334     29.0519
  1338.2000      7.9454      2.5721      0.0882      4.7211    153.4385     29.4236
  1338.3000      7.9490      2.5494      0.0284      6.0962    149.2285     29.2931
  1338.4000      7.9490      2.5523      0.0749      5.9236    145.9871     29.1016
  1338.5000      7.9348      2.5728      0.0694      4.6787    144.6649     28.6251
  1338.6000      7.9348      2.5832      0.0958      4.0496    144.9074     28.1095
  1338.7000      7.9348      2.5761      0.0667      4.4768    145.6179     27.7585
  1338.8000      7.9370      2.5671      0.0452      5.0241    147.1584     27.5805
  1338.9000      7.9370      2.5557      0.1215      5.7142    151.4397     27.8291
  1339.0000      7.9814      2.5262      0.0845      7.5007    157.7359     27.9385
  1339.1000      7.9814      2.4892      0.0231      9.7430    164.7473     27.4986
  1339.2000      7.9814      2.4671      0.0644     11.0871    169.5544     27.4399
  1339.3000      7.9819      2.4561      0.0949     11.7541    167.8231     28.1790
  1339.4000      7.9819      2.4391      0.0834     12.7835    159.3361     28.9430
  1339.5000      7.9717      2.4132      0.0828     14.3522    150.3023     28.9643
  1339.6000      7.9717      2.3923      0.0775     15.6204    145.8200     28.3258
  1339.7000      7.9717      2.3875      0.0882     15.9112    147.1540     27.8723
  1339.8000      7.9478      2.3948      0.1046     15.4670    154.8917     27.9024
  1339.9000      7.9478      2.4115      0.0653     14.4574    164.1564     27.7155
  1340.0000      7.9623      2.4404      0.1133     12.7014    170.0690     27.4911
  1340.1000      7.9623      2.4743      0.1172     10.6515    174.9068     28.1937
  1340.2000      7.9623      2.4981      0.1557      9.2074    177.6292     29.3125
  1340.3000      8.0001      2.5091      0.1306      8.5392    175.2319     29.5865
  1340.4000      8.0001      2.5180      0.1199      8.0011    169.6291     29.2746
  1340.5000      7.9992      2.5302      0.1344      7.2618    164.2071     29.1970
  1340.6000      7.9992      2.5398      0.1272      6.6763    161.6113     29.2328
  1340.7000      7.9992      2.5437      0.0862      6.4394    157.3279     29.2740
  1340.8000      7.9574      2.5444      0.1061      6.4022    147.1775     29.3759
  1340.9000      7.9574      2.5457      0.0921      6.3216    137.5417     28.8928
  1341.0000      7.9043      2.5543      0.0700      5.7983    135.2262     28.0480
  1341.1000      7.9043      2.5661      0.1248      5.0823    139.6069     27.7556
  1341.2000      7.9043      2.5651      0.1216      5.1471    146.8826     27.8030
  1341.3000      7.8697      2.5483      0.0997      6.1627    153.3913     27.9733
  1341.4000      7.8697      2.5333      0.0636      7.0755    155.2007     28.3860
  1341.5000      7.9172      2.5336      0.0901      7.0550    153.6249     28.7974
  1341.6000      7.9172      2.5380      0.0987      6.7869    155.3533     28.9421
  1341.7000      7.9172      2.5240      0.1178      7.6366    161.6676     28.8187
  1341.8000      7.9078      2.4831      0.1339     10.1130    167.6097     28.4872
  1341.9000      7.9078      2.4344      0.0229     13.0650    169.6541     27.9289
  1342.0000      7.9098      2.4094      0.0463     14.5817    169.4789     27.7758
  1342.1000      7.9098      2.4077      0.0721     14.6862    170.1588     28.4582
  1342.2000      7.9098      2.4029      0.0746     14.9767    172.0341     29.2598
  1342.3000      7.9303      2.3929      0.0559     15.5790    170.8976     29.6407
  1342.4000      7.9303      2.3873      0.1047     15.9242    165.9981     30.0563
  1342.5000      7.9956      2.3684      0.1457     17.0678    164.6553     30.5747
  1342.6000      7.9956      2.3260      0.1038     19.6352    167.3537     30.6930
  1342.7000      7.9956      2.2837      0.1057     22.1997    163.8661     30.3780
  1342.8000      8.1586      2.2564      0.1638     23.8575    152.3228     29.8692
  1342.9000      8.1586      2.2300      0.1516     25.4556    140.7822     29.6351
  1343.0000      8.2155      2.1954      0.1560     27.5542    134.3218     29.9541
  1343.1000      8.2155      2.1684      0.0895     29.1908    131.4936     30.4997
  1343.2000      8.2155      2.1728      0.0698     28.9235    129.3080     30.9439
  1343.3000      8.1546      2.2101      0.1078     26.6587    128.5443     30.9011
  1343.4000      8.1546      2.2591      0.1187     23.6906    130.5189     30.2637
  1343.5000      7.9362      2.3081      0.1102     20.7227    134.6123     29.7604
  1343.6000      7.9362      2.3623      0.1801     17.4361    139.1251     29.9968
  1343.7000      7.9362      2.4237      0.1623     13.7165    143.4586     30.4639
  1343.8000      7.9404      2.4815      0.1895     10.2123    146.0104     30.2214
  1343.9000      7.9404      2.5191      0.1312      7.9342    142.7659     29.0697
  1344.0000      7.9793      2.5321      0.1074      7.1437    135.1205     27.7658
  1344.1000      7.9793      2.5329      0.0716      7.0998    127.4466     27.4440
  1344.2000      7.9793      2.5362      0.1056      6.8967    122.5859     28.0789
  1344.3000      7.9890      2.5438      0.1052      6.4347    124.4303     28.3488
  1344.4000      7.9890      2.5482      0.0958      6.1716    133.6965     27.5007
  1344.5000      7.9614      2.5474      0.1074      6.2193    144.7580     26.1680
