~Version Information
VERS.                      2.0: CWLS Log ASCII Standard - VERSION 2.0
WRAP.                       NO: One line per depth step
~Well Information Block
STRT.FT               770.0000: 
STOP.FT              2171.0000: 
STEP.FT                 0.1000: 
NULL.                -999.2500: 
COMP.          Pioneer Natural Resources: COMPANY
WELL.              Kermit 32-7: WELL
FLD.           Purgatoire River: FIELD
LOC.           2002' FNL & 2103' FEL: LOCATION
PROV.                 Colorado: PROVINCE
CNTY.               Las Animas: COUNTRY
SRVC.                Patterson: SERVICE COMPANY
DATE.          Thu Jan 12 03:02:28 2006: LOG DATE
UWI.           05 071 08647 00: UNIQUE WELL ID
~Curve Information Block
DEPT.FT            0 000 00 00: Depth
DCAL.in                       : CDL Caliper
RHOB.g/cc                     : CDL Bulk Density
RHOC.g/cc                     : CDL Density Correction
DPOR.pu                       : CDL Density Porosity
GR.GAPI                       : Gamma Ray
NPOR.pu                       : Neutron Porosity
~Parameter Information Block
~A  Depth       DCAL        RHOB        RHOC        DPOR         GR         NPOR    
# ...
  1509.2000      7.9442      2.4633      0.0398     11.3141     70.0172     21.0774
  1509.3000      7.9514      2.4710      0.0233     10.8501     69.5011     20.8299
  1509.4000      7.9514      2.4737      0.0798     10.6843     70.5221     20.6357
  1509.5000      7.9475      2.4695     -0.0185     10.9380     74.9308     20.8151
  1509.6000      7.9475      2.4694      0.0335     10.9446     79.9709     21.3240
  1509.7000      7.9475      2.4721     -0.0245     10.7843     84.7681     21.8043
  1509.8000      7.9455      2.4756      0.0277     10.5713     88.9247     22.0306
  1509.9000      7.9455      2.4851      0.0218      9.9919     89.2102     21.9250
  1510.0000      7.9540      2.4943      0.0514      9.4365     88.4436     21.6627
  1510.1000      7.9540      2.4928      0.0303      9.5243     91.1909     21.6528
  1510.2000      7.9540      2.4877     -0.0001      9.8388     94.1772     21.8286
  1510.3000      7.9503      2.4929      0.0210      9.5197     91.1050     21.8112
  1510.4000      7.9503      2.5069      0.0354      8.6729     84.1215     21.7480
  1510.5000      7.9393      2.5130      0.1112      8.3055     81.0816     21.7965
  1510.6000      7.9393      2.5100      0.0208      8.4824     83.8753     21.7184
  1510.7000      7.9393      2.5143      0.0255      8.2267     91.0796     21.6109
  1510.8000      7.9558      2.5181      0.0757      7.9919    100.4425     21.6739
  1510.9000      7.9558      2.4980      0.0167      9.2150    104.7906     21.6492
  1511.0000      7.9496      2.4654     -0.0324     11.1885    100.5352     21.2663
  1511.1000      7.9496      2.4541     -0.0054     11.8741     96.4492     20.8728
  1511.2000      7.9496      2.4681      0.0456     11.0250     97.1051     20.8530
  1511.3000      7.9532      2.4878      0.0662      9.8303     97.0359     20.9080
  1511.4000      7.9532      2.5001      0.0628      9.0844     93.1631     20.6026
  1511.5000      7.9889      2.5096      0.0345      8.5073     86.0090     19.8689
  1511.6000      7.9889      2.5289      0.0405      7.3383     77.6898     19.0643
  1511.7000      7.9889      2.5563      0.0618      5.6806     71.2339     18.6205
  1511.8000      7.9925      2.5749      0.0946      4.5518     68.7133     18.6634
  1511.9000      7.9925      2.5737      0.1189      4.6222     69.3810     19.0221
  1512.0000      7.9662      2.5622      0.0182      5.3213     70.5782     19.5218
  1512.1000      7.9662      2.5547      0.0661      5.7756     70.5878     20.1172
  1512.2000      7.9662      2.5446      0.0981      6.3856     69.2830     20.8065
  1512.3000      7.9715      2.5287      0.0045      7.3505     67.6936     21.2225
  1512.4000      7.9715      2.5320     -0.0109      7.1497     66.9446     21.1048
  1512.5000      7.9294      2.5636      0.0628      5.2358     66.8340     20.9241
  1512.6000      7.9294      2.5918      0.0895      3.5254     66.1459     21.0352
  1512.7000      7.9294      2.5928      0.0651      3.4695     66.4820     21.2674
  1512.8000      7.9374      2.5812      0.0356      4.1677     71.0530     21.4643
  1512.9000      7.9374      2.5737      0.0612      4.6261     77.8942     21.6153
  1513.0000      7.9441      2.5566      0.0875      5.6596     81.8904     21.7849
  1513.1000      7.9441      2.5256      0.0275      7.5378     82.0340     22.0737
  1513.2000      7.9441      2.5087     -0.0074      8.5625     83.0688     22.5274
  1513.3000      7.9519      2.5146      0.0561      8.2042     87.8435     22.9777
  1513.4000      7.9519      2.5178      0.0327      8.0141     91.0257     23.3462
  1513.5000      7.9386      2.5143     -0.0113      8.2259     89.3452     23.6889
  1513.6000      7.9386      2.5248      0.0041      7.5850     87.6147     23.7493
  1513.7000      7.9386      2.5505      0.0779      6.0316     89.8174     23.5125
  1513.8000      7.9375      2.5745      0.0796      4.5788     96.7765     23.3669
  1513.9000      7.9375      2.5903      0.0604      3.6195    104.2195     23.4874
  1514.0000      7.9420      2.6004      0.0741      3.0083    106.9565     23.7533
  1514.1000      7.9420      2.6028      0.0604      2.8599    106.6917     23.8248
  1514.2000      7.9420      2.5892      0.0897      3.6839    103.7128     23.6621
  1514.3000      7.9494      2.5603      0.0256      5.4348     98.3298     23.7221
  1514.4000      7.9494      2.5394     -0.0044      6.7012     97.0102     24.0572
  1514.5000      7.9561      2.5365      0.0791      6.8816    102.0028     24.2966
  1514.6000      7.9561      2.5386      0.0407      6.7496    107.9726     24.4621
  1514.7000      7.9561      2.5476      0.0450      6.2045    110.2364     24.5535
  1514.8000      7.9848      2.5705      0.0649      4.8162    109.6257     24.3333
  1514.9000      7.9848      2.5992      0.0999      3.0812    108.7195     24.1574
  1515.0000      8.0052      2.6153      0.1003      2.1053    107.5871     24.4400
  1515.1000      8.0052      2.6049      0.0688      2.7322    104.3417     24.9030
  1515.2000      8.0052      2.5802      0.0402      4.2286     99.0059     25.1600
  1515.3000      8.0015      2.5704      0.0507      4.8250     98.0934     25.4664
  1515.4000      8.0015      2.5832      0.0920      4.0474    105.2646     26.3334
  1515.5000      7.9505      2.6143      0.0187      2.1651    114.2115     27.2833
  1515.6000      7.9505      2.6583      0.0959     -0.5039    118.4852     27.4203
  1515.7000      7.9505      2.6869      0.1102     -2.2381    117.4926     26.7967
  1515.8000      7.9410      2.6784      0.0861     -1.7229    115.7954     26.1982
  1515.9000      7.9410      2.6522      0.0737     -0.1357    118.3741     26.0029
  1516.0000      7.9365      2.6349      0.0569      0.9175    129.6788     25.8336
  1516.1000      7.9365      2.6228      0.0634      1.6503    148.6227     25.7524
  1516.2000      7.9365      2.6001      0.0426      3.0215    161.1328     26.0901
  1516.3000      7.9501      2.5686      0.0616      4.9347    159.3205     26.5475
  1516.4000      7.9501      2.5455     -0.0055      6.3319    154.3745     26.7577
  1516.5000      7.9508      2.5441      0.0039      6.4152    153.5905     26.6532
  1516.6000      7.9508      2.5562      0.0467      5.6855    152.5316     26.6254
  1516.7000      7.9508      2.5644      0.0365      5.1868    148.5300     26.9783
  1516.8000      7.9591      2.5621      0.0296      5.3251    145.9351     27.4368
  1516.9000      7.9591      2.5557      0.0028      5.7137    145.6450     27.5730
  1517.0000      7.9975      2.5553     -0.0005      5.7404    142.9954     27.3709
  1517.1000      7.9975      2.5650     -0.0195      5.1530    137.8478     27.3111
  1517.2000      7.9975      2.5787      0.0523      4.3194    134.8459     27.5847
  1517.3000      8.0385      2.5832      0.0393      4.0461    138.8825     28.0037
  1517.4000      8.0385      2.5703      0.0497      4.8292    148.6999     28.3213
  1517.5000      8.0484      2.5487      0.0069      6.1421    156.1514     28.3108
  1517.6000      8.0484      2.5392      0.0189      6.7164    159.1912     28.2282
  1517.7000      8.0484      2.5485      0.0351      6.1507    161.1103     28.3219
  1517.8000      7.9832      2.5655      0.0396      5.1239    162.6724     28.1512
  1517.9000      7.9832      2.5778      0.0403      4.3762    164.7164     27.5283
  1518.0000      8.0126      2.5844      0.0293      3.9759    167.2976     26.9262
  1518.1000      8.0126      2.5929      0.0038      3.4613    167.6273     26.6158
  1518.2000      8.0126      2.5949      0.0748      3.3390    165.4002     26.5822
  1518.3000      8.0132      2.5760      0.0557      4.4852    164.0984     26.8755
  1518.4000      8.0132      2.5503      0.0020      6.0402    165.7347     27.2136
  1518.5000      7.9956      2.5461      0.0029      6.2967    168.1520     27.0133
  1518.6000      7.9956      2.5717      0.0184      4.7464    168.1527     26.3988
  1518.7000      7.9956      2.6047      0.0924      2.7478    167.5515     26.1029
