~Version Information
VERS.                      2.0: CWLS Log ASCII Standard - VERSION 2.0
WRAP.                       NO: One line per depth step
~Well Information Block
STRT.FT                14.0000: 
STOP.FT              1631.0000: 
STEP.FT                 0.1000: 
NULL.                -999.2500: 
COMP.          Pioneer Natural Resources: COMPANY
WELL.            Bluesky 44-17: WELL
FLD.           Purgatorie River: FIELD
LOC.           39' FSL & 288' FEL: LOCATION
STAT.                 Colorado: State
CNTY.               Las Animas: COUNTY
CTRY. USA : Country
SECT. 17 : Section
TOWN. 33S : Township
RANG. 66W : Range
SRVC.                Patterson: SERVICE COMPANY
DATE.          Thu Sep 08 07:30:20 2005: LOG DATE
API. 05-071-08511                         : UNIQUE WELL ID
~Curve Information Block
DEPT.FT            0 000 00 00: Depth
DCAL.in                       : CDL Caliper
RHOB.g/cc                     : CDL Bulk Density
RHOC.g/cc                     : CDL Density Correction
DPOR.pu                       : CDL Density Porosity
GR.GAPI                       : Gamma Ray
NPOR.pu                       : Neutron Porosity
~Parameter Information Block
~A  Depth       DCAL        RHOB        RHOC        DPOR         GR         NPOR    
# ...
   858.8000      7.8800      2.4761      0.0412     10.5383     89.3173     20.1025
   858.9000      7.8800      2.4899      0.0709      9.7037     89.3082     20.3144
   859.0000      7.8765      2.4909      0.0537      9.6414     90.8179     20.5058
   859.1000      7.8765      2.4855      0.0205      9.9685     90.7485     20.5156
   859.2000      7.8765      2.4770      0.0473     10.4821     90.3485     20.1919
   859.3000      7.8693      2.4709      0.0036     10.8553     91.4637     19.8831
   859.4000      7.8693      2.4821     -0.0152     10.1756     93.0560     19.9504
   859.5000      7.8622      2.5077      0.0557      8.6254     95.1690     20.2283
   859.6000      7.8622      2.5238      0.0581      7.6467     96.4309     20.4514
   859.7000      7.8622      2.5219      0.0597      7.7626     94.8882     20.4850
   859.8000      7.8669      2.5126      0.0357      8.3294     92.0381     20.3065
   859.9000      7.8669      2.5051      0.0358      8.7796     90.5671     20.2340
   860.0000      7.8564      2.4987      0.0350      9.1685     91.2307     20.3982
   860.1000      7.8564      2.4898      0.0209      9.7096     93.4967     20.5092
   860.2000      7.8564      2.4784      0.0873     10.4030     96.9413     20.5467
   860.3000      7.8516      2.4700      0.0604     10.9121    100.0379     20.7716
   860.4000      7.8516      2.4760      0.0349     10.5452    101.9087     21.1517
   860.5000      7.8337      2.4960      0.0723      9.3312    103.6476     21.3230
   860.6000      7.8337      2.5154      0.0762      8.1548    104.3044     21.1847
   860.7000      7.8337      2.5265      0.0573      7.4818    103.5362     21.1117
   860.8000      7.8232      2.5266      0.1495      7.4778    104.0134     21.2679
   860.9000      7.8232      2.5139      0.0590      8.2484    105.3386     21.3348
   861.0000      7.8228      2.4991      0.0744      9.1480    104.1914     21.1559
   861.1000      7.8228      2.4890      0.0266      9.7562    100.2795     20.8997
   861.2000      7.8228      2.4834      0.0439     10.0986     96.8977     20.6167
   861.3000      7.8287      2.4823      0.0590     10.1642     95.9107     20.1825
   861.4000      7.8287      2.4841      0.0391     10.0544     95.5148     19.6286
   861.5000      7.8382      2.4871      0.0510      9.8712     93.4822     19.2077
   861.6000      7.8382      2.4949      0.0442      9.4009     90.6851     19.1064
   861.7000      7.8382      2.5072      0.0819      8.6524     89.4114     19.3034
   861.8000      7.8641      2.5139      0.0769      8.2510     89.6882     19.7537
   861.9000      7.8641      2.5124      0.0494      8.3413     89.6117     20.3385
   862.0000      7.8544      2.5096      0.0764      8.5094     88.7748     20.6493
   862.1000      7.8544      2.5012      0.0958      9.0157     90.0329     20.5719
   862.2000      7.8544      2.4809      0.0807     10.2501     94.0341     20.5250
   862.3000      7.8445      2.4618      0.0404     11.4053     96.4456     20.6316
   862.4000      7.8445      2.4600      0.0249     11.5170     95.6987     20.6441
   862.5000      7.8382      2.4682      0.0766     11.0192     95.2974     20.4541
   862.6000      7.8382      2.4730      0.0363     10.7252     96.4657     20.2458
   862.7000      7.8382      2.4779      0.0493     10.4333     96.8831     20.2138
   862.8000      7.8506      2.4874      0.0434      9.8525     95.7734     20.2932
   862.9000      7.8506      2.4961      0.0629      9.3290     93.2183     20.3538
   863.0000      7.8448      2.4956      0.0677      9.3561     89.5436     20.4105
   863.1000      7.8448      2.4872      0.0213      9.8675     86.7815     20.4079
   863.2000      7.8448      2.4780      0.0532     10.4249     86.8839     20.2299
   863.3000      7.8480      2.4669      0.0267     11.0950     89.2345     19.9023
   863.4000      7.8480      2.4540     -0.0041     11.8765     91.8333     19.6090
   863.5000      7.8473      2.4482     -0.0076     12.2299     93.9016     19.4476
   863.6000      7.8473      2.4600     -0.0245     11.5142     94.8806     19.2810
   863.7000      7.8473      2.4807      0.0837     10.2600     94.0403     19.2014
   863.8000      7.8312      2.4775      0.0570     10.4528     91.2755     19.3842
   863.9000      7.8312      2.4458     -0.0136     12.3755     86.5079     19.7093
   864.0000      7.8293      2.4182     -0.0389     14.0495     81.6083     20.0765
   864.1000      7.8293      2.4172     -0.0403     14.1061     79.6685     20.4187
   864.2000      7.8293      2.4422      0.0133     12.5919     81.8967     20.6282
   864.3000      7.8169      2.4763      0.0614     10.5301     87.4204     20.6303
   864.4000      7.8169      2.4970      0.0639      9.2717     92.2773     20.4955
   864.5000      7.8136      2.4974      0.0563      9.2458     93.2268     20.4221
   864.6000      7.8136      2.4911     -0.0041      9.6325     91.3284     20.3696
   864.7000      7.8136      2.4873      0.0676      9.8593     89.2980     20.3266
   864.8000      7.8159      2.4809      0.0443     10.2471     88.4599     20.4444
   864.9000      7.8159      2.4769      0.0205     10.4887     87.7934     20.6450
   865.0000      7.8127      2.4881      0.0454      9.8094     86.1006     20.6680
   865.1000      7.8127      2.5112      0.0891      8.4094     83.6796     20.4545
   865.2000      7.8127      2.5304      0.0806      7.2455     80.8895     20.2528
   865.3000      7.8153      2.5368      0.0813      6.8587     79.6194     20.2599
   865.4000      7.8153      2.5339      0.0477      7.0353     82.2264     20.3328
   865.5000      7.8082      2.5260      0.0435      7.5164     85.9636     20.3901
   865.6000      7.8082      2.5145      0.0441      8.2109     86.8430     20.7259
   865.7000      7.8082      2.5074      0.0157      8.6435     85.7117     21.4333
   865.8000      7.8047      2.5152      0.0411      8.1692     86.1047     22.0091
   865.9000      7.8047      2.5358      0.0613      6.9222     89.3723     22.1256
   866.0000      7.8089      2.5546      0.0603      5.7831     93.3720     21.9984
   866.1000      7.8089      2.5568      0.0764      5.6505     95.8049     21.8747
   866.2000      7.8089      2.5426      0.0305      6.5068     97.6735     21.7317
   866.3000      7.8138      2.5257      0.0192      7.5337    100.5469     21.4659
   866.4000      7.8138      2.5029      0.0685      8.9132    103.1218     21.2333
   866.5000      7.8164      2.4602      0.0306     11.5005    104.8572     21.1590
   866.6000      7.8164      2.4046      0.0026     14.8747    107.3065     21.1006
   866.7000      7.8164      2.3551     -0.0008     17.8744    110.5860     20.9957
   866.8000      7.8259      2.3240     -0.0216     19.7592    114.0251     20.9504
   866.9000      7.8259      2.3197     -0.0084     20.0181    118.7207     20.8995
   867.0000      7.8429      2.3440      0.0120     18.5454    126.3403     20.8514
   867.1000      7.8429      2.3844      0.0794     16.0979    134.4771     21.0848
   867.2000      7.8429      2.4218      0.1430     13.8304    137.8048     21.6857
   867.3000      7.8602      2.4479      0.1615     12.2476    134.8210     22.5460
   867.4000      7.8602      2.4713      0.1744     10.8300    130.9399     23.5502
   867.5000      7.9404      2.4965      0.2370      9.3060    131.6598     24.4120
   867.6000      7.9404      2.5168      0.1800      8.0745    135.3368     24.8593
   867.7000      7.9404      2.5369      0.0755      6.8547    136.6146     25.1202
   867.8000      7.9328      2.5553      0.0982      5.7392    133.6739     25.6012
   867.9000      7.9328      2.5489      0.1257      6.1285    130.2483     26.0865
   868.0000      7.8954      2.5215      0.0162      7.7882    130.1585     26.1976
   868.1000      7.8954      2.5074      0.0287      8.6399    133.8884     26.1934
   868.2000      7.8954      2.5085      0.0904      8.5771    138.7056     26.2233
   868.3000      7.7992      2.5085     -0.0128      8.5738    142.5498     26.0392
