~Version Information
 VERS.                                  2.0 : CWLS LAS VERSION
 WRAP.                                   NO : WRAPING MODE
 SWARE .                 MController 2.5.0N : SOFTWARE VERSION
~Well Information
 WELL.                LORENCITO 10-36-33-67 : WELL
 COMP.    PIONEER NATURAL RESOURCES USA INC : COMPANY
 FLD.                      PURGATIORE RIVER : FIELD
 LOC.                NW/SE SEC 36 T33S R67W : LOCATION
 DATE.                             08/27/05 : DATE(S) LOGGED
 SRVC.       BLANCO GEOLOGICAL SERVICES LLC : SERVICE COMPANY
 STAT.                             COLORADO : STATE
 CNTY.                           LAS ANIMAS : COUNTY
 CTRY.                                  USA : COUNTRY
 API.                       05-071-08501-00 : API NUMBER
 STRT.FT                             321.00 : START DEPTH
 STOP.FT                            1570.00 : STOP DEPTH
 STEP.FT                               1.00 : DEPTH INCREMENT
 NULL.                                -9999 : NULL VALUE
~Curve information
 DEPTH.FT                                   :
 ROP.MIN/FT                                 :
 GAS.UNITS                                  :
~ASCII Log data
# ...
       921.0         0.23        163.6 
       922.0         4.02        184.5 
       923.0         0.52        373.9 
       924.0         0.33        373.9 
       925.0         0.23        332.4 
       926.0         0.23        295.5 
       927.0         0.27        269.0 
       928.0         0.23        240.0 
       929.0         0.23        213.9 
       930.0         0.23        197.6 
       931.0         0.23        194.3 
       932.0         0.17        191.0 
       933.0         0.23        186.8 
       934.0         0.20        178.0 
       935.0         0.23        171.0 
       936.0         0.23        162.9 
       937.0         0.22        158.5 
       938.0         0.20        160.2 
       939.0         0.23        162.8 
       940.0         0.23        164.0 
       941.0         0.27        164.2 
       942.0         0.23        163.2 
       943.0         0.33        161.5 
       944.0         0.30        158.2 
       945.0         0.27        157.4 
       946.0         0.27        155.1 
       947.0         0.23        151.7 
       948.0         0.27        146.4 
       949.0         0.23        143.0 
       950.0         0.22        143.2 
       951.0         0.30        146.9 
       952.0         3.02        167.0 
       953.0         0.20        217.8 
       954.0         0.23        338.2 
       955.0         0.23        363.4 
       956.0         0.27        348.8 
       957.0         0.20        324.8 
       958.0         0.17        289.9 
       959.0         0.17        273.9 
       960.0         0.20        259.2 
       961.0         0.17        250.0 
       962.0         0.20        237.1 
       963.0         0.20        222.0 
       964.0         0.23        209.1 
       965.0         0.27        190.2 
       966.0         0.13        176.8 
       967.0         0.23        175.2 
       968.0         0.25        175.6 
       969.0         0.17        175.7 
       970.0         0.13        174.9 
       971.0         0.20        172.4 
       972.0         0.17        169.7 
       973.0         0.20        166.5 
       974.0         0.20        163.3 
       975.0         0.20        160.2 
       976.0         0.23        157.8 
       977.0         0.23        155.9 
       978.0         0.13        155.0 
       979.0         0.13        154.0 
       980.0         0.23        152.7 
       981.0         0.17        151.7 
       982.0         2.92        157.1 
       983.0         0.30        184.5 
       984.0         0.30        324.7 
       985.0         0.27        339.5 
       986.0         0.13        327.0 
       987.0         0.17        318.3 
       988.0         0.22        301.8 
       989.0         0.17        284.5 
       990.0         0.23        272.3 
       991.0         0.23        254.1 
       992.0         0.27        232.3 
       993.0         0.23        216.3 
       994.0         0.23        198.5 
       995.0         0.13        188.5 
       996.0         0.13        187.4 
       997.0         0.10        181.0 
       998.0         0.23        178.4 
       999.0         0.17        174.7 
      1000.0         0.13        171.0 
      1001.0         0.20        166.6 
      1002.0         0.13        163.7 
      1003.0         0.17        159.5 
      1004.0         0.23        155.3 
      1005.0         0.20        153.1 
      1006.0         0.28        152.1 
      1007.0         0.23        150.9 
      1008.0         0.20        149.8 
      1009.0         0.20        149.3 
      1010.0         0.20        149.0 
      1011.0         0.20        149.2 
      1012.0         3.72        314.0 
      1013.0         0.30        421.8 
      1014.0         0.27        420.5 
      1015.0         0.23        375.7 
      1016.0         0.20        335.7 
      1017.0         0.20        304.3 
      1018.0         0.23        269.3 
      1019.0         0.23        241.7 
      1020.0         0.28        209.1 
      1021.0         0.17        191.6 
      1022.0         0.20        186.1 
      1023.0         0.23        183.4 
      1024.0         0.23        180.4 
      1025.0         0.23        177.0 
      1026.0         0.27        172.5 
      1027.0         0.30        166.6 
      1028.0         0.23        161.0 
      1029.0         0.20        158.2 
      1030.0         0.17        156.1 
      1031.0         0.20        153.4 
      1032.0         0.23        150.2 
      1033.0         0.13        147.5 
      1034.0         0.17        144.7 
      1035.0         0.25        141.7 
      1036.0         0.23        141.4 
      1037.0         0.20        142.5 
      1038.0         0.17        143.2 
      1039.0         0.20        143.8 
      1040.0         0.20        144.1 
      1041.0         0.17        144.3 
      1042.0         2.42        149.5 
      1043.0         0.33         95.2 
      1044.0         0.30        260.2 
      1045.0         0.33        363.6 
      1046.0         0.23        365.6 
      1047.0         0.17        342.4 
      1048.0         0.23        312.2 
      1049.0         0.23        292.6 
      1050.0         0.23        270.3 
      1051.0         0.30        236.1 
      1052.0         0.27        210.5 
      1053.0         0.25        198.2 
      1054.0         0.63        193.5 
      1055.0         0.37        176.2 
      1056.0         0.33        166.7 
      1057.0         0.27        161.2 
      1058.0         0.20        160.0 
      1059.0         0.20        159.0 
      1060.0         0.30        156.6 
      1061.0         0.43        151.3 
      1062.0         0.33        143.0 
      1063.0         0.25        139.8 
      1064.0         0.23        140.3 
      1065.0         0.23        142.5 
      1066.0         0.20        144.2 
      1067.0         0.23        145.1 
      1068.0         0.40        145.2 
      1069.0         0.23        143.7 
      1070.0         0.27        142.4 
      1071.0         0.27        140.4 
      1072.0         4.45       1067.8 
      1073.0         0.28        842.6 
      1074.0         0.30        755.9 
      1075.0         0.20        682.1 
      1076.0         0.20        639.5 
      1077.0         0.23        606.3 
      1078.0         0.20        576.0 
      1079.0         0.20        558.6 
      1080.0         0.17        544.8 
      1081.0         0.20        529.6 
      1082.0         0.17        517.1 
      1083.0         0.17        507.1 
      1084.0         0.23        500.3 
      1085.0         0.20        489.7 
      1086.0         0.17        483.6 
      1087.0         0.23        482.3 
      1088.0         0.20        470.3 
      1089.0         0.22        464.5 
      1090.0         0.13        461.3 
      1091.0         0.17        455.5 
      1092.0         0.17        456.2 
      1093.0         0.20        459.7 
      1094.0         0.13        461.6 
      1095.0         0.20        462.9 
      1096.0         0.23        464.9 
      1097.0         0.17        468.1 
      1098.0         0.13        471.6 
      1099.0         0.17        474.9 
      1100.0         0.10        479.0 
      1101.0         0.13        486.5 
      1102.0         1.42        498.7 
      1103.0         0.23         65.0 
      1104.0         0.37         56.4 
      1105.0         0.37         60.7 
      1106.0         0.20         64.2 
      1107.0         0.17         99.6 
      1108.0         0.30        311.2 
      1109.0         0.33       1123.6 
      1110.0         0.23       1122.3 
      1111.0         0.33       1000.5 
      1112.0         0.27        792.3 
      1113.0         0.30        729.8 
      1114.0         0.18        697.9 
      1115.0         0.23        680.1 
      1116.0         0.23        651.5 
      1117.0         0.23        637.3 
      1118.0         0.23        613.4 
      1119.0         0.23        590.9 
      1120.0         0.23        566.4 
