~Version Information
VERS.                      2.0: CWLS Log ASCII Standard - VERSION 2.0
WRAP.                       NO: One line per depth step
~Well Information Block
STRT.FT               330.0000: 
STOP.FT              1972.5000: 
STEP.FT                 0.1000: 
NULL.                -999.2500: 
COMP.          Pioneer Natural Resources: COMPANY
WELL.           Willys 32-8 Tr: WELL
FLD.           Purgatoire River: FIELD
LOC.           1843' FNL & 2355' FEL: LOCATION
CNTY.               Las Animas: COUNTY
SRVC.                Patterson: SERVICE COMPANY
DATE.          Thu Feb 09 10:31:59 2006: LOG DATE
UWI.           05 071 08688 00: UNIQUE WELL ID
STAT.                 Colorado: STATE
~Curve Information Block
DEPT.FT            0 000 00 00: Depth
DCAL.in                       : CDL Caliper
RHOB.g/cc                     : CDL Bulk Density
RHOC.g/cc                     : CDL Density Correction
DPOR.pu                       : CDL Density Porosity
GR.GAPI                       : Gamma Ray
~Parameter Information Block
~A  Depth       DCAL        RHOB        RHOC        DPOR         GR     
# ...
   542.8000      7.9988      2.5590      0.0460      5.5162    145.2997
   542.9000      7.9988      2.5481      0.0662      6.1785    141.6586
   543.0000      8.0229      2.5425      0.0254      6.5138    134.0870
   543.1000      8.0229      2.5445      0.0618      6.3944    125.4645
   543.2000      8.0229      2.5444      0.0489      6.4018    121.0482
   543.3000      8.0243      2.5441      0.0284      6.4154    124.4574
   543.4000      8.0243      2.5582     -0.0040      5.5624    131.2874
   543.5000      8.0475      2.5748      0.1001      4.5604    130.5675
   543.6000      8.0475      2.5617      0.0878      5.3514    123.3372
   543.7000      8.0475      2.5307     -0.0303      7.2278    121.0992
   543.8000      8.1053      2.5202      0.0098      7.8663    122.9605
   543.9000      8.1053      2.5298      0.0001      7.2866    119.7685
   544.0000      8.1476      2.5410     -0.0084      6.6060    115.5282
   544.1000      8.1476      2.5474      0.0125      6.2204    119.6606
   544.2000      8.1476      2.5409      0.0481      6.6147    126.5816
   544.3000      8.1716      2.5196     -0.0268      7.9035    126.8773
   544.4000      8.1716      2.4998     -0.0247      9.1044    124.9172
   544.5000      8.2221      2.4907     -0.0022      9.6522    125.6388
   544.6000      8.2221      2.4897     -0.0117      9.7132    125.5802
   544.7000      8.2221      2.4972      0.0134      9.2631    123.9281
   544.8000      8.2569      2.5124     -0.0162      8.3374    122.9290
   544.9000      8.2569      2.5285     -0.0068      7.3638    121.5734
   545.0000      8.2784      2.5325      0.0662      7.1219    120.6600
   545.1000      8.2784      2.5153      0.0315      8.1655    120.1793
   545.2000      8.2784      2.4809      0.0105     10.2467    115.9065
   545.3000      8.2953      2.4354     -0.0072     13.0088    109.0629
   545.4000      8.2953      2.3662      0.0180     17.2012    104.3006
   545.5000      8.2794      2.2619     -0.0483     23.5232    101.2530
   545.6000      8.2794      2.1513     -0.1540     30.2242     99.3723
   545.7000      8.2794      2.0747     -0.1118     34.8671     98.4033
   545.8000      8.3051      2.0415     -0.1378     36.8779     93.3566
   545.9000      8.3051      2.0395     -0.0590     36.9992     83.3927
   546.0000      8.3176      2.0524     -0.0334     36.2167     76.5172
   546.1000      8.3176      2.0765      0.0184     34.7558     75.2880
   546.2000      8.3176      2.1230      0.0974     31.9395     74.3660
   546.3000      8.1966      2.1996      0.1894     27.2988     71.6841
   546.4000      8.1966      2.2863      0.3187     22.0420     67.6280
   546.5000      8.1271      2.3376      0.3142     18.9345     60.4762
   546.6000      8.1271      2.3391      0.1534     18.8420     50.8985
   546.7000      8.1271      2.3269      0.1022     19.5841     44.0061
   546.8000      8.0388      2.3301      0.0845     19.3874     41.7576
   546.9000      8.0388      2.3493      0.0822     18.2258     43.1048
   547.0000      7.9985      2.3732      0.1068     16.7730     46.7677
   547.1000      7.9985      2.3905      0.0908     15.7245     51.9138
   547.2000      7.9985      2.3960      0.1311     15.3933     57.0538
   547.3000      8.0472      2.3936      0.0531     15.5411     59.8953
   547.4000      8.0472      2.3873      0.1127     15.9211     61.7404
   547.5000      8.0488      2.3732      0.0971     16.7759     62.6305
   547.6000      8.0488      2.3558      0.0766     17.8290     59.9285
   547.7000      8.0488      2.3449      0.0667     18.4896     56.2222
   547.8000      8.0472      2.3459      0.0189     18.4316     54.8150
   547.9000      8.0472      2.3582      0.0606     17.6839     54.5492
   548.0000      8.0884      2.3672      0.0750     17.1395     55.0335
   548.1000      8.0884      2.3653      0.0446     17.2541     55.0255
   548.2000      8.0884      2.3622      0.1051     17.4449     54.0322
   548.3000      8.0917      2.3689      0.0741     17.0361     55.6379
   548.4000      8.0917      2.3932      0.0851     15.5659     60.5283
   548.5000      8.0710      2.4228      0.1583     13.7700     64.6010
   548.6000      8.0710      2.4304      0.1552     13.3070     64.4512
   548.7000      8.0710      2.4149      0.1062     14.2457     60.4942
   548.8000      8.0470      2.4046      0.0856     14.8732     56.2367
   548.9000      8.0470      2.4095      0.1184     14.5786     53.5393
   549.0000      8.0731      2.4126      0.0899     14.3849     51.7056
   549.1000      8.0731      2.4065      0.0893     14.7599     51.1904
   549.2000      8.0731      2.3989      0.0646     15.2169     51.6202
   549.3000      8.0769      2.3997      0.0600     15.1712     52.0053
   549.4000      8.0769      2.4061      0.0661     14.7792     51.7946
   549.5000      8.0801      2.4087      0.0584     14.6248     50.9242
   549.6000      8.0801      2.4085      0.0371     14.6391     50.9008
   549.7000      8.0801      2.4073      0.0785     14.7075     52.0606
   549.8000      8.0651      2.4027      0.0323     14.9867     53.9461
   549.9000      8.0651      2.4018      0.0505     15.0399     58.8854
   550.0000      8.0583      2.4108      0.0443     14.4946     64.4391
   550.1000      8.0583      2.4223      0.0742     13.8018     63.1747
   550.2000      8.0583      2.4237      0.1004     13.7181     56.6994
   550.3000      8.0522      2.4123      0.0632     14.4036     52.1528
   550.4000      8.0522      2.3962      0.0623     15.3804     50.7099
   550.5000      8.0091      2.3837      0.0199     16.1423     51.7342
   550.6000      8.0091      2.3861     -0.0491     15.9911     56.8425
   550.7000      8.0091      2.4111      0.0152     14.4806     65.6812
   550.8000      8.0250      2.4458      0.0622     12.3731     73.7359
   550.9000      8.0250      2.4738      0.0635     10.6796     78.2670
   551.0000      8.0191      2.4921      0.0410      9.5699     81.3695
   551.1000      8.0191      2.5005      0.0802      9.0629     83.2505
   551.2000      8.0191      2.4971      0.0259      9.2683     81.4531
   551.3000      8.0423      2.4845      0.0416     10.0306     77.2950
   551.4000      8.0423      2.4662      0.0145     11.1378     76.2007
   551.5000      8.0500      2.4476      0.0282     12.2696     83.2768
   551.6000      8.0500      2.4300      0.0281     13.3317     95.1386
   551.7000      8.0500      2.4100      0.0484     14.5462    101.8665
   551.8000      8.0270      2.3922     -0.0148     15.6267    101.5746
   551.9000      8.0270      2.3883      0.0008     15.8620     98.5174
   552.0000      8.0174      2.3934      0.0431     15.5504     92.1023
   552.1000      8.0174      2.3949      0.0108     15.4587     84.1768
   552.2000      8.0174      2.3980      0.0461     15.2719     78.1048
   552.3000      8.0227      2.4168      0.0018     14.1338     74.2926
   552.4000      8.0227      2.4539      0.0492     11.8821     73.7366
   552.5000      8.0095      2.4923      0.1053      9.5602     75.9722
   552.6000      8.0095      2.5138      0.1233      8.2575     78.4485
   552.7000      8.0095      2.5170      0.1178      8.0621     79.1683
   552.8000      7.9956      2.5050      0.1085      8.7902     76.8880
   552.9000      7.9956      2.4778      0.0906     10.4366     74.4618
   553.0000      8.0329      2.4385      0.0804     12.8154     78.8627
   553.1000      8.0329      2.3931      0.0353     15.5727     88.8998
   553.2000      8.0329      2.3526      0.0013     18.0267     94.0972
   553.3000      8.0574      2.3303      0.0453     19.3747     89.4832
   553.4000      8.0574      2.3307     -0.0075     19.3544     82.4971
   553.5000      8.0504      2.3496      0.0428     18.2072     80.5648
   553.6000      8.0504      2.3755      0.0669     16.6386     81.1829
   553.7000      8.0504      2.4024      0.0972     15.0051     79.6131
   553.8000      8.0662      2.4343      0.1352     13.0718     74.3436
   553.9000      8.0662      2.4675      0.2142     11.0592     68.4345
