~Version Information
VERS.                      2.0: CWLS Log ASCII Standard - VERSION 2.0
WRAP.                       NO: One line per depth step
~Well Information Block
STRT.FT               970.0000: 
STOP.FT              1881.0000: 
STEP.FT                 0.1000: 
NULL.                -999.2500: 
COMP.          Petrogulf Corporation: COMPANY
WELL.             Norton 9-14R: WELL
FLD.           Purgatorie River: FIELD
LOC.           725' FSL & 1103' FWL: LOCATION
PROV.                 Colorado: PROVINCE
CNTY.               Las Animas: COUNTRY
SRVC.                Patterson: SERVICE COMPANY
DATE.          Fri Oct 07 07:52:23 2005: LOG DATE
UWI.                          : UNIQUE WELL ID
~Curve Information Block
DEPT.FT            0 000 00 00: Depth
DCAL.in                       : CDL Caliper
RHOB.g/cc                     : CDL Bulk Density
RHOC.g/cc                     : CDL Density Correction
DPOR.pu                       : CDL Density Porosity
GR.GAPI                       : Gamma Ray
NPOR.pu                       : Neutron Porosity
~Parameter Information Block
~A  Depth       DCAL        RHOB        RHOC        DPOR         GR         NPOR    
# ...
  1267.6000      7.8092      2.5653      0.0722      5.1325     84.9919     23.3136
  1267.7000      7.8092      2.5853      0.0827      3.9193     85.4870     22.5467
  1267.8000      7.8104      2.6068      0.1363      2.6181     83.0690     22.0877
  1267.9000      7.8104      2.6075      0.1111      2.5730     79.9281     21.8036
  1268.0000      7.8217      2.5916      0.0757      3.5420     79.4074     21.6466
  1268.1000      7.8217      2.5780      0.0520      4.3646     80.0716     21.5426
  1268.2000      7.8217      2.5695      0.0725      4.8759     78.7091     21.3011
  1268.3000      7.8226      2.5627      0.0923      5.2886     76.0424     20.9662
  1268.4000      7.8226      2.5651      0.0640      5.1453     75.8134     20.7813
  1268.5000      7.8227      2.5762      0.1039      4.4706     79.4061     20.7368
  1268.6000      7.8227      2.5748      0.1089      4.5562     81.8497     20.6360
  1268.7000      7.8227      2.5612     -0.0164      5.3816     79.9691     20.5346
  1268.8000      7.8000      2.5553      0.0966      5.7408     77.8285     20.5897
  1268.9000      7.8000      2.5550      0.0486      5.7564     77.4975     20.8128
  1269.0000      7.7902      2.5567      0.0703      5.6549     77.1079     21.1015
  1269.1000      7.7902      2.5612      0.0983      5.3808     77.0158     21.3443
  1269.2000      7.7902      2.5652      0.0755      5.1409     78.7535     21.3918
  1269.3000      7.8297      2.5695      0.0906      4.8804     80.4946     21.1277
  1269.4000      7.8297      2.5790      0.0549      4.3038     80.4095     20.7137
  1269.5000      7.9394      2.5927      0.0568      3.4737     80.7038     20.4173
  1269.6000      7.9394      2.5947      0.1193      3.3523     82.0205     20.3616
  1269.7000      7.9394      2.5758      0.0496      4.4957     80.4765     20.4838
  1269.8000      7.9224      2.5551      0.0198      5.7489     76.5156     20.6963
  1269.9000      7.9224      2.5511      0.0235      5.9965     75.9157     20.9353
  1270.0000      7.9273      2.5535      0.0525      5.8491     78.4398     21.0500
  1270.1000      7.9273      2.5434      0.0684      6.4609     78.3671     20.9004
  1270.2000      7.9273      2.5245      0.0270      7.6047     75.6912     20.5876
  1270.3000      7.9374      2.5156     -0.0039      8.1428     75.1684     20.2686
  1270.4000      7.9374      2.5240      0.0391      7.6390     76.5579     20.0982
  1270.5000      7.9444      2.5406      0.0308      6.6315     75.8548     20.0742
  1270.6000      7.9444      2.5529      0.0384      5.8875     73.4282     20.0396
  1270.7000      7.9444      2.5512      0.0222      5.9894     73.7014     20.0355
  1270.8000      7.9453      2.5356      0.0088      6.9316     77.9247     20.1125
  1270.9000      7.9453      2.5227      0.0086      7.7140     82.6910     20.1926
  1271.0000      7.8982      2.5244      0.0590      7.6110     83.8777     20.1743
  1271.1000      7.8982      2.5307      0.0284      7.2301     81.2502     19.9488
  1271.2000      7.8982      2.5360      0.0497      6.9109     78.5842     19.6141
  1271.3000      7.8069      2.5439      0.0599      6.4312     77.9376     19.2826
  1271.4000      7.8069      2.5442      0.0854      6.4106     77.0011     18.7983
  1271.5000      7.7948      2.5263      0.0473      7.4967     74.4479     17.9713
  1271.6000      7.7948      2.5072     -0.0062      8.6527     72.2200     17.0459
  1271.7000      7.7948      2.5098      0.0147      8.4946     70.2639     16.5101
  1271.8000      7.8205      2.5260      0.0559      7.5153     66.9824     16.2931
  1271.9000      7.8205      2.5333      0.0727      7.0747     64.8849     15.9484
  1272.0000      7.8148      2.5302      0.0424      7.2594     65.7523     15.4746
  1272.1000      7.8148      2.5277      0.0758      7.4104     67.1042     15.0368
  1272.2000      7.8148      2.5294      0.0260      7.3110     68.8858     14.7676
  1272.3000      7.7745      2.5355      0.0663      6.9400     72.2277     14.8516
  1272.4000      7.7745      2.5476      0.0602      6.2074     75.6875     15.2661
  1272.5000      7.7596      2.5692      0.0710      4.8972     78.0063     16.0234
  1272.6000      7.7596      2.5919      0.1318      3.5215     78.3596     17.2051
  1272.7000      7.7596      2.5968      0.1384      3.2234     76.7875     18.4224
  1272.8000      7.7717      2.5811      0.1026      4.1753     75.3360     19.1013
  1272.9000      7.7717      2.5611      0.0713      5.3856     77.8781     19.3098
  1273.0000      7.7927      2.5511      0.0505      5.9933     85.3895     19.6350
  1273.1000      7.7927      2.5494      0.0465      6.0990     93.0905     20.2094
  1273.2000      7.7927      2.5410      0.1021      6.6058     98.2880     20.7008
  1273.3000      7.8724      2.5245      0.0133      7.6044    100.8978     20.8527
  1273.4000      7.8724      2.5195      0.0110      7.9104    101.5941     20.9542
  1273.5000      7.9188      2.5293      0.0337      7.3130    102.7988     21.3963
  1273.6000      7.9188      2.5394      0.0442      6.7037    105.0688     21.8853
  1273.7000      7.9188      2.5484      0.0293      6.1563    106.4862     21.9313
  1273.8000      7.9183      2.5613      0.0632      5.3731    104.7103     21.5600
  1273.9000      7.9183      2.5696      0.0374      4.8710    101.9253     21.1883
  1274.0000      7.9215      2.5749      0.0192      4.5512    102.5937     21.0712
  1274.1000      7.9215      2.5917      0.0495      3.5326    105.0339     21.0538
  1274.2000      7.9215      2.6138      0.0778      2.1933    103.8317     20.8840
  1274.3000      7.9124      2.6247      0.0200      1.5353     97.1804     20.7133
  1274.4000      7.9124      2.6325      0.0544      1.0625     89.4944     20.8533
  1274.5000      7.8921      2.6654      0.0181     -0.9328     86.4443     21.1215
  1274.6000      7.8921      2.7231      0.1304     -4.4304     88.9373     21.2766
  1274.7000      7.8921      2.7614      0.1434     -6.7504     94.0111     21.6390
  1274.8000      7.8360      2.7595      0.0728     -6.6358     95.5424     22.2853
  1274.9000      7.8360      2.7376      0.0766     -5.3119     90.5491     22.6005
  1275.0000      7.8591      2.7050      0.0719     -3.3346     85.2940     22.2628
  1275.1000      7.8591      2.6560      0.0489     -0.3664     85.4359     21.7469
  1275.2000      7.8591      2.5990      0.0035      3.0886     89.0510     21.4868
  1275.3000      7.9105      2.5513     -0.0859      5.9796     91.9635     21.3766
  1275.4000      7.9105      2.5244     -0.0666      7.6095     93.1948     21.2784
  1275.5000      7.9340      2.5136     -0.0001      8.2684     94.8006     21.3165
  1275.6000      7.9340      2.4988      0.0843      9.1646     97.9474     21.5455
  1275.7000      7.9340      2.4741      0.0199     10.6619    103.5523     22.0467
  1275.8000      7.9053      2.4659      0.0424     11.1584    112.1815     22.9580
  1275.9000      7.9053      2.4991      0.0911      9.1470    121.8357     24.1769
  1276.0000      7.7391      2.5679      0.1588      4.9738    130.0306     25.2613
  1276.1000      7.7391      2.6487      0.2311      0.0792    134.9044     25.7331
  1276.2000      7.7391      2.7147      0.2164     -3.9207    133.9086     25.7440
  1276.3000      7.6951      2.7471      0.2810     -5.8866    128.7198     25.6858
  1276.4000      7.6951      2.7440      0.2532     -5.6976    125.5123     25.4467
  1276.5000      7.7276      2.7217      0.2295     -4.3437    124.9124     25.0042
  1276.6000      7.7276      2.7015      0.1685     -3.1211    121.7546     24.6481
  1276.7000      7.7276      2.6867      0.1508     -2.2219    116.7161     24.5101
  1276.8000      7.7552      2.6543      0.1191     -0.2621    116.1997     24.7203
  1276.9000      7.7552      2.5980     -0.0412      3.1492    119.8320     25.1876
  1277.0000      7.8731      2.5600     -0.1588      5.4516    121.7537     25.3929
  1277.1000      7.8731      2.5695     -0.0070      4.8774    123.1175     25.2150
