~Version Information
 VERS.                                  2.0 : CWLS LAS VERSION
 WRAP.                                   NO : WRAPING MODE
 SWARE .                 MController 2.5.0N : SOFTWARE VERSION
~Well Information
 WELL.                            Mac 22-36 : WELL
 COMP.    Pioneer Natural Resouces USA Inc. : COMPANY
 FLD.                      Purgatoire River : FIELD
 LOC.            SE/NW Sec 36 , T34S, R65W  : LOCATION
 DATE.                             12/04/05 : DATE(S) LOGGED
 SRVC.       BLANCO Geological Services LLC : SERVICE COMPANY
 STAT.                                   CO : STATE
 CNTY.                           Las Animas : COUNTY
 CTRY.                                  USA : COUNTRY
 API.                          05-071-08594 : API NUMBER
 STRT.FT                             168.00 : START DEPTH
 STOP.FT                            1055.00 : STOP DEPTH
 STEP.FT                               1.00 : DEPTH INCREMENT
 NULL.                                -9999 : NULL VALUE
~Curve information
 DEPTH.FT                                   :
 ROP.MIN/FT                                 :
 GAS.UNITS                                  :
~ASCII Log data
# ...
       768.0         0.23        326.3 
       769.0         0.27        319.0 
       770.0         0.47        275.7 
       771.0         3.72       2512.2 
       772.0         0.37        666.3 
       773.0         0.38        611.5 
       774.0         0.37        535.8 
       775.0         0.27        475.2 
       776.0         0.30        450.0 
       777.0         0.33        199.0 
       778.0         0.40        223.4 
       779.0         0.30        276.6 
       780.0         0.23        438.8 
       781.0         0.20        427.7 
       782.0         0.23        422.2 
       783.0         0.23        390.4 
       784.0         0.42        340.1 
       785.0         0.37        316.2 
       786.0         0.37        325.3 
       787.0         0.37        304.3 
       788.0         0.33        258.2 
       789.0         0.40        225.1 
       790.0         0.37        267.2 
       791.0         0.23        359.2 
       792.0         0.27        361.5 
       793.0         0.37        371.3 
       794.0         0.38        362.2 
       795.0         0.37        251.8 
       796.0         0.33        255.5 
       797.0         0.33        246.6 
       798.0         0.40        157.4 
       799.0         0.33        146.3 
       800.0         0.40        244.3 
       801.0         3.05       2446.8 
       802.0         0.27        595.4 
       803.0         0.27        589.3 
       804.0         0.30        552.5 
       805.0         0.40        448.4 
       806.0         0.45        196.2 
       807.0         0.43        171.5 
       808.0         0.40        167.8 
       809.0         0.33        169.2 
       810.0         0.30        164.3 
       811.0         0.33        185.1 
       812.0         0.37        209.8 
       813.0         0.47        200.8 
       814.0         0.33        298.3 
       815.0         0.35        309.7 
       816.0         0.33        252.0 
       817.0         0.33        246.8 
       818.0         0.30        247.1 
       819.0         0.30        232.2 
       820.0         0.33        222.9 
       821.0         0.30        192.5 
       822.0         0.33        181.2 
       823.0         0.33        154.2 
       824.0         0.33        146.8 
       825.0         0.28        154.3 
       826.0         0.30        151.7 
       827.0         0.27        209.8 
       828.0         0.27        263.2 
       829.0         0.53        231.6 
       830.0         0.57        133.7 
       831.0         3.42       2549.0 
       832.0         0.88        669.5 
       833.0         0.43        521.3 
       834.0         0.33        476.1 
       835.0         0.27        440.0 
       836.0         0.33        176.6 
       837.0         0.23        169.3 
       838.0         0.30        166.6 
       839.0         0.37        158.4 
       840.0         0.33        165.5 
       841.0         0.28        179.8 
       842.0         0.40        193.0 
       843.0         0.40        204.6 
       844.0         0.33        195.6 
       845.0         0.30        170.3 
       846.0         0.33        160.0 
       847.0         0.30        163.3 
       848.0         0.33        163.6 
       849.0         0.37        160.8 
       850.0         0.37        151.3 
       851.0         0.32        167.9 
       852.0         0.30        261.3 
       853.0         0.23        271.6 
       854.0         0.23        258.8 
       855.0         0.33        301.1 
       856.0         0.33        310.5 
       857.0         0.33        276.8 
       858.0         0.33        268.2 
       859.0         0.50        128.5 
       860.0         0.50         98.4 
       861.0         5.07       2189.6 
       862.0         0.53        191.7 
       863.0         0.57        149.1 
       864.0         0.58        148.5 
       865.0         0.53        146.0 
       866.0         0.53        147.5 
       867.0         0.57        150.8 
       868.0         0.53        151.0 
       869.0         0.57        156.0 
       870.0         0.55        155.9 
       871.0         0.50        160.3 
       872.0         0.40        160.7 
       873.0         0.40        167.0 
       874.0         0.40        166.6 
       875.0         0.37        167.4 
       876.0         0.37        165.3 
       877.0         0.40        160.3 
       878.0         0.45        172.8 
       879.0         0.43        183.4 
       880.0         0.43        183.3 
       881.0         0.43        176.1 
       882.0         0.47        178.9 
       883.0         0.47        196.9 
       884.0         0.43        201.2 
       885.0         0.47        180.8 
       886.0         0.62        149.0 
       887.0         0.57        130.3 
       888.0         0.47        143.0 
       889.0         1.00        158.1 
       890.0         0.70       1752.0 
       891.0         2.38       1486.8 
       892.0         0.53        465.8 
       893.0         0.43        454.5 
       894.0         0.48        204.4 
       895.0         0.43        153.0 
       896.0         0.43        153.3 
       897.0         0.40        157.0 
       898.0         0.33        177.4 
       899.0         0.30        179.2 
       900.0         0.33        268.1 
       901.0         0.27        304.1 
       902.0         0.23        267.2 
       903.0         0.28        289.1 
       904.0         0.27        301.9 
       905.0         0.27        297.4 
       906.0         0.30        286.9 
       907.0         0.27        289.6 
       908.0         0.27        281.2 
       909.0         0.27        270.4 
       910.0         0.27        246.2 
       911.0         0.33        267.1 
       912.0         0.32        256.8 
       913.0         0.37        235.2 
       914.0         0.30        220.5 
       915.0         0.30        218.6 
       916.0         0.33        217.1 
       917.0         0.40        205.9 
       918.0         0.37        102.3 
       919.0         0.47        107.6 
       920.0         0.68        158.3 
       921.0         3.45       2203.5 
       922.0         0.50        445.2 
       923.0         0.43        180.5 
       924.0         0.40        178.7 
       925.0         0.37        165.0 
       926.0         0.40        153.4 
       927.0         0.37        147.7 
       928.0         0.37        145.0 
       929.0         0.42        145.1 
       930.0         0.30        145.2 
       931.0         0.30        144.8 
       932.0         0.30        147.8 
       933.0         0.33        152.0 
       934.0         0.30        163.0 
       935.0         0.30        165.8 
       936.0         0.27        167.3 
       937.0         0.30        156.9 
       938.0         0.37        156.2 
       939.0         0.40        142.8 
       940.0         0.35        139.0 
       941.0         0.30        138.6 
       942.0         0.33        138.6 
       943.0         0.30        137.7 
       944.0         0.43        143.3 
       945.0         0.30        142.1 
       946.0         0.33        134.9 
       947.0         0.30        132.0 
       948.0         0.40        120.2 
       949.0         0.62        104.6 
       950.0         0.10        104.6 
       951.0         4.85       3796.1 
       952.0         0.50        481.3 
       953.0         0.40        484.8 
       954.0         0.37        456.2 
       955.0         0.38        440.0 
       956.0         0.47        160.1 
       957.0         0.37        159.4 
       958.0         0.40        165.2 
       959.0         0.30        167.6 
       960.0         0.30        169.8 
       961.0         0.27        174.4 
       962.0         0.27        183.0 
       963.0         0.30        200.1 
       964.0         0.37        189.5 
       965.0         0.35        188.7 
       966.0         0.37        233.7 
       967.0         0.37        221.3 
