~Version Information
VERS.                      2.0: CWLS Log ASCII Standard - VERSION 2.0
WRAP.                       NO: One line per depth step
~Well Information Block
STRT.FT                -6.7500: 
STOP.FT              2034.2500: 
STEP.FT                 0.2500: 
NULL.                -999.2500: 
COMP.          Evergreen Operating Corp.: COMPANY
WELL.           Big Pine 32-15: WELL
FLD.           Purgatorie River: FIELD
LOC.           2590 FNL & 1442 FEL--: LOCATION
STAT.                       CO: State
CNTY.               Las Animas: COUNTY
CTRY. USA : Country
SECT. 15 : Section
TOWN. 33S : township
RANG. 67W : Range
SRVC.          Patterson Wireline, Inc.: SERVICE COMPANY
DATE.          Mon Mar 24 12:45:01 2003: LOG DATE
API.           05 071 07772 00: UNIQUE WELL ID
~Curve Information Block
DEPT.FT            0 000 00 00: Depth
HVOLTA.V                      : Head Voltage Apparent
CCL.                          : Casing Collar Locator
TT3.usec                      : CBL 3' Travel Time
AMP3.mV                       : CBL 3' Amplitude
GR.GAPI                       : Gamma Ray
~Parameter Information Block
~A  Depth      HVOLTA       CCL         TT3         AMP3         GR     
# ...
  1729.2500    121.5699      0.0000    323.1155     21.7272     61.4376
  1729.5000    121.4408      0.0000    317.0222     22.1144     62.0111
  1729.7500    121.5472      0.0000    313.5826     22.0751     63.2140
  1730.0000    121.6015      0.0000    311.5904     22.0188     64.4203
  1730.2500    121.5170      0.0000    308.5051     22.3227     65.0850
  1730.5000    121.4662      0.0000    304.6795     22.9791     65.3852
  1730.7500    121.6015      0.0000    302.0485     23.7493     65.6564
  1731.0000    121.3866      0.0000    301.2626     24.3417     65.5385
  1731.2500    121.4113      0.0000    302.1767     24.4186     64.1913
  1731.5000    121.4140      0.0000    305.0178     23.7983     61.2999
  1731.7500    121.4916      0.0000    309.7442     22.7318     57.6299
  1732.0000    121.4635      0.0000    315.1803     21.7412     54.5527
  1732.2500    121.4944      0.0000    320.3933     21.0911     52.9964
  1732.5000    121.3818      0.0000    325.4083     20.6420     52.7287
  1732.7500    121.4360      0.0000    329.5872     20.1487     52.6144
  1733.0000    121.5768      0.0000    332.0289     19.5377     51.6767
  1733.2500    121.5157      0.0000    333.0117     18.9670     49.9096
  1733.5000    121.3831      0.0000    333.5368     18.5362     48.0207
  1733.7500    121.5994      0.0000    335.5682     18.0864     46.5975
  1734.0000    121.4944      0.0000    344.5305     17.4105     45.7347
  1734.2500    121.5452      0.0000    368.0483     16.5192     45.1880
  1734.5000    121.5184      0.0000    401.7724     15.7037     44.6440
  1734.7500    121.6029      0.0000    420.8768     15.2560     44.0736
  1735.0000    121.4401      0.0000    409.3143     15.1881     44.0104
  1735.2500    121.5486      0.0000    383.7744     15.3734     45.2524
  1735.5000    121.4168      0.0000    364.1742     15.7712     48.1770
  1735.7500    121.5136      0.0000    350.9553     16.4035     52.4905
  1736.0000    121.4346      0.0000    340.3225     17.2311     57.6046
  1736.2500    121.5987      0.0000    332.5876     18.1033     63.0359
  1736.5000    121.4374      0.0000    329.3276     18.7925     68.4799
  1736.7500    121.5720      0.0000    337.2484     18.9002     73.8276
  1737.0000    121.4408      0.0000    369.0445     17.9070     79.2888
  1737.2500    121.5740      0.0000    428.2895     15.8447     85.2586
  1737.5000    121.4655      0.0000    492.6773     13.8056     91.6772
  1737.7500    121.4909      0.0000    535.2221     12.8665     97.5328
  1738.0000    121.3845      0.0000    562.6564     12.5345    101.3355
  1738.2500    121.6290      0.0000    592.9597     11.6325    102.1986
  1738.5000    121.4669      0.0000    619.5170     10.1576    100.3339
  1738.7500    121.6859      0.0000    641.4678      8.7747     96.6594
  1739.0000    121.6029      5.0000    676.5659      7.6691     92.2912
  1739.2500    121.5987      5.0000    722.7366      6.7887     88.3827
  1739.5000    121.3570      3.9175    757.0278      6.1946     85.9296
  1739.7500    121.4003      0.0000    768.4024      5.9275     85.5147
  1740.0000    121.6056      0.0000    762.3018      5.9798     87.4210
  1740.2500    121.5527      0.0000    748.3233      6.3477     91.8263
  1740.5000    121.4683      0.0000    736.7547      6.9132     98.4246
  1740.7500    121.7697      0.0000    731.4154      7.3151    105.9793
  1741.0000    121.6248      0.0000    726.5448      7.2293    112.7351
  1741.2500    121.4587      0.0000    718.2488      6.8253    117.2876
  1741.5000    121.4669      0.0000    709.8978      6.5919    118.9150
  1741.7500    121.5754      0.0000    705.0597      6.7383    117.6753
  1742.0000    121.4944      0.0000    703.3491      7.0974    114.7222
  1742.2500    121.6283      0.0000    702.9265      7.5071    112.0798
  1742.5000    121.6022      0.0000    702.7776      7.9453    111.3742
  1742.7500    121.6544      0.0000    702.6876      8.3955    112.6438
  1743.0000    121.6235      0.0000    702.5966      8.8365    114.5128
  1743.2500    121.5768      0.0000    702.1238      9.3167    115.4865
  1743.5000    121.4106      0.0000    699.3641      9.9047    115.0752
  1743.7500    121.6296      0.0000    687.1351     10.6265    113.8992
  1744.0000    121.5500      0.0000    650.1083     11.5012    112.9187
  1744.2500    121.5411      0.0000    576.4860     12.5698    112.6724
  1744.5000    121.3557      0.0000    481.0434     13.8128    113.1243
  1744.7500    121.5720      0.0000    400.1287     15.0509    113.8762
  1745.0000    121.5205      0.0000    354.9949     16.0654    114.4438
  1745.2500    121.5472      0.0000    338.3733     16.7869    114.5818
  1745.5000    121.4683      0.0000    334.3881     17.2820    114.3081
  1745.7500    121.5472      0.0000    333.7599     17.6508    113.6231
  1746.0000    121.5472      0.0000    333.5820     17.8763    112.5894
  1746.2500    121.7381      0.0000    333.6928     17.8269    111.6202
  1746.5000    121.5486      0.0000    335.9051     17.4626    111.0355
  1746.7500    121.6846      0.0000    346.7790     16.8570    110.4529
  1747.0000    121.4923      0.0000    380.0295     16.0430    109.4844
  1747.2500    121.5754      0.0000    446.2775     14.9583    108.9650
  1747.5000    121.4415      0.0000    533.4962     13.5923    110.4529
  1747.7500    121.7642      0.0000    611.9035     12.0969    114.3670
  1748.0000    121.5472      0.0000    662.8506     10.6969    119.4306
  1748.2500    121.5987      0.0000    688.2610      9.5564    123.9137
  1748.5000    121.5775      0.0000    698.1091      8.7222    126.6478
  1748.7500    121.6544      0.0000    700.8530      8.1745    127.0212
  1749.0000    121.5781      0.0000    701.2155      7.8316    125.2057
  1749.2500    121.5720      0.0000    701.0868      7.5227    122.7059
  1749.5000    121.4930      0.0000    701.2473      7.2010    121.6593
  1749.7500    121.4635      0.0000    702.7789      7.0597    122.9240
  1750.0000    121.4909      0.0000    707.4417      7.1808    125.3296
  1750.2500    121.6276      0.0000    715.5038      7.2976    127.1152
  1750.5000    121.5191      0.0000    722.6974      7.1412    127.6105
  1750.7500    121.5507      0.0000    723.2448      6.8078    127.4093
  1751.0000    121.5507      0.0000    717.8307      6.5801    127.5766
  1751.2500    121.6585      0.0000    713.3602      6.5444    128.8359
  1751.5000    121.5466      0.0000    713.3827      6.5543    130.9437
  1751.7500    121.6001      0.0000    714.1010      6.4591    132.7019
  1752.0000    121.5733      0.0000    711.3972      6.1949    132.8843
  1752.2500    121.5706      0.0000    706.6981      5.7660    131.0953
  1752.5000    121.6276      0.0000    703.3203      5.2212    127.7493
  1752.7500    121.5417      0.0000    701.9361      4.6321    123.7562
  1753.0000    121.4937      0.0000    701.5695      4.1350    120.3000
  1753.2500    121.5424      0.0000    701.8084      3.8788    118.2282
  1753.5000    121.7265      0.0000    703.2698      3.8679    117.4026
  1753.7500    121.6276      0.0000    706.8654      3.9217    116.8477
  1754.0000    121.4902      0.0000    711.8439      3.8814    115.6162
  1754.2500    121.6303      0.0000    714.8911      3.7454    113.5783
  1754.5000    121.4573      0.0000    714.2301      3.5473    111.5041
  1754.7500    121.5205      0.0000    712.9669      3.3242    110.3843
  1755.0000    121.4978      0.0000    715.0133      3.1693    110.7173
  1755.2500    121.4944      0.0000    720.4666      3.1604    112.5689
  1755.5000    121.5493      0.0000    725.0855      3.2714    116.0111
  1755.7500    121.6029      0.0000    723.6009      3.4181    120.8506
  1756.0000    121.5390      0.0000    716.0464      3.4983    125.9552
  1756.2500    121.6035      0.0000    707.9796      3.4328    129.6924
  1756.5000    121.4642      0.0000    703.6324      3.2639    131.3940
  1756.7500    121.4683      0.0000    703.4144      3.1359    131.9038
  1757.0000    121.4394      0.0000    706.7641      3.1506    132.4317
