~Version Information
VERS.                      2.0: CWLS Log ASCII Standard - VERSION 2.0
WRAP.                       NO: One line per depth step
~Well Information Block
STRT.FT                -7.2500: 
STOP.FT              1273.5000: 
STEP.FT                 0.2500: 
NULL.                -999.2500: 
COMP.          Pioneer Natural Resources: COMPANY
WELL.            Keiko 14-6 Tr: WELL
FLD.           Purgatorie River: FIELD
LOC.           462' FSL & 1202' FWL--: LOCATION
PROV.                       CO: PROVINCE
CNTY.               Las Animas: COUNTRY
SRVC.          Patterson Wireline: SERVICE COMPANY
DATE.          Wed Jan 04 09:22:19 2006: LOG DATE
UWI.           05 071 08629 00: UNIQUE WELL ID
~Curve Information Block
DEPT.FT            0 000 00 00: Depth
CCL.                          : Casing Collar Locator
TT3.usec                      : CBL 3' Travel Time
AMP3.mV                       : CBL 3' Amplitude
GR.GAPI                       : Gamma Ray
~Parameter Information Block
~A  Depth       CCL         TT3         AMP3         GR     
# ...
  1165.2500      0.0000    708.4449      7.7432    147.9449
  1165.5000      0.0000    707.4542      7.5659    142.6785
  1165.7500      0.0000    707.2495      7.4191    133.3482
  1166.0000      0.0000    707.9006      7.3273    120.9707
  1166.2500      0.0000    707.0078      7.2997    107.9474
  1166.5000      0.0000    700.0229      7.3265     96.4872
  1166.7500      0.0000    683.4028      7.3869     87.4602
  1167.0000      0.0000    659.0888      7.4564     80.9111
  1167.2500      0.0000    635.8043      7.5091     77.0839
  1167.5000      0.0000    624.4073      7.5247     76.2788
  1167.7500      0.0000    630.5902      7.4994     78.1042
  1168.0000      0.0000    650.9210      7.4510     81.5712
  1168.2500      0.0000    675.1703      7.4126     86.0044
  1168.5000      0.0000    693.2222      7.4153     91.6490
  1168.7500      0.0000    701.2687      7.4707     99.2957
  1169.0000      0.0000    702.3203      7.5645    109.1600
  1169.2500      0.0000    701.5629      7.6675    120.0717
  1169.5000      0.0000    701.9167      7.7510    130.0620
  1169.7500      0.0000    703.5009      7.7946    137.9847
  1170.0000      0.0000    705.5391      7.7870    144.2644
  1170.2500      0.0000    707.4225      7.7296    149.6551
  1170.5000      0.0000    708.5917      7.6402    153.5785
  1170.7500      0.0000    708.6653      7.5477    154.4111
  1171.0000      0.0000    708.0174      7.4772    151.3292
  1171.2500      0.0000    707.5883      7.4376    145.1033
  1171.5000      0.0000    707.8331      7.4221    137.0444
  1171.7500      0.0000    708.0747      7.4159    128.1505
  1172.0000      0.0000    707.0042      7.4079    119.7056
  1172.2500      0.0000    703.7037      7.3945    113.9527
  1172.5000      0.0000    698.3235      7.3756    113.2358
  1172.7500      0.0000    692.1118      7.3493    118.3514
  1173.0000      0.0000    686.8198      7.3122    127.9357
  1173.2500      0.0000    683.9310      7.2615    139.2278
  1173.5000      0.0000    684.3495      7.1982    148.9611
  1173.7500      0.0000    688.5383      7.1303    153.8055
  1174.0000      0.0000    696.4435      7.0708    151.3404
  1174.2500      0.0000    706.9566      7.0293    141.6684
  1174.5000      0.0000    717.5171      7.0030    127.6773
  1174.7500      0.0000    724.6490      6.9792    112.9911
  1175.0000      0.0000    725.7335      6.9448     99.8326
  1175.2500      0.0000    721.1071      6.8965     89.0656
  1175.5000      0.0000    714.4324      6.8426     81.6652
  1175.7500      0.0000    710.2074      6.7990     79.4773
  1176.0000      0.0000    710.3093      6.7796     84.4283
  1176.2500      0.0000    713.0052      6.7845     96.7347
  1176.5000      0.0000    715.2125      6.7981    113.3649
  1176.7500      0.0000    715.1222      6.8024    128.8424
  1177.0000      0.0000    712.1224      6.7968    138.9980
  1177.2500      0.0000    704.7737      6.7998    144.4132
  1177.5000      0.0000    690.2992      6.8337    149.4036
  1177.7500      0.0000    666.8639      6.9061    157.4913
  1178.0000      0.0000    636.0752      7.0059    168.4348
  1178.2500      0.0000    603.1788      7.1147    179.2457
  1178.5000      0.0000    575.0344      7.2209    186.7466
  1178.7500      0.0000    557.2413      7.3240    189.1718
  1179.0000      0.0000    551.7808      7.4250    186.9694
  1179.2500      0.0000    556.5684      7.5172    182.5589
  1179.5000      0.0000    567.2326      7.5884    177.9377
  1179.7500      0.0000    579.8334      7.6330    172.3391
  1180.0000      0.0000    592.7045      7.6620    163.7553
  1180.2500      0.0000    606.6818      7.6950    152.9680
  1180.5000      0.0000    623.8621      7.7431    144.5367
  1180.7500      0.0000    645.3415      7.8009    143.1434
  1181.0000      0.0000    668.4760      7.8567    149.6501
  1181.2500      0.0000    685.8510      7.9073    160.8434
  1181.5000      0.0000    689.4296      7.9643    172.1366
  1181.7500      0.0000    678.4051      8.0505    180.1026
  1182.0000      0.0000    661.5370      8.1895    183.1226
  1182.2500      0.0000    647.9647      8.3905    180.9105
  1182.5000      0.0000    635.4975      8.6368    174.2108
  1182.7500      0.0000    611.8609      8.8903    164.6263
  1183.0000      0.0000    569.6866      9.1128    153.7865
  1183.2500      0.0000    518.2168      9.2854    142.4101
  1183.5000      0.0000    478.1899      9.4104    130.5614
  1183.7500      0.0000    465.5385      9.5016    118.7002
  1184.0000      0.0000    479.3189      9.5752    108.0606
  1184.2500      0.0000    502.9823      9.6398    100.0964
  1184.5000      0.0000    516.9950      9.6853     95.6007
  1184.7500      0.0000    512.7451      9.6787     94.0196
  1185.0000      0.0000    496.8562      9.5798     93.7679
  1185.2500      0.0000    484.1157      9.3694     93.7472
  1185.5000      0.0000    486.0171      9.0698     94.3928
  1185.7500      0.0000    501.8945      8.7380     96.5712
  1186.0000      0.0000    518.3981      8.4369     99.5485
  1186.2500      0.0000    520.6667      8.2045    100.9144
  1186.5000      0.0000    507.4885      8.0447     98.9813
  1186.7500      0.0000    493.9457      7.9397     94.6880
  1187.0000      0.0000    496.6385      7.8688     90.6032
  1187.2500      0.0000    516.3732      7.8208     88.5170
  1187.5000      0.0000    536.1642      7.7937     88.4605
  1187.7500      0.0000    536.0606      7.7882     89.6250
  1188.0000      0.0000    509.5918      7.8034     91.6988
  1188.2500      0.0000    466.7314      7.8368     95.3093
  1188.5000      0.0000    423.7630      7.8856    101.3978
  1188.7500      0.0000    392.3893      7.9445    110.1898
  1189.0000      0.0000    376.9517      8.0007    120.6225
  1189.2500      0.0000    377.0660      8.0359    130.7514
  1189.5000      0.0000    388.7798      8.0365    138.8197
  1189.7500      0.0000    403.8089      8.0054    144.0386
  1190.0000      0.0000    412.2537      7.9568    146.4763
  1190.2500      0.0000    409.4103      7.8992    146.5552
  1190.5000      0.0000    399.1253      7.8268    145.0813
  1190.7500      0.0000    388.9497      7.7313    143.4383
  1191.0000      0.0000    383.2216      7.6188    142.9502
  1191.2500      0.0000    381.5228      7.5110    143.8823
  1191.5000      0.0000    381.6461      7.4268    145.5135
  1191.7500      0.0000    382.1161      7.3667    147.1530
  1192.0000      0.0000    382.5203      7.3164    148.6989
  1192.2500      0.0000    382.8937      7.2658    150.4808
  1192.5000      0.0000    383.3640      7.2207    153.0982
  1192.7500      0.0000    384.2951      7.1927    157.0496
  1193.0000      0.0000    386.6619      7.1821    161.8473
  1193.2500      0.0000    391.9427      7.1734    165.6984
  1193.5000      0.0000    400.9011      7.1473    166.7318
  1193.7500      0.0000    411.8385      7.0955    164.8105
  1194.0000      0.0000    420.8150      7.0223    161.9434
  1194.2500      0.0000    425.5952      6.9311    160.5171
  1194.5000      0.0000    430.3457      6.8047    161.1224
  1194.7500      0.0000    445.1090      6.6077    162.3807
  1195.0000      0.0000    478.4477      6.3213    162.7560
  1195.2500      0.0000    529.3010      5.9891    161.9493
  1195.5000      0.0000    586.1795      5.7200    160.4632
  1195.7500      0.0000    635.3798      5.6164    158.3183
  1196.0000      0.0000    670.7813      5.6785    154.7723
  1196.2500      0.0000    695.9556      5.8025    149.5124
  1196.5000      0.0000    717.7659      5.8990    143.7468
  1196.7500      0.0000    739.1276      5.9882    139.4054
  1197.0000      0.0000    757.6795      6.1577    137.1338
  1197.2500      0.0000    770.0281      6.4544    135.7829
  1197.5000     -2.0000    776.3357      6.8465    134.3718
  1197.7500      0.0000    780.3945      7.2625    134.0869
  1198.0000      0.0000    784.1005      7.6507    137.7355
  1198.2500      0.0000    782.0001      8.0173    147.0228
  1198.5000      0.0000    763.9327      8.4082    160.2686
