~Version Information
VERS.                      2.0: CWLS Log ASCII Standard - VERSION 2.0
WRAP.                       NO: One line per depth step
~Well Information Block
STRT.FT               240.0000: 
STOP.FT              1159.2000: 
STEP.FT                 0.1000: 
NULL.                -999.2500: 
COMP.          Pioneer Natural Resources: COMPANY
WELL.               Ryan 41-17: WELL
FLD.           Purgatoire River: FIELD
LOC.           822' FNL & 532' FEL--: LOCATION
CNTY.               Las Animas: COUNTY
SRVC.                Patterson: SERVICE COMPANY
DATE.          Fri Mar 17 07:19:36 2006: LOG DATE
UWI.           05 071 08719 00: UNIQUE WELL ID
STAT.                 Colorado: STATE
~Curve Information Block
DEPT.FT            0 000 00 00: Depth
DCAL.in                       : CDL Caliper
RHOB.g/cc                     : CDL Bulk Density
RHOC.g/cc                     : CDL Density Correction
DPOR.pu                       : CDL Density Porosity
NPOR.pu                       : Neutron Porosity
GR.GAPI                       : Gamma Ray
~Parameter Information Block
~A  Depth       DCAL        RHOB        RHOC        DPOR        NPOR         GR     
# ...
   537.6000      8.0988      2.5271      0.2544      7.4476     13.1461    114.4799
   537.7000      8.0988      2.5749      0.1868      4.5521     13.8723    114.9028
   537.8000      8.0492      2.5912      0.0840      3.5657     14.7209    111.2653
   537.9000      8.0492      2.6003      0.0944      3.0109     15.6885    106.5636
   538.0000      7.9710      2.6079      0.0584      2.5501     16.6262    107.8426
   538.1000      7.9710      2.6076      0.0919      2.5689     17.4922    115.2600
   538.2000      7.9710      2.5981      0.0841      3.1478     18.3590    123.0478
   538.3000      7.9183      2.5889      0.0162      3.7048     19.1920    124.3387
   538.4000      7.9183      2.5893      0.0528      3.6781     19.8121    117.7382
   538.5000      7.9128      2.5923      0.0484      3.4950     20.1690    112.2983
   538.6000      7.9128      2.5922      0.0152      3.5001     20.5350    110.8843
   538.7000      7.9128      2.5873      0.0424      3.8010     21.3675    107.6090
   538.8000      7.9222      2.5736     -0.0096      4.6286     22.6045    105.1968
   538.9000      7.9222      2.5596     -0.0042      5.4760     23.3949    108.3044
   539.0000      7.9244      2.5580     -0.0413      5.5757     23.3376    113.2848
   539.1000      7.9244      2.5655      0.0006      5.1191     23.0878    115.8136
   539.2000      7.9244      2.5628      0.0477      5.2827     23.1148    117.1319
   539.3000      7.9155      2.5449     -0.0375      6.3705     23.2856    118.4340
   539.4000      7.9155      2.5291     -0.0265      7.3253     23.4619    117.8931
   539.5000      7.8921      2.5267     -0.0010      7.4731     23.7353    117.7123
   539.6000      7.8921      2.5342     -0.0003      7.0155     24.1764    118.7967
   539.7000      7.8921      2.5424      0.0004      6.5225     24.5618    117.3844
   539.8000      7.8637      2.5443     -0.0160      6.4087     24.6846    114.0959
   539.9000      7.8637      2.5391      0.0232      6.7187     24.6036    115.2664
   540.0000      7.8449      2.5321     -0.0276      7.1425     24.4861    124.2254
   540.1000      7.8449      2.5294      0.0143      7.3092     24.4486    134.5005
   540.2000      7.8449      2.5231      0.0015      7.6883     24.4747    138.8105
   540.3000      7.8380      2.5052     -0.0016      8.7757     24.5722    139.4700
   540.4000      7.8380      2.4878     -0.0301      9.8330     24.7591    142.3387
   540.5000      7.8365      2.4868     -0.0430      9.8926     24.6881    146.6917
   540.6000      7.8365      2.4950      0.0144      9.3957     24.0935    147.8385
   540.7000      7.8365      2.4994     -0.0061      9.1263     23.4503    146.7963
   540.8000      7.8361      2.5068      0.0189      8.6815     23.2315    145.0925
   540.9000      7.8361      2.5248      0.0239      7.5880     23.2941    141.7930
   541.0000      7.8345      2.5572      0.0264      5.6247     23.2778    139.1328
   541.1000      7.8345      2.5995      0.0695      3.0617     23.0782    140.1065
   541.2000      7.8345      2.6334      0.0847      1.0072     22.9289    141.8316
   541.3000      7.8323      2.6477      0.0801      0.1373     22.9800    142.0049
   541.4000      7.8323      2.6408      0.1107      0.5571     23.1516    142.6334
   541.5000      7.8344      2.6115      0.0970      2.3313     23.3395    141.0237
   541.6000      7.8344      2.5714      0.0266      4.7610     23.3626    135.5241
   541.7000      7.8344      2.5463      0.0138      6.2862     23.2168    131.5019
   541.8000      7.8453      2.5507     -0.0055      6.0206     23.2393    131.1722
   541.9000      7.8453      2.5648      0.0636      5.1620     23.5461    132.7678
   542.0000      7.8653      2.5599      0.0330      5.4590     23.9395    136.0013
   542.1000      7.8653      2.5376      0.0440      6.8151     24.2562    138.1513
   542.2000      7.8653      2.5173      0.0046      8.0455     24.4482    138.0300
   542.3000      7.8968      2.5130      0.0282      8.3018     24.4234    138.9467
   542.4000      7.8968      2.5281     -0.0070      7.3908     24.0899    140.5188
   542.5000      7.9395      2.5530      0.0464      5.8791     23.6819    139.2547
   542.6000      7.9395      2.5710      0.0676      4.7902     23.5051    134.8288
   542.7000      7.9395      2.5757      0.0608      4.5050     23.4768    132.2870
   542.8000      7.9918      2.5739      0.0176      4.6105     23.6213    134.8608
   542.9000      7.9918      2.5645      0.0484      5.1801     23.9923    139.6049
   543.0000      8.0377      2.5402      0.0138      6.6546     24.3632    144.1488
   543.1000      8.0377      2.5076      0.0255      8.6294     24.7159    147.8483
   543.2000      8.0377      2.4842     -0.0043     10.0507     24.7802    146.6650
   543.3000      8.0561      2.4874     -0.0385      9.8524     24.2484    137.3492
   543.4000      8.0561      2.5144      0.0520      8.2163     23.5820    126.6202
   543.5000      8.0388      2.5402      0.0388      6.6573     23.2465    125.3643
   543.6000      8.0388      2.5518      0.0690      5.9492     23.1597    135.6856
   543.7000      8.0388      2.5542      0.0375      5.8035     23.2364    149.0803
   543.8000      7.9834      2.5523      0.0710      5.9237     23.3782    155.8770
   543.9000      7.9834      2.5452      0.0227      6.3532     23.1460    152.8576
   544.0000      7.9198      2.5398      0.0650      6.6767     22.4203    145.8010
   544.1000      7.9198      2.5497      0.0363      6.0775     21.7431    141.4585
   544.2000      7.9198      2.5747      0.0798      4.5663     21.4390    140.8934
   544.3000      7.8705      2.5934      0.0763      3.4289     21.4572    142.4745
   544.4000      7.8705      2.5916      0.0842      3.5395     21.7750    143.1973
   544.5000      7.8354      2.5776      0.0494      4.3893     22.1192    142.0096
   544.6000      7.8354      2.5695      0.0267      4.8808     22.2645    138.4077
   544.7000      7.8354      2.5692      0.0672      4.8959     22.4649    131.6077
   544.8000      7.8145      2.5623      0.0621      5.3150     22.8764    124.1663
   544.9000      7.8145      2.5524     -0.0027      5.9181     23.4397    119.9644
   545.0000      7.8047      2.5547      0.0159      5.7758     23.9035    116.8566
   545.1000      7.8047      2.5694      0.0275      4.8874     24.0631    110.5504
   545.2000      7.8047      2.5906      0.0124      3.6002     24.2788    104.0169
   545.3000      7.8036      2.6115      0.0235      2.3347     24.7163    103.2840
   545.4000      7.8036      2.6199      0.0548      1.8216     24.9435    108.2948
   545.5000      7.8047      2.6176      0.0491      1.9633     24.7704    113.1877
   545.6000      7.8047      2.6129      0.0482      2.2499     24.4438    115.3086
   545.7000      7.8047      2.6039      0.0570      2.7969     24.2715    114.6375
   545.8000      7.8051      2.5852      0.0714      3.9303     24.3842    111.9160
   545.9000      7.8051      2.5568      0.0665      5.6477     24.5689    111.8068
   546.0000      7.8071      2.5365      0.0013      6.8814     24.4946    117.4358
   546.1000      7.8071      2.5395      0.0705      6.6984     24.2740    124.4781
   546.2000      7.8071      2.5522      0.0554      5.9302     24.2991    126.2649
   546.3000      7.8200      2.5582      0.0457      5.5641     24.6177    122.6560
   546.4000      7.8200      2.5539      0.0682      5.8229     24.9100    117.8050
   546.5000      7.8539      2.5404      0.0669      6.6407     24.7817    117.4307
   546.6000      7.8539      2.5234      0.0562      7.6754     24.1874    123.5187
   546.7000      7.8539      2.5101      0.0425      8.4764     23.7281    130.8052
   546.8000      7.8880      2.5055      0.0066      8.7599     23.9602    135.0416
   546.9000      7.8880      2.5038      0.0139      8.8597     24.5016    133.6184
   547.0000      7.8925      2.4940      0.0470      9.4525     24.6720    126.5490
   547.1000      7.8925      2.4761      0.0172     10.5384     24.5740    123.1933
