~Version Information
VERS.                      2.0: CWLS Log ASCII Standard - VERSION 2.0
WRAP.                       NO: One line per depth step
~Well Information Block
STRT.FT               830.0000: 
STOP.FT              1792.5000: 
STEP.FT                 0.1000: 
NULL.                -999.2500: 
COMP.          Pioneer Natural Resources: COMPANY
WELL.           Rolls 14-14 Tr: WELL
FLD.           Purgatoire River: FIELD
LOC.           473' FSL & 817' FWL: LOCATION
PROV.                 Colorado: PROVINCE
CNTY.               Las Animas: COUNTRY
SRVC.                Patterson: SERVICE COMPANY
DATE.          Wed Aug 03 07:11:37 2005: LOG DATE
UWI.           05 071 08454 00: UNIQUE WELL ID
~Curve Information Block
DEPT.FT            0 000 00 00: Depth
DCAL.in                       : CDL Caliper
RHOB.g/cc                     : CDL Bulk Density
RHOC.g/cc                     : CDL Density Correction
DPOR.pu                       : CDL Density Porosity
GR.GAPI                       : Gamma Ray
NPOR.pu                       : Neutron Porosity
~Parameter Information Block
~A  Depth       DCAL        RHOB        RHOC        DPOR         GR         NPOR    
# ...
  1338.8000      8.0491      2.6166      0.1088      2.0252    141.5988     23.7976
  1338.9000      8.0491      2.5617      0.0226      5.3510    140.2301     23.5962
  1339.0000      8.0583      2.5357      0.0260      6.9288    143.6449     24.5038
  1339.1000      8.0583      2.5394      0.0320      6.7011    150.4038     25.3762
  1339.2000      8.0583      2.5456      0.0836      6.3247    155.5324     25.4619
  1339.3000      8.0455      2.5376      0.0696      6.8140    157.4156     25.1872
  1339.4000      8.0455      2.5238      0.0500      7.6507    156.1723     24.8239
  1339.5000      8.0453      2.5218      0.0448      7.7677    154.0423     24.0258
  1339.6000      8.0453      2.5348      0.0827      6.9835    153.9173     23.5371
  1339.7000      8.0453      2.5465      0.0953      6.2712    154.1793     24.0530
  1339.8000      8.0483      2.5382      0.0815      6.7758    152.8568     24.8835
  1339.9000      8.0483      2.4996      0.0767      9.1132    151.4613     25.8407
  1340.0000      8.0426      2.4426      0.0492     12.5713    152.4595     27.0004
  1340.1000      8.0426      2.4016     -0.0635     15.0562    156.1629     27.3024
  1340.2000      8.0426      2.3864      0.0294     15.9783    157.7352     26.6719
  1340.3000      8.0269      2.3737     -0.0291     16.7483    153.8670     26.1313
  1340.4000      8.0269      2.3603      0.0148     17.5581    147.5422     26.2125
  1340.5000      8.0399      2.3521      0.0484     18.0524    145.6367     27.1891
  1340.6000      8.0399      2.3431      0.0548     18.5972    150.9049     28.5112
  1340.7000      8.0399      2.3379      0.0339     18.9168    157.9091     28.8955
  1340.8000      8.0426      2.3411      0.1605     18.7203    159.3142     28.4268
  1340.9000      8.0426      2.3459      0.1064     18.4295    155.1121     27.8419
  1341.0000      8.0505      2.3488      0.1241     18.2516    150.0529     26.9850
  1341.1000      8.0505      2.3416      0.1199     18.6903    146.7463     26.1885
  1341.2000      8.0505      2.3215      0.0421     19.9109    145.3938     26.7110
  1341.3000      8.0473      2.3012      0.1005     21.1381    146.3369     28.5570
  1341.4000      8.0473      2.2854      0.0804     22.0984    146.4244     29.3727
  1341.5000      8.0199      2.2758      0.0549     22.6767    142.0019     28.1796
  1341.6000      8.0199      2.2823      0.0980     22.2821    136.2285     26.5035
  1341.7000      8.0199      2.3069      0.1077     20.7960    133.4937     25.4209
  1341.8000      8.0195      2.3380      0.1050     18.9119    134.6148     24.7436
  1341.9000      8.0195      2.3564      0.1593     17.7962    137.9441     24.0546
  1342.0000      8.0052      2.3532      0.1475     17.9891    138.9796     23.3944
  1342.1000      8.0052      2.3379      0.1255     18.9128    135.3082     23.2850
  1342.2000      8.0052      2.3140      0.0885     20.3658    130.1178     24.1531
  1342.3000      8.0355      2.2814      0.0429     22.3401    129.2231     25.5004
  1342.4000      8.0355      2.2553      0.0170     23.9219    132.7373     26.5740
  1342.5000      8.0347      2.2476      0.0468     24.3875    134.3505     27.5683
  1342.6000      8.0347      2.2573      0.0197     23.8010    132.3962     28.5933
  1342.7000      8.0347      2.2773      0.0608     22.5904    129.5438     28.7581
  1342.8000      8.0368      2.2941      0.0754     21.5696    124.2002     27.6232
  1342.9000      8.0368      2.3051      0.1005     20.9056    115.6923     25.8208
  1343.0000      8.0202      2.3320      0.1117     19.2711    109.0309     24.5475
  1343.1000      8.0202      2.3934      0.1135     15.5525    104.4118     24.4970
  1343.2000      8.0202      2.4677      0.1726     11.0457     95.6527     24.9516
  1343.3000      8.0110      2.5077      0.2318      8.6231     82.8319     24.8434
  1343.4000      8.0110      2.5013      0.1808      9.0098     72.8525     23.9384
  1343.5000      8.0103      2.4855      0.1371      9.9703     70.9140     22.6584
  1343.6000      8.0103      2.4816      0.2668     10.2082     75.7753     21.9972
  1343.7000      8.0103      2.4706      0.2792     10.8702     79.7560     22.8831
  1343.8000      8.0293      2.4399      0.2529     12.7332     77.0457     24.4017
  1343.9000      8.0293      2.4080      0.1919     14.6686     71.0296     24.7538
  1344.0000      8.0083      2.4052      0.1537     14.8371     68.1864     23.6212
  1344.1000      8.0083      2.4366      0.2185     12.9349     68.9929     21.9020
  1344.2000      8.0083      2.4747      0.1875     10.6273     69.6198     20.7373
  1344.3000      7.9714      2.4988      0.1532      9.1646     69.0479     20.5419
  1344.4000      7.9714      2.5151      0.1118      8.1751     67.6167     20.9166
  1344.5000      7.9480      2.5328      0.1040      7.1011     64.4205     21.4353
  1344.6000      7.9480      2.5497      0.0562      6.0786     60.7443     21.9619
  1344.7000      7.9480      2.5666      0.0134      5.0545     57.7464     22.6758
  1344.8000      7.9839      2.5849     -0.0016      3.9458     56.8608     23.7606
  1344.9000      7.9839      2.5980      0.0504      3.1539     60.0101     25.1619
  1345.0000      7.9958      2.6045      0.0239      2.7587     64.6054     26.1639
  1345.1000      7.9958      2.6084     -0.0006      2.5232     66.8313     25.8689
  1345.2000      7.9958      2.6020      0.0493      2.9077     66.7734     24.8401
  1345.3000      8.0073      2.5810      0.0037      4.1831     67.2616     23.9229
  1345.4000      8.0073      2.5613      0.0050      5.3728     68.5479     22.8518
  1345.5000      8.0059      2.5578      0.0361      5.5899     68.0727     21.7185
  1345.6000      8.0059      2.5628      0.0593      5.2860     65.5197     21.2546
  1345.7000      8.0059      2.5569      0.0434      5.6405     62.1706     21.6176
  1345.8000      8.0068      2.5333      0.0285      7.0737     59.1930     22.0743
  1345.9000      8.0068      2.5026      0.0515      8.9319     58.9415     21.8378
  1346.0000      7.9977      2.4642      0.0493     11.2615     62.7842     21.3857
  1346.1000      7.9977      2.4018      0.0717     15.0450     66.3410     21.6569
  1346.2000      7.9977      2.3137      0.0164     20.3803     65.0212     22.3484
  1346.3000      7.9785      2.2293     -0.0177     25.4991     61.5201     22.4407
  1346.4000      7.9785      2.1795      0.0092     28.5146     61.5553     22.2502
  1346.5000      7.9695      2.1592      0.0585     29.7444     67.7563     22.6794
  1346.6000      7.9695      2.1494      0.0393     30.3370     76.4986     23.2613
  1346.7000      7.9695      2.1497      0.0249     30.3189     81.0888     22.9666
  1346.8000      7.9767      2.1674      0.0493     29.2470     81.2345     22.7658
  1346.9000      7.9767      2.2147      0.0533     26.3848     80.6700     24.1549
  1347.0000      8.0148      2.3008      0.0603     21.1664     79.8184     26.3314
  1347.1000      8.0148      2.3983      0.1692     15.2551     78.2195     27.0624
  1347.2000      8.0148      2.4687      0.1578     10.9890     76.3557     25.9867
  1347.3000      8.0303      2.5251      0.1281      7.5715     74.6246     24.7726
  1347.4000      8.0303      2.5986      0.1586      3.1127     71.5064     24.5427
  1347.5000      8.0020      2.6731      0.1922     -1.4012     67.1746     24.6911
  1347.6000      8.0020      2.7149      0.1192     -3.9317     66.5566     24.0792
  1347.7000      8.0020      2.7248      0.1357     -4.5328     71.3349     23.0615
  1347.8000      8.0079      2.7146      0.1548     -3.9173     75.2032     22.7114
  1347.9000      8.0079      2.6880      0.1032     -2.3029     73.7572     22.8602
  1348.0000      7.9711      2.6617      0.0855     -0.7109     71.7708     22.6150
  1348.1000      7.9711      2.6635      0.0581     -0.8212     73.3707     22.0884
  1348.2000      7.9711      2.6995      0.1402     -3.0016     76.6339     21.8153
  1348.3000      7.9658      2.7365      0.1112     -5.2427     78.3099     21.9477
