~Version Information
 VERS.                                  2.0 : CWLS LAS VERSION
 WRAP.                                   NO : WRAPING MODE
 SWARE .                 MController 2.5.3A : SOFTWARE VERSION
~Well Information
 WELL.                          Darren 11-7 : WELL
 COMP.  Pioneer Natural Resources USA, Inc. : COMPANY
 FLD.                      Purgatoire River : FIELD
 LOC.              NW/NW Sec. 7, T33S, R65W : LOCATION
 DATE.                           03/19/2006 : DATE(S) LOGGED
 SRVC.                  Entrada GeoSciences : SERVICE COMPANY
 STAT.                             Colorado : STATE
 CNTY.                           Las Animas : COUNTY
 CTRY.                        United States : COUNTRY
 API.                       05-071-08720-00 : API NUMBER
 STRT.FT                             250.00 : START DEPTH
 STOP.FT                            1450.00 : STOP DEPTH
 STEP.FT                               1.00 : DEPTH INCREMENT
 NULL.                                -9999 : NULL VALUE
~Curve information
 DEPTH.FT                                   :
 ROP.MIN/FT                                 :
 GAS.UNITS                                  :
~ASCII Log data
# ...
      850.00         0.23         11.7 
      851.00         0.32         10.9 
      852.00         0.30         10.7 
      853.00         0.30         10.2 
      854.00         0.23          8.6 
      855.00         0.30          8.9 
      856.00         0.30          9.3 
      857.00         0.27         10.2 
      858.00         0.23         11.0 
      859.00         0.27         11.4 
      860.00         0.27         10.9 
      861.00         0.27         10.4 
      862.00         0.30         10.7 
      863.00         0.28         74.3 
      864.00         0.13         74.3 
      865.00         0.23         72.4 
      866.00         0.43         53.7 
      867.00         0.47         35.1 
      868.00         0.32         21.5 
      869.00         0.33         15.7 
      870.00         0.27         14.0 
      871.00         0.20         12.1 
      872.00         0.17         11.5 
      873.00         0.20         11.1 
      874.00         0.18         10.6 
      875.00         0.20         10.4 
      876.00         0.17         10.9 
      877.00         0.20         10.4 
      878.00         0.20         10.3 
      879.00         0.17         11.0 
      880.00         0.18         10.2 
      881.00         0.13         10.8 
      882.00         0.13         10.8 
      883.00         0.27         10.4 
      884.00         0.30          9.3 
      885.00         0.27          9.1 
      886.00         0.18          8.6 
      887.00         0.17          8.6 
      888.00         0.27          8.8 
      889.00         0.27          9.2 
      890.00         0.17         10.2 
      891.00         0.30         11.1 
      892.00         0.20         13.1 
      893.00         0.20         64.9 
      894.00         0.22         64.9 
      895.00         0.27         60.5 
      896.00         0.58         56.4 
      897.00         0.23         30.2 
      898.00         0.27         23.1 
      899.00         0.07         20.0 
      900.00         0.10         18.0 
      901.00         0.17         15.6 
      902.00         0.23         13.5 
      903.00         0.03         13.5 
      904.00         0.27         13.1 
      905.00         0.07         12.2 
      906.00         0.20         11.8 
      907.00         0.10         12.0 
      908.00         0.27         11.1 
      909.00         0.25         11.0 
      910.00         0.17         10.1 
      911.00         0.13          9.8 
      912.00         0.17         10.5 
      913.00         0.17          9.6 
      914.00         0.13          9.6 
      915.00         0.17          9.8 
      916.00         0.17         10.3 
      917.00         0.17         10.2 
      918.00         0.17         10.1 
      919.00         0.17         10.3 
      920.00         0.17         10.1 
      921.00         0.17          9.8 
      922.00         0.20          8.6 
      923.00         0.22         10.0 
      924.00         0.20          8.8 
      925.00         0.17          8.8 
      926.00         0.20          7.6 
      927.00         0.03          7.6 
      928.00         0.28         13.0 
      929.00         0.27         22.7 
      930.00         0.27         35.0 
      931.00         0.27         39.7 
      932.00         0.13         47.2 
      933.00         0.23         73.3 
      934.00         0.28         75.4 
      935.00         0.27         65.1 
      936.00         0.10         45.4 
      937.00         0.17         38.7 
      938.00         0.30         33.7 
      939.00         0.40         24.3 
      940.00         0.33         20.8 
      941.00         0.23         15.5 
      942.00         0.17         15.3 
      943.00         0.20         13.0 
      944.00         0.33         13.0 
      945.00         0.28         11.8 
      946.00         0.17         10.7 
      947.00         0.30         10.9 
      948.00         0.30          9.9 
      949.00         0.30          9.4 
      950.00         0.30          9.3 
      951.00         0.20         13.9 
      952.00         0.17         13.9 
      953.00         0.17         13.7 
      954.00         0.17         12.7 
      955.00         0.17         12.7 
      956.00         0.17         10.6 
      957.00         0.07         10.6 
      958.00         0.27         15.2 
      959.00         0.27         17.5 
      960.00         0.27         30.7 
      961.00         0.27         43.5 
      962.00         0.13         61.0 
      963.00         0.27         84.8 
      964.00         0.07         84.8 
      965.00         0.27         82.6 
      966.00         0.28         54.7 
      967.00         0.10         49.4 
      968.00         0.17         33.8 
      969.00         0.27         32.8 
      970.00         0.10         22.2 
      971.00         0.17         22.2 
      972.00         0.20         21.1 
      973.00         0.07         18.4 
      974.00         0.27         17.8 
      975.00         0.03         15.8 
      976.00         0.23         15.4 
      977.00         0.20         13.5 
      978.00         0.07         13.5 
      979.00         0.27         12.8 
      980.00         0.07         12.8 
      981.00         0.23         13.9 
      982.00         0.07         10.0 
      983.00         0.23         10.1 
      984.00         0.23          9.8 
      985.00         0.28         10.3 
      986.00         0.17          9.9 
      987.00         0.27         10.6 
      988.00         0.07         10.6 
      989.00         0.27         11.2 
      990.00         0.20         11.2 
      991.00         0.20         10.1 
      992.00         0.23         10.4 
      993.00         0.28         10.0 
      994.00         0.03         10.0 
      995.00         0.27         10.1 
      996.00         0.27         10.1 
      997.00         0.27         10.5 
      998.00         0.20         10.0 
      999.00         0.27         49.9 
     1000.00         0.13         49.9 
     1001.00         0.03        108.6 
     1002.00         0.17        108.6 
     1003.00         0.20        130.0 
     1004.00         0.20        128.5 
     1005.00         0.13        114.9 
     1006.00         0.27        104.7 
     1007.00         0.27        112.9 
     1008.00         0.28        151.6 
     1009.00         0.10        151.6 
     1010.00         0.20        202.9 
     1011.00         0.13        273.7 
     1012.00         0.13        364.1 
     1013.00         0.27        122.5 
     1014.00         0.27        106.2 
     1015.00         0.27         94.8 
     1016.00         0.53         91.1 
     1017.00         0.27         67.6 
     1018.00         0.22         64.4 
     1019.00         0.23         63.4 
     1020.00         0.23         59.3 
     1021.00         0.27         56.0 
     1022.00         0.37         52.3 
     1023.00         0.33         49.8 
     1024.00         0.27         47.1 
     1025.00         0.37         45.2 
     1026.00         0.33         44.2 
     1027.00         0.30         43.6 
     1028.00         0.33         42.7 
     1029.00         0.38         43.0 
     1030.00         0.30         41.6 
     1031.00         0.23         40.7 
     1032.00         0.23         42.0 
     1033.00         0.13         44.5 
     1034.00         0.20         55.0 
     1035.00         0.27         61.7 
     1036.00         0.20         62.2 
     1037.00         0.27         63.1 
     1038.00         0.07         63.1 
     1039.00         0.23         63.4 
     1040.00         0.07         55.2 
     1041.00         0.27         47.1 
     1042.00         0.27       1405.5 
     1043.00         0.17       1032.6 
     1044.00         0.28        819.0 
     1045.00         0.20        449.0 
     1046.00         0.27        414.4 
     1047.00         0.27        400.9 
     1048.00         0.17        400.0 
     1049.00         0.33        439.3 
