~Version Information
VERS.                      2.0: CWLS Log ASCII Standard - VERSION 2.0
WRAP.                       NO: One line per depth step
~Well Information Block
STRT.FT                -7.5000: 
STOP.FT              2228.7500: 
STEP.FT                 0.2500: 
NULL.                -999.2500: 
COMP.          Pioneer Natural Resources: COMPANY
WELL.          McDonald 33-31 R: WELL
FLD.           Purgatorie River: FIELD
LOC.           1386' FSL & 1926' FEL: LOCATION
STAT.                       CO: State
CNTY.               Las Animas: COUNTY
CTRY.                      USA: Country
SECT.                       31: Section
TOWN.                      32S: Township
RANG.                      66W: Range
SRVC.          Patterson Wireline: SERVICE COMPANY
DATE.          Wed Sep 28 13:29:18 2005: LOG DATE
API.           05 071 08533 00: API#
~Curve Information Block
DEPT.FT            0 000 00 00: Depth
CCL.                          : Casing Collar Locator
TT3.usec                      : CBL 3' Travel Time
AMP3.mV                       : CBL 3' Amplitude
GR.GAPI                       : Gamma Ray
~Parameter Information Block
~A  Depth       CCL         TT3         AMP3         GR     
# ...
   595.5000      0.0000    827.3040     11.6386    129.5880
   595.7500      0.0000    846.1000     11.7114    127.0612
   596.0000      0.0000    868.6651     11.7834    124.0874
   596.2500      0.0000    891.0510     11.8654    121.0176
   596.5000      0.0000    908.4770     11.9669    118.7417
   596.7500      0.0000    918.5877     12.1096    118.0313
   597.0000      0.0000    922.3129     12.3098    118.5503
   597.2500      0.0000    920.4618     12.5474    119.2050
   597.5000      0.0000    911.2773     12.7624    119.5207
   597.7500      0.0000    893.3478     12.8806    119.8829
   598.0000      0.0000    869.5234     12.8512    120.4495
   598.2500      0.0000    845.6661     12.6760    120.7217
   598.5000      0.0000    826.1536     12.4127    120.3641
   598.7500      0.0000    812.0501     12.1457    119.9091
   599.0000      0.0000    802.6328     11.9423    120.4095
   599.2500      0.0000    796.9127     11.8292    122.7198
   599.5000      0.0000    793.8658     11.7942    127.1886
   599.7500      0.0000    792.4417     11.8051    133.6710
   600.0000      0.0000    791.8010     11.8330    141.4848
   600.2500      0.0000    791.4689     11.8650    149.3894
   600.5000      0.0000    791.2469     11.8945    155.7444
   600.7500      0.0000    791.1072     11.9090    158.8820
   601.0000      0.0000    791.1605     11.8969    157.7899
   601.2500      0.0000    791.6849     11.8608    152.9266
   601.5000      0.0000    793.0320     11.8157    146.1935
   601.7500      0.0000    795.2546     11.7782    139.5129
   602.0000      0.0000    797.7683     11.7627    133.3268
   602.2500      0.0000    799.6366     11.7747    126.8683
   602.5000      0.0000    800.3052     11.8003    119.7103
   602.7500      0.0000    799.7654     11.8111    112.3475
   603.0000      0.0000    798.0608     11.7847    105.4493
   603.2500      0.0000    795.1884     11.7206     99.5656
   603.5000      0.0000    791.4576     11.6330     95.6157
   603.7500      0.0000    787.2424     11.5349     94.7064
   604.0000      0.0000    782.2104     11.4282     97.0564
   604.2500      0.0000    775.2885     11.3054    101.4184
   604.5000      0.0000    765.7869     11.1615    105.7526
   604.7500      0.0000    754.5923     11.0072    108.6089
   605.0000      0.0000    744.0217     10.8693    110.0943
   605.2500      0.0000    736.2901     10.7761    111.5101
   605.5000      0.0000    732.1413     10.7396    113.9040
   605.7500      0.0000    731.0125     10.7532    117.0288
   606.0000      0.0000    732.0925     10.8010    119.7400
   606.2500      0.0000    734.6743     10.8615    121.2168
   606.5000      0.0000    737.8218     10.9037    121.6032
   606.7500      0.0000    740.4688     10.8904    121.6893
   607.0000      0.0000    741.9385     10.7958    122.2560
   607.2500      0.0000    742.0368     10.6213    123.5921
   607.5000      0.0000    740.7950     10.4025    125.5373
   607.7500      0.0000    738.5510     10.2029    128.1037
   608.0000      0.0000    736.3014     10.0889    131.7997
   608.2500      0.0000    735.4275     10.0947    136.9080
   608.5000      0.0000    736.6242     10.2084    142.4686
   608.7500      0.0000    739.2395     10.3910    146.3932
   609.0000      0.0000    741.9166     10.5969    146.8749
   609.2500      0.0000    743.7299     10.7791    143.7797
   609.5000      0.0000    744.5753     10.8912    138.6395
   609.7500      0.0000    744.7953     10.9022    133.3553
   610.0000      0.0000    744.7414     10.8129    128.9892
   610.2500      0.0000    744.5886     10.6605    125.6580
   610.5000      0.0000    744.2947     10.5037    123.2545
   610.7500      0.0000    743.5903     10.3940    121.9563
   611.0000      0.0000    742.1254     10.3483    121.9173
   611.2500      0.0000    739.8972     10.3489    122.6687
   611.5000      0.0000    737.6334     10.3700    123.1890
   611.7500      0.0000    736.3818     10.4020    122.7267
   612.0000      0.0000    736.2902     10.4499    121.5358
   612.2500      0.0000    735.9285     10.5199    120.6996
   612.5000      0.0000    733.2793     10.6121    121.2326
   612.7500      0.0000    727.5754     10.7214    123.2457
   613.0000      0.0000    720.0988     10.8341    125.7876
   613.2500      0.0000    713.2247     10.9286    127.4973
   613.5000      0.0000    708.8366     10.9884    127.5246
   613.7500      0.0000    707.6660     11.0171    125.8439
   614.0000      0.0000    709.7492     11.0341    122.9249
   614.2500      0.0000    714.8907     11.0558    119.4455
   614.5000      0.0000    722.4156     11.0903    116.2358
   614.7500      0.0000    730.8036     11.1554    114.0021
   615.0000      0.0000    738.1261     11.2871    112.8801
   615.2500      0.0000    743.0358     11.5064    112.4559
   615.5000      0.0000    745.2177     11.7735    112.2550
   615.7500      0.0000    744.9392     11.9940    112.0459
   616.0000      0.0000    742.4185     12.0884    111.7151
   616.2500      0.0000    737.8691     12.0548    110.9462
   616.5000      0.0000    732.1309     11.9599    109.2916
   616.7500      0.0000    726.8785     11.8757    107.0089
   617.0000      0.0000    723.7128     11.8211    105.8423
   617.2500      0.0000    723.0695     11.7587    108.0293
   617.5000      0.0000    724.3455     11.6448    113.9092
   617.7500      0.0000    726.9130     11.4859    121.0689
   618.0000      0.0000    730.4907     11.3417    126.3524
   618.2500      0.0000    734.5618     11.2745    128.2524
   618.5000      0.0000    737.9338     11.2992    127.3278
   618.7500      0.0000    739.2634     11.3758    125.2108
   619.0000      0.0000    738.0555     11.4391    123.6171
   619.2500      0.0000    735.1859     11.4345    123.7460
   619.5000      0.0000    732.3885     11.3367    126.0053
   619.7500      0.0000    731.0432     11.1383    130.0651
   620.0000      0.0000    731.4440     10.8203    134.9913
   620.2500      0.0000    733.3604     10.3598    139.4068
   620.5000      0.0000    736.8588      9.7967    142.0614
   620.7500      0.0000    742.1600      9.2643    142.4264
   621.0000      0.0000    749.3060      8.9007    140.4960
   621.2500      0.0000    758.4684      8.7342    136.3998
   621.5000      0.0000    769.4044      8.6909    131.0145
   621.7500      2.0000    779.6857      8.7032    126.5588
   622.0000      0.0000    784.8821      8.7762    125.2253
   622.2500      0.0000    781.3595      8.9594    126.8501
   622.5000      0.0000    767.9104      9.2865    128.7023
   622.7500      0.0000    745.3334      9.7401    127.9391
   623.0000      0.0000    716.5567     10.2453    124.0551
   623.2500      0.0000    686.7087     10.7023    118.9525
   623.5000      0.0000    660.5226     11.0600    114.6989
   623.7500      0.0000    640.0453     11.3406    111.3022
   624.0000      0.0000    625.7533     11.5618    107.0417
   624.2500      0.0000    617.4500     11.6805    100.9502
   624.5000      0.0000    612.4109     11.6605     94.2198
   624.7500      0.0000    605.8885     11.5529     88.8609
   625.0000      0.0000    597.0546     11.4635     85.5922
   625.2500      0.0000    592.6771     11.4618     83.5476
   625.5000      0.0000    599.2318     11.5503     81.8390
   625.7500      0.0000    610.3159     11.7091     81.0865
   626.0000      0.0000    607.7933     11.9331     83.3154
   626.2500      0.0000    579.3066     12.2183     90.3239
   626.5000      0.0000    532.1361     12.5324    101.9607
   626.7500      0.0000    487.2143     12.8172    115.7627
   627.0000      0.0000    461.4971     13.0148    128.1923
   627.2500      0.0000    457.9944     13.0854    136.4099
   627.5000      0.0000    469.1689     13.0075    139.2278
   627.7500      0.0000    484.6767     12.7799    136.9924
   628.0000      0.0000    496.0609     12.4301    131.0014
   628.2500      0.0000    499.5835     12.0180    122.9633
   628.5000      0.0000    498.6926     11.6279    114.5936
   628.7500      0.0000    503.1111     11.3430    107.3305
