~Version Information
VERS.                      2.0: CWLS Log ASCII Standard - VERSION 2.0
WRAP.                       NO: One line per depth step
~Well Information Block
STRT.FT                -8.7500: 
STOP.FT              1525.0000: 
STEP.FT                 0.2500: 
NULL.                -999.2500: 
COMP.          Pioneer Natural Resources: COMPANY
WELL.          Grand Prix 13-12 Tr: WELL
FLD.           Purgatorie River: FIELD
LOC.           2595' FSL & 1277' FWL--: LOCATION
CNTY.               Las Animas: COUNTY
SRVC.          Patterson Wireline: SERVICE COMPANY
DATE.          Thu Apr 13 10:28:30 2006: LOG DATE
UWI.           05 071 08711 00: UNIQUE WELL ID
STAT.                       CO: STATE
~Curve Information Block
DEPT.FT            0 000 00 00: Depth
CCL.                          : Casing Collar Locator
TT3.usec                      : CBL 3' Travel Time
AMP3.mV                       : CBL 3' Amplitude
GR.GAPI                       : Gamma Ray
~Parameter Information Block
~A  Depth       CCL         TT3         AMP3         GR     
# ...
  1498.7500      0.0000    540.6471      3.5385     88.9829
  1499.0000      0.0000    579.5516      3.5476     85.7188
  1499.2500      0.0000    611.6164      3.5399     84.0759
  1499.5000      0.0000    628.3641      3.4943     83.7197
  1499.7500      0.0000    628.0739      3.4032     84.7940
  1500.0000      0.0000    616.2852      3.2895     87.2451
  1500.2500      0.0000    601.6738      3.2019     90.4290
  1500.5000      0.0000    588.8226      3.1790     93.3937
  1500.7500      0.0000    574.4078      3.2144     95.3315
  1501.0000      0.0000    552.7470      3.2693     95.5443
  1501.2500      0.0000    525.2139      3.3152     93.2344
  1501.5000      0.0000    502.3291      3.3501     87.8990
  1501.7500      2.0000    496.9689      3.3783     80.1655
  1502.0000      0.0000    516.2139      3.3940     72.1120
  1502.2500      0.0000    557.0147      3.3895     66.5481
  1502.5000      0.0000    606.9740      3.3730     65.7138
  1502.7500      0.0000    650.5879      3.3717     70.4762
  1503.0000      0.0000    676.7451      3.4062     80.7305
  1503.2500      0.0000    680.6109      3.4520     96.1145
  1503.5000      0.0000    660.9727      3.4431    115.3960
  1503.7500      0.0000    620.3825      3.3365    135.2370
  1504.0000      0.0000    568.0908      3.1642    151.0361
  1504.2500      0.0000    518.2559      3.0052    159.9379
  1504.5000      0.0000    482.6667      2.9151    162.5284
  1504.7500      0.0000    466.2650      2.8962    161.2378
  1505.0000      0.0000    469.3733      2.9165    157.7213
  1505.2500      0.0000    490.8104      2.9394    152.0986
  1505.5000      0.0000    526.6347      2.9417    144.0404
  1505.7500      0.0000    568.0201      2.9218    134.0206
  1506.0000      0.0000    604.6008      2.8964    123.6000
  1506.2500      0.0000    631.4418      2.8880    114.8110
  1506.5000      0.0000    651.0572      2.9081    109.2201
  1506.7500      0.0000    667.9304      2.9502    107.1369
  1507.0000      0.0000    682.7305      2.9974    107.5657
  1507.2500      0.0000    692.3135      3.0366    109.3129
  1507.5000      0.0000    692.6872      3.0626    112.1388
  1507.7500      0.0000    680.0663      3.0719    116.3828
  1508.0000      0.0000    651.1965      3.0566    121.7194
  1508.2500      0.0000    606.3553      3.0092    127.3158
  1508.5000      0.0000    552.7514      2.9353    133.2610
  1508.7500      0.0000    502.6338      2.8553    140.5759
  1509.0000      0.0000    466.1864      2.7944    149.1250
  1509.2500      0.0000    446.2658      2.7674    156.4321
  1509.5000      0.0000    439.4074      2.7721    159.4937
  1509.7500      0.0000    440.0508      2.7925    157.4724
  1510.0000      0.0000    443.3814      2.8108    151.8876
  1510.2500      0.0000    446.2862      2.8200    144.0231
  1510.5000      0.0000    447.8916      2.8279    132.5040
  1510.7500      0.0000    449.5534      2.8482    114.1982
  1511.0000      0.0000    453.6614      2.8843     88.2292
  1511.2500      0.0000    461.9823      2.9246     58.7526
  1511.5000      0.0000    474.3088      2.9542     32.7430
  1511.7500      0.0000    487.5467      2.9702     14.9628
  1512.0000      0.0000    496.8879      2.9830      5.5284
  1512.2500      0.0000    499.7688      3.0026      1.6354
  1512.5000      0.0000    498.0945      3.0261      0.3840
  1512.7500      0.0000    494.5068      3.0404      0.0706
  1513.0000      0.0000    487.9499      3.0362      0.0091
  1513.2500      0.0000    476.1234      3.0148      0.0000
  1513.5000      0.0000    460.8898      2.9836   -999.2500
  1513.7500      0.0000    447.9233      2.9499   -999.2500
  1514.0000      0.0000    442.1060      2.9194   -999.2500
  1514.2500      0.0000    446.2006      2.8961   -999.2500
  1514.5000      0.0000    463.1164      2.8811   -999.2500
  1514.7500      0.0000    495.8145      2.8715   -999.2500
  1515.0000      0.0000    542.7589      2.8581   -999.2500
  1515.2500      0.0000    593.9747      2.8253   -999.2500
  1515.5000      0.0000    633.2684      2.7530   -999.2500
  1515.7500      0.0000    644.1094      2.6165   -999.2500
  1516.0000      0.0000    613.3602      2.3820   -999.2500
  1516.2500      0.0000    534.3007      2.0191   -999.2500
  1516.5000      0.0000    413.6624      1.5382   -999.2500
  1516.7500      0.0000    276.1927      1.0169   -999.2500
  1517.0000      0.0000    154.8584      0.5663   -999.2500
  1517.2500      0.0000     71.4062      0.2598   -999.2500
  1517.5000      0.0000     26.6620      0.0966   -999.2500
  1517.7500      0.0000      7.9718      0.0288   -999.2500
  1518.0000      0.0000      1.8910      0.0068   -999.2500
  1518.2500      0.0000      0.3505      0.0013   -999.2500
  1518.5000      0.0000      0.0470      0.0002   -999.2500
  1518.7500      0.0000   -999.2500   -999.2500   -999.2500
  1519.0000      0.0000   -999.2500   -999.2500   -999.2500
  1519.2500      0.0000   -999.2500   -999.2500   -999.2500
  1519.5000      0.0000   -999.2500   -999.2500   -999.2500
  1519.7500      0.0000   -999.2500   -999.2500   -999.2500
  1520.0000      0.0000   -999.2500   -999.2500   -999.2500
  1520.2500      0.0000   -999.2500   -999.2500   -999.2500
  1520.5000      0.0000   -999.2500   -999.2500   -999.2500
  1520.7500      0.0000   -999.2500   -999.2500   -999.2500
  1521.0000      0.0000   -999.2500   -999.2500   -999.2500
  1521.2500      0.0000   -999.2500   -999.2500   -999.2500
  1521.5000      0.0000   -999.2500   -999.2500   -999.2500
  1521.7500      0.0000   -999.2500   -999.2500   -999.2500
  1522.0000      0.0000   -999.2500   -999.2500   -999.2500
  1522.2500      0.0000   -999.2500   -999.2500   -999.2500
  1522.5000      0.0000   -999.2500   -999.2500   -999.2500
  1522.7500      0.0000   -999.2500   -999.2500   -999.2500
  1523.0000      0.0000   -999.2500   -999.2500   -999.2500
  1523.2500      0.0000   -999.2500   -999.2500   -999.2500
  1523.5000      0.0000   -999.2500   -999.2500   -999.2500
  1523.7500      2.0000   -999.2500   -999.2500   -999.2500
  1524.0000      0.0000   -999.2500   -999.2500   -999.2500
  1524.2500   -999.2500   -999.2500   -999.2500   -999.2500
  1524.5000   -999.2500   -999.2500   -999.2500   -999.2500
  1524.7500   -999.2500   -999.2500   -999.2500   -999.2500
  1525.0000   -999.2500   -999.2500   -999.2500   -999.2500
