~Version Information
VERS.                      2.0: CWLS Log ASCII Standard - VERSION 2.0
WRAP.                       NO: One line per depth step
~Well Information Block
STRT.FT                 6.0000: 
STOP.FT              1577.7500: 
STEP.FT                 0.2500: 
NULL.                -999.2500: 
COMP.          Pioneer Natural Resources: COMPANY
WELL.           Kermit 32-7 Tr: WELL
FLD.           Purgatoire River: FIELD
LOC.           2009' FNL & 2196' FEL: LOCATION
PROV.                 Colorado: PROVINCE
CNTY.               Las Animas: COUNTRY
SRVC.                Patterson: SERVICE COMPANY
DATE.          Wed Jan 18 14:19:39 2006: LOG DATE
UWI.           05 071 08664 00: UNIQUE WELL ID
~Curve Information Block
DEPT.FT            0 000 00 00: Depth
GR.GAPI                       : Gamma Ray
CCL.                          : Casing Collar Locator
TT3.usec                      : CBL 3' Travel Time
AMP3.mV                       : CBL 3' Amplitude
~Parameter Information Block
~A  Depth        GR         CCL         TT3         AMP3    
# ...
  1044.5000    114.3676      0.0000    673.1769     11.2372
  1044.7500    112.3234      0.0000    673.5448     11.2108
  1045.0000    111.5406      0.0000    673.9164     11.1256
  1045.2500    113.1136      0.0000    674.2600     10.9747
  1045.5000    116.9960      0.0000    674.6024     10.7690
  1045.7500    121.4374      0.0000    675.0114     10.5448
  1046.0000    124.1538      0.0000    675.6565     10.3571
  1046.2500    123.9782      0.0000    677.0240     10.2537
  1046.5000    121.3931      0.0000    680.2940     10.2464
  1046.7500    117.9612      0.0000    687.4344     10.3086
  1047.0000    115.3509      0.0000    700.1764     10.3963
  1047.2500    114.4515      0.0000    717.8829     10.4723
  1047.5000    115.1100      0.0000    736.1540     10.5180
  1047.7500    116.5838      0.0000    748.2217     10.5359
  1048.0000    118.0245      0.0000    748.7068     10.5401
  1048.2500    118.6245      0.0000    737.0842     10.5392
  1048.5000    117.7119      0.0000    718.2601     10.5258
  1048.7500    114.8377      0.0000    699.6047     10.4851
  1049.0000    109.7002      0.0000    686.8059     10.4128
  1049.2500    102.2484      0.0000    682.2605     10.3242
  1049.5000     93.2605      0.0000    686.5616     10.2477
  1049.7500     84.5576      0.0000    699.8045     10.2076
  1050.0000     77.9702      0.0000    720.4081     10.2027
  1050.2500     73.9550      0.0000    743.4271     10.1992
  1050.5000     71.4070      0.0000    761.5526     10.1492
  1050.7500     68.7134      0.0000    768.4936     10.0254
  1051.0000     64.9614      0.0000    761.8530      9.8387
  1051.2500     60.4717      0.0000    744.0328      9.6268
  1051.5000     56.4693      0.0000    721.2211      9.4322
  1051.7500     54.2908      0.0000    700.4405      9.2900
  1052.0000     54.8736      0.0000    685.9725      9.2257
  1052.2500     58.7556      0.0000    677.8044      9.2539
  1052.5000     66.0474      0.0000    672.8746      9.3746
  1052.7500     76.1394      0.0000    667.1302      9.5682
  1053.0000     87.5210      0.0000    657.3209      9.7929
  1053.2500     98.0946      0.0000    643.3982      9.9947
  1053.5000    106.1113      0.0000    630.5688     10.1276
  1053.7500    111.2704      0.0000    627.1694     10.1681
  1054.0000    114.8158      0.0000    637.9346     10.1188
  1054.2500    118.0731      0.0000    659.2946     10.0087
  1054.5000    120.9265      0.0000    681.9285      9.8911
  1054.7500    122.1256      0.0000    697.2131      9.8219
  1055.0000    120.8945      0.0000    701.6191      9.8298
  1055.2500    117.8147      0.0000    697.2284      9.9031
  1055.5000    114.2850      0.0000    689.1974     10.0039
  1055.7500    111.4526      0.0000    682.0657     10.0940
  1056.0000    109.6839      0.0000    677.6301     10.1491
  1056.2500    108.9203      0.0000    675.4359     10.1579
  1056.5000    109.2229      0.0000    674.3899     10.1157
  1056.7500    110.5993      0.0000    673.7311     10.0242
  1057.0000    112.4390      0.0000    673.1819      9.8958
  1057.2500    113.6519      0.0000    672.7611      9.7544
  1057.5000    113.3795      0.0000    672.6858      9.6339
  1057.7500    111.3036      0.0000    673.4373      9.5655
  1058.0000    107.4910      0.0000    675.8676      9.5582
  1058.2500    102.2634      0.0000    680.8625      9.5952
  1058.5000     96.1951      0.0000    688.2637      9.6547
  1058.7500     90.2300      0.0000    695.9503      9.7275
  1059.0000     85.7002      0.0000    701.0148      9.8104
  1059.2500     83.6984      0.0000    702.6068      9.8944
  1059.5000     84.1150      0.0000    702.5549      9.9706
  1059.7500     85.5667      0.0000    702.2636     10.0484
  1060.0000     86.5259      0.0000    700.4722     10.1623
  1060.2500     86.5569      0.0000    695.4539     10.3535
  1060.5000     86.5569      0.0000    688.0787     10.6371
  1060.7500     87.9974      0.0000    681.1793     10.9862
  1061.0000     91.9231      0.0000    676.7261     11.3530
  1061.2500     98.3361      0.0000    674.7081     11.7081
  1061.5000    106.1675      0.0000    674.1546     12.0596
  1061.7500    113.9203      0.0000    674.3828     12.4386
  1062.0000    120.5911      0.0000    675.5886     12.8628
  1062.2500    125.8339      0.0000    679.0270     13.3032
  1062.5000    129.1122      0.0000    686.7769     13.6736
  1062.7500    129.2507      0.0000    700.4033     13.8535
  1063.0000    125.3822      0.0000    718.7347     13.7392
  1063.2500    118.0863      0.0000    736.9938     13.2926
  1063.5000    109.1142      0.0000    749.3836     12.5588
  1063.7500    100.0483      0.0000    753.2875     11.6466
  1064.0000     91.4879      0.0000    750.9521     10.6919
  1064.2500     83.3602      0.0000    747.5612      9.8191
  1064.5000     75.6000      0.0000    748.0211      9.1078
  1064.7500     68.4857      0.0000    754.4134      8.5710
  1065.0000     62.6379      0.0000    765.0762      8.1633
  1065.2500     58.8099      0.0000    776.0927      7.8177
  1065.5000     57.5448      0.0000    784.2237      7.4925
  1065.7500     58.9993      0.0000    788.5400      7.2006
  1066.0000     62.9367      0.0000    789.5297      7.0117
  1066.2500     68.5127      0.0000    787.1544      7.0206
  1066.5000     74.0845      0.0000    779.9037      7.2939
  1066.7500     77.7817      0.0000    765.8637      7.8241
  1067.0000     78.8616      0.0000    745.2091      8.5179
  1067.2500     78.6145      0.0000    721.6852      9.2260
  1067.5000     79.6140      0.0000    700.8650      9.8002
  1067.7500     83.6763      0.0000    686.5025     10.1525
  1068.0000     90.4705      0.0000    678.7198     10.2883
  1068.2500     98.0888      0.0000    675.2708     10.2953
  1068.5000    104.5893      0.0000    673.7004     10.2973
  1068.7500    108.8421      0.0000    672.3430     10.3933
  1069.0000    110.5366      0.0000    670.3209     10.6090
  1069.2500    109.9817      0.0000    667.5656     10.8852
  1069.5000    107.7727      0.0000    664.9937     11.1103
  1069.7500    104.4080      0.0000    664.0297     11.1829
  1070.0000    100.2751      0.0000    665.3452     11.0647
  1070.2500     95.9365      0.0000    668.1305     10.7919
  1070.5000     92.1067      0.0000    670.8777     10.4438
  1070.7500     89.1966      0.0000    672.6380     10.0996
  1071.0000     87.0770      0.0000    673.3204      9.8146
  1071.2500     85.4588      0.0000    672.9314      9.6211
  1071.5000     84.5323      0.0000    670.4479      9.5358
  1071.7500     85.1057      0.0000    662.6865      9.5613
  1072.0000     87.8926      0.0000    644.0861      9.6842
  1072.2500     92.5500      0.0000    609.3227      9.8735
  1072.5000     97.5474      0.0000    558.7328     10.0805
  1072.7500    101.0168      0.0000    501.7233     10.2468
  1073.0000    101.6806      0.0000    453.1323     10.3252
  1073.2500     99.3135      0.0000    425.5034     10.3034
  1073.5000     94.8776      0.0000    424.9589     10.2058
  1073.7500     90.2077      0.0000    451.5969     10.0763
  1074.0000     87.0272      0.0000    499.2249      9.9573
  1074.2500     85.9609      0.0000    554.5463      9.8800
  1074.5000     86.3944      0.0000    601.3827      9.8602
  1074.7500     87.1693      0.0000    629.5171      9.8968
  1075.0000     87.4820      0.0000    640.0296      9.9726
  1075.2500     87.3186      0.0000    642.1015     10.0602
  1075.5000     87.2538      0.0000    644.9336     10.1304
  1075.7500     88.1080      0.0000    651.8931     10.1624
  1076.0000     90.7510      0.0000    660.8533     10.1512
  1076.2500     95.6596      0.0000    668.5931     10.1101
  1076.5000    102.3396      0.0000    674.2316     10.0665
  1076.7500    109.4784      0.0000    679.1589     10.0562
  1077.0000    115.7796      0.0000    684.8604     10.1143
  1077.2500    120.3400      0.0000    691.1575     10.2452
  1077.5000    122.3301      0.0000    696.4547     10.3669
  1077.7500    121.0489      0.0000    699.8688     10.2808
