~Version Information
VERS.                      2.0: CWLS Log ASCII Standard - VERSION 2.0
WRAP.                       NO: One line per depth step
~Well Information Block
STRT.FT                -7.5000: 
STOP.FT              1336.0000: 
STEP.FT                 0.2500: 
NULL.                -999.2500: 
COMP.          Pioneer Natural Resources: COMPANY
WELL.               LPGC 32-32: WELL
FLD.           Purgatorie River: FIELD
LOC.           1937' FNL & 1661' FEL--: LOCATION
CNTY.               Las Animas: COUNTY
SRVC.          Patterson Wireline: SERVICE COMPANY
DATE.          Fri Feb 03 09:39:42 2006: LOG DATE
UWI.           05 071 08641 00: UNIQUE WELL ID
STAT.                       CO: STATE
~Curve Information Block
DEPT.FT            0 000 00 00: Depth
CCL.                          : Casing Collar Locator
TT3.usec                      : CBL 3' Travel Time
AMP3.mV                       : CBL 3' Amplitude
GR.GAPI                       : Gamma Ray
~Parameter Information Block
~A  Depth       CCL         TT3         AMP3         GR     
    -7.5000   -999.2500   -999.2500   -999.2500    105.6377
    -7.2500   -999.2500   -999.2500   -999.2500    105.8930
    -7.0000   -999.2500   -999.2500   -999.2500    105.6372
    -6.7500   -999.2500   -999.2500   -999.2500    104.9737
    -6.5000   -999.2500   -999.2500   -999.2500    105.0728
    -6.2500   -999.2500   -999.2500   -999.2500    107.1142
    -6.0000   -999.2500   -999.2500   -999.2500    110.8973
    -5.7500   -999.2500   -999.2500   -999.2500    114.5659
    -5.5000   -999.2500   -999.2500   -999.2500    115.9446
    -5.2500   -999.2500   -999.2500   -999.2500    114.4817
    -5.0000   -999.2500   -999.2500   -999.2500    111.8009
    -4.7500   -999.2500   -999.2500   -999.2500    110.0109
    -4.5000   -999.2500   -999.2500   -999.2500    109.7724
    -4.2500   -999.2500   -999.2500   -999.2500    110.5167
    -4.0000   -999.2500   -999.2500   -999.2500    111.9007
    -3.7500   -999.2500   -999.2500   -999.2500    113.8629
    -3.5000   -999.2500   -999.2500   -999.2500    115.4250
    -3.2500   -999.2500   -999.2500   -999.2500    114.7665
    -3.0000   -999.2500   -999.2500   -999.2500    110.9547
    -2.7500   -999.2500   -999.2500   -999.2500    105.1201
    -2.5000   -999.2500   1161.0000      0.4113     99.7831
    -2.2500   -999.2500   1161.0000      0.4161     97.0851
    -2.0000   -999.2500   1161.0000      0.4202     97.1204
    -1.7500   -999.2500   1161.0000      0.4219     97.5231
    -1.5000   -999.2500   1161.0000      0.4196     95.0904
    -1.2500   -999.2500   1161.0000      0.4138     88.4352
    -1.0000   -999.2500   1161.0000      0.4080     79.2401
    -0.7500   -999.2500   1161.0000      0.4056     70.8281
    -0.5000   -999.2500   1161.0000      0.4073     65.5288
    -0.2500   -999.2500   1161.0000      0.4108     63.3164
     0.0000   -999.2500   1161.0000      0.4141     62.5314
     0.2500   -999.2500   1161.0000      0.4130     58.9812
     0.5000   -999.2500   1161.0000      0.4066     55.1336
     0.7500   -999.2500   1161.0000      0.3994     50.1917
     1.0000   -999.2500   1161.0000      0.3960     44.6103
     1.2500   -999.2500   1161.0000      0.3985     38.9667
     1.5000   -999.2500   1161.0000      0.4034     34.1331
     1.7500   -999.2500   1161.0000      0.4043     31.1548
     2.0000   -999.2500   1161.0000      0.3974     30.7393
     2.2500   -999.2500   1161.0000      0.3848     32.8043
     2.5000   -999.2500   1161.0000      0.3738     36.4768
     2.7500   -999.2500   1161.0000      0.3709     40.4347
     3.0000      0.0000   1161.0000      0.3769     43.4237
     3.2500      0.0000   1161.0000      0.3870     44.9873
     3.5000      0.0000   1161.0000      0.3957     45.9477
     3.7500      0.0000   1161.0000      0.4023     47.8657
     4.0000      0.0000   1161.0000      0.4098     51.7146
     4.2500      0.0000   1161.0000      0.4190     57.0723
     4.5000      0.0000   1161.0000      0.4267     62.5196
     4.7500      0.0000   1161.0000      0.4288     66.6892
     5.0000      0.0000   1161.0000      0.4260     69.0926
     5.2500      0.0000   1161.0000      0.4233     70.2474
     5.5000      0.0000   1161.0000      0.4264     71.1143
     5.7500      0.0000   1161.0000      0.4373     72.3063
     6.0000      0.0000   1160.9796      0.4531     73.6759
     6.2500      0.0000   1160.8066      0.4736     74.5404
     6.5000      0.0000   1159.8712      0.5186     74.3703
     6.7500      0.0000   1155.8812      0.6961     73.3740
     7.0000      0.0000   1142.4434      1.3731     72.3818
     7.2500      0.0000   1106.6729      3.4490     72.0080
     7.5000      0.0000   1031.3679      8.4406     71.9691
     7.7500      0.0000    905.9691     17.8271     71.4281
     8.0000      0.0000    740.8512     31.6335     70.0320
     8.2500      0.0000    569.0646     47.5386     68.4382
     8.5000      0.0000    428.0107     61.9264     67.8757
     8.7500      0.0000    336.7309     72.1977     69.3411
     9.0000      0.0000    290.2490     78.0459     73.0787
     9.2500      0.0000    271.6539     80.7713     78.5122
     9.5000      0.0000    265.8200     81.8833     84.5662
     9.7500      0.0000    264.3875     82.3390     90.1793
    10.0000      0.0000    264.1119     82.5491     94.7394
    10.2500      0.0000    264.0707     82.6480     98.2248
    10.5000      0.0000    264.0670     82.6884    100.9682
    10.7500      0.0000    264.0627     82.7123    103.2765
    11.0000      0.0000    264.0576     82.7545    105.2466
    11.2500      0.0000    264.0501     82.8396    106.6927
    11.5000      0.0000    264.0386     82.9752    107.1314
    11.7500      0.0000    264.0236     83.1441    106.1522
    12.0000      0.0000    264.0088     83.3040    104.0189
    12.2500      0.0000    263.9984     83.4069    101.7322
    12.5000      0.0000    263.9943     83.4264    100.3141
    12.7500      0.0000    263.9949     83.3692     99.9977
    13.0000      0.0000    263.9972     83.2616    100.2552
    13.2500      0.0000    263.9997     83.1400    100.7559
    13.5000      0.0000    264.0036     83.0548    102.0343
    13.7500      0.0000    264.0117     83.0666    104.6476
    14.0000      0.0000    264.0247     83.2122    107.7671
    14.2500      0.0000    264.0393     83.4657    109.4710
    14.5000      0.0000    264.0494     83.7468    108.6995
    14.7500      0.0000    264.0506     83.9779    106.1206
    15.0000      0.0000    264.0431     84.1367    102.7835
    15.2500      0.0000    264.0304     84.2516     98.8788
    15.5000      0.0000    264.0167     84.3594     94.3496
    15.7500      0.0000    264.0055     84.4726     89.8361
    16.0000      0.0000    263.9987     84.5798     86.2866
    16.2500      0.0000    263.9967     84.6643     83.9218
    16.5000      0.0000    263.9987     84.7177     81.9245
    16.7500      0.0000    264.0034     84.7415     79.0852
    17.0000      0.0000    264.0097     84.7421     74.8013
    17.2500      0.0000    264.0154     84.7251     69.7103
    17.5000      0.0000    264.0185     84.6972     65.3651
    17.7500      0.0000    264.0182     84.6725     63.1901
    18.0000      0.0000    264.0149     84.6732     63.8046
    18.2500      0.0000    264.0100     84.7166     67.0835
    18.5000      0.0000    264.0042     84.8010     72.1536
    18.7500      0.0000    263.9970     84.9072     77.3093
    19.0000      0.0000    263.9882     85.0144     80.8965
    19.2500      0.0000    263.9789     85.1143     82.7569
    19.5000      0.0000    263.9713     85.2080     84.2670
    19.7500      0.0000    263.9676     85.2863     86.6265
    20.0000      0.0000    263.9684     85.3039     89.5754
    20.2500      0.0000    263.9745     85.1578     91.9707
    20.5000      0.0000    263.9888     84.6734     93.1419
    20.7500      0.0000    264.0210     83.6114     93.3895
    21.0000      0.0000    264.0895     81.7234     93.4839
    21.2500      0.0000    264.2211     78.8558     94.0562
    21.5000      0.0000    264.4491     75.0331     95.3630
    21.7500      0.0000    264.8393     70.4490     97.2083
    22.0000      0.0000    265.5676     65.3740     98.7856
    22.2500      0.0000    267.0439     60.0614     98.9028
    22.5000      0.0000    269.9435     54.7025     96.8383
    22.7500      0.0000    274.8980     49.4227     92.9769
    23.0000      0.0000    281.8869     44.3076     88.3594
    23.2500      0.0000    289.9596     39.4370     83.7836
    23.5000      0.0000    297.8944     34.8958     79.7263
    23.7500      0.0000    305.2422     30.7739     77.0067
    24.0000      0.0000    312.4178     27.1775     76.8761
    24.2500      0.0000    319.5599     24.2289     79.9673
    24.5000      0.0000    325.6019     22.0164     85.1326
    24.7500      0.0000    329.0063     20.5291     89.4853
    25.0000      0.0000    329.5748     19.6430     90.1347
    25.2500      0.0000    329.1030     19.1743     86.5366
    25.5000      0.0000    329.8024     18.9502     81.1304
    25.7500      0.0000    332.1749     18.8523     77.1638
