~Version Information
VERS.                      2.0: CWLS Log ASCII Standard - VERSION 2.0
WRAP.                       NO: One line per depth step
~Well Information Block
STRT.FT                -4.0000: 
STOP.FT               675.2500: 
STEP.FT                 0.2500: 
NULL.                -999.2500: 
COMP.          Pioneer Natural Resources: COMPANY
WELL.          Razor Clam 23-27: WELL
FLD.           Purgatoire River: FIELD
LOC.           2499' FSL & 2636' FWL: LOCATION
CNTY.               Las Animas: COUNTY
SRVC.                         : SERVICE COMPANY
DATE.          Thu Mar 09 13:15:19 2006: LOG DATE
UWI.           05 071 08667 00: UNIQUE WELL ID
STAT.                       CO: STATE
~Curve Information Block
DEPT.FT            0 000 00 00: Depth
GR.GAPI                       : Gamma Ray
CCL.                          : Casing Collar Locator
TT3.usec                      : CBL 3' Travel Time
AMP3.mV                       : CBL 3' Amplitude
~Parameter Information Block
~A  Depth        GR         CCL         TT3         AMP3    
    -4.0000   -999.2500   -999.2500   -999.2500   -999.2500
    -3.7500   -999.2500   -999.2500   -999.2500   -999.2500
    -3.5000   -999.2500   -999.2500   -999.2500   -999.2500
    -3.2500   -999.2500   -999.2500   -999.2500   -999.2500
    -3.0000   -999.2500   -999.2500   -999.2500   -999.2500
    -2.7500   -999.2500   -999.2500   -999.2500   -999.2500
    -2.5000   -999.2500   -999.2500   -999.2500   -999.2500
    -2.2500   -999.2500   -999.2500   -999.2500   -999.2500
    -2.0000   -999.2500   -999.2500   -999.2500   -999.2500
    -1.7500   -999.2500   -999.2500   -999.2500   -999.2500
    -1.5000   -999.2500   -999.2500   -999.2500   -999.2500
    -1.2500   -999.2500   -999.2500   1230.0000      1.1961
    -1.0000   -999.2500   -999.2500   1230.0000      1.1819
    -0.7500   -999.2500   -999.2500   1230.0000      1.1618
    -0.5000   -999.2500   -999.2500   1230.0000      1.1438
    -0.2500   -999.2500   -999.2500   1230.0000      1.1397
     0.0000   -999.2500   -999.2500   1230.0000      1.1561
     0.2500   -999.2500   -999.2500   1230.0000      1.1878
     0.5000   -999.2500   -999.2500   1230.0000      1.2206
     0.7500   -999.2500   -999.2500   1230.0000      1.2536
     1.0000   -999.2500   -999.2500   1230.0000      1.2597
     1.2500   -999.2500   -999.2500   1230.0000      1.2691
     1.5000   -999.2500   -999.2500   1230.0000      1.2847
     1.7500   -999.2500   -999.2500   1230.0000      1.3044
     2.0000   -999.2500   -999.2500   1230.0000      1.3245
     2.2500   -999.2500   -999.2500   1230.0000      1.3400
     2.5000   -999.2500   -999.2500   1230.0000      1.3450
     2.7500   -999.2500   -999.2500   1230.0000      1.3368
     3.0000   -999.2500   -999.2500   1230.0000      1.3198
     3.2500   -999.2500   -999.2500   1230.0000      1.3025
     3.5000   -999.2500   -999.2500   1230.0000      1.2921
     3.7500   -999.2500   -999.2500   1230.0000      1.2908
     4.0000   -999.2500   -999.2500   1230.0000      1.2978
     4.2500   -999.2500      0.0000   1230.0000      1.3100
     4.5000   -999.2500      0.0000   1230.0000      1.3220
     4.7500   -999.2500      0.0000   1230.0000      1.3265
     5.0000   -999.2500      0.0000   1230.0000      1.3156
     5.2500   -999.2500      1.8747   1230.0000      1.2875
     5.5000   -999.2500      2.0000   1230.0000      1.2522
     5.7500   -999.2500     -2.0000   1230.0000      1.2274
     6.0000   -999.2500     -2.0000   1230.0000      1.2226
     6.2500   -999.2500     -2.0000   1230.0000      1.2291
     6.5000   -999.2500     -2.0000   1230.0000      1.2299
     6.7500   -999.2500     -2.0000   1230.0000      1.2183
     7.0000   -999.2500      0.0000   1230.0000      1.2072
     7.2500   -999.2500      2.0000   1230.0000      1.2249
     7.5000   -999.2500      2.0000   1230.0000      1.3117
     7.7500   -999.2500      0.0000   1230.0000      1.5285
     8.0000   -999.2500      0.0000   1230.0000      1.9739
     8.2500   -999.2500      0.0000   1230.0000      2.7821
     8.5000   -999.2500      0.0000   1230.0000      4.0660
     8.7500   -999.2500      0.0000   1230.0000      5.8199
     9.0000      0.5467      0.0000   1230.0000      7.8583
     9.2500      1.9817      0.0000   1230.0000      9.8684
     9.5000      5.7913      0.0000   1230.0000     11.5595
     9.7500     13.7670      0.0000   1230.0000     12.8009
    10.0000     26.9381      0.0000   1230.0000     13.6552
    10.2500     44.1387      0.0000   1230.0000     14.3045
    10.5000     62.0462      0.0000   1230.0000     14.9288
    10.7500     77.2286      0.0000   1230.0000     15.6158
    11.0000     88.1494      0.0000   1230.0000     16.3484
    11.2500     95.1637      0.0000   1230.0000     17.0561
    11.5000     99.3037      0.0000   1229.9862     17.6743
    11.7500    101.5637      0.0000   1229.8513     18.1714
    12.0000    102.7309      0.0000   1229.1459     18.5490
    12.2500    103.2408      0.0000   1226.0942     18.8382
    12.5000    103.3337      0.0000   1215.8560     19.0902
    12.7500    103.4301      0.0000   1188.9589     19.3530
    13.0000    103.9965      0.0000   1133.8951     19.6472
    13.2500    105.0459      0.0000   1046.7268     19.9506
    13.5000    106.1284      0.0000    941.9179     20.1934
    13.7500    106.8545      0.0000    851.3994     20.2772
    14.0000    107.2724      0.0000    807.4179     20.1258
    14.2500    107.7078      0.0000    821.3641     19.7320
    14.5000    108.3072      0.0000    874.8362     19.1799
    14.7500    108.7436      0.0000    930.6945     18.6438
    15.0000    108.3104      0.0000    957.8354     18.3391
    15.2500    106.3605      0.0000    949.2134     18.4123
    15.5000    102.7682      0.0000    916.7000     18.8517
    15.7500     98.0253      0.0000    871.4108     19.5177
    16.0000     92.9256     -1.1618    814.5367     20.2690
    16.2500     88.2764      2.0000    747.2410     21.0860
    16.5000     84.8412      0.0000    679.5364     22.1084
    16.7500     83.1776      0.0000    619.7776     23.5164
    17.0000     83.2079      0.0000    562.0402     25.2970
    17.2500     84.0654      0.0000    496.0324     27.1344
    17.5000     84.6823      0.0000    425.6638     28.6151
    17.7500     84.7701      0.0000    366.8134     29.5458
    18.0000     85.1973      0.0000    329.8904     30.0128
    18.2500     87.0612      0.0000    312.5362     30.1941
    18.5000     90.2884      0.0000    306.3922     30.2173
    18.7500     93.5548      0.0000    304.7515     30.1616
    19.0000     95.7263      0.0000    304.3990     30.0817
    19.2500     96.7554      0.0000    304.2838     30.0004
    19.5000     97.0196      0.0000    304.1849     29.9140
    19.7500     96.6342      0.0000    304.0516     29.8203
    20.0000     95.7865      0.0000    303.9020     29.7263
    20.2500     95.1201      0.0000    303.7589     29.6280
    20.5000     95.3133      0.0000    303.6470     29.4891
    20.7500     96.4879      0.0000    303.5846     29.2563
    21.0000     98.2361      0.0000    303.5747     28.9081
    21.2500    100.1749      0.0000    303.6045     28.4815
    21.5000    102.1803      0.0000    303.6510     28.0370
    21.7500    103.9070      0.0000    303.6870     27.6089
    22.0000    104.4090      0.0000    303.6903     27.2005
    22.2500    102.7226      0.0000    303.6639     26.8190
    22.5000     98.8215      0.0000    303.6429     26.4904
    22.7500     93.7921      0.0000    303.6676     26.2358
    23.0000     88.9670      0.0000    303.7447     26.0419
    23.2500     84.9028      0.0000    303.8434     25.8722
    23.5000     81.4282      0.0000    303.9260     25.7109
    23.7500     78.6714      0.0000    303.9788     25.5799
    24.0000     77.4844      0.0000    304.0220     25.4984
    24.2500     78.6275      0.0000    304.1031     25.4364
    24.5000     81.8845      0.0000    304.2712     25.3284
    24.7500     86.1354      0.0000    304.5366     25.1392
    25.0000     89.9444      0.0000    304.8499     24.8983
    25.2500     91.9873      0.0000    305.1320     24.6648
    25.5000     91.2627      0.0000    305.3290     24.4766
    25.7500     87.2840      0.0000    305.4352     24.3467
    26.0000     80.4754      0.0000    305.4698     24.2895
    26.2500     72.6563      0.0000    305.4508     24.3238
    26.5000     66.7056      0.0000    305.3933     24.4478
    26.7500     64.9288      0.0000    305.3213     24.6236
    27.0000     67.4528      0.0000    305.2660     24.7930
    27.2500     72.4478      0.0000    305.2515     24.9052
    27.5000     77.9559      0.0000    305.2816     24.9339
    27.7500     83.3489      0.0000    305.3409     24.8809
    28.0000     89.1342      0.0000    305.4078     24.7807
    28.2500     95.6915      0.0000    305.4662     24.6945
    28.5000    102.2433      0.0000    305.5092     24.6820
    28.7500    107.0447      0.0000    305.5356     24.7602
    29.0000    108.7324      0.0000    305.5462     24.8834
    29.2500    107.5880      0.0000    305.5410     24.9715
