~Version Information
VERS.                      2.0: CWLS Log ASCII Standard - VERSION 2.0
WRAP.                       NO: One line per depth step
~Well Information Block
STRT.FT                -7.7500: 
STOP.FT              1519.0000: 
STEP.FT                 0.2500: 
NULL.                -999.2500: 
COMP.          Pioneer Natural Resources: COMPANY
WELL.          Mow 8-14-33-67 Tr: WELL
FLD.           Purgatorie River: FIELD
LOC.           2258' FNL & 929' FEL--: LOCATION
CNTY.               Las Animas: COUNTY
SRVC.          Patterson Wireline: SERVICE COMPANY
DATE.          Thu Feb 02 10:06:28 2006: LOG DATE
UWI.           05 071 08684 00: UNIQUE WELL ID
STAT.                       CO: STATE
~Curve Information Block
DEPT.FT            0 000 00 00: Depth
MINMK.                        : Magnetic Mark Ticks
CCL.                          : Casing Collar Locator
TT3.usec                      : CBL 3' Travel Time
AMP3.mV                       : CBL 3' Amplitude
GR.GAPI                       : Gamma Ray
~Parameter Information Block
~A  Depth      MINMK        CCL         TT3         AMP3         GR     
# ...
   104.2500      0.0000      0.0000    262.7225     84.8461     89.6846
   104.5000      0.0000      0.0000    262.7307     84.8277     92.0606
   104.7500      0.0000      0.0000    262.7326     84.8542     97.8872
   105.0000      0.0000      0.0000    262.7295     84.9018    105.0482
   105.2500      0.0000      0.0000    262.7249     84.9468    111.5592
   105.5000      0.0000      0.0000    262.7211     84.9783    116.6059
   105.7500      0.0000      0.0000    262.7181     85.0016    120.3650
   106.0000      0.0000      0.0000    262.7147     85.0260    122.6633
   106.2500      0.0000      0.0000    262.7107     85.0518    122.5989
   106.5000      0.0000      0.0000    262.7076     85.0745    120.2234
   106.7500      0.0000      0.0000    262.7062     85.0995    117.7824
   107.0000      0.0000      0.0000    262.7061     85.1387    117.8935
   107.2500      0.0000      0.0000    262.7063     85.1849    120.4535
   107.5000      0.0000      0.0000    262.7076     85.2008    122.2581
   107.7500      0.0000      0.0000    262.7109     85.1488    120.1495
   108.0000      0.0000      0.0000    262.7163     85.0340    114.2416
   108.2500      0.0000      0.0000    262.7227     84.9055    107.6454
   108.5000      0.0000      0.0000    262.7287     84.8153    103.2444
   108.7500      0.0000      0.0000    262.7325     84.7800    101.3145
   109.0000      0.0000      0.0000    262.7325     84.7813    100.0949
   109.2500      0.0000      0.0000    262.7279     84.7937     97.7788
   109.5000      0.0000      0.0000    262.7213     84.8100     93.7738
   109.7500      0.0000      0.0000    262.7167     84.8454     88.8077
   110.0000      0.0000      0.0000    262.7161     84.9147     84.2866
   110.2500      0.0000      0.0000    262.7179     85.0118     81.4408
   110.5000      0.0000      0.0000    262.7187     85.1130     80.8618
   110.7500      0.0000      0.0000    262.7162     85.1950     82.5138
   111.0000      0.0000      0.0000    262.7103     85.2446     85.8274
   111.2500      0.0000      0.0000    262.7027     85.2591     89.8502
   111.5000      0.0000      0.0000    262.6959     85.2461     93.5219
   111.7500      0.0000      0.0000    262.6926     85.2210     95.9207
   112.0000      0.0000      0.0000    262.6939     85.1978     96.5726
   112.2500      0.0000      0.0000    262.7001     85.1831     95.8658
   112.5000      0.0000      0.0000    262.7110     85.1780     95.0555
   112.7500      0.0000      0.0000    262.7260     85.1803     95.5171
   113.0000      0.0000      0.0000    262.7436     85.1851     97.7631
   113.2500      0.0000      0.0000    262.7607     85.1842    101.0954
   113.5000      0.0000      0.0000    262.7741     85.1666    104.1077
   113.7500      0.0000      0.0000    262.7820     85.1247    105.4688
   114.0000      0.0000      0.0000    262.7839     85.0691    104.4901
   114.2500      0.0000      0.0000    262.7790     85.0314    101.4167
   114.5000      1.0000      0.0000    262.7664     85.0378     97.4252
   114.7500      0.0000      0.0000    262.7468     85.0812     94.0766
   115.0000      0.0000      0.0000    262.7236     85.1266     92.2233
   115.2500      0.0000      0.0000    262.7024     85.1436     91.3356
   115.5000      0.0000      0.0000    262.6897     85.1285     90.3024
   115.7500      0.0000      0.0000    262.6882     85.1006     88.9860
   116.0000      0.0000      0.0000    262.6959     85.0824     88.4958
   116.2500      0.0000      0.0000    262.7080     85.0793     89.7470
   116.5000      0.0000      0.0000    262.7226     85.0710     92.3559
   116.7500      0.0000      0.0000    262.7405     85.0253     95.3483
   117.0000      0.0000      0.0000    262.7616     84.9241     98.3282
   117.2500      0.0000      0.0000    262.7820     84.7824    101.3470
   117.5000      0.0000      0.0000    262.7966     84.6470    104.0030
   117.7500      0.0000      0.0000    262.8023     84.5745    105.3395
   118.0000      0.0000      0.0000    262.8004     84.5953    104.7475
   118.2500      0.0000      0.0000    262.7950     84.6847    102.7949
   118.5000      0.0000      0.0000    262.7899     84.7683    101.1029
   118.7500      0.0000      0.0000    262.7855     84.7693    101.3121
   119.0000      0.0000      0.0000    262.7805     84.6650    103.8554
   119.2500      0.0000      0.0000    262.7741     84.5011    107.3987
   119.5000      0.0000      0.0000    262.7661     84.3527    109.4958
   119.7500      0.0000      0.0000    262.7563     84.2695    108.2484
   120.0000      0.0000      0.0000    262.7466     84.2528    103.7393
   120.2500      0.0000      0.0000    262.7401     84.2712     97.9718
   120.5000      0.0000      0.0000    262.7388     84.2901     93.4392
   120.7500      0.0000      0.0000    262.7419     84.2888     91.5698
   121.0000      0.0000      0.0000    262.7468     84.2652     92.2081
   121.2500      0.0000      0.0000    262.7515     84.2355     94.4353
   121.5000      0.0000      0.0000    262.7544     84.2248     97.6076
   121.7500      0.0000      0.0000    262.7558     84.2503    101.2843
   122.0000      0.0000      0.0000    262.7573     84.3133    104.5981
   122.2500      0.0000      0.0000    262.7600     84.4099    106.5179
   122.5000      0.0000      0.0000    262.7625     84.5472    106.8799
   122.7500      0.0000      0.0000    262.7624     84.7355    106.7118
   123.0000      0.0000      0.0000    262.7594     84.9584    107.1957
   123.2500      0.0000      0.0000    262.7555     85.1623    108.4709
   123.5000      0.0000      0.0000    262.7523     85.2910    109.7836
   123.7500      0.0000      0.0000    262.7502     85.3292    110.5893
   124.0000      0.0000      0.0000    262.7500     85.3088    110.9270
   124.2500      0.0000      0.0000    262.7520     85.2740    110.8144
   124.5000      0.0000      0.0000    262.7555     85.2430    110.0078
   124.7500      0.0000      0.0000    262.7581     85.2000    108.6648
   125.0000      0.0000      0.0000    262.7583     85.1237    107.9258
   125.2500      0.0000      0.0000    262.7580     85.0150    109.5236
   125.5000      0.0000      0.0000    262.7607     84.8949    114.6170
   125.7500      0.0000      0.0000    262.7686     84.7846    122.8515
   126.0000      0.0000      0.0000    262.7784     84.7021    132.4170
   126.2500      0.0000      0.0000    262.7829     84.6713    140.9531
   126.5000      0.0000      0.0000    262.7766     84.7155    146.4776
   126.7500      0.0000      0.0000    262.7604     84.8311    147.9091
   127.0000      0.0000      0.0000    262.7416     84.9700    145.4238
   127.2500      0.0000      0.0000    262.7276     85.0646    140.5556
   127.5000      0.0000      0.0000    262.7206     85.0810    135.4073
   127.7500      0.0000      0.0000    262.7172     85.0429    131.2652
   128.0000      0.0000      0.0000    262.7136     84.9961    128.0017
   128.2500      0.0000      0.0000    262.7093     84.9676    124.8315
   128.5000      0.0000      0.0000    262.7047     84.9641    121.3731
   128.7500      0.0000      0.0000    262.6998     84.9909    117.8708
   129.0000      0.0000      0.0000    262.6951     85.0503    114.6552
   129.2500      0.0000      0.0000    262.6928     85.1239    111.6854
   129.5000      0.0000      0.0000    262.6944     85.1728    108.7283
   129.7500      0.0000      0.0000    262.6988     85.1655    105.9915
   130.0000      0.0000      0.0000    262.7036     85.1047    104.3196
   130.2500      0.0000      0.0000    262.7069     85.0246    104.3809
   130.5000      0.0000      0.0000    262.7085     84.9670    105.6828
   130.7500      0.0000      0.0000    262.7076     84.9628    106.7736
   131.0000      0.0000      0.0000    262.7036     85.0207    106.3783
   131.2500      0.0000      0.0000    262.6972     85.1231    104.0123
   131.5000      0.0000      0.0000    262.6912     85.2381     99.8467
   131.7500      0.0000      0.0000    262.6877     85.3428     94.7237
   132.0000      0.0000      0.0000    262.6865     85.4345     90.1590
