~Version Information
VERS.                      2.0: CWLS Log ASCII Standard - VERSION 2.0
WRAP.                       NO: One line per depth step
~Well Information Block
STRT.FT                -4.2500: 
STOP.FT               745.0000: 
STEP.FT                 0.2500: 
NULL.                -999.2500: 
COMP.          Pioneer Natural Resources: COMPANY
WELL.                Zed 11-23: WELL
FLD.           Purgatoire River: FIELD
LOC.           641' FNL & 952' FWL: LOCATION
CNTY.               Las Animas: COUNTY
SRVC.                         : SERVICE COMPANY
DATE.          Fri Mar 03 16:43:06 2006: LOG DATE
UWI.           05 071 08702 00: UNIQUE WELL ID
STAT.                       CO: STATE
~Curve Information Block
DEPT.FT            0 000 00 00: Depth
GR.GAPI                       : Gamma Ray
CCL.                          : Casing Collar Locator
TT3.usec                      : CBL 3' Travel Time
AMP3.mV                       : CBL 3' Amplitude
~Parameter Information Block
~A  Depth        GR         CCL         TT3         AMP3    
# ...
   129.7500     79.8274      0.0000    804.5059      8.1171
   130.0000     81.5032      0.0000    792.1802      8.1846
   130.2500     81.3007      0.0000    782.3433      8.2608
   130.5000     79.3400      0.0000    777.2469      8.3303
   130.7500     76.6621      0.0000    778.2490      8.3771
   131.0000     74.2368      0.0000    782.7796      8.4000
   131.2500     72.4436      0.0000    785.2949      8.4120
   131.5000     71.2325      0.0000    781.7945      8.4234
   131.7500     70.4118      0.0000    772.6838      8.4281
   132.0000     69.9458      0.0000    761.3809      8.4107
   132.2500     70.0395      0.0000    751.1661      8.3609
   132.5000     70.5994      0.0000    743.5992      8.2816
   132.7500     70.8425      0.0000    738.7720      8.1862
   133.0000     70.2702      0.0000    736.0529      8.0954
   133.2500     69.9989      0.0000    734.7261      8.0306
   133.5000     72.2221      0.0000    734.8036      7.9971
   133.7500     78.0310      0.0000    737.9649      7.9594
   134.0000     86.3128      0.0000    747.5693      7.8460
   134.2500     94.8545      0.0000    766.0043      7.6104
   134.5000    101.6853      0.0000    790.7496      7.2983
   134.7500    105.1651      0.0000    813.9975      7.0300
   135.0000    104.1132      0.0000    828.3671      6.8991
   135.2500     98.8958      0.0000    833.2688      6.9016
   135.5000     91.7939      0.0000    835.2219      6.9685
   135.7500     85.5829      0.0000    842.4214      7.0434
   136.0000     81.9278      0.0000    857.9785      7.1275
   136.2500     81.0967      0.0000    875.9410      7.2781
   136.5000     82.5334      0.0000    884.3227      7.5646
   136.7500     85.3478      0.0000    875.2095      7.9991
   137.0000     88.4857      0.0000    852.1985      8.5028
   137.2500     90.8517      0.0000    826.1253      8.9651
   137.5000     91.7211      0.0000    805.4160      9.3252
   137.7500     91.1756      0.0000    792.6936      9.5815
   138.0000     90.0175      0.0000    786.9926      9.7460
   138.2500     89.0978      0.0000    784.6835      9.8215
   138.5000     88.6380      0.0000    780.1530      9.8156
   138.7500     88.2003      0.0000    769.8004      9.7566
   139.0000     87.3559      0.0000    755.6130      9.6868
   139.2500     86.2142      0.0000    743.0172      9.6381
   139.5000     85.1923      0.0000    736.2575      9.6115
   139.7500     84.5224      0.0000    737.2291      9.5827
   140.0000     84.2410      0.0000    747.1740      9.5275
   140.2500     84.4745      0.0000    766.3580      9.4431
   140.5000     85.3894      0.0000    790.5250      9.3510
   140.7500     86.8951      0.0000    809.4716      9.2883
   141.0000     88.6782      0.0000    812.7788      9.2918
   141.2500     90.3567      0.0000    798.5198      9.3756
   141.5000     91.2600      0.0000    774.9495      9.5202
   141.7500     90.2855      0.0000    753.0523      9.6872
   142.0000     86.5564      0.0000    738.7470      9.8451
   142.2500     80.4327      0.0000    731.8148      9.9793
   142.5000     73.7662      0.0000    729.5439     10.0864
   142.7500     68.8252      0.0000    729.9051     10.1691
   143.0000     66.6735      0.0000    732.2759     10.2350
   143.2500     66.6136      0.0000    736.5216     10.2893
   143.5000     67.2209      0.0000    741.7313     10.3268
   143.7500     67.6085      0.0000    745.9698     10.3368
   144.0000     67.6205      0.0000    747.5765     10.3189
   144.2500     67.3252      0.0000    746.5570     10.2845
   144.5000     66.8906      0.0000    744.2670     10.2418
   144.7500     66.9150      0.0000    742.1098     10.1855
   145.0000     68.3316      0.0000    741.2178     10.1082
   145.2500     71.6043      0.0000    742.7924     10.0203
   145.5000     76.3078      0.0000    747.4830      9.9553
   145.7500     81.8676      0.0000    754.3491      9.9489
   146.0000     88.3586      0.0000    761.1826     10.0059
   146.2500     95.8397      0.0000    766.0212     10.0866
   146.5000    103.1016      0.0000    768.0530     10.1350
   146.7500    108.0984      0.0000    767.3225     10.1268
   147.0000    110.0674      0.0000    764.1917     10.0848
   147.2500    110.4886      0.0000    759.2549     10.0467
   147.5000    111.2913      0.0000    753.3780     10.0260
   147.7500    112.5361      0.0000    747.5834     10.0100
   148.0000    112.5697      0.0000    742.9097      9.9837
   148.2500    110.2535      0.0000    740.0842      9.9446
   148.5000    106.2886      0.0000    738.9117      9.8986
   148.7500    102.2289      0.0000    738.3180      9.8512
   149.0000     98.9063      0.0000    737.6437      9.8041
   149.2500     96.3246      0.0000    737.7560      9.7558
   149.5000     94.5779      0.0000    740.2979      9.7058
   149.7500     93.9902      0.0000    745.7589      9.6617
   150.0000     94.3253      0.0000    752.5295      9.6405
   150.2500     94.7346      0.0000    757.9893      9.6573
   150.5000     94.9100      0.0000    760.5917      9.7087
   150.7500     95.7174      0.0000    761.0049      9.7676
   151.0000     98.1775      0.0000    761.2480      9.7993
   151.2500    102.0107      0.0000    762.7088      9.7870
   151.5000    105.4985      0.0000    765.0466      9.7445
   151.7500    106.7964      0.0000    766.9016      9.7042
   152.0000    105.3512      0.0000    767.3399      9.6906
   152.2500    102.2395      0.0000    766.7127      9.6989
   152.5000     99.4201      0.0000    766.5170      9.6992
   152.7500     98.6101      0.0000    768.2412      9.6641
   153.0000    100.3732      0.0000    771.8081      9.5912
   153.2500    103.8003      0.0000    775.2930      9.4999
   153.5000    107.0645      0.0000    776.5789      9.4113
   153.7500    108.4971      0.0000    774.9487      9.3338
   154.0000    107.2915      0.0000    770.7703      9.2621
   154.2500    103.5082      0.0000    764.4146      9.1891
   154.5000     97.7746      0.0000    756.2794      9.1180
   154.7500     91.0055      0.0000    747.4977      9.0621
   155.0000     84.1171      0.0000    739.7587      9.0331
   155.2500     77.7930      0.0000    734.2407      9.0358
   155.5000     72.4853      0.0000    731.0103      9.0712
   155.7500     68.5577      0.0000    729.4092      9.1378
   156.0000     66.1839      0.0000    728.7164      9.2256
   156.2500     65.1806      0.0000    728.4536      9.3100
   156.5000     65.2916      0.0000    728.3740      9.3585
   156.7500     66.5910      0.0000    728.3936      9.3514
   157.0000     69.2846      0.0000    728.6147      9.2982
   157.2500     73.2292      0.0000    729.4661      9.2297
   157.5000     77.9277      0.0000    731.9016      9.1754
   157.7500     82.8562      0.0000    737.5104      9.1501
   158.0000     87.5580      0.0000    748.1926      9.1580
   158.2500     91.5067      0.0000    765.4034      9.1977
   158.5000     94.0388      0.0000    789.1246      9.2596
   158.7500     94.5877      0.0000    816.6655      9.3218
   159.0000     93.1967      0.0000    842.1741      9.3600
   159.2500     90.7975      0.0000    859.4128      9.3658
   159.5000     88.6720      0.0000    866.9620      9.3508
   159.7500     87.4810      0.0000    868.9496      9.3306
   160.0000     87.0097      0.0000    868.5918      9.3089
   160.2500     86.9337      0.0000    863.5807      9.2791
   160.5000     87.3668      0.0000    850.5199      9.2333
   160.7500     88.3257      0.0000    831.2692      9.1649
   161.0000     89.1333      0.0000    811.8140      9.0722
   161.2500     88.9400      0.0000    796.5610      8.9662
   161.5000     87.7708      0.0000    786.1418      8.8696
   161.7500     86.6452      0.0000    779.4915      8.8016
   162.0000     86.5200      0.0000    775.8618      8.7678
   162.2500     87.4296      0.0000    774.9447      8.7641
   162.5000     88.9351      0.0000    776.1683      8.7855
   162.7500     91.0918      0.0000    778.3676      8.8293
   163.0000     94.4339      0.0000    780.2693      8.8942
