~Version Information
 VERS.                                  2.0 : CWLS LAS VERSION
 WRAP.                                   NO : WRAPING MODE
 SWARE .                MController 2.5.0QA : SOFTWARE VERSION
~Well Information
 WELL.                          Ernie 31-06 : WELL
 COMP.     Pioneer Natural Resources USA Inc: COMPANY
 FLD.                      Purgatoire River : FIELD
 LOC.                NW/NE Sec 06 T34S R65W : LOCATION
 DATE.                           5/27-28/06 : DATE(S) LOGGED
 SRVC.       Blanco Geological Services LLC : SERVICE COMPANY
 STAT.                                   CO : STATE
 CNTY.                           Las Animas : COUNTY
 CTRY.                                  USA : COUNTRY
 API.                       05-071-08716-00 : API NUMBER
 STRT.FT                             172.00 : START DEPTH
 STOP.FT                             940.00 : STOP DEPTH
 STEP.FT                               1.00 : DEPTH INCREMENT
 NULL.                                -9999 : NULL VALUE
~Curve information
 DEPTH.FT                                   :
 ROP.MIN/FT                                 :
 GAS.UNITS                                  :
~ASCII Log data
# ...
       572.0         0.10         90.2 
       573.0         0.10         90.2 
       574.0         0.17         88.7 
       575.0         0.17         87.0 
       576.0         0.20         83.0 
       577.0         0.23         81.3 
       578.0         0.23         77.1 
       579.0         0.20         64.8 
       580.0         0.17         56.4 
       581.0         0.17         56.4 
       582.0         0.15         48.5 
       583.0         0.13         48.5 
       584.0         0.17         31.4 
       585.0         0.20         27.9 
       586.0         0.13         21.0 
       587.0         0.17         15.0 
       588.0         0.17         15.0 
       589.0         0.17         13.1 
       590.0         0.27         38.5 
       591.0         0.23        226.5 
       592.0         3.15        276.3 
       593.0         0.23         66.4 
       594.0         0.33         65.1 
       595.0         0.30         63.6 
       596.0         0.33         62.7 
       597.0         0.30         61.7 
       598.0         0.27         60.5 
       599.0         0.28         59.2 
       600.0         0.23         59.0 
       601.0         0.27         57.9 
       602.0         0.27         57.8 
       603.0         0.27         57.9 
       604.0         0.27         57.9 
       605.0         0.27         57.7 
       606.0         0.23         58.0 
       607.0         0.27         58.1 
       608.0         0.23         58.1 
       609.0         0.23         58.1 
       610.0         0.23         60.2 
       611.0         0.27         69.0 
       612.0         0.32         77.8 
       613.0         0.30         79.6 
       614.0         0.27         69.5 
       615.0         0.27         62.1 
       616.0         0.27         46.7 
       617.0         0.23         33.4 
       618.0         0.23         25.4 
       619.0         0.20         22.9 
       620.0         0.10         16.8 
       621.0         0.13         15.4 
       622.0         3.48        207.9 
       623.0         0.27         82.3 
       624.0         0.27         79.9 
       625.0         0.25         77.7 
       626.0         0.17         87.9 
       627.0         0.20         96.5 
       628.0         0.20         97.2 
       629.0         0.23         99.0 
       630.0         0.23         98.4 
       631.0         0.27         97.9 
       632.0         0.23         96.8 
       633.0         0.23         93.1 
       634.0         0.20         92.3 
       635.0         0.20         90.6 
       636.0         0.17         90.6 
       637.0         0.13         90.0 
       638.0         0.17         88.5 
       639.0         0.20         84.3 
       640.0         0.23         82.1 
       641.0         0.28         79.1 
       642.0         0.27         78.5 
       643.0         0.23         78.5 
       644.0         0.23         75.9 
       645.0         0.27         74.6 
       646.0         0.27         44.2 
       647.0         0.20         32.2 
       648.0         0.20         22.2 
       649.0         0.23         48.4 
       650.0         0.20        155.2 
       651.0         0.33        292.6 
       652.0         2.48        410.4 
       653.0         0.20        335.5 
       654.0         0.17        331.4 
       655.0         0.17        328.8 
       656.0         0.10        308.7 
       657.0         0.10        304.3 
       658.0         0.17        295.4 
       659.0         0.17        294.1 
       660.0         0.20        280.5 
       661.0         0.23        273.5 
       662.0         0.28        267.8 
       663.0         0.27        266.4 
       664.0         0.20        265.8 
       665.0         0.20        263.0 
       666.0         0.20        267.0 
       667.0         0.20        270.2 
       668.0         0.23        275.8 
       669.0         0.30        279.9 
       670.0         0.33        278.8 
       671.0         0.37        258.8 
       672.0         0.23        238.5 
       673.0         0.20        184.1 
       674.0         0.17        122.1 
       675.0         0.17        122.1 
       676.0         0.18        102.3 
       677.0         0.23         74.5 
       678.0         0.17         42.7 
       679.0         0.20        116.5 
       680.0         0.17       1384.7 
       681.0         0.37       1554.9 
       682.0         2.45       1549.3 
       683.0         0.47        805.1 
       684.0         0.43        790.2 
       685.0         0.30        786.3 
       686.0         0.30        765.2 
       687.0         0.33        758.0 
       688.0         0.33        763.5 
       689.0         0.33        764.2 
       690.0         0.33        763.2 
       691.0         0.32        763.2 
       692.0         0.40        764.8 
       693.0         0.40        766.8 
       694.0         0.47        765.8 
       695.0         0.53        761.9 
       696.0         0.57        759.6 
       697.0         0.57        762.9 
       698.0         0.58        773.6 
       699.0         0.50        787.6 
       700.0         0.50        809.7 
       701.0         0.43        803.8 
       702.0         0.53        786.9 
       703.0         0.57        763.9 
       704.0         0.37        726.2 
       705.0         0.35        724.3 
       706.0         0.37        646.3 
       707.0         0.33        474.6 
       708.0         0.33        463.8 
       709.0         0.33        400.0 
       710.0         0.33        135.3 
       711.0         0.23       1493.8 
       712.0         3.05       1637.3 
       713.0         0.23        833.0 
       714.0         0.23        828.8 
       715.0         0.23        773.6 
       716.0         0.20        757.0 
       717.0         0.27        739.5 
       718.0         0.17        739.5 
       719.0         0.17        727.8 
       720.0         0.22        721.7 
       721.0         0.30        721.3 
       722.0         0.30        724.3 
       723.0         0.30        716.5 
       724.0         0.23        711.9 
       725.0         0.20        728.1 
       726.0         0.23        731.7 
       727.0         0.37        746.0 
       728.0         0.23        750.9 
       729.0         0.27        752.5 
       730.0         0.23        755.7 
       731.0         0.27        757.7 
       732.0         0.20        747.3 
       733.0         0.22        698.6 
       734.0         0.27        693.4 
       735.0         0.30        613.9 
       736.0         0.30        419.4 
       737.0         0.37        410.3 
       738.0         0.37         40.9 
       739.0         0.20        231.6 
       740.0         0.20       1433.4 
       741.0         0.37       1578.9 
       742.0         3.12       1566.9 
       743.0         0.37        794.7 
       744.0         0.30        778.2 
       745.0         0.30        774.9 
       746.0         0.32        773.3 
       747.0         0.30        773.0 
       748.0         0.30        768.7 
       749.0         0.33        768.4 
       750.0         0.33        766.8 
       751.0         0.33        765.2 
       752.0         0.33        763.9 
       753.0         0.37        760.3 
       754.0         0.27        759.0 
       755.0         0.27        757.0 
       756.0         0.28        755.7 
       757.0         0.33        753.2 
       758.0         0.27        747.6 
       759.0         0.27        745.7 
       760.0         0.30        743.4 
       761.0         0.27        743.4 
       762.0         0.27        747.6 
       763.0         0.30        726.5 
       764.0         0.30        706.1 
       765.0         0.30        635.3 
       766.0         0.30        548.3 
       767.0         0.30        444.7 
       768.0         0.32        400.0 
       769.0         0.27         90.2 
       770.0         0.27        484.2 
       771.0         0.37       1468.8 
