~Version Information
VERS.                      2.0: CWLS Log ASCII Standard - VERSION 2.0
WRAP.                       NO: One line per depth step
~Well Information Block
STRT.FT               235.0000: 
STOP.FT              1271.0000: 
STEP.FT                 0.1000: 
NULL.                -999.2500: 
COMP.          Pioneer Natural Resources: COMPANY
WELL.              Julie 11-30: WELL
FLD.           Purgatoire River: FIELD
LOC.           672' FNL & 1052' FWL: LOCATION
CNTY.               Las Animas: COUNTY
SRVC.                Patterson: SERVICE COMPANY
DATE.          Fri Apr 14 07:21:24 2006: LOG DATE
UWI.           05 071 08724 00: UNIQUE WELL ID
STAT.                 Colorado: STATE
~Curve Information Block
DEPT.FT            0 000 00 00: Depth
DCAL.in                       : CDL Caliper
RHOB.g/cc                     : CDL Bulk Density
RHOC.g/cc                     : CDL Density Correction
DPOR.pu                       : CDL Density Porosity
GR.GAPI                       : Gamma Ray
NPOR.pu                       : Neutron Porosity
~Parameter Information Block
~A  Depth       DCAL        RHOB        RHOC        DPOR         GR         NPOR    
# ...
   302.2000      8.3491      2.4219      0.1503     13.8229    115.0943     24.6646
   302.3000      8.3429      2.4649      0.1429     11.2189    114.7752     25.6811
   302.4000      8.3429      2.5115      0.2247      8.3944    112.1721     26.6679
   302.5000      8.3423      2.5628      0.2418      5.2829    107.2578     27.1534
   302.6000      8.3423      2.6024      0.2326      2.8822    102.2347     27.5839
   302.7000      8.3423      2.6166      0.2207      2.0225     96.9720     27.9835
   302.8000      8.3435      2.6109      0.1383      2.3725     91.1352     28.0418
   302.9000      8.3435      2.5996      0.1385      3.0518     85.9529     27.6413
   303.0000      8.3430      2.5904      0.0865      3.6117     83.4028     26.7033
   303.1000      8.3430      2.5890      0.0534      3.6984     85.1142     25.7933
   303.2000      8.3430      2.5914      0.0530      3.5521     89.9771     25.7167
   303.3000      8.3444      2.5860      0.0616      3.8810     93.9834     26.3719
   303.4000      8.3444      2.5763      0.0230      4.4647     93.6759     26.9573
   303.5000      8.3426      2.5722      0.0890      4.7129     91.8499     26.8245
   303.6000      8.3426      2.5679      0.0754      4.9768     90.9842     26.0576
   303.7000      8.3426      2.5629      0.0456      5.2795     87.7149     25.6359
   303.8000      8.3403      2.5684      0.0247      4.9426     82.1939     26.1693
   303.9000      8.3403      2.5789      0.0326      4.3087     78.3269     27.0281
   304.0000      8.3396      2.5879      0.0290      3.7639     77.5454     27.4582
   304.1000      8.3396      2.6128      0.0021      2.2539     78.7453     27.3719
   304.2000      8.3396      2.6579      0.0772     -0.4780     79.4417     26.9206
   304.3000      8.3422      2.6840      0.1100     -2.0608     78.8560     26.3038
   304.4000      8.3422      2.6593      0.0905     -0.5636     80.5509     25.8412
   304.5000      8.3517      2.6116      0.0268      2.3264     87.3271     25.5158
   304.6000      8.3517      2.5694      0.0656      4.8876     94.6795     24.8951
   304.7000      8.3517      2.5204      0.0387      7.8546     97.5651     23.9143
   304.8000      8.3553      2.4707     -0.0360     10.8678    100.1849     22.9014
   304.9000      8.3553      2.4359      0.0439     12.9760    108.0854     21.8363
   305.0000      8.3561      2.4046      0.0147     14.8724    117.9997     20.7476
   305.1000      8.3561      2.3767     -0.0513     16.5660    124.0922     20.0095
   305.2000      8.3561      2.3608      0.0237     17.5256    128.1737     19.8480
   305.3000      8.3574      2.3442      0.0059     18.5329    132.6821     20.1661
   305.4000      8.3574      2.3189      0.0574     20.0662    132.0357     20.6221
   305.5000      8.3561      2.2966      0.0285     21.4189    123.4916     21.1098
   305.6000      8.3561      2.2937      0.0823     21.5965    114.6653     21.9043
   305.7000      8.3561      2.3199      0.0869     20.0062    113.3937     23.2219
   305.8000      8.3559      2.3814      0.1185     16.2768    119.1749     24.8757
   305.9000      8.3559      2.4683      0.1587     11.0125    125.4779     26.1569
   306.0000      8.3559      2.5444      0.2698      6.3978    126.1018     26.7421
   306.1000      8.3559      2.5826      0.2061      4.0831    118.4173     27.1896
   306.2000      8.3559      2.5900      0.1445      3.6344    105.1958     27.5525
   306.3000      8.3560      2.5871      0.1543      3.8106     93.9174     27.5331
   306.4000      8.3560      2.5882      0.1633      3.7482     89.2851     27.6432
   306.5000      8.3580      2.5852      0.1845      3.9258     88.8575     27.9918
   306.6000      8.3580      2.5562      0.1609      5.6825     88.8005     27.9178
   306.7000      8.3580      2.5076      0.1002      8.6312     87.6439     27.3317
   306.8000      8.3545      2.4836      0.0750     10.0863     87.3780     26.4452
   306.9000      8.3545      2.5032      0.1009      8.8942     90.7795     25.5486
   307.0000      8.3557      2.5293      0.1397      7.3167     94.0637     25.1936
   307.1000      8.3557      2.5328      0.1069      7.1011     93.1785     25.0176
   307.2000      8.3557      2.5328      0.0908      7.1013     90.0370     24.2080
   307.3000      8.3559      2.5565      0.1529      5.6695     86.6530     23.2737
   307.4000      8.3559      2.5993      0.1552      3.0705     84.2071     23.0899
   307.5000      8.3560      2.6302      0.2159      1.2002     83.4929     23.7236
   307.6000      8.3560      2.6331      0.1695      1.0266     83.2397     24.5911
   307.7000      8.3560      2.6255      0.1316      1.4877     80.4759     24.8076
   307.8000      8.3551      2.6151      0.1347      2.1152     75.7573     24.2044
   307.9000      8.3551      2.5905      0.1222      3.6071     71.6893     23.6122
   308.0000      8.3463      2.5502      0.0944      6.0479     69.6930     23.5079
   308.1000      8.3463      2.4961      0.1061      9.3254     70.9651     23.4648
   308.2000      8.3463      2.4255      0.0889     13.6075     73.8172     23.2103
   308.3000      8.3411      2.3500      0.0232     18.1810     75.4789     23.0557
   308.4000      8.3411      2.2953      0.0844     21.4950     74.7145     22.8314
   308.5000      8.3292      2.2576      0.2145     23.7797     71.6784     22.1973
   308.6000      8.3292      2.2150      0.1796     26.3653     67.3016     21.4467
   308.7000      8.3292      2.1912      0.1645     27.8057     65.8846     20.9506
   308.8000      8.2947      2.2310      0.2908     25.3934     69.2890     21.0365
   308.9000      8.2947      2.3361      0.3893     19.0238     73.7317     21.5107
   309.0000      8.2845      2.4741      0.4769     10.6613     76.4184     21.5313
   309.1000      8.2845      2.6086      0.6019      2.5104     77.3025     21.0455
   309.2000      8.2845      2.7148      0.6447     -3.9268     78.0910     20.9549
   309.3000      8.2896      2.7846      0.6561     -8.1582     81.5960     21.5133
   309.4000      8.2896      2.8157      0.5938    -10.0441     85.9589     22.0395
   309.5000      8.3357      2.8168      0.4876    -10.1111     86.2673     22.1285
   309.6000      8.3357      2.8074      0.3661     -9.5380     82.8698     21.9239
   309.7000      8.3357      2.7955      0.2915     -8.8190     82.3709     21.8531
   309.8000      8.3442      2.7727      0.2142     -7.4352     87.9108     22.2265
   309.9000      8.3442      2.7266      0.1913     -4.6396     91.5738     22.7924
   310.0000      8.3426      2.6573      0.1340     -0.4431     88.2521     23.1879
   310.1000      8.3426      2.5871      0.0899      3.8100     82.5561     23.2828
   310.2000      8.3426      2.5478      0.0245      6.1928     76.7282     22.9983
   310.3000      8.3445      2.5448      0.0553      6.3786     70.9732     22.3882
   310.4000      8.3445      2.5384      0.0817      6.7622     66.0619     21.7123
   310.5000      8.3417      2.4971      0.0346      9.2636     59.5255     21.1918
   310.6000      8.3417      2.4478     -0.0176     12.2561     52.5707     20.8649
   310.7000      8.3417      2.4358      0.0364     12.9813     49.8620     20.3706
   310.8000      8.3355      2.4592      0.0394     11.5609     51.3015     19.2840
   310.9000      8.3355      2.4785      0.0477     10.3964     54.4099     18.1736
   311.0000      8.3110      2.4707      0.0582     10.8656     56.5036     17.8786
   311.1000      8.3110      2.4484      0.0248     12.2176     56.0813     18.2072
   311.2000      8.3110      2.4345      0.0677     13.0589     54.4134     18.4183
   311.3000      8.3344      2.4378      0.0165     12.8608     52.4581     18.1127
   311.4000      8.3344      2.4508      0.0735     12.0747     50.6168     17.5869
   311.5000      8.3417      2.4576      0.0398     11.6609     49.6583     17.2226
   311.6000      8.3417      2.4498      0.0388     12.1310     50.0448     16.7420
   311.7000      8.3417      2.4328      0.0389     13.1647     51.1414     16.0357
