~Version Information
VERS.                      2.0: CWLS Log ASCII Standard - VERSION 2.0
WRAP.                       NO: One line per depth step
~Well Information Block
STRT.FT                -6.2500: 
STOP.FT              1327.5000: 
STEP.FT                 0.2500: 
NULL.                -999.2500: 
COMP.          Pioneer Natural Resources: COMPANY
WELL.            Avant 14-3 Tr: WELL
FLD.           Purgatorie River: FIELD
LOC.           170' FSL & 1174' FWL--: LOCATION
STAT.                       CO: State
CNTY.               Las Animas: COUNTY
CTRY. USA : Country
SECT. 3 : Section
TOWN. 33S : Township
RANG. 67W : Range
SRVC.          Patterson Wireline: SERVICE COMPANY
DATE.          Tue Aug 23 16:44:25 2005: LOG DATE
API.           05 071 08463 00: UNIQUE WELL ID
~Curve Information Block
DEPT.FT            0 000 00 00: Depth
CCL.                          : Casing Collar Locator
TT3.usec                      : CBL 3' Travel Time
AMP3.mV                       : CBL 3' Amplitude
GR.GAPI                       : Gamma Ray
~Parameter Information Block
~A  Depth       CCL         TT3         AMP3         GR     
# ...
    94.2500      0.0000    565.1333     21.1335     40.5803
    94.5000      0.0000    477.4269     21.3969     41.0342
    94.7500      0.0000    413.4815     21.6580     41.2547
    95.0000      0.0000    375.0592     21.9091     41.6690
    95.2500      0.0000    355.2889     22.1377     42.7517
    95.5000      0.0000    346.2435     22.3335     44.6902
    95.7500      0.0000    342.5282     22.4938     47.1696
    96.0000      0.0000    341.2069     22.6209     49.5179
    96.2500      0.0000    340.8165     22.7172     51.3694
    96.5000      0.0000    340.6869     22.7843     53.1889
    96.7500      0.0000    340.5619     22.8229     55.6842
    97.0000      0.0000    340.4086     22.8330     58.7226
    97.2500      0.0000    340.2611     22.8182     61.3908
    97.5000      0.0000    340.1435     22.7914     63.1407
    97.7500      0.0000    340.0602     22.7726     64.1637
    98.0000      0.0000    340.0150     22.7765     64.5463
    98.2500      0.0000    340.0237     22.8065     63.8686
    98.5000      0.0000    340.1046     22.8612     61.9705
    98.7500      0.0000    340.2963     22.9434     59.6934
    99.0000      0.0000    340.7162     23.0557     58.7061
    99.2500      0.0000    341.6597     23.1825     60.6025
    99.5000      0.0000    343.5742     23.2814     65.6460
    99.7500      0.0000    346.7502     23.3013     71.9957
   100.0000      0.0000    350.9033     23.2167     76.5466
   100.2500      0.0000    355.2242     23.0418     76.9404
   100.5000      0.0000    359.0490     22.8153     72.8891
   100.7500      0.0000    362.3831     22.5759     65.9622
   101.0000      0.0000    365.5293     22.3472     58.4332
   101.2500      0.0000    368.3306     22.1364     52.0125
   101.5000      0.0000    370.2297     21.9395     47.3094
   101.7500      0.0000    371.2135     21.7481     44.3543
   102.0000      0.0000    372.2296     21.5548     43.3307
   102.2500      0.0000    374.3005     21.3554     44.4431
   102.5000      0.0000    377.8230     21.1483     47.2279
   102.7500      0.0000    383.6958     20.9330     50.4476
   103.0000      0.0000    395.4383     20.7132     52.8249
   103.2500      0.0000    419.4450     20.4996     53.7169
   103.5000      0.0000    460.6042     20.3067     53.0822
   103.7500      0.0000    515.5453     20.1419     51.1215
   104.0000      0.0000    571.8485     20.0000     48.2146
   104.2500      0.0000    617.3867     19.8700     45.0478
   104.5000      0.0000    648.9179     19.7445     42.5944
   104.7500      0.0000    668.9174     19.6220     41.8369
   105.0000      0.0000    679.1196     19.5019     43.1489
   105.2500      0.0000    683.0126     19.3798     45.7340
   105.5000      0.0000    689.3963     19.2497     48.1001
   105.7500      0.0000    705.2413     19.1121     49.6094
   106.0000      0.0000    726.3845     18.9793     51.4114
   106.2500      0.0000    739.5576     18.8690     55.3807
   106.5000      0.0000    732.4858     18.7886     62.1536
   106.7500      0.0000    702.5137     18.7262     70.4978
   107.0000      0.0000    661.1447     18.6596     78.4017
   107.2500      0.0000    631.4020     18.5740     84.2103
   107.5000      0.0000    634.1102     18.4688     86.8323
   107.7500      0.0000    672.9601     18.3466     85.9024
   108.0000      0.0000    734.8474     18.1993     82.3955
   108.2500      0.0000    803.0610     18.0106     78.5556
   108.5000      0.0000    865.0762     17.7740     76.4718
   108.7500      0.0000    911.7173     17.5067     76.6011
   109.0000      0.0000    939.4716     17.2408     77.7139
   109.2500      0.0000    954.8196     16.9992     78.1657
   109.5000      0.0000    966.3181     16.7732     77.2642
   109.7500      0.0000    969.1270     16.5166     75.7188
   110.0000      0.0000    946.6203     16.1686     74.9716
   110.2500      0.0000    892.6646     15.7209     76.0427
   110.5000      0.0000    826.5478     15.2732     78.9757
   110.7500      0.0000    781.7607     14.9587     83.2924
   111.0000      0.0000    783.6501     14.7577     88.5877
   111.2500      0.0000    836.6008     14.4591     94.1988
   111.5000      0.0000    923.2817     13.8992     98.4422
   111.7500      0.0000   1013.8688     13.1758     99.1230
   112.0000      0.0000   1083.1786     12.5439     95.3690
   112.2500     -2.0000   1123.2313     12.1601     88.6694
   112.5000      2.0000   1140.6841     12.0046     81.8903
   112.7500      0.0000   1145.3402     11.9882     77.5191
   113.0000      0.0000   1141.8348     12.0720     76.6626
   113.2500      0.0000   1127.9086     12.3125     79.0888
   113.5000      0.0000   1098.0801     12.8267     83.9495
   113.7500      0.0000   1052.4730     13.6762     90.6314
   114.0000      0.0000   1005.2052     14.7565     98.9174
   114.2500      0.0000    979.7778     15.8345    108.2549
   114.5000      0.0000    990.3941     16.7019    117.0826
   114.7500      0.0000   1028.7977     17.2737    123.2181
   115.0000      0.0000   1071.8439     17.5710    124.9658
   115.2500      0.0000   1098.1035     17.6661    121.8371
   115.5000      0.0000   1095.5201     17.6390    114.6487
   115.7500      0.0000   1060.6995     17.5506    105.3051
   116.0000      0.0000    999.2392     17.4361     96.0877
   116.2500      0.0000    926.4442     17.3180     88.6322
   116.5000      0.0000    861.4238     17.2201     83.4022
   116.7500      0.0000    816.5097     17.1635     80.0375
   117.0000      0.0000    792.3706     17.1542     77.9579
   117.2500      0.0000    782.3574     17.1825     76.4836
   117.5000      0.0000    779.6888     17.2329     74.7290
   117.7500      0.0000    780.8915     17.2906     71.8470
   118.0000      0.0000    785.0778     17.3443     67.5700
   118.2500      0.0000    791.0782     17.3902     62.5999
   118.5000      0.0000    794.5089     17.4372     58.3310
   118.7500      0.0000    786.9531     17.5046     55.8512
   119.0000      0.0000    758.6986     17.6112     55.1683
   119.2500      0.0000    704.1747     17.7661     55.5302
   119.5000      0.0000    627.4958     17.9645     56.3327
   119.7500      0.0000    543.5906     18.1901     57.4825
   120.0000      0.0000    471.2322     18.4225     59.0298
   120.2500      0.0000    422.0889     18.6463     60.7678
   120.5000      0.0000    395.8756     18.8567     62.2383
   120.7500      0.0000    384.9060     19.0585     63.0884
   121.0000      0.0000    381.2845     19.2604     63.5255
   121.2500      0.0000    380.2728     19.4693     64.3096
   121.5000      0.0000    379.7729     19.6895     65.8925
   121.7500      0.0000    378.7614     19.9239     67.4379
   122.0000      0.0000    376.3328     20.1710     67.2142
   122.2500      0.0000    371.7018     20.4218     64.3595
   122.5000      0.0000    364.8801     20.6621     60.0073
   122.7500      0.0000    357.0902     20.8790     56.4326
   123.0000      0.0000    350.1712     21.0661     55.3565
   123.2500      0.0000    345.3638     21.2232     57.0354
   123.5000      0.0000    342.7035     21.3528     60.4407
   123.7500      0.0000    341.4588     21.4563     64.1278
   124.0000      0.0000    340.8907     21.5331     67.2241
   124.2500      0.0000    340.6024     21.5832     69.7499
   124.5000      0.0000    340.4636     21.6103     72.3116
   124.7500      0.0000    340.4321     21.6215     75.8873
   125.0000      0.0000    340.4622     21.6237     81.3537
   125.2500      0.0000    340.5026     21.6197     88.1570
   125.5000      0.0000    340.5371     21.6047     93.5433
   125.7500      0.0000    340.6649     21.5670     94.1308
   126.0000      0.0000    341.2110     21.4956     88.7528
   126.2500      0.0000    343.0950     21.3858     79.7315
   126.5000      0.0000    348.3836     21.2394     71.4441
   126.7500      0.0000    360.4795     21.0647     67.6842
   127.0000      0.0000    382.4051     20.8807     69.9329
   127.2500      0.0000    412.5085     20.7148     77.2027
   127.5000      0.0000    441.2214     20.5916     86.7461
