~Version Information
VERS.                      2.0: CWLS Log ASCII Standard - VERSION 2.0
WRAP.                       NO: One line per depth step
~Well Information Block
STRT.FT               580.0000: 
STOP.FT              1179.0000: 
STEP.FT                 0.1000: 
NULL.                -999.2500: 
COMP.          Pioneer Natural Resources: COMPANY
WELL.          Tin Barn 14-20 TR: WELL
FLD.           Purgatorie River: FIELD
LOC.           925 FSL & 1151 FWL: LOCATION
PROV.                 Colorado: PROVINCE
CNTY.               Las Animas: COUNTRY
SRVC.                Patterson: SERVICE COMPANY
DATE.          Thu Jan 12 12:02:37 2006: LOG DATE
UWI.                          : UNIQUE WELL ID
~Curve Information Block
DEPT.FT            0 000 00 00: Depth
DCAL.in                       : CDL Caliper
RHOB.g/cc                     : CDL Bulk Density
RHOC.g/cc                     : CDL Density Correction
DPOR.pu                       : CDL Density Porosity
GR.GAPI                       : Gamma Ray
~Parameter Information Block
~A  Depth       DCAL        RHOB        RHOC        DPOR         GR     
# ...
  1128.8000      7.8446      2.6935      0.1165     -2.6368     94.3485
  1128.9000      7.8446      2.6599      0.0747     -0.6014     95.2956
  1129.0000      7.8247      2.6203      0.0229      1.7991     97.3579
  1129.1000      7.8247      2.5919      0.0189      3.5238     98.1393
  1129.2000      7.8247      2.5790      0.0195      4.3048     98.7844
  1129.3000      7.8473      2.5770      0.0528      4.4272    101.1559
  1129.4000      7.8473      2.5784      0.0043      4.3384    102.9178
  1129.5000      7.8834      2.5832     -0.0049      4.0484    100.5750
  1129.6000      7.8834      2.5911      0.0184      3.5669     94.6093
  1129.7000      7.8834      2.6001      0.0368      3.0251     90.8597
  1129.8000      7.8376      2.6122      0.0413      2.2918     91.0721
  1129.9000      7.8376      2.6265      0.0700      1.4226     91.3900
  1130.0000      7.8269      2.6315      0.0875      1.1218     91.4987
  1130.1000      7.8269      2.6154      0.0644      2.0961     93.3052
  1130.2000      7.8269      2.5846      0.0196      3.9661     96.1774
  1130.3000      7.8281      2.5624     -0.0004      5.3063     99.5608
  1130.4000      7.8281      2.5642      0.0196      5.1983    103.1638
  1130.5000      7.8359      2.5755      0.0524      4.5166    106.6456
  1130.6000      7.8359      2.5739     -0.0162      4.6114    111.0879
  1130.7000      7.8359      2.5621      0.0267      5.3276    117.0508
  1130.8000      7.9052      2.5525     -0.0207      5.9065    123.7940
  1130.9000      7.9052      2.5495      0.0225      6.0910    128.0499
  1131.0000      7.9078      2.5518      0.0281      5.9530    129.0769
  1131.1000      7.9078      2.5582      0.0097      5.5638    130.5931
  1131.2000      7.9078      2.5697      0.0301      4.8656    131.5308
  1131.3000      7.8954      2.5848      0.0273      3.9516    130.9416
  1131.4000      7.8954      2.5959      0.0413      3.2805    134.2819
  1131.5000      7.9034      2.5908      0.0911      3.5867    141.5044
  1131.6000      7.9034      2.5723      0.0371      4.7068    146.7062
  1131.7000      7.9034      2.5625      0.0341      5.3020    148.3136
  1131.8000      7.8818      2.5683      0.0498      4.9529    147.8029
  1131.9000      7.8818      2.5771     -0.0048      4.4167    146.6856
  1132.0000      7.9006      2.5846      0.0295      3.9651    144.6688
  1132.1000      7.9006      2.5923      0.0312      3.4989    141.2567
  1132.2000      7.9006      2.5975      0.0739      3.1808    138.1604
  1132.3000      7.8757      2.6073      0.0139      2.5887    134.4329
  1132.4000      7.8757      2.6342      0.0369      0.9591    128.7280
  1132.5000      7.8545      2.6603      0.1055     -0.6261    124.3659
  1132.6000      7.8545      2.6591      0.0898     -0.5516    123.3902
  1132.7000      7.8545      2.6386      0.0081      0.6887    122.9870
  1132.8000      7.8586      2.6211      0.0389      1.7513    121.1005
  1132.9000      7.8586      2.6108      0.0267      2.3748    118.3932
  1133.0000      7.8567      2.6017      0.0192      2.9298    116.1243
  1133.1000      7.8567      2.5908      0.0252      3.5859    115.3351
  1133.2000      7.8567      2.5800      0.0297      4.2422    116.7715
  1133.3000      7.8734      2.5726      0.0206      4.6939    120.2780
  1133.4000      7.8734      2.5732      0.0176      4.6568    125.1046
  1133.5000      7.8767      2.5841      0.0087      3.9961    129.4515
  1133.6000      7.8767      2.6010      0.0482      2.9722    131.4915
  1133.7000      7.8767      2.6136      0.0718      2.2045    132.4956
  1133.8000      7.8960      2.6121      0.1152      2.2974    131.8276
  1133.9000      7.8960      2.5976      0.0489      3.1785    128.7737
  1134.0000      7.8721      2.5862      0.0513      3.8665    127.6491
  1134.1000      7.8721      2.5886      0.0509      3.7196    129.8340
  1134.2000      7.8721      2.5934      0.0925      3.4296    131.4482
  1134.3000      7.8449      2.5874      0.0393      3.7921    131.4438
  1134.4000      7.8449      2.5764      0.0950      4.4628    132.0543
  1134.5000      7.8426      2.5691      0.0460      4.9036    135.3114
  1134.6000      7.8426      2.5715      0.0295      4.7597    139.5294
  1134.7000      7.8426      2.5806      0.0378      4.2040    140.2703
  1134.8000      7.8575      2.5827      0.0603      4.0795    137.0492
  1134.9000      7.8575      2.5777      0.0079      4.3789    134.7827
  1135.0000      7.8635      2.5770      0.0622      4.4218    134.9678
  1135.1000      7.8635      2.5757      0.0230      4.5043    133.9466
  1135.2000      7.8635      2.5709      0.0156      4.7952    130.5929
  1135.3000      7.8588      2.5702      0.0398      4.8337    126.7698
  1135.4000      7.8588      2.5748      0.0399      4.5552    122.3817
  1135.5000      7.8334      2.5826      0.0196      4.0846    115.5410
  1135.6000      7.8334      2.5899      0.0288      3.6409    107.7021
  1135.7000      7.8334      2.5927      0.0007      3.4711    101.3394
  1135.8000      7.8699      2.5925     -0.0006      3.4849     96.5022
  1135.9000      7.8699      2.5889      0.0101      3.7038     93.7608
  1136.0000      7.8639      2.5793      0.0086      4.2818     93.3223
  1136.1000      7.8639      2.5696     -0.0052      4.8728     93.8701
  1136.2000      7.8639      2.5651     -0.0011      5.1473     94.9204
  1136.3000      7.8670      2.5624      0.0265      5.3101     97.6946
  1136.4000      7.8670      2.5589      0.0088      5.5203    102.9280
  1136.5000      7.8674      2.5553     -0.0162      5.7365    108.8124
  1136.6000      7.8674      2.5474      0.0226      6.2201    114.5081
  1136.7000      7.8674      2.5359     -0.0108      6.9132    121.7351
  1136.8000      7.8853      2.5351     -0.0076      6.9646    130.8554
  1136.9000      7.8853      2.5506      0.0080      6.0253    139.9579
  1137.0000      7.8645      2.5720      0.0519      4.7265    147.1284
  1137.1000      7.8645      2.5884      0.1019      3.7320    153.0870
  1137.2000      7.8645      2.5917      0.1057      3.5320    160.6758
  1137.3000      7.8161      2.5783      0.1375      4.3447    169.6732
  1137.4000      7.8161      2.5587      0.0750      5.5344    176.0386
  1137.5000      7.7988      2.5495      0.0626      6.0888    176.7245
  1137.6000      7.7988      2.5562      0.0609      5.6870    172.2722
  1137.7000      7.7988      2.5729      0.0988      4.6721    164.5258
  1137.8000      7.8035      2.5924      0.0911      3.4937    156.1543
  1137.9000      7.8035      2.6098      0.1184      2.4386    151.3316
  1138.0000      7.8413      2.6163      0.1091      2.0437    153.0177
  1138.1000      7.8413      2.6067      0.0872      2.6250    157.1824
  1138.2000      7.8413      2.5913      0.0562      3.5573    159.9158
  1138.3000      7.8484      2.5774      0.0603      4.3978    163.1899
  1138.4000      7.8484      2.5563      0.0586      5.6807    164.6761
  1138.5000      7.8943      2.5310      0.0220      7.2117    161.6989
  1138.6000      7.8943      2.5204     -0.0034      7.8550    159.6614
  1138.7000      7.8943      2.5305      0.0208      7.2402    162.0454
  1138.8000      7.9148      2.5522      0.0269      5.9292    164.6125
  1138.9000      7.9148      2.5724      0.0726      4.7014    163.0397
  1139.0000      7.9159      2.5809      0.0535      4.1866    159.6771
  1139.1000      7.9159      2.5765      0.0620      4.4527    159.6522
  1139.2000      7.9159      2.5650      0.0193      5.1512    162.5367
  1139.3000      7.9081      2.5555      0.0000      5.7293    164.9119
  1139.4000      7.9081      2.5486      0.0322      6.1483    165.5907
  1139.5000      7.8944      2.5345      0.0025      7.0027    166.2619
  1139.6000      7.8944      2.5162      0.0309      8.1091    167.5143
  1139.7000      7.8944      2.5062      0.0141      8.7158    168.1846
  1139.8000      7.8880      2.5071      0.0163      8.6587    168.1198
  1139.9000      7.8880      2.5117      0.0405      8.3816    166.0554
