~Version Information
VERS.                      2.0: CWLS Log ASCII Standard - VERSION 2.0
WRAP.                       NO: One line per depth step
~Well Information Block
STRT.FT                -9.5000: 
STOP.FT              2305.7500: 
STEP.FT                 0.2500: 
NULL.                -999.2500: 
COMP.          Pioneer Natural Resources: COMPANY
WELL.          Fittipaldi 21-12: WELL
FLD.           Purgatorie River: FIELD
LOC.           207' FNL & 2110' FWL--: LOCATION
CNTY.               Las Animas: COUNTY
SRVC.          Patterson Wireline: SERVICE COMPANY
DATE.          Wed Apr 12 10:38:25 2006: LOG DATE
UWI.           05 071 08492 00: UNIQUE WELL ID
STAT.                       CO: STATE
~Curve Information Block
DEPT.FT            0 000 00 00: Depth
CCL.                          : Casing Collar Locator
TT3.usec                      : CBL 3' Travel Time
AMP3.mV                       : CBL 3' Amplitude
GR.GAPI                       : Gamma Ray
~Parameter Information Block
~A  Depth       CCL         TT3         AMP3         GR     
# ...
   292.0000      0.0000    719.8990      4.4087     52.6016
   292.2500      0.0000    717.1912      4.4144     56.2193
   292.5000      0.0000    715.1528      4.4191     59.1154
   292.7500      0.0000    715.2769      4.4183     60.9250
   293.0000      0.0000    717.4924      4.4110     61.9599
   293.2500      0.0000    720.1537      4.4006     62.6944
   293.5000      0.0000    721.3638      4.3906     63.4768
   293.7500      0.0000    720.3544      4.3821     64.3888
   294.0000      0.0000    717.9969      4.3753     65.2149
   294.2500      0.0000    716.2215      4.3693     65.7151
   294.5000      0.0000    716.5029      4.3630     66.0082
   294.7500      0.0000    718.4504      4.3589     66.6091
   295.0000      0.0000    719.9855      4.3641     68.0989
   295.2500      0.0000    719.1563      4.3825     70.7464
   295.5000      0.0000    715.9190      4.4089     74.2918
   295.7500      0.0000    712.2944      4.4343     77.9352
   296.0000      0.0000    710.7429      4.4546     80.6372
   296.2500      0.0000    712.0374      4.4681     81.7195
   296.5000      0.0000    714.5098      4.4698     81.3544
   296.7500      0.0000    715.5110      4.4549     80.4329
   297.0000      0.0000    713.8648      4.4251     79.8693
   297.2500      0.0000    711.0040      4.3890     80.1085
   297.5000      0.0000    709.6655      4.3551     81.4813
   297.7500      0.0000    711.3805      4.3285     84.7735
   298.0000      0.0000    715.1369      4.3124     90.7984
   298.2500      0.0000    718.3426      4.3094     99.0624
   298.5000      0.0000    719.0421      4.3192    107.1678
   298.7500      0.0000    717.4505      4.3379    112.0726
   299.0000      0.0000    715.6539      4.3595    112.2606
   299.2500      0.0000    715.7419      4.3774    108.7116
   299.5000      0.0000    717.9812      4.3850    103.7328
   299.7500      0.0000    720.6619      4.3769     98.9037
   300.0000      0.0000    721.5605      4.3512     94.2754
   300.2500      0.0000    719.5383      4.3120     89.4493
   300.5000      0.0000    715.2831      4.2702     85.0043
   300.7500      0.0000    711.0001      4.2393     82.3821
   301.0000      0.0000    709.0320      4.2270     82.4581
   301.2500      0.0000    710.0312      4.2302     84.7930
   301.5000      0.0000    712.2693      4.2390     88.2761
   301.7500      0.0000    713.0281      4.2461     91.8387
   302.0000      0.0000    710.9352      4.2525     94.5945
   302.2500      0.0000    707.0874      4.2633     95.9975
   302.5000      0.0000    704.0261      4.2795     96.2239
   302.7500      0.0000    703.6010      4.2952     96.1631
   303.0000      0.0000    705.5156      4.3014     96.6787
   303.2500      0.0000    707.6429      4.2937     97.6424
   303.5000      0.0000    707.8340      4.2760     97.9665
   303.7500      0.0000    705.6397      4.2566     96.9220
   304.0000      0.0000    702.3559      4.2413     95.0945
   304.2500      0.0000    699.5840      4.2315     93.4402
   304.5000      0.0000    698.0060      4.2262     91.6969
   304.7500      0.0000    697.3642      4.2248     88.6182
   305.0000      0.0000    697.1118      4.2292     84.0196
   305.2500      0.0000    696.8871      4.2424     79.9302
   305.5000      0.0000    696.6033      4.2626     79.1517
   305.7500      0.0000    696.4083      4.2823     82.6987
   306.0000      0.0000    696.7079      4.2943     88.9334
   306.2500      0.0000    698.2596      4.2972     95.0459
   306.5000      0.0000    702.0387      4.2913     99.0815
   306.7500      0.0000    708.5158      4.2742    100.8470
   307.0000      0.0000    716.6920      4.2438    101.4710
   307.2500      0.0000    724.2047      4.2073    102.2366
   307.5000      0.0000    729.0927      4.1805    103.6983
   307.7500      0.0000    731.5582      4.1763    105.6248
   308.0000      0.0000    733.6611      4.1918    107.3497
   308.2500      0.0000    737.2134      4.2100    108.1565
   308.5000      0.0000    741.9713      4.2135    107.8211
   308.7500      0.0000    745.8195      4.1979    106.7312
   309.0000      0.0000    746.9850      4.1727    105.0858
   309.2500      0.0000    746.1961      4.1524    102.2931
   309.5000      0.0000    746.1831      4.1442     97.7461
   309.7500      0.0000    748.7034      4.1437     92.1225
   310.0000      0.0000    752.3800      4.1422     87.3627
   310.2500      0.0000    753.8366      4.1370     84.9274
   310.5000      0.0000    750.8095      4.1315     84.2442
   310.7500      0.0000    743.9040      4.1297     83.2880
   311.0000      0.0000    735.4502      4.1322     80.6646
   311.2500      0.0000    727.1976      4.1384     76.8594
   311.5000      0.0000    719.5797      4.1496     73.4884
   311.7500      0.0000    712.9968      4.1696     71.7389
   312.0000      0.0000    708.9269      4.2004     71.6426
   312.2500      0.0000    709.0339      4.2396     72.4048
   312.5000      0.0000    713.3964      4.2822     73.0578
   312.7500      0.0000    720.1825      4.3234     72.8914
   313.0000      0.0000    726.8104      4.3597     71.5621
   313.2500      0.0000    730.8499      4.3877     69.1554
   313.5000      0.0000    730.5153      4.4032     66.2806
   313.7500      0.0000    725.7631      4.4013     63.8613
   314.0000      0.0000    719.0903      4.3793     62.5333
   314.2500      0.0000    714.3041      4.3411     62.1630
   314.5000      0.0000    714.1714      4.2990     61.9216
   314.7500      0.0000    719.1777      4.2701     60.8176
   315.0000      0.0000    727.5756      4.2657     58.3069
   315.2500      0.0000    736.0876      4.2815     54.6545
   315.5000      0.0000    741.7375      4.2980     50.7628
   315.7500      0.0000    744.1271      4.2937     47.5528
   316.0000      0.0000    745.4376      4.2591     45.4358
   316.2500      0.0000    747.8275      4.1997     44.2575
   316.5000      0.0000    751.5744      4.1285     43.6492
   316.7500      0.0000    755.9301      4.0585     43.5711
   317.0000      0.0000    760.2935      4.0004     44.5709
   317.2500      0.0000    763.7290      3.9649     47.3618
   317.5000      0.0000    764.7677      3.9603     52.1542
   317.7500      0.0000    762.7025      3.9870     58.4519
   318.0000      0.0000    757.8514      4.0346     65.2559
   318.2500      0.0000    750.1278      4.0875     71.4096
   318.5000      0.0000    739.2316      4.1326     76.2979
   318.7500      0.0000    726.6256      4.1644     80.5082
   319.0000      0.0000    715.0278      4.1816     85.1857
   319.2500      0.0000    705.1121      4.1798     90.3318
   319.5000      0.0000    694.5513      4.1458     94.3223
   319.7500      0.0000    681.2571      4.0725     95.6032
   320.0000      0.0000    666.3451      3.9836     94.4882
   320.2500      0.0000    653.0710      3.9291     92.9606
   320.5000      0.0000    643.5588      3.9311     93.0445
   320.7500      0.0000    637.7990      3.9484     95.4638
   321.0000      0.0000    635.6085      3.9241     99.2866
   321.2500      0.0000    637.8362      3.8547    102.4543
   321.5000      0.0000    644.7281      3.7845    103.0683
   321.7500      0.0000    654.6810      3.7461    100.7537
   322.0000     -2.0000    665.7577      3.7348     96.9262
   322.2500      0.0000    676.9800      3.7332     93.5455
   322.5000      0.0000    686.9714      3.7445     91.5667
   322.7500      0.0000    693.6606      3.7999     90.6086
   323.0000      0.0000    697.7342      3.9249     89.8871
   323.2500      0.0000    704.4085      4.0893     89.1977
   323.5000      0.0000    718.8998      4.2107     88.9097
   323.7500      0.0000    741.0472      4.2326     89.1886
   324.0000      0.0000    765.8563      4.1800     89.5177
   324.2500      0.0000    787.8914      4.1189     89.0113
   324.5000      0.0000    803.9905      4.0880     87.0586
   324.7500      0.0000    813.2032      4.0874     83.7126
   325.0000      0.0000    815.6003      4.1044     79.5863
   325.2500      0.0000    811.1675      4.1281     75.3483
