~Version Information
VERS.                      2.0: CWLS Log ASCII Standard - VERSION 2.0
WRAP.                       NO: One line per depth step
~Well Information Block
STRT.FT               645.0000: 
STOP.FT              2133.5000: 
STEP.FT                 0.2500: 
NULL.                -999.2500: 
COMP.          Pioneer Natural Resources: COMPANY
WELL.          Gunslinger 13-24: WELL
FLD.           Purgatoire River: FIELD
LOC.           1968' FSL & 633' FWL: LOCATION
PROV.                 Colorado: PROVINCE
CNTY.               Las Animas: COUNTRY
SRVC.                Patterson: SERVICE COMPANY
DATE.          Fri Jul 29 15:04:35 2005: LOG DATE
UWI.           05 071 08442 00: UNIQUE WELL ID
~Curve Information Block
DEPT.FT            0 000 00 00: Depth
SN.Ohm-m                      : IEL Short Normal
SP.mV                         : IEL Spontaneous Potential
DIR.Ohm-m                     : IEL Induction Resistivity
GR.GAPI                       : Gamma Ray
~Parameter Information Block
~A  Depth        SN          SP         DIR          GR     
# ...
  1214.5000   2000.0000   2000.0000     12.7331    147.3262
  1214.7500   2000.0000   2000.0000     12.1081    144.5140
  1215.0000   2000.0000   2000.0000     11.4514    140.3138
  1215.2500   2000.0000   2000.0000     10.8249    138.8376
  1215.5000   2000.0000   2000.0000     10.2784    138.4787
  1215.7500   2000.0000   2000.0000      9.8362    138.4585
  1216.0000   2000.0000   2000.0000      9.4987    137.6145
  1216.2500   2000.0000   2000.0000      9.2517    136.8029
  1216.5000   2000.0000   2000.0000      9.0755    136.3055
  1216.7500   2000.0000   2000.0000      8.9494    136.6618
  1217.0000   2000.0000   2000.0000      8.8538    137.8490
  1217.2500   2000.0000   2000.0000      8.7720    138.7850
  1217.5000   2000.0000   2000.0000      8.6924    139.8938
  1217.7500   2000.0000   2000.0000      8.6111    140.1403
  1218.0000   2000.0000   2000.0000      8.5318    139.8239
  1218.2500   2000.0000   2000.0000      8.4630    139.6646
  1218.5000   2000.0000   2000.0000      8.4160    140.4788
  1218.7500   2000.0000   2000.0000      8.4020    141.7334
  1219.0000   2000.0000   2000.0000      8.4297    143.4595
  1219.2500   2000.0000   2000.0000      8.5007    143.6344
  1219.5000   2000.0000   2000.0000      8.6056    142.1259
  1219.7500   2000.0000   2000.0000      8.7255    140.6650
  1220.0000   2000.0000   2000.0000      8.8389    139.3172
  1220.2500   2000.0000   2000.0000      8.9300    139.1522
  1220.5000   2000.0000   2000.0000      8.9927    138.8803
  1220.7500   2000.0000   2000.0000      9.0302    137.9277
  1221.0000   2000.0000   2000.0000      9.0534    134.9819
  1221.2500   2000.0000   2000.0000      9.0772    132.2393
  1221.5000   2000.0000   2000.0000      9.1168    127.5718
  1221.7500   2000.0000   2000.0000      9.1819    124.6352
  1222.0000   2000.0000   2000.0000      9.2743    121.9670
  1222.2500   2000.0000   2000.0000      9.3874    122.2005
  1222.5000   2000.0000   2000.0000      9.5087    125.8702
  1222.7500   2000.0000   2000.0000      9.6235    129.7169
  1223.0000   2000.0000   2000.0000      9.7203    135.1108
  1223.2500   2000.0000   2000.0000      9.7946    137.1862
  1223.5000   2000.0000   2000.0000      9.8485    137.4752
  1223.7500   2000.0000   2000.0000      9.8881    136.5005
  1224.0000   2000.0000   2000.0000      9.9186    134.9529
  1224.2500   2000.0000   2000.0000      9.9419    134.2201
  1224.5000   2000.0000   2000.0000      9.9587    132.9357
  1224.7500   2000.0000   2000.0000      9.9725    131.5680
  1225.0000   2000.0000   2000.0000      9.9918    129.0270
  1225.2500   2000.0000   2000.0000     10.0224    127.4634
  1225.5000   2000.0000   2000.0000     10.0569    125.6776
  1225.7500   2000.0000   2000.0000     10.0714    124.8643
  1226.0000   2000.0000   2000.0000     10.0378    124.4798
  1226.2500   2000.0000   2000.0000      9.9438    124.9962
  1226.5000   2000.0000   2000.0000      9.8014    126.4670
  1226.7500   2000.0000   2000.0000      9.6360    127.0292
  1227.0000   2000.0000   2000.0000      9.4685    125.9420
  1227.2500   2000.0000   2000.0000      9.3066    124.1240
  1227.5000   2000.0000   2000.0000      9.1471    121.7606
  1227.7500   2000.0000   2000.0000      8.9824    121.6775
  1228.0000   2000.0000   2000.0000      8.8063    124.5197
  1228.2500   2000.0000   2000.0000      8.6168    128.0008
  1228.5000   2000.0000   2000.0000      8.4180    134.5703
  1228.7500   2000.0000   2000.0000      8.2172    139.2890
  1229.0000   2000.0000   2000.0000      8.0225    145.6822
  1229.2500   2000.0000   2000.0000      7.8405    148.6263
  1229.5000   2000.0000   2000.0000      7.6765    150.1037
  1229.7500   2000.0000   2000.0000      7.5360    149.3002
  1230.0000   2000.0000   2000.0000      7.4233    146.7664
  1230.2500   2000.0000   2000.0000      7.3405    145.0993
  1230.5000   2000.0000   2000.0000      7.2860    143.7146
  1230.7500   2000.0000   2000.0000      7.2545    143.8228
  1231.0000   2000.0000   2000.0000      7.2394    145.4624
  1231.2500   2000.0000   2000.0000      7.2341    147.2120
  1231.5000   2000.0000   2000.0000      7.2337    149.9431
  1231.7500   2000.0000   2000.0000      7.2366    151.2867
  1232.0000   2000.0000   2000.0000      7.2467    151.9984
  1232.2500   2000.0000   2000.0000      7.2742    151.6668
  1232.5000   2000.0000   2000.0000      7.3347    150.5764
  1232.7500   2000.0000   2000.0000      7.4464    149.7866
  1233.0000   2000.0000   2000.0000      7.6267    148.6886
  1233.2500   2000.0000   2000.0000      7.8891    148.0321
  1233.5000   2000.0000   2000.0000      8.2420    147.3643
  1233.7500   2000.0000   2000.0000      8.6888    147.2533
  1234.0000   2000.0000   2000.0000      9.2290    147.5008
  1234.2500   2000.0000   2000.0000      9.8593    147.8399
  1234.5000   2000.0000   2000.0000     10.5742    148.6534
  1234.7500   2000.0000   2000.0000     11.3667    149.2046
  1235.0000   2000.0000   2000.0000     12.2311    148.3270
  1235.2500   2000.0000   2000.0000     13.1696    145.0116
  1235.5000   2000.0000   2000.0000     14.1962    134.0884
  1235.7500   2000.0000   2000.0000     15.3364    123.1084
  1236.0000   2000.0000   2000.0000     16.6189    103.6958
  1236.2500   2000.0000   2000.0000     18.0672     90.8255
  1236.5000   2000.0000   2000.0000     19.6957     74.7640
  1236.7500   2000.0000   2000.0000     21.5090     67.5117
  1237.0000   2000.0000   2000.0000     23.4987     62.9023
  1237.2500   2000.0000   2000.0000     25.6268     64.0299
  1237.5000   2000.0000   2000.0000     27.7911     71.2880
  1237.7500   2000.0000   2000.0000     29.7990     79.0427
  1238.0000   2000.0000   2000.0000     31.3911     93.0770
  1238.2500   2000.0000   2000.0000     32.3390    102.7598
  1238.5000   2000.0000   2000.0000     32.5601    116.1124
  1238.7500   2000.0000   2000.0000     32.1501    123.7074
  1239.0000   2000.0000   2000.0000     31.3157    132.5847
  1239.2500   2000.0000   2000.0000     30.2765    136.5405
  1239.5000   2000.0000   2000.0000     29.1969    139.3865
  1239.7500   2000.0000   2000.0000     28.1593    139.5481
  1240.0000   2000.0000   2000.0000     27.1649    138.3824
  1240.2500   2000.0000   2000.0000     26.1629    137.4622
  1240.5000     31.7856    119.0912     25.1000    136.8764
  1240.7500     29.9585    119.2122     23.9711    137.2911
  1241.0000     28.4949    119.3219     22.8309    139.0723
  1241.2500     27.5103    119.3884     21.7611    140.7682
  1241.5000     26.8843    119.3754     20.8295    143.5540
  1241.7500     26.3523    119.2663     20.0734    145.4654
  1242.0000     25.7300    119.0811     19.5046    148.6309
  1242.2500     24.9821    118.8709     19.1156    151.1189
  1242.5000     24.1909    118.6876     18.8828    155.5256
  1242.7500     23.4718    118.5529     18.7688    158.8161
  1243.0000     22.8248    118.4503     18.7305    163.7158
  1243.2500     22.1972    118.3438     18.7299    166.3796
  1243.5000     21.6772    118.2022     18.7400    168.3901
  1243.7500     21.4046    118.0114     18.7448    167.9407
  1244.0000     21.3778    117.7761     18.7402    164.0904
  1244.2500     21.5308    117.5124     18.7359    159.3620
  1244.5000     21.9055    117.2355     18.7554    150.0181
  1244.7500     22.5748    116.9553     18.8272    143.5305
  1245.0000     23.4094    116.6805     18.9721    135.2710
  1245.2500     24.0619    116.4274     19.1928    130.8669
  1245.5000     24.2699    116.2231     19.4723    125.1032
  1245.7500     24.1298    116.1052     19.7823    121.8239
  1246.0000     23.9916    116.1144     20.0987    119.0688
  1246.2500     24.1847    116.2793     20.4125    119.3604
  1246.5000     24.8685    116.5952     20.7247    122.6019
  1246.7500     25.8968    117.0104     21.0246    125.5973
  1247.0000     26.8035    117.4408     21.2727    129.2795
  1247.2500     27.1094    117.8099     21.4097    130.4264
  1247.5000     26.6450    118.0838     21.3923    130.3747
  1247.7500     25.6081    118.2738     21.2274    130.0667
