~Version Information
VERS.                      2.0: CWLS Log ASCII Standard - VERSION 2.0
WRAP.                       NO: One line per depth step
~Well Information Block
STRT.FT                -8.2500: 
STOP.FT              1118.7500: 
STEP.FT                 0.2500: 
NULL.                -999.2500: 
COMP.          Pioneer Natural Resources: COMPANY
WELL.             Croc 42-9 Tr: WELL
FLD.           Purgatorie River: FIELD
LOC.           --2429' FNL & 315' FEL------: LOCATION
STAT.                       CO: State
CNTY.               Las Animas: COUNTY
CTRY. USA : Country
SECT. 9 : Section
TOWN. 32S : Township
RANG. 66W : Range
SRVC.          Patterson Wireline: SERVICE COMPANY
DATE.          Tue Oct 18 14:14:43 2005: LOG DATE
API.           05 071 08550 00: UNIQUE WELL ID
~Curve Information Block
DEPT.FT            0 000 00 00: Depth
CCL.                          : Casing Collar Locator
TT3.usec                      : CBL 3' Travel Time
AMP3.mV                       : CBL 3' Amplitude
GR.GAPI                       : Gamma Ray
~Parameter Information Block
~A  Depth       CCL         TT3         AMP3         GR     
# ...
  1097.2500      0.0000    737.8464     10.8096    137.4739
  1097.5000      0.0000    738.0523     10.6501    135.1368
  1097.7500      0.0000    738.3157     10.5605    131.0809
  1098.0000      0.0000    738.5849     10.5182    125.3115
  1098.2500      0.0000    738.7996     10.4832    118.3739
  1098.5000      0.0000    738.9297     10.4136    111.5317
  1098.7500      0.0000    738.9868     10.2994    106.5996
  1099.0000      0.0000    738.9977     10.1707    105.1785
  1099.2500      0.0000    738.9733     10.0706    107.7417
  1099.5000      0.0000    738.9082     10.0229    113.2206
  1099.7500      0.0000    738.8036     10.0251    119.2940
  1100.0000      0.0000    738.6836     10.0615    123.3862
  1100.2500      0.0000    738.5840     10.1148    123.9329
  1100.5000      0.0000    738.5297     10.1679    121.0806
  1100.7500      0.0000    738.5239     10.2049    116.3651
  1101.0000      0.0000    738.5562     10.2130    111.7748
  1101.2500      0.0000    738.6111     10.1878    108.8998
  1101.5000      0.0000    738.6722     10.1367    108.4401
  1101.7500      0.0000    738.7194     10.0779    110.0047
  1102.0000      0.0000    738.7279     10.0333    112.3750
  1102.2500      0.0000    738.6728     10.0202    114.3994
  1102.5000      0.0000    738.5428     10.0444    115.7566
  1102.7500      0.0000    738.3527     10.1016    116.6606
  1103.0000      0.0000    738.1425     10.1855    117.0407
  1103.2500      0.0000    737.9582     10.2948    116.4626
  1103.5000      0.0000    737.8295     10.4336    114.6579
  1103.7500      0.0000    737.7646     10.6077    111.5014
  1104.0000      0.0000    737.7693     10.8220    106.2854
  1104.2500      0.0000    737.8607     11.0789     97.3741
  1104.5000      0.0000    738.0536     11.3762     83.1365
  1104.7500      0.0000    738.3420     11.7064     63.8016
  1105.0000      0.0000    738.7007     12.0528     42.5031
  1105.2500      0.0000    739.0998     12.3884     23.8658
  1105.5000      0.0000    739.5092     12.6885     11.0419
  1105.7500      0.0000    739.8918     12.9504      4.1403
  1106.0000      0.0000    740.2043     13.1959      1.2432
  1106.2500      0.0000    740.4117     13.4506      0.2961
  1106.5000      0.0000    740.4847     13.7185      0.0551
  1106.7500      0.0000    740.3500     13.9784      0.0075
  1107.0000      0.0000    739.8141     14.2026      0.0000
  1107.2500      0.0000    738.6265     14.3793   -999.2500
  1107.5000      0.0000    736.8207     14.5181   -999.2500
  1107.7500      0.0000    735.0650     14.6377   -999.2500
  1108.0000      0.0000    734.3992     14.7489   -999.2500
  1108.2500      0.0000    735.3365     14.8490   -999.2500
  1108.5000      0.0000    737.2870     14.9307   -999.2500
  1108.7500      0.0000    738.9714     14.9919   -999.2500
  1109.0000      0.0000    738.6759     15.0232   -999.2500
  1109.2500      0.0000    732.8484     14.9620   -999.2500
  1109.5000      0.0000    713.1124     14.6348   -999.2500
  1109.7500      0.0000    665.2126     13.7535   -999.2500
  1110.0000      0.0000    575.5405     12.0578   -999.2500
  1110.2500      0.0000    444.9835      9.5787   -999.2500
  1110.5000      0.0000    296.9987      6.7769   -999.2500
  1110.7500      0.0000    166.3840      4.3146   -999.2500
  1111.0000      0.0000     76.6081      2.6290   -999.2500
  1111.2500      0.0000     28.5534      1.7297   -999.2500
  1111.5000      0.0000      8.5212      1.3558   -999.2500
  1111.7500      0.0000      2.0178      1.2347   -999.2500
  1112.0000      0.0000      0.3734      1.2041   -999.2500
  1112.2500      0.0000      0.0497      1.1981   -999.2500
  1112.5000      0.0000   -999.2500   -999.2500   -999.2500
  1112.7500      0.0000   -999.2500   -999.2500   -999.2500
  1113.0000      0.0000   -999.2500   -999.2500   -999.2500
  1113.2500      0.0000   -999.2500   -999.2500   -999.2500
  1113.5000      0.0000   -999.2500   -999.2500   -999.2500
  1113.7500      0.0000   -999.2500   -999.2500   -999.2500
  1114.0000      0.0000   -999.2500   -999.2500   -999.2500
  1114.2500      0.0000   -999.2500   -999.2500   -999.2500
  1114.5000      0.0000   -999.2500   -999.2500   -999.2500
  1114.7500      0.0000   -999.2500   -999.2500   -999.2500
  1115.0000      0.0000   -999.2500   -999.2500   -999.2500
  1115.2500      0.0000   -999.2500   -999.2500   -999.2500
  1115.5000      0.0000   -999.2500   -999.2500   -999.2500
  1115.7500      0.0000   -999.2500   -999.2500   -999.2500
  1116.0000      0.0000   -999.2500   -999.2500   -999.2500
  1116.2500      0.0000   -999.2500   -999.2500   -999.2500
  1116.5000      0.0000   -999.2500   -999.2500   -999.2500
  1116.7500      0.0000   -999.2500   -999.2500   -999.2500
  1117.0000      0.0000   -999.2500   -999.2500   -999.2500
  1117.2500      0.0000   -999.2500   -999.2500   -999.2500
  1117.5000      0.0000   -999.2500   -999.2500   -999.2500
  1117.7500      0.0000   -999.2500   -999.2500   -999.2500
  1118.0000   -999.2500   -999.2500   -999.2500   -999.2500
  1118.2500   -999.2500   -999.2500   -999.2500   -999.2500
  1118.5000   -999.2500   -999.2500   -999.2500   -999.2500
  1118.7500   -999.2500   -999.2500   -999.2500   -999.2500
