~Version Information
VERS.                      2.0: CWLS Log ASCII Standard - VERSION 2.0
WRAP.                       NO: One line per depth step
~Well Information Block
STRT.FT                -4.0000: 
STOP.FT               675.2500: 
STEP.FT                 0.2500: 
NULL.                -999.2500: 
COMP.          Pioneer Natural Resources: COMPANY
WELL.          Razor Clam 23-27: WELL
FLD.           Purgatoire River: FIELD
LOC.           2499' FSL & 2636' FWL: LOCATION
CNTY.               Las Animas: COUNTY
SRVC.                         : SERVICE COMPANY
DATE.          Thu Mar 09 13:15:19 2006: LOG DATE
UWI.           05 071 08667 00: UNIQUE WELL ID
STAT.                       CO: STATE
~Curve Information Block
DEPT.FT            0 000 00 00: Depth
GR.GAPI                       : Gamma Ray
CCL.                          : Casing Collar Locator
TT3.usec                      : CBL 3' Travel Time
AMP3.mV                       : CBL 3' Amplitude
~Parameter Information Block
~A  Depth        GR         CCL         TT3         AMP3    
# ...
   532.0000     72.3847      0.0000    701.1091     11.9988
   532.2500     70.0907      0.0000    702.1233     12.0629
   532.5000     70.5997      0.0000    711.1359     12.0104
   532.7500     73.1257      0.0000    725.1922     11.8611
   533.0000     75.4196      0.0000    738.7485     11.6846
   533.2500     75.8606      0.0000    747.7443     11.5669
   533.5000     74.4231      0.0000    751.2501     11.5601
   533.7500     72.1317      0.0000    750.9353     11.6506
   534.0000     69.9711      0.0000    749.8748     11.7716
   534.2500     68.2264      0.0000    750.7421     11.8568
   534.5000     66.6767      0.0000    754.0760     11.8844
   534.7500     65.2209      0.0000    758.3189     11.8712
   535.0000     64.2180      0.0000    761.5873     11.8401
   535.2500     64.2736      0.0000    762.8967     11.8068
   535.5000     65.7449      0.0000    761.6934     11.7822
   535.7500     68.4501      0.0000    756.6297     11.7561
   536.0000     71.8003      0.0000    745.6970     11.6668
   536.2500     75.0738      0.0000    728.9172     11.4006
   536.5000     77.5011      0.0000    711.4649     10.8488
   536.7500     78.4317      0.0000    702.1580      9.9791
   537.0000     77.9144      0.0000    706.2764      8.8570
   537.2500     76.9974      0.0000    719.9677      7.6048
   537.5000     76.9133      0.0000    733.2737      6.3490
   537.7500     77.9199      0.0000    738.6594      5.1938
   538.0000     79.1690      0.0000    735.9503      4.2136
   538.2500     79.5126      0.0000    729.7261      3.4474
   538.5000     78.1819      0.0000    723.6658      2.8971
   538.7500     74.8955      0.0000    718.0794      2.5351
   539.0000     69.7707      0.0000    711.4847      2.3242
   539.2500     63.4086      0.0000    703.1215      2.2351
   539.5000     57.0029      0.0000    694.2284      2.2537
   539.7500     52.0646      0.0000    687.1210      2.3818
   540.0000     49.7694      0.0000    683.0231      2.6337
   540.2500     50.5343      0.0000    681.4539      3.0213
   540.5000     54.2146      0.0000    682.1742      3.5371
   540.7500     60.5418      0.0000    686.8676      4.1516
   541.0000     69.2460      0.0000    698.1036      4.8305
   541.2500     79.8687      0.0000    716.2305      5.5578
   541.5000     91.6313      0.0000    737.3467      6.3415
   541.7500    103.4730      0.0000    755.1234      7.1906
   542.0000    114.0387      0.0000    765.1469      8.0830
   542.2500    121.6371      0.0000    767.2474      8.9614
   542.5000    124.6681      0.0000    763.9332      9.7734
   542.7500    122.7980      0.0000    757.6475     10.5131
   543.0000    118.0007      0.0000    749.8718     11.2184
   543.2500    113.9724      0.0000    741.8605     11.9226
   543.5000    113.8537      0.0000    735.0182     12.5985
   543.7500    118.2223      0.0000    730.2991     13.1475
   544.0000    125.1139      0.0000    727.7555     13.4615
   544.2500    131.7896      0.0000    726.9501     13.5264
   544.5000    136.4487      0.0000    727.7223     13.4701
   544.7500    138.4933      0.0000    730.4738     13.4839
   545.0000    137.7211      0.0000    735.6875     13.6824
   545.2500    133.7552      0.0000    742.9577     14.0355
   545.5000    126.1811      0.0000    750.4185     14.4220
   545.7500    115.1264      0.0000    755.4182     14.7292
   546.0000    101.9900      0.0000    756.2112     14.9104
   546.2500     89.6352      0.0000    753.2103     14.9810
   546.5000     81.5123      0.0000    748.5435     14.9758
   546.7500     80.2010      0.0000    744.2858     14.9056
   547.0000     86.2439      0.0000    741.2347     14.7620
   547.2500     97.8271      0.0000    739.3046     14.5765
   547.5000    111.5437      0.0000    738.3485     14.4553
   547.7500    123.8588      0.0000    738.0689     14.5166
   548.0000    132.3166      0.0000    737.7928     14.7818
   548.2500    135.9603      0.0000    737.0289     15.1456
   548.5000    135.1399      0.0000    735.7339     15.4694
   548.7500    131.0082      0.0000    733.4534     15.6936
   549.0000    124.9813      0.0000    728.9424     15.8492
   549.2500    118.4449      0.0000    721.6023     15.9767
   549.5000    112.7201      0.0000    712.9800     16.0797
   549.7500    108.9655      0.0000    705.9189     16.1644
   550.0000    107.7650      0.0000    702.1061     16.2831
   550.2500    108.8691      0.0000    700.5535     16.5082
   550.5000    111.6987      0.0000    698.1791     16.8779
   550.7500    116.0516      0.0000    691.2802     17.3780
   551.0000    121.7629      0.0000    676.9299     17.9547
   551.2500    127.6230      0.0000    654.8614     18.5356
   551.5000    131.4333      0.0000    628.8087     19.0629
   551.7500    131.6185      0.0000    603.7346     19.5209
   552.0000    128.3493      0.0000    581.3460     19.9185
   552.2500    122.8835      0.0000    562.9665     20.2189
   552.5000    116.5148      0.0000    556.7741     20.2901
   552.7500    110.3828      0.0000    573.0992     19.9511
   553.0000    105.4029      0.0000    608.6015     19.1126
   553.2500    101.7917      0.0000    643.2874     17.8993
   553.5000     99.1115      0.0000    659.1094     16.6067
   553.7500     97.2216      0.0000    657.9089     15.4688
   554.0000     97.0270      0.0000    657.1589     14.4512
   554.2500     99.7215      0.0000    669.8275     13.3416
   554.5000    104.9578      0.0000    692.2866     12.0426
   554.7500    110.2457      0.0000    711.6584     10.6963
   555.0000    112.8219      0.0000    720.3045      9.5387
   555.2500    112.0389      0.0000    720.8103      8.7484
   555.5000    109.4029     -1.6620    720.2058      8.4418
   555.7500    106.2953      0.0000    721.5643      8.7441
   556.0000    102.4240      0.0000    719.6792      9.8302
   556.2500     97.0130      0.0000    705.0038     11.8799
   556.5000     91.0277      0.0000    673.3368     14.9599
   556.7500     87.3506      0.0000    629.4298     18.9707
   557.0000     88.6387      0.0000    578.5624     23.7615
   557.2500     95.4850      0.0000    519.7510     29.2374
   557.5000    106.5535      0.0000    452.5614     35.2842
   557.7500    119.5573      0.0000    385.4891     41.6627
   558.0000    131.7286      0.0000    331.0622     48.0527
   558.2500    140.2752      0.0000    295.3648     54.1580
   558.5000    143.4602      0.0000    275.8855     59.7501
   558.7500    141.4837      0.0000    266.7002     64.6509
   559.0000    136.1490      0.0000    262.8748     68.6927
   559.2500    129.5007      0.0000    261.4646     71.7357
   559.5000    122.5287      0.0000    261.0142     73.7602
   559.7500    115.0050      0.0000    260.8973     74.9165
   560.0000    106.5263      0.0000    260.8682     75.4508
   560.2500     97.5170      0.0000    260.8568     75.6001
   560.5000     89.0604      0.0000    260.8465     75.5507
   560.7500     82.0017      0.0000    260.8365     75.4440
   561.0000     76.4938      0.0000    260.8307     75.3771
   561.2500     72.2985      0.0000    260.8310     75.3861
   561.5000     69.2819      0.0000    260.8363     75.4359
   561.7500     67.6324      0.0000    260.8424     75.4448
   562.0000     67.7178      0.0000    260.8444     75.3420
   562.2500     69.7037      0.0000    260.8395     75.1205
   562.5000     73.1816      0.0000    260.8295     74.8566
   562.7500     77.2658      0.0000    260.8192     74.6741
   563.0000     81.1568      0.0000    260.8141     74.6588
   563.2500     84.4552      0.0000    260.8164     74.7932
   563.5000     86.8757      0.0000    260.8236     74.9783
   563.7500     87.9982      0.0000    260.8313     75.1210
   564.0000     87.5115      0.0000    260.8366     75.1968
   564.2500     85.4764      0.0000    260.8399     75.2398
   564.5000     82.2689      0.0000    260.8429     75.2865
   564.7500     78.4964      0.0000    260.8470     75.3404
   565.0000     74.8457      0.0000    260.8520     75.3848
   565.2500     71.7486      0.0000    260.8575     75.4124
