~Version Information
VERS.                      2.0: CWLS Log ASCII Standard - VERSION 2.0
WRAP.                       NO: One line per depth step
~Well Information Block
STRT.FT               892.0000: 
STOP.FT              2094.0000: 
STEP.FT                 0.1000: 
NULL.                -999.2500: 
COMP.          Pioneer Natural Resources: COMPANY
WELL.          Greenwood 43-29 Tr: WELL
FLD.           Purgatoire River: FIELD
LOC.           1478' FSL & 744' FEL: LOCATION
STAT.                 Colorado: State
CNTY.               Las Animas: COUNTY
CTRY. USA : Country
SECT. 29 : Section
TOWN. 32S : Township
RANG. 67W : Range
SRVC.                Patterson: SERVICE COMPANY
DATE.          Wed Aug 31 10:39:20 2005: LOG DATE
API.           05 071 08478 00: UNIQUE WELL ID
~Curve Information Block
DEPT.FT            0 000 00 00: Depth
DCAL.in                       : CDL Caliper
RHOB.g/cc                     : CDL Bulk Density
RHOC.g/cc                     : CDL Density Correction
DPOR.pu                       : CDL Density Porosity
GR.GAPI                       : Gamma Ray
NPOR.pu                       : Neutron Porosity
~Parameter Information Block
~A  Depth       DCAL        RHOB        RHOC        DPOR         GR         NPOR    
# ...
  2005.6000      7.9240      2.5470      0.0543      6.2398     92.8029     18.2405
  2005.7000      7.9240      2.5527      0.0961      5.8998     96.0279     19.0203
  2005.8000      7.9191      2.5716      0.1052      4.7498     97.9578     20.1170
  2005.9000      7.9191      2.6059      0.1684      2.6715    101.4980     21.2038
  2006.0000      7.9417      2.6353      0.1640      0.8898    102.3274     21.6846
  2006.1000      7.9417      2.6443      0.1372      0.3460     98.1361     21.1788
  2006.2000      7.9417      2.6294      0.1619      1.2494     93.9518     20.3526
  2006.3000      7.9540      2.5952      0.0837      3.3200     91.0568     19.7564
  2006.4000      7.9540      2.5614      0.0615      5.3727     88.2079     19.6914
  2006.5000      7.9682      2.5439     -0.0035      6.4317     88.6528     20.4815
  2006.6000      7.9682      2.5469     -0.0043      6.2507     95.4591     21.5143
  2006.7000      7.9682      2.5650      0.0815      5.1504    104.4314     22.0119
  2006.8000      7.9706      2.5814      0.0955      4.1564    107.0990     21.9692
  2006.9000      7.9706      2.5831      0.0673      4.0519    100.9318     21.5340
  2007.0000      7.9701      2.5724      0.0655      4.7023     93.2529     21.0667
  2007.1000      7.9701      2.5605      0.0620      5.4238     91.4730     21.2906
  2007.2000      7.9701      2.5547      0.0770      5.7764     96.8512     22.1994
  2007.3000      7.9491      2.5579      0.0729      5.5837    106.8220     22.9213
  2007.4000      7.9491      2.5731      0.1024      4.6627    115.5112     23.1224
  2007.5000      7.9029      2.5960      0.0714      3.2712    117.0079     23.1351
  2007.6000      7.9029      2.6156      0.1125      2.0840    114.8927     23.2426
  2007.7000      7.9029      2.6203      0.1100      1.7995    119.6872     23.7835
  2007.8000      7.9098      2.6082      0.1201      2.5331    132.9358     24.4872
  2007.9000      7.9098      2.5920      0.0658      3.5155    140.7051     24.4893
  2008.0000      7.9305      2.5857      0.0832      3.8970    133.8459     23.7994
  2008.1000      7.9305      2.5903      0.0578      3.6164    123.8104     23.1848
  2008.2000      7.9305      2.6044      0.0531      2.7666    124.3757     23.1168
  2008.3000      7.9352      2.6196      0.0886      1.8453    129.4604     23.3880
  2008.4000      7.9352      2.6210      0.1254      1.7589    123.6739     23.7035
  2008.5000      7.9707      2.6174      0.0526      1.9779    107.6475     23.9938
  2008.6000      7.9707      2.6326      0.0781      1.0539     97.4570     23.8630
  2008.7000      7.9707      2.6603      0.1138     -0.6222     99.9261     23.1646
  2008.8000      7.9757      2.6722      0.1047     -1.3483    105.2428     22.4439
  2008.9000      7.9757      2.6557      0.0893     -0.3472    105.1198     21.9653
  2009.0000      7.9625      2.6224      0.0729      1.6728     99.5051     21.3366
  2009.1000      7.9625      2.5952      0.0854      3.3226     94.7569     20.2958
  2009.2000      7.9625      2.5809      0.0398      4.1885     96.7337     19.5552
  2009.3000      7.9561      2.5690      0.0646      4.9120    103.1356     20.1232
  2009.4000      7.9561      2.5549      0.0225      5.7644    110.6321     21.8498
  2009.5000      7.9617      2.5428      0.0529      6.4995    119.9375     23.0163
  2009.6000      7.9617      2.5346      0.0210      6.9968    127.1181     22.5420
  2009.7000      7.9617      2.5286      0.0604      7.3577    126.5353     21.3771
  2009.8000      7.9568      2.5208      0.1086      7.8289    121.6617     20.6229
  2009.9000      7.9568      2.5238      0.0908      7.6467    119.3891     20.3766
  2010.0000      7.9460      2.5556      0.1232      5.7208    119.8635     20.3638
  2010.1000      7.9460      2.6068      0.1406      2.6162    119.0583     21.0968
  2010.2000      7.9460      2.6519      0.1794     -0.1170    119.2655     22.8338
  2010.3000      7.9008      2.6713      0.1399     -1.2882    124.4774     24.1014
  2010.4000      7.9008      2.6564      0.1557     -0.3861    129.9582     23.9242
  2010.5000      7.8643      2.6193      0.1154      1.8617    128.6596     23.5883
  2010.6000      7.8643      2.5895      0.0887      3.6682    119.5096     24.0973
  2010.7000      7.8643      2.5785      0.0906      4.3363    109.3340     24.8081
  2010.8000      7.8618      2.5742      0.0727      4.5942    107.4785     24.7984
  2010.9000      7.8618      2.5722      0.0696      4.7177    114.8341     23.8269
  2011.0000      7.8814      2.5732      0.0226      4.6574    123.8943     22.1450
  2011.1000      7.8814      2.5745      0.0258      4.5781    129.8768     20.7991
  2011.2000      7.8814      2.5719      0.0610      4.7331    133.1960     20.6934
  2011.3000      7.9174      2.5624      0.0715      5.3104    133.4106     21.5456
  2011.4000      7.9174      2.5550      0.0249      5.7548    130.8846     22.6651
  2011.5000      7.9709      2.5586      0.0422      5.5386    128.8184     23.3211
  2011.6000      7.9709      2.5637      0.0715      5.2322    127.1868     23.2523
  2011.7000      7.9709      2.5666      0.0426      5.0559    122.4571     23.0829
  2011.8000      7.9804      2.5801      0.0407      4.2337    115.4777     22.7947
  2011.9000      7.9804      2.6044      0.0682      2.7654    112.5925     21.9955
  2012.0000      7.9746      2.6159      0.0788      2.0664    115.6354     21.4744
  2012.1000      7.9746      2.5995      0.0584      3.0636    118.0985     21.8365
  2012.2000      7.9746      2.5703      0.0454      4.8298    115.5341     22.5490
  2012.3000      7.9788      2.5495      0.0271      6.0932    113.5413     22.9305
  2012.4000      7.9788      2.5314      0.0777      7.1893    116.0859     22.9760
  2012.5000      7.9771      2.5035      0.0198      8.8799    118.1798     22.9712
  2012.6000      7.9771      2.4800     -0.0210     10.3035    116.0883     23.0138
  2012.7000      7.9771      2.4818     -0.0294     10.1968    114.4392     22.7980
  2012.8000      7.9518      2.5043      0.0083      8.8285    117.5577     21.6938
  2012.9000      7.9518      2.5251      0.0557      7.5683    122.1562     20.1907
  2013.0000      7.9145      2.5371      0.0580      6.8439    124.7710     19.8287
  2013.1000      7.9145      2.5582      0.1151      5.5618    127.1551     20.4057
  2013.2000      7.9145      2.5936      0.1369      3.4186    128.4224     20.6789
  2013.3000      7.8868      2.6215      0.1092      1.7262    124.8647     20.9971
  2013.4000      7.8868      2.6265      0.1326      1.4247    116.6887     21.8285
  2013.5000      7.8737      2.6210      0.0914      1.7565    106.8831     22.5924
  2013.6000      7.8737      2.6299      0.0900      1.2162     97.7673     23.0694
  2013.7000      7.8737      2.6496      0.1457      0.0263     91.7345     23.3544
  2013.8000      7.8844      2.6425      0.1093      0.4560     90.8482     23.7047
  2013.9000      7.8844      2.5949      0.0951      3.3405     96.2945     24.0856
  2014.0000      7.9336      2.5439      0.0275      6.4288    105.7590     23.5196
  2014.1000      7.9336      2.5235      0.0798      7.6666    109.9680     21.9550
  2014.2000      7.9336      2.5213      0.0706      7.7991    105.4629     20.3933
  2014.3000      7.9408      2.5182      0.0211      7.9863    102.0653     19.6435
  2014.4000      7.9408      2.5254     -0.0122      7.5516    105.6391     19.9574
  2014.5000      7.9204      2.5577      0.0681      5.5959    113.9087     20.5697
  2014.6000      7.9204      2.5998      0.1233      3.0412    122.5527     20.7281
  2014.7000      7.9204      2.6309      0.1447      1.1586    123.2195     20.8142
  2014.8000      7.9497      2.6529      0.1382     -0.1778    112.0314     21.4693
  2014.9000      7.9497      2.6711      0.2038     -1.2811     98.1222     22.4240
  2015.0000      7.9212      2.6818      0.1775     -1.9272     87.6038     22.2971
  2015.1000      7.9212      2.6777      0.1770     -1.6784     79.4291     20.8095
