~Version Information
VERS.                      2.0: CWLS Log ASCII Standard - VERSION 2.0
WRAP.                       NO: One line per depth step
~Well Information Block
STRT.FT               645.0000: 
STOP.FT              1320.0000: 
STEP.FT                 0.1000: 
NULL.                -999.2500: 
COMP.          Pioneer Natural Resources: COMPANY
WELL.          Rockfish 11-30 Tr: WELL
FLD.           Purgatoire River: FIELD
LOC.           1063' FNL & 1068' FWL: LOCATION
STAT.                 Colorado: State
CNTY.               Las Animas: COUNTY
CTRY. USA : Country
SECT. 30 : Section
TOWN. 32S : Township
RANG. 65W : Range
SRVC.                Patterson: SERVICE COMPANY
DATE.          Wed Nov 16 07:46:07 2005: LOG DATE
API.           05 071 08585 00: UNIQUE WELL ID
~Curve Information Block
DEPT.FT            0 000 00 00: Depth
DCAL.in                       : CDL Caliper
RHOB.g/cc                     : CDL Bulk Density
RHOC.g/cc                     : CDL Density Correction
DPOR.pu                       : CDL Density Porosity
GR.GAPI                       : Gamma Ray
NPOR.pu                       : Neutron Porosity
~Parameter Information Block
~A  Depth       DCAL        RHOB        RHOC        DPOR         GR         NPOR    
# ...
   731.4000      7.9714      2.6626      0.0445     -0.7666     91.0566     29.2515
   731.5000      7.9328      2.7237      0.1628     -4.4664     87.6730     29.9326
   731.6000      7.9328      2.7711      0.2225     -7.3392     84.8391     30.3352
   731.7000      7.9328      2.7937      0.2381     -8.7070     82.1890     30.1662
   731.8000      7.9852      2.7755      0.2729     -7.6083     81.3912     29.7543
   731.9000      7.9852      2.7355      0.0794     -5.1810     78.8078     29.6173
   732.0000      7.9870      2.7189      0.0125     -4.1778     71.2165     29.6874
   732.1000      7.9870      2.7290      0.0134     -4.7890     62.0765     29.6646
   732.2000      7.9870      2.7364      0.0342     -5.2374     57.2088     29.4218
   732.3000      7.9625      2.7347      0.0000     -5.1317     58.4559     28.8694
   732.4000      7.9625      2.7377      0.0306     -5.3139     63.4034     28.1939
   732.5000      7.9628      2.7401      0.0636     -5.4609     66.0559     27.4947
   732.6000      7.9628      2.7279      0.0148     -4.7216     62.8395     26.6722
   732.7000      7.9628      2.7090      0.0106     -3.5787     59.3969     25.8959
   732.8000      7.9466      2.6961      0.0380     -2.7957     60.4029     25.3647
   732.9000      7.9466      2.6951      0.0001     -2.7361     62.3078     25.0096
   733.0000      7.9073      2.7000      0.0515     -3.0326     63.0380     24.6429
   733.1000      7.9073      2.6929      0.0312     -2.6017     65.1778     24.1872
   733.2000      7.9073      2.6777     -0.0709     -1.6760     68.7360     23.6853
   733.3000      7.8987      2.6679     -0.0293     -1.0857     69.0649     23.1385
   733.4000      7.8987      2.6483      0.0295      0.1018     66.6736     22.5219
   733.5000      7.8961      2.6079     -0.0099      2.5542     68.2420     22.1429
   733.6000      7.8961      2.5667      0.0099      5.0507     74.0879     22.2894
   733.7000      7.8961      2.5392      0.0540      6.7156     80.2062     22.5557
   733.8000      7.8901      2.5181      0.0322      7.9953     87.2329     22.5458
   733.9000      7.8901      2.4957      0.0296      9.3492     94.2375     22.4527
   734.0000      7.8568      2.4709      0.0476     10.8572     97.0491     22.2802
   734.1000      7.8568      2.4449      0.0789     12.4306     99.8658     21.9131
   734.2000      7.8568      2.4311      0.0252     13.2668    108.5398     21.5761
   734.3000      7.8476      2.4415      0.0581     12.6360    120.6825     21.4377
   734.4000      7.8476      2.4644      0.1233     11.2475    133.0443     21.4776
   734.5000      7.9004      2.4909      0.1219      9.6448    143.6464     21.5792
   734.6000      7.9004      2.5260      0.1677      7.5151    150.0107     21.5671
   734.7000      7.9004      2.5505      0.2625      6.0324    150.4591     21.2724
   734.8000      8.0796      2.5368      0.2004      6.8593    147.5350     20.7090
   734.9000      8.0796      2.5009      0.1074      9.0361    146.6179     20.2414
   735.0000      8.1113      2.4654      0.1221     11.1858    148.1390     20.1994
   735.1000      8.1113      2.4067      0.1447     14.7478    147.0670     20.5262
   735.2000      8.1113      2.3034      0.0300     21.0051    142.5695     20.6984
   735.3000      8.1210      2.1828     -0.0151     28.3134    138.7546     20.4537
   735.4000      8.1210      2.0765     -0.0588     34.7598    136.7981     20.3309
   735.5000      8.2011      2.0025     -0.1060     39.2450    134.1832     20.6000
   735.6000      8.2011      1.9734     -0.0811     41.0065    130.8156     20.9910
   735.7000      8.2011      1.9842     -0.0443     40.3518    127.9679     21.3597
   735.8000      8.1360      2.0206     -0.0135     38.1452    127.3416     21.7153
   735.9000      8.1360      2.0784      0.0643     34.6442    129.5524     21.9963
   736.0000      8.1394      2.1645      0.1652     29.4257    129.8297     22.0409
   736.1000      8.1394      2.2688      0.3136     23.1023    128.2829     21.7489
   736.2000      8.1394      2.3441      0.3815     18.5407    129.0330     21.0483
   736.3000      8.0807      2.3481      0.2524     18.2997    127.9193     19.8950
   736.4000      8.0807      2.2885      0.1195     21.9080    122.1436     18.6131
   736.5000      8.0919      2.1933      0.0562     27.6772    116.2230     18.0742
   736.6000      8.0919      2.0761     -0.0170     34.7810    113.6945     18.4500
   736.7000      8.0919      1.9465     -0.0890     42.6389    115.6115     18.9262
   736.8000      8.1147      1.8154     -0.1100     50.5809    119.7461     19.0521
   736.9000      8.1147      1.6922     -0.1791     58.0486    118.0307     18.8613
   737.0000      8.0469      1.5967     -0.1582     63.8335    107.4738     18.4731
   737.1000      8.0469      1.5578     -0.1361     66.1939     99.0319     18.5192
   737.2000      8.0469      1.5876     -0.0066     64.3871     99.2309     19.4936
   737.3000      8.0117      1.6690      0.1227     59.4544    103.7581     20.9598
   737.4000      8.0117      1.7750      0.1689     53.0330    105.7089     22.1659
   737.5000      7.9923      1.8962      0.1087     45.6863    100.0422     22.8230
   737.6000      7.9923      2.0257      0.2099     37.8368     90.9104     23.2923
   737.7000      7.9923      2.1432      0.2575     30.7135     86.6725     24.2569
   737.8000      7.9614      2.2525      0.2227     24.0927     89.4007     25.6505
   737.9000      7.9614      2.3758      0.2004     16.6157     93.6683     26.8510
   738.0000      7.9657      2.4957      0.2775      9.3514     96.3057     27.8000
   738.1000      7.9657      2.5651      0.2199      5.1481    101.9273     28.5434
   738.2000      7.9657      2.5784      0.0705      4.3380    112.0615     28.7520
   738.3000      7.9621      2.5747      0.0718      4.5653    120.5157     28.6459
   738.4000      7.9621      2.5769      0.0701      4.4294    122.4749     28.7703
   738.5000      7.9609      2.5730      0.0792      4.6682    118.4895     28.9868
   738.6000      7.9609      2.5532      0.0499      5.8674    113.7352     28.8461
   738.7000      7.9609      2.5341      0.0629      7.0251    113.2041     28.3482
   738.8000      7.9485      2.5304      0.0616      7.2462    114.2841     28.0399
   738.9000      7.9485      2.5443      0.0740      6.4058    112.7800     28.2773
   739.0000      7.8849      2.5770      0.0589      4.4228    112.4224     28.6222
   739.1000      7.8849      2.6195      0.1168      1.8457    114.8670     28.6861
   739.2000      7.8849      2.6542      0.1460     -0.2527    113.5006     28.5473
   739.3000      7.8579      2.6822      0.1257     -1.9540    107.4679     28.2682
   739.4000      7.8579      2.7092      0.1853     -3.5878    104.3855     27.8432
   739.5000      7.8782      2.7212      0.1845     -4.3153    106.8533     27.3154
   739.6000      7.8782      2.7113      0.1398     -3.7124    112.1775     26.6316
   739.7000      7.8782      2.6934      0.1111     -2.6329    119.3165     25.8767
   739.8000      7.8843      2.6866      0.0935     -2.2181    124.3504     25.4322
   739.9000      7.8843      2.6915      0.0889     -2.5163    122.3837     25.3695
   740.0000      7.8906      2.6882      0.1126     -2.3159    116.1454     25.4730
   740.1000      7.8906      2.6688      0.0104     -1.1376    112.8833     25.8581
   740.2000      7.8906      2.6485      0.0038      0.0912    114.1848     26.4417
   740.3000      7.8971      2.6360      0.0137      0.8514    116.9759     26.7416
   740.4000      7.8971      2.6311      0.0338      1.1454    118.6824     26.7628
   740.5000      7.9059      2.6309      0.0494      1.1546    117.7935     27.0239
   740.6000      7.9059      2.6272      0.0172      1.3820    115.2857     27.5347
   740.7000      7.9059      2.6205      0.0142      1.7849    114.5241     27.9621
   740.8000      7.9106      2.6251      0.0270      1.5078    116.6778     28.5481
   740.9000      7.9106      2.6471      0.0147      0.1753    118.4547     29.5310
