~Version Information
VERS.                      2.0: CWLS Log ASCII Standard - VERSION 2.0
WRAP.                       NO: One line per depth step
~Well Information Block
STRT.FT               619.7000: 
STOP.FT               951.7000: 
STEP.FT                 0.1000: 
NULL.                -999.2500: 
COMP.          Pioneer Natural Resources: COMPANY
WELL.          Screamin 12-29 Tr: WELL
FLD.           Purgatoire River: FIELD
LOC.           1979' FNL & 532' FWL--: LOCATION
CNTY.               Las Animas: COUNTY
SRVC.                Patterson: SERVICE COMPANY
DATE.          Fri Mar 31 15:43:57 2006: LOG DATE
UWI.           05 071 08660 00: UNIQUE WELL ID
STAT.                 Colorado: STATE
~Curve Information Block
DEPT.FT            0 000 00 00: Depth
DCAL.in                       : CDL Caliper
RHOB.g/cc                     : CDL Bulk Density
RHOC.g/cc                     : CDL Density Correction
DPOR.pu                       : CDL Density Porosity
GR.GAPI                       : Gamma Ray
~Parameter Information Block
~A  Depth       DCAL        RHOB        RHOC        DPOR         GR     
# ...
   810.1000      7.8909      2.6206      0.0658      1.7802     60.1950
   810.2000      7.8909      2.5778     -0.0449      4.3729     61.8120
   810.3000      7.8847      2.5575      0.0138      5.6081     66.6320
   810.4000      7.8847      2.5568      0.0881      5.6456     74.3140
   810.5000      7.8729      2.5547      0.0563      5.7759     79.2438
   810.6000      7.8729      2.5487      0.0625      6.1369     80.0995
   810.7000      7.8729      2.5371      0.0755      6.8401     80.2072
   810.8000      7.8760      2.5231      0.0454      7.6893     81.4581
   810.9000      7.8760      2.5212      0.0400      7.8075     85.3994
   811.0000      7.8854      2.5346      0.0361      6.9929     91.5065
   811.1000      7.8854      2.5533      0.0430      5.8577     95.3251
   811.2000      7.8854      2.5746      0.0488      4.5723     94.7452
   811.3000      7.8860      2.6066      0.0761      2.6309     94.6322
   811.4000      7.8860      2.6511      0.0966     -0.0653     98.7493
   811.5000      7.8784      2.6971      0.1266     -2.8524    104.5806
   811.6000      7.8784      2.7368      0.0923     -5.2601    107.9577
   811.7000      7.8784      2.7622      0.1570     -6.8019    106.9781
   811.8000      7.8704      2.7509      0.1381     -6.1125    103.9090
   811.9000      7.8704      2.7010      0.0778     -3.0909    101.8306
   812.0000      7.8643      2.6475     -0.0152      0.1500     99.3474
   812.1000      7.8643      2.6192     -0.0337      1.8668     96.9133
   812.2000      7.8643      2.6115     -0.0001      2.3343     98.1088
   812.3000      7.8699      2.6005     -0.0048      3.0002    100.3608
   812.4000      7.8699      2.5735     -0.0029      4.6369     99.7091
   812.5000      7.8947      2.5430      0.0202      6.4826    100.1652
   812.6000      7.8947      2.5240      0.0448      7.6383    104.5806
   812.7000      7.8947      2.5142     -0.0043      8.2297    109.8096
   812.8000      7.9173      2.5082      0.0252      8.5924    114.8001
   812.9000      7.9173      2.5014      0.0344      9.0091    119.0950
   813.0000      7.9222      2.4868      0.0586      9.8904    120.0434
   813.1000      7.9222      2.4690     -0.0046     10.9681    118.8141
   813.2000      7.9222      2.4668     -0.0079     11.1051    117.8293
   813.3000      7.9103      2.4878      0.0582      9.8286    117.8859
   813.4000      7.9103      2.5293      0.0446      7.3123    119.0417
   813.5000      7.8902      2.5899      0.1018      3.6450    119.4732
   813.6000      7.8902      2.6583      0.1017     -0.5016    117.5737
   813.7000      7.8902      2.7259      0.0993     -4.5980    112.5399
   813.8000      7.8766      2.7934      0.1402     -8.6897    105.7678
   813.9000      7.8766      2.8589      0.1516    -12.6597    100.5025
   814.0000      7.8756      2.9118      0.2117    -15.8659     96.7587
   814.1000      7.8756      2.9433      0.1468    -17.7741     90.8287
   814.2000      7.8756      2.9692      0.1002    -19.3484     82.6699
   814.3000      7.8750      3.0107      0.1138    -21.8612     77.3492
   814.4000      7.8750      3.0662      0.0842    -25.2253     76.9468
   814.5000      7.8661      3.1059      0.1304    -27.6330     75.3045
   814.6000      7.8661      3.0980      0.0227    -27.1542     68.1065
   814.7000      7.8661      3.0573     -0.0042    -24.6879     60.7358
   814.8000      7.8561      3.0138      0.0126    -22.0471     58.0918
   814.9000      7.8561      2.9670      0.0296    -19.2114     57.9981
   815.0000      7.8414      2.9067      0.0098    -15.5562     57.0281
   815.1000      7.8414      2.8412     -0.0111    -11.5885     55.6414
   815.2000      7.8414      2.7840     -0.0129     -8.1195     56.9051
   815.3000      7.8304      2.7301     -0.0500     -4.8574     63.3721
   815.4000      7.8304      2.6720     -0.0429     -1.3325     72.7953
   815.5000      7.8434      2.6070     -0.0122      2.6036     79.8955
   815.6000      7.8434      2.5353     -0.0165      6.9489     84.9307
   815.7000      7.8434      2.4704     -0.0347     10.8856     91.1835
   815.8000      7.8755      2.4302     -0.0017     13.3212     99.8902
   815.9000      7.8755      2.4137      0.0176     14.3219    111.2353
   816.0000      7.9033      2.4028      0.0204     14.9819    120.3100
   816.1000      7.9033      2.3795      0.0406     16.3913    121.0397
   816.2000      7.9033      2.3449     -0.0099     18.4911    116.9163
   816.3000      7.9233      2.3242      0.0343     19.7458    114.3406
   816.4000      7.9233      2.3371      0.0496     18.9654    114.7443
   816.5000      7.9373      2.3765      0.0859     16.5762    119.7874
   816.6000      7.9373      2.4194      0.1240     13.9755    128.3025
   816.7000      7.9373      2.4485      0.1260     12.2142    134.4492
   816.8000      7.9450      2.4623      0.1056     11.3768    133.7494
   816.9000      7.9450      2.4698      0.0815     10.9207    128.0450
   817.0000      7.9488      2.4787      0.0729     10.3832    122.3838
   817.1000      7.9488      2.4829      0.0938     10.1293    118.7921
   817.2000      7.9488      2.4741      0.0663     10.6608    117.8074
   817.3000      7.9442      2.4613      0.0235     11.4375    119.8156
   817.4000      7.9442      2.4567      0.0359     11.7142    123.5143
   817.5000      7.9388      2.4567      0.0477     11.7133    126.4895
   817.6000      7.9388      2.4476      0.0665     12.2678    125.3712
   817.7000      7.9388      2.4354     -0.0015     13.0048    120.6688
   817.8000      7.9435      2.4447      0.0356     12.4409    118.9918
   817.9000      7.9435      2.4721      0.0557     10.7814    120.3389
   818.0000      7.9509      2.4896      0.0915      9.7215    118.1682
   818.1000      7.9509      2.4855      0.0864      9.9721    113.5004
   818.2000      7.9509      2.4771      0.0159     10.4765    112.5095
   818.3000      7.9483      2.4840      0.0741     10.0582    115.3053
   818.4000      7.9483      2.5034      0.0892      8.8856    117.7825
   818.5000      7.9433      2.5188      0.1079      7.9494    118.1950
   818.6000      7.9433      2.5169      0.0785      8.0669    117.8808
   818.7000      7.9433      2.4986      0.0609      9.1749    118.2191
   818.8000      7.9414      2.4760      0.0917     10.5479    119.8699
   818.9000      7.9414      2.4603      0.0884     11.4977    122.7938
   819.0000      7.9398      2.4586      0.0498     11.6019    123.9217
   819.1000      7.9398      2.4627      0.0642     11.3509    121.9591
   819.2000      7.9398      2.4581      0.0590     11.6289    121.0662
   819.3000      7.9378      2.4521      0.0353     11.9918    122.7155
   819.4000      7.9378      2.4580      0.0658     11.6392    123.9919
   819.5000      7.9349      2.4633      0.1018     11.3137    122.9550
   819.6000      7.9349      2.4552      0.0475     11.8054    122.6211
   819.7000      7.9349      2.4483      0.0159     12.2234    126.1082
   819.8000      7.9326      2.4535      0.0768     11.9062    132.8581
   819.9000      7.9326      2.4601      0.0647     11.5075    139.2321
   820.0000      7.9378      2.4608      0.0864     11.4691    140.1163
   820.1000      7.9378      2.4570      0.0800     11.6984    134.0300
   820.2000      7.9378      2.4487      0.0820     12.2017    125.2188
   820.3000      7.9507      2.4369      0.0608     12.9139    121.0171
   820.4000      7.9507      2.4270      0.0456     13.5136    122.5553
   820.5000      7.9694      2.4250      0.0463     13.6365    123.4444
   820.6000      7.9694      2.4312      0.0771     13.2591    121.0889
   820.7000      7.9694      2.4400      0.0660     12.7283    121.0454
   820.8000      7.9863      2.4480      0.0628     12.2434    124.9317
   820.9000      7.9863      2.4548      0.0739     11.8313    125.3687
   821.0000      8.0001      2.4619      0.0556     11.3979    121.8645
   821.1000      8.0001      2.4734      0.0188     10.7027    121.0732
   821.2000      8.0001      2.4864      0.0427      9.9163    123.8353
