~Version Information
VERS.                      2.0: CWLS Log ASCII Standard - VERSION 2.0
WRAP.                       NO: One line per depth step
~Well Information Block
STRT.FT               410.0000: 
STOP.FT              1252.0000: 
STEP.FT                 0.2500: 
NULL.                -999.2500: 
COMP.          Petrogulf Corporation: COMPANY
WELL.           Parsons 15-23R: WELL
FLD.           Purgatorie River: FIELD
LOC.           2244' FSL & 1932' FWL: LOCATION
PROV.                 Colorado: PROVINCE
CNTY.               Las Animas: COUNTRY
SRVC.                Patterson: SERVICE COMPANY
DATE.          Mon Sep 12 10:30:11 2005: LOG DATE
UWI.                          : UNIQUE WELL ID
~Curve Information Block
DEPT.FT            0 000 00 00: Depth
SP.mV                         : DIL Spontaneous Potential
RILD.Ohm-m                    : DIL Deep Resistivity
RILM.Ohm-m                    : DIL Medium Resistivity
RLL3.Ohm-m                    : DIL Shallow Resistivity
GR.GAPI                       : Gamma Ray
~Parameter Information Block
~A  Depth        SP         RILD        RILM        RLL3         GR     
# ...
  1110.0000    212.4193      9.3070      8.9480     11.1927    138.0564
  1110.2500    211.2755     10.0367      9.4564     10.9447    142.1525
  1110.5000    209.7329     10.6442     10.0639     10.4240    143.3003
  1110.7500    208.1481     11.2188     10.6294     10.6264    158.4127
  1111.0000    206.4968     12.1648     11.8354     10.4141    149.2833
  1111.2500    205.2558     12.6812     13.5398     11.8387    135.0260
  1111.5000    204.7542     13.2689     15.5293     19.5031    118.4984
  1111.7500    204.3489     13.7846     17.7940     41.2328    106.6548
  1112.0000    204.2129     14.1354     19.8986     75.3968     88.5797
  1112.2500    204.5162     14.0710     22.2067     91.4542    106.4021
  1112.5000    205.1577     14.0024     21.6057     75.8706     98.0810
  1112.7500    205.7304     14.0575     21.4504     60.7516    109.7133
  1113.0000    206.5996     13.9953     21.0898     50.7612    112.1267
  1113.2500    207.2953     13.7186     19.4308     38.5270    149.8995
  1113.5000    208.2065     13.6988     17.8016     27.5739    142.7146
  1113.7500    208.9178     13.5105     16.4927     18.6439    144.3344
  1114.0000    209.4635     13.1652     14.7520     13.3938    140.0801
  1114.2500    209.7431     12.6717     13.7349     11.7516    147.5956
  1114.5000    209.5910     12.2689     12.8675     10.8167    135.9901
  1114.7500    209.0835     11.9039     11.8977     10.6030    149.4041
  1115.0000    208.3556     11.4437     11.2245     10.3215    172.4891
  1115.2500    207.9579     10.9316     10.7353     10.1481    171.9364
  1115.5000    207.3513     10.6226     10.3946     10.1402    170.6305
  1115.7500    207.0105     10.4111      9.9634      9.9600    162.8130
  1116.0000    206.8823     10.1562      9.6176      9.8753    179.6913
  1116.2500    206.9646     10.0740      9.5169      9.7049    175.6814
  1116.5000    206.5103     10.1243      9.5694      9.7593    165.0280
  1116.7500    206.2427     10.1591      9.7120      9.5679    142.5267
  1117.0000    206.2928     10.2511     10.0393      9.7428    131.6544
  1117.2500    206.4299     10.2614     10.5139     10.9252    128.7286
  1117.5000    206.5921     10.6479     10.8547     12.8157    125.6745
  1117.7500    206.6687     10.9743     11.3058     15.1183    114.5628
  1118.0000    207.3463     11.3344     11.6293     15.3339    119.6421
  1118.2500    207.9465     11.3701     12.0313     13.9947    130.8648
  1118.5000    208.8802     11.7831     12.2712     13.4360    114.8928
  1118.7500    209.3981     12.2758     12.8068     13.7518    113.9972
  1119.0000    209.6922     12.4064     13.4254     13.9183    132.9584
  1119.2500    209.8170     12.7520     13.9632     14.0830    119.1587
  1119.5000    209.8162     12.9589     14.1250     14.6837    115.0109
  1119.7500    209.7232     13.0329     14.6702     14.9138    119.4062
  1120.0000    209.7555     12.9234     14.8980     15.3452    115.9934
  1120.2500    209.7080     12.5670     14.7307     16.0828    116.0767
  1120.5000    209.9160     12.3709     14.5094     16.1741    115.1205
  1120.7500    209.8524     12.3170     13.9590     15.5267    114.1100
  1121.0000    209.7206     12.3148     13.5874     14.4528    128.6221
  1121.2500    209.6452     12.1793     12.6846     13.2003    139.2301
  1121.5000    209.5334     11.8863     12.0288     11.9665    147.9636
  1121.7500    209.6022     11.7502     11.2676     10.5926    164.8068
  1122.0000    209.3500     11.5692     11.3067      9.9460    180.8730
  1122.2500    209.3637     11.3487     10.9793      9.5398    186.8498
  1122.5000    209.4989     11.1935     10.5649      9.8558    158.3395
  1122.7500    209.6536     10.8514     10.5423      9.9422    157.0179
  1123.0000    209.4165     10.4607     10.3494      9.6902    144.8551
  1123.2500    208.7860      9.9938     10.0252      9.5403    159.4222
  1123.5000    208.0872      9.8496      9.8290      9.2161    167.2193
  1123.7500    207.2755      9.7495      9.6036      9.2539    165.1123
  1124.0000    206.7001      9.7281      9.6467      9.2671    166.2518
  1124.2500    205.6039      9.6148      9.3760      8.7094    162.6533
  1124.5000    204.7003      9.5096      9.1774      8.1683    177.1585
  1124.7500    204.1310      9.5344      9.0121      8.0882    169.1142
  1125.0000    203.5701      9.4642      9.0202      8.1883    184.6274
  1125.2500    203.4630      9.3395      8.9806      7.9588    177.5210
  1125.5000    203.2799      9.3002      8.8826      8.2518    171.6850
  1125.7500    203.2699      9.0794      8.7381      8.6050    167.9694
  1126.0000    203.4818      9.0841      8.6134      8.5623    167.7193
  1126.2500    203.9046      8.7783      8.5436      8.4349    170.4427
  1126.5000    203.9262      8.5535      8.4832      8.3776    166.9034
  1126.7500    203.7516      8.2963      8.4099      8.6277    162.4915
  1127.0000    203.5194      8.1581      8.2432      8.9907    166.4370
  1127.2500    203.9142      8.1693      7.9637      9.0919    156.3573
  1127.5000    204.3164      8.0372      7.7270      8.9449    172.8976
  1127.7500    204.6867      8.0016      7.4740      8.5312    180.3628
  1128.0000    204.9140      8.0433      7.3501      8.1457    175.9440
  1128.2500    204.5047      8.2223      7.3221      7.7611    158.9336
  1128.5000    204.2444      8.3386      7.3112      7.7957    179.2011
  1128.7500    203.6223      8.5490      7.4356      7.5620    179.9516
  1129.0000    203.0770      8.7013      7.7149      7.0489    162.3858
  1129.2500    203.1094      8.7701      8.1899      7.3884    136.8624
  1129.5000    203.7947      8.8457      8.8474     10.6228    132.0021
  1129.7500    204.9381      8.8915      9.3821     20.4707    126.2324
  1130.0000    206.0981      9.0149      9.9638     35.7531    123.5236
  1130.2500    207.1512      9.1240     10.1765     30.8922    120.5624
  1130.5000    208.1880      9.1592     10.4010     17.6510    118.3918
  1130.7500    208.9205      9.1540     10.5184     12.5245    138.6454
  1131.0000    208.9769      9.5405     10.4842     12.1794    124.7023
  1131.2500    208.8025      9.5497     10.6207     13.1893    123.8774
  1131.5000    208.6165      9.6519     10.7902     13.5450    135.5301
  1131.7500    208.6331      9.5236     10.6698     12.9163    133.4227
  1132.0000    208.9602      9.5493     10.4052     11.3232    135.3716
  1132.2500    209.3145      9.3046     10.3440     10.7272    149.6535
  1132.5000    209.5746      8.9605     10.0473     10.6877    166.5995
  1132.7500    209.6913      9.0294      9.6992     10.7516    142.7889
  1133.0000    209.2460      8.8772      9.4103     10.4080    157.2892
  1133.2500    208.6529      8.8127      9.1615     10.0975    147.2623
  1133.5000    207.9375      8.7816      8.9372      9.9406    143.9929
  1133.7500    207.6177      8.4543      8.7102      9.7885    123.6915
  1134.0000    207.2916      8.5010      8.5252      9.4946    150.4945
  1134.2500    206.8125      8.3978      8.5235      9.0851    152.5097
  1134.5000    206.3368      8.4685      8.4816      9.7333    153.4910
  1134.7500    205.8299      8.6090      8.3716     10.3181    133.5434
  1135.0000    205.3069      8.7386      8.5180     10.5733    140.6448
  1135.2500    204.6587      9.0143      8.6082     10.4030    150.2303
  1135.5000    204.0752      9.3243      8.8442     10.1664    173.2255
  1135.7500    203.5398      9.4688      9.1133      9.6380    151.7862
  1136.0000    203.0635      9.7445      9.5639      9.5636    163.5892
  1136.2500    202.5181     10.0364     10.4796     10.0633    143.8662
  1136.5000    201.9461     10.3950     10.8736     12.6851    127.3669
  1136.7500    201.5364     10.6563     11.7257     16.6051    121.7097
  1137.0000    200.9974     10.7570     12.4731     18.4972    101.4446
  1137.2500    200.6931     10.9757     12.9102     19.9078    103.4746
  1137.5000    200.2700     11.1145     13.5080     22.4358     97.4993
  1137.7500    200.1329     11.0805     13.4380     24.1768    115.4487
