~Version Information
VERS.                      2.0: CWLS Log ASCII Standard - VERSION 2.0
WRAP.                       NO: One line per depth step
~Well Information Block
STRT.FT               686.2000: 
STOP.FT              1252.7000: 
STEP.FT                 0.1000: 
NULL.                -999.2500: 
COMP.          Pioneer Natural Resources: COMPANY
WELL.          Rock Island 44-24 Tr: WELL
FLD.           Purgatoire River: FIELD
LOC.           814' FSL & 761' FEL--: LOCATION
CNTY.               Las Animas: COUNTY
SRVC.                Patterson: SERVICE COMPANY
DATE.          Thu Apr 20 08:34:45 2006: LOG DATE
UWI.           05 071 08680 00: UNIQUE WELL ID
STAT.                 Colorado: STATE
~Curve Information Block
DEPT.FT            0 000 00 00: Depth
DCAL.in                       : CDL Caliper
RHOB.g/cc                     : CDL Bulk Density
RHOC.g/cc                     : CDL Density Correction
DPOR.pu                       : CDL Density Porosity
GR.GAPI                       : Gamma Ray
~Parameter Information Block
~A  Depth       DCAL        RHOB        RHOC        DPOR         GR     
# ...
  1123.0000      8.1632      2.4338      0.0316     13.1005    113.7399
  1123.1000      8.1632      2.4310      0.0296     13.2713    114.2151
  1123.2000      8.1632      2.4287      0.0643     13.4119    121.3276
  1123.3000      8.1563      2.4146      0.0666     14.2696    130.2321
  1123.4000      8.1563      2.3973      0.0124     15.3147    137.5404
  1123.5000      8.1454      2.4012      0.0226     15.0769    140.5755
  1123.6000      8.1454      2.4277      0.0438     13.4751    136.1461
  1123.7000      8.1454      2.4519      0.0682     12.0079    126.6175
  1123.8000      8.1399      2.4506      0.0841     12.0872    120.4025
  1123.9000      8.1399      2.4252      0.0320     13.6255    120.5513
  1124.0000      8.1472      2.4021      0.0144     15.0235    122.5084
  1124.1000      8.1472      2.3958      0.0582     15.4041    125.8076
  1124.2000      8.1472      2.3934      0.0617     15.5495    131.9604
  1124.3000      8.1692      2.3866      0.0423     15.9624    137.0164
  1124.4000      8.1692      2.3798      0.0787     16.3777    136.2596
  1124.5000      8.2037      2.3652      0.0862     17.2605    131.3071
  1124.6000      8.2037      2.3223      0.0581     19.8615    127.1739
  1124.7000      8.2037      2.2353      0.0288     25.1349    126.5146
  1124.8000      8.2407      2.1089     -0.0558     32.7951    128.4038
  1124.9000      8.2407      1.9709     -0.0930     41.1552    129.4116
  1125.0000      8.2641      1.8431     -0.1112     48.9020    128.5582
  1125.1000      8.2641      1.7276     -0.1439     55.9006    129.9834
  1125.2000      8.2641      1.6312     -0.1845     61.7428    135.1891
  1125.3000      8.2759      1.5639     -0.1684     65.8247    140.4902
  1125.4000      8.2759      1.5214     -0.0639     68.4004    144.1639
  1125.5000      8.3025      1.4974     -0.0621     69.8535    144.6262
  1125.6000      8.3025      1.5005     -0.0368     69.6675    141.9857
  1125.7000      8.3025      1.5360      0.1412     67.5169    141.7892
  1125.8000      8.3826      1.5755      0.3151     65.1202    147.2303
  1125.9000      8.3826      1.5744      0.3242     65.1901    156.0783
  1126.0000      8.4775      1.5276      0.1991     68.0265    162.5714
  1126.1000      8.4775      1.4790      0.1266     70.9675    161.4584
  1126.2000      8.4775      1.4661      0.0934     71.7490    153.5939
  1126.3000      8.4656      1.4712      0.1440     71.4426    144.6754
  1126.4000      8.4656      1.4385      0.1362     73.4218    139.4699
  1126.5000      8.3917      1.3560      0.0115     78.4213    135.9153
  1126.6000      8.3917      1.2880     -0.0309     82.5428    128.7123
  1126.7000      8.3917      1.2947      0.0714     82.1396    117.3841
  1126.8000      8.4622      1.3614      0.2533     78.0981    105.1405
  1126.9000      8.4622      1.4368      0.2873     73.5275     95.3601
  1127.0000      8.6188      1.4952      0.2756     69.9852     90.2959
  1127.1000      8.6188      1.5306      0.2944     67.8416     89.6002
  1127.2000      8.6188      1.5344      0.2245     67.6146     88.2954
  1127.3000      8.6359      1.5084      0.1906     69.1876     81.9299
  1127.4000      8.6359      1.4700      0.1774     71.5165     73.0444
  1127.5000      8.5348      1.4362      0.1920     73.5627     66.5331
  1127.6000      8.5348      1.4130      0.1914     74.9710     63.9275
  1127.7000      8.5348      1.3952      0.1783     76.0483     63.2073
  1127.8000      8.4513      1.3702      0.1508     77.5624     62.7336
  1127.9000      8.4513      1.3264      0.0961     80.2202     62.2972
  1128.0000      8.3812      1.2670     -0.0216     83.8155     61.0307
  1128.1000      8.3812      1.2086     -0.0124     87.3605     57.4181
  1128.2000      8.3812      1.1685     -0.0113     89.7850     52.2007
  1128.3000      8.2947      1.1751      0.0411     89.3875     48.8960
  1128.4000      8.2947      1.2677      0.0636     83.7775     48.5325
  1128.5000      8.2288      1.4562      0.2313     72.3541     46.9925
  1128.6000      8.2288      1.6880      0.4181     58.3048     41.9990
  1128.7000      8.2288      1.8979      0.4777     45.5837     38.6041
  1128.8000      8.1960      2.0630      0.5252     35.5741     40.7846
  1128.9000      8.1960      2.1905      0.5208     27.8499     45.5599
  1129.0000      8.1692      2.3021      0.4754     21.0876     48.5712
  1129.1000      8.1692      2.4152      0.4805     14.2293     50.8059
  1129.2000      8.1692      2.5169      0.4582      8.0658     56.3083
  1129.3000      8.1040      2.5819      0.4126      4.1283     64.4188
  1129.4000      8.1040      2.6016      0.2815      2.9338     70.2095
  1129.5000      8.0044      2.5894      0.1533      3.6723     72.0888
  1129.6000      8.0044      2.5682      0.0771      4.9598     72.9957
  1129.7000      8.0044      2.5540      0.0483      5.8173     74.1883
  1129.8000      7.9448      2.5484      0.0726      6.1593     73.2200
  1129.9000      7.9448      2.5451      0.0367      6.3592     69.4208
  1130.0000      7.9332      2.5500      0.0088      6.0616     66.5113
  1130.1000      7.9332      2.5727      0.0342      4.6864     65.8609
  1130.2000      7.9332      2.6031      0.0874      2.8433     65.1528
  1130.3000      7.9306      2.6219      0.0777      1.7015     63.9964
  1130.4000      7.9306      2.6266      0.0642      1.4161     63.1472
  1130.5000      7.9227      2.6271      0.0752      1.3879     62.4656
  1130.6000      7.9227      2.6276      0.0972      1.3554     62.5683
  1130.7000      7.9227      2.6238      0.1015      1.5891     63.8667
  1130.8000      7.9166      2.6097      0.1105      2.4426     65.4290
  1130.9000      7.9166      2.5845      0.0503      3.9702     67.1985
  1131.0000      7.9140      2.5600      0.0249      5.4565     69.3542
  1131.1000      7.9140      2.5501      0.0186      6.0556     70.7689
  1131.2000      7.9140      2.5466      0.0432      6.2658     71.8570
  1131.3000      7.9128      2.5395     -0.0068      6.6949     75.7480
  1131.4000      7.9128      2.5410      0.0320      6.6086     81.0795
  1131.5000      7.9179      2.5536      0.0503      5.8418     83.7431
  1131.6000      7.9179      2.5582      0.0888      5.5657     85.9800
  1131.7000      7.9179      2.5438      0.0626      6.4341     90.5876
  1131.8000      7.9298      2.5283      0.0190      7.3773     95.5150
  1131.9000      7.9298      2.5242      0.0770      7.6230    100.8902
  1132.0000      7.9406      2.5186      0.0483      7.9620    107.7168
  1132.1000      7.9406      2.5085      0.0410      8.5762    114.2220
  1132.2000      7.9406      2.5044      0.0216      8.8237    121.7601
  1132.3000      7.9501      2.5098      0.0498      8.4952    131.5905
  1132.4000      7.9501      2.5309      0.0221      7.2165    140.2388
  1132.5000      7.9541      2.5784      0.0810      4.3373    142.0242
  1132.6000      7.9541      2.6478      0.0595      0.1325    135.7926
  1132.7000      7.9541      2.7165      0.1603     -4.0309    127.9269
  1132.8000      7.9507      2.7613      0.1419     -6.7468    124.6224
  1132.9000      7.9507      2.7780      0.1567     -7.7582    126.2989
  1133.0000      7.9496      2.7684      0.1434     -7.1742    126.5983
  1133.1000      7.9496      2.7366      0.0970     -5.2500    119.8511
  1133.2000      7.9496      2.7054      0.0489     -3.3548    109.4253
  1133.3000      7.9538      2.6942      0.0270     -2.6807    103.2127
  1133.4000      7.9538      2.6929      0.0192     -2.6010    101.3784
  1133.5000      7.9589      2.6792     -0.0113     -1.7723    100.5331
  1133.6000      7.9589      2.6425     -0.0361      0.4541    103.2130
  1133.7000      7.9589      2.5898     -0.0764      3.6509    108.9105
  1133.8000      7.9639      2.5434     -0.0729      6.4600    112.0468
  1133.9000      7.9639      2.5205     -0.0145      7.8464    111.4371
  1134.0000      7.9671      2.5185      0.0106      7.9683    108.9941
  1134.1000      7.9671      2.5215      0.0426      7.7862    106.9042
