~Version Information
VERS.                      2.0: CWLS Log ASCII Standard - VERSION 2.0
WRAP.                       NO: One line per depth step
~Well Information Block
STRT.FT               694.2000: 
STOP.FT              1498.5000: 
STEP.FT                 0.1000: 
NULL.                -999.2500: 
COMP.          Pioneer Natural Resources: COMPANY
WELL.          Pallet Ranch 34-25 Tr: WELL
FLD.           Purgatoire River: FIELD
LOC.           465' FSL & 2138' FEL: LOCATION
PROV.                 Colorado: PROVINCE
CNTY.               Las Animas: COUNTRY
SRVC.                Patterson: SERVICE COMPANY
DATE.          Thu Jan 19 06:39:54 2006: LOG DATE
UWI.           05 071 08657 00: UNIQUE WELL ID
~Curve Information Block
DEPT.FT            0 000 00 00: Depth
DCAL.in                       : CDL Caliper
RHOB.g/cc                     : CDL Bulk Density
RHOC.g/cc                     : CDL Density Correction
DPOR.pu                       : CDL Density Porosity
GR.GAPI                       : Gamma Ray
~Parameter Information Block
~A  Depth       DCAL        RHOB        RHOC        DPOR         GR     
# ...
  1175.8000      7.9421      2.2848     -0.0455     22.1345     69.6112
  1175.9000      7.9421      2.2583      0.0114     23.7423     73.9234
  1176.0000      7.9540      2.2207     -0.0048     26.0161     80.4867
  1176.1000      7.9540      2.1774      0.0122     28.6448     89.0042
  1176.2000      7.9540      2.1325      0.0296     31.3667     96.3857
  1176.3000      7.9819      2.0701      0.0544     35.1485     99.7715
  1176.4000      7.9819      1.9835     -0.0447     40.3951     99.4096
  1176.5000      8.0192      1.8922     -0.0213     45.9298     97.1988
  1176.6000      8.0192      1.8074     -0.0312     51.0657     94.5584
  1176.7000      8.0192      1.7264      0.0004     55.9734     91.9617
  1176.8000      8.0881      1.6498     -0.0354     60.6162     85.5388
  1176.9000      8.0881      1.5813     -0.0388     64.7703     74.5522
  1177.0000      8.1228      1.5207     -0.0429     68.4433     63.9158
  1177.1000      8.1228      1.4659     -0.0384     71.7658     56.8581
  1177.2000      8.1228      1.4217     -0.0184     74.4435     54.7520
  1177.3000      8.1579      1.3978      0.0176     75.8910     56.6583
  1177.4000      8.1579      1.3994      0.0990     75.7936     58.4525
  1177.5000      8.1755      1.4349      0.0283     73.6403     57.3123
  1177.6000      8.1755      1.5159      0.0668     68.7331     55.9623
  1177.7000      8.1755      1.6302      0.1120     61.8031     59.4652
  1177.8000      8.2142      1.7607      0.1122     53.8941     68.5340
  1177.9000      8.2142      1.9097      0.1773     44.8670     77.1526
  1178.0000      8.4282      2.0644      0.2504     35.4900     80.6067
  1178.1000      8.4282      2.1943      0.2720     27.6210     82.0088
  1178.2000      8.4282      2.2972      0.2576     21.3805     85.0318
  1178.3000      8.8022      2.4016      0.1899     15.0522     88.7346
  1178.4000      8.8022      2.5103      0.2040      8.4637     90.9650
  1178.5000      9.0175      2.5880      0.1493      3.7550     89.6188
  1178.6000      9.0175      2.6170      0.1002      2.0004     84.0903
  1178.7000      9.0175      2.6120      0.0865      2.3016     80.0794
  1178.8000      8.5972      2.5932      0.0221      3.4454     82.6804
  1178.9000      8.5972      2.5771      0.0030      4.4183     87.8635
  1179.0000      8.0953      2.5718      0.0354      4.7383     89.7785
  1179.1000      8.0953      2.5734      0.0127      4.6407     88.9903
  1179.2000      8.0953      2.5763      0.0031      4.4689     96.0834
  1179.3000      7.9653      2.5818      0.0011      4.1355     94.2458
  1179.4000      7.9653      2.5940     -0.0204      3.3925     96.3418
  1179.5000      7.9605      2.6092     -0.0104      2.4740    103.8503
  1179.6000      7.9605      2.6197      0.0403      1.8350    112.5750
  1179.7000      7.9605      2.6220      0.0224      1.6944    117.6810
  1179.8000      7.9664      2.6199      0.0322      1.8259    117.9674
  1179.9000      7.9664      2.6187      0.0532      1.8981    118.0492
  1180.0000      7.9315      2.6182      0.0283      1.9274    121.0366
  1180.1000      7.9315      2.6212      0.0087      1.7478    124.2516
  1180.2000      7.9315      2.6317      0.0106      1.1088    137.8489
  1180.3000      7.9174      2.6337      0.0847      0.9894    143.9182
  1180.4000      7.9174      2.6019      0.0478      2.9126    156.6893
  1180.5000      7.9200      2.5471     -0.0541      6.2342    166.2079
  1180.6000      7.9200      2.5072     -0.0221      8.6518    162.6292
  1180.7000      7.9200      2.5009     -0.0188      9.0354    156.7120
  1180.8000      7.9318      2.5197     -0.0290      7.8975    159.6016
  1180.9000      7.9318      2.5350      0.0527      6.9672    164.1811
  1181.0000      7.9294      2.5295     -0.0108      7.3039    163.4623
  1181.1000      7.9294      2.5289     -0.0617      7.3365    160.3678
  1181.2000      7.9294      2.5570      0.0360      5.6360    157.1487
  1181.3000      7.9703      2.5987      0.0250      3.1083    153.4700
  1181.4000      7.9703      2.6317      0.0629      1.1112    147.7973
  1181.5000      7.9845      2.6396      0.0830      0.6322    139.6075
  1181.6000      7.9845      2.6192      0.0443      1.8681    132.2046
  1181.7000      7.9845      2.5897      0.0323      3.6559    125.1583
  1181.8000      8.0057      2.5716      0.0135      4.7485    116.1733
  1181.9000      8.0057      2.5747      0.0169      4.5646    107.5682
  1182.0000      7.9132      2.6011      0.0133      2.9655    103.6767
  1182.1000      7.9132      2.6337      0.0704      0.9868    104.4786
  1182.2000      7.9132      2.6441      0.0978      0.3562    104.1880
  1182.3000      7.9140      2.6261      0.0634      1.4515    104.3031
  1182.4000      7.9140      2.5957     -0.0214      3.2893    109.2004
  1182.5000      7.9376      2.5717      0.0216      4.7468    113.5175
  1182.6000      7.9376      2.5666      0.0155      5.0575    114.2391
  1182.7000      7.9376      2.5851     -0.0065      3.9344    115.2377
  1182.8000      7.9582      2.6092      0.0868      2.4713    116.8200
  1182.9000      7.9582      2.6157      0.0705      2.0815    119.4506
  1183.0000      7.9293      2.6143     -0.0018      2.1630    126.7272
  1183.1000      7.9293      2.6199      0.0993      1.8213    136.5119
  1183.2000      7.9293      2.6230      0.0299      1.6345    142.0249
  1183.3000      7.9340      2.6242      0.0335      1.5665    138.5249
  1183.4000      7.9340      2.6329      0.0384      1.0387    130.6141
  1183.5000      7.9378      2.6444      0.0772      0.3370    126.2263
  1183.6000      7.9378      2.6473      0.0931      0.1628    121.6060
  1183.7000      7.9378      2.6410      0.0480      0.5446    114.7017
  1183.8000      7.9417      2.6366      0.0588      0.8107    110.0017
  1183.9000      7.9417      2.6357      0.0955      0.8693    108.3738
  1184.0000      7.9421      2.6251      0.0359      1.5094    106.6324
  1184.1000      7.9421      2.6026      0.0420      2.8745    104.4932
  1184.2000      7.9421      2.5839      0.0161      4.0069    105.4898
  1184.3000      7.9387      2.5792      0.0272      4.2897    108.2229
  1184.4000      7.9387      2.5826      0.0328      4.0874    108.3677
  1184.5000      7.9176      2.5871      0.0245      3.8105    104.8896
  1184.6000      7.9176      2.5911      0.0672      3.5705     98.6546
  1184.7000      7.9176      2.5945     -0.0195      3.3642     91.7832
  1184.8000      7.9181      2.6038      0.0309      2.8022     88.1260
  1184.9000      7.9181      2.6208      0.0645      1.7673     88.3758
  1185.0000      7.9071      2.6376      0.0916      0.7525     90.0353
  1185.1000      7.9071      2.6425      0.0566      0.4548     90.8858
  1185.2000      7.9071      2.6314      0.0948      1.1276     86.7621
  1185.3000      7.9036      2.6184      0.0091      1.9145     82.6177
  1185.4000      7.9036      2.6222      0.0627      1.6836     86.9600
  1185.5000      7.9213      2.6392      0.0811      0.6541     94.7963
  1185.6000      7.9213      2.6595      0.0207     -0.5787     95.9800
  1185.7000      7.9213      2.6837      0.1003     -2.0452     91.1272
  1185.8000      7.9463      2.7165      0.0669     -4.0283     89.3539
  1185.9000      7.9463      2.7672      0.0921     -7.1030     91.8117
  1186.0000      7.9165      2.8310      0.1441    -10.9676     92.8779
  1186.1000      7.9165      2.8809      0.1800    -13.9960     91.3840
  1186.2000      7.9165      2.8945      0.1361    -14.8189     89.4171
  1186.3000      7.8863      2.8655      0.1019    -13.0581     90.6836
  1186.4000      7.8863      2.7946      0.0441     -8.7662     95.2088
  1186.5000      7.8987      2.7058     -0.1114     -3.3796     97.0875
  1186.6000      7.8987      2.6452     -0.1295      0.2912     92.3965
  1186.7000      7.8987      2.6288     -0.0580      1.2854     84.9663
  1186.8000      7.9125      2.6359      0.0128      0.8571     82.3153
  1186.9000      7.9125      2.6480      0.0528      0.1241     86.0149
