~Version Information
VERS.                      2.0: CWLS Log ASCII Standard - VERSION 2.0
WRAP.                       NO: One line per depth step
~Well Information Block
STRT.FT               840.0000: 
STOP.FT              1913.5000: 
STEP.FT                 0.2500: 
NULL.                -999.2500: 
COMP.          Petrogulf Corporation: COMPANY
WELL.             Kraft 17-23R: WELL
FLD.           Purgatorie River: FIELD
LOC.           1509' FSL & 1673' FWL: LOCATION
PROV.                 Colorado: PROVINCE
CNTY.               Las Animas: COUNTRY
SRVC.                Patterson: SERVICE COMPANY
DATE.          Tue Oct 11 13:03:25 2005: LOG DATE
UWI.                          : UNIQUE WELL ID
~Curve Information Block
DEPT.FT            0 000 00 00: Depth
SP.mV                         : DIL Spontaneous Potential
RILD.Ohm-m                    : DIL Deep Resistivity
RILM.Ohm-m                    : DIL Medium Resistivity
RLL3.Ohm-m                    : DIL Shallow Resistivity
GR.GAPI                       : Gamma Ray
~Parameter Information Block
~A  Depth        SP         RILD        RILM        RLL3         GR     
# ...
  1176.0000    173.1186     48.9204     57.1550     89.7784     33.6745
  1176.2500    173.5349     49.7997     59.1847     91.8320     32.1779
  1176.5000    174.0629     50.5384     60.8487     90.3236     30.3970
  1176.7500    174.6933     51.1538     62.1201     85.1726     29.8276
  1177.0000    175.4061     51.6558     63.0133     77.7202     30.3564
  1177.2500    176.1781     52.0103     63.5651     70.0950     31.6439
  1177.5000    176.9925     52.1138     63.8028     64.0865     34.6723
  1177.7500    177.8418     51.7950     63.7104     60.5233     37.1743
  1178.0000    178.7208     50.8439     63.2000     59.4379     41.1328
  1178.2500    179.6175     49.0773     62.1036     60.4882     43.5780
  1178.5000    180.5092     46.4345     60.2030     63.1486     46.6786
  1178.7500    181.3667     43.0463     57.3065     66.6979     48.5489
  1179.0000    182.1632     39.2073     53.3556     70.2000     51.6951
  1179.2500    182.8846     35.2617     48.5049     72.4954     54.2359
  1179.5000    183.5360     31.4878     43.1117     72.2262     58.6210
  1179.7500    184.1377     28.0499     37.6259     68.1732     61.8602
  1180.0000    184.7142     25.0124     32.4489     60.0187     67.5424
  1180.2500    185.2832     22.3782     27.8431     48.9636     72.3042
  1180.5000    185.8526     20.1203     23.9187     37.3843     81.4632
  1180.7500    186.4224     18.1979     20.6713     27.5898     88.7635
  1181.0000    186.9900     16.5631     18.0322     20.7123    100.0389
  1181.2500    187.5520     15.1659     15.9079     16.5620    106.5529
  1181.5000    188.1059     13.9616     14.2042     14.2606    113.6765
  1181.7500    188.6521     12.9161     12.8373     12.9368    117.0691
  1182.0000    189.1960     12.0060     11.7380     12.0512    121.6342
  1182.2500    189.7444     11.2152     10.8506     11.3854    124.5886
  1182.5000    190.2970     10.5308     10.1310     10.9039    127.7077
  1182.7500    190.8392      9.9412      9.5445     10.6251    128.0966
  1183.0000    191.3453      9.4359      9.0631     10.5438    126.0550
  1183.2500    191.7870      9.0055      8.6647     10.6025    123.5780
  1183.5000    192.1400      8.6418      8.3315     10.7088    119.8480
  1183.7500    192.3898      8.3373      8.0498     10.7753    118.6751
  1184.0000    192.5365      8.0860      7.8098     10.7526    120.9799
  1184.2500    192.5956      7.8831      7.6048     10.6378    125.1068
  1184.5000    192.5914      7.7244      7.4309     10.4614    131.9097
  1184.7500    192.5451      7.6057      7.2858     10.2705    134.6509
  1185.0000    192.4699      7.5224      7.1686     10.1139    135.0632
  1185.2500    192.3727      7.4699      7.0786     10.0281    133.9753
  1185.5000    192.2569      7.4444      7.0156     10.0206    132.8360
  1185.7500    192.1219      7.4435      6.9796     10.0635    133.2225
  1186.0000    191.9642      7.4661      6.9713     10.1083    135.5158
  1186.2500    191.7831      7.5117      6.9924     10.1153    137.8067
  1186.5000    191.5862      7.5793      7.0454     10.0802    141.9116
  1186.7500    191.3890      7.6656      7.1333     10.0439    144.8989
  1187.0000    191.2066      7.7635      7.2583     10.1025    149.0976
  1187.2500    191.0479      7.8630      7.4208     10.4393    151.2028
  1187.5000    190.9147      7.9526      7.6170     11.3496    152.5866
  1187.7500    190.8051      8.0227      7.8382     13.1685    151.7962
  1188.0000    190.7181      8.0686      8.0689     16.0160    146.7163
  1188.2500    190.6602      8.0921      8.2886     19.4392    140.2546
  1188.5000    190.6456      8.0994      8.4738     22.3035    127.1248
  1188.7500    190.6880      8.0989      8.6045     23.2997    117.9808
  1189.0000    190.7844      8.0980      8.6689     21.8640    107.4068
  1189.2500    190.9059      8.1017      8.6669     18.6655    103.8548
  1189.5000    191.0054      8.1107      8.6091     15.1074    103.9590
  1189.7500    191.0411      8.1205      8.5123     12.3445    106.6356
  1190.0000    190.9944      8.1206      8.3934     10.7485    111.9168
  1190.2500    190.8714      8.0970      8.2656     10.0819    114.9677
  1190.5000    190.6911      8.0360      8.1364      9.9340    118.2668
  1190.7500    190.4755      7.9303      8.0076      9.9906    120.3036
  1191.0000    190.2469      7.7827      7.8778     10.0837    124.2598
  1191.2500    190.0261      7.6046      7.7439     10.1477    127.0550
  1191.5000    189.8280      7.4130      7.6034     10.1684    129.1842
  1191.7500    189.6553      7.2243      7.4552     10.1440    128.3646
  1192.0000    189.4959      7.0519      7.3006     10.0637    124.7728
  1192.2500    189.3233      6.9040      7.1426      9.9104    122.2827
  1192.5000    189.1017      6.7838      6.9859      9.6827    120.1928
  1192.7500    188.7978      6.6902      6.8358      9.4106    119.8852
  1193.0000    188.3983      6.6191      6.6973      9.1443    119.9146
  1193.2500    187.9183      6.5647      6.5747      8.9288    119.6987
  1193.5000    187.3940      6.5209      6.4708      8.7892    118.9054
  1193.7500    186.8661      6.4823      6.3868      8.7333    118.3399
  1194.0000    186.3688      6.4450      6.3223      8.7570    118.0684
  1194.2500    185.9280      6.4074      6.2756      8.8436    118.6324
  1194.5000    185.5656      6.3710      6.2446      8.9616    120.9319
  1194.7500    185.2989      6.3395      6.2268      9.0703    123.1735
  1195.0000    185.1370      6.3180      6.2206      9.1384    126.3616
  1195.2500    185.0795      6.3111      6.2249      9.1663    127.7285
  1195.5000    185.1186      6.3222      6.2398      9.1889    128.6865
  1195.7500    185.2427      6.3529      6.2665      9.2457    129.1481
  1196.0000    185.4375      6.4033      6.3063      9.3442    130.2029
  1196.2500    185.6871      6.4714      6.3612      9.4568    130.9106
  1196.5000    185.9734      6.5536      6.4325      9.5509    130.8718
  1196.7500    186.2718      6.6453      6.5212      9.6204    129.5623
  1197.0000    186.5464      6.7414      6.6271      9.6880    125.7991
  1197.2500    186.7561      6.8368      6.7488      9.7828    123.0396
  1197.5000    186.8718      6.9265      6.8834      9.9224    120.8929
  1197.7500    186.8921      7.0066      7.0261     10.1157    121.5748
  1198.0000    186.8387      7.0743      7.1705     10.3693    124.7920
  1198.2500    186.7387      7.1286      7.3087     10.6708    126.9117
  1198.5000    186.6089      7.1695      7.4321     10.9633    127.8707
  1198.7500    186.4532      7.1980      7.5323     11.1515    126.6268
  1199.0000    186.2665      7.2151      7.6024     11.1522    122.9137
  1199.2500    186.0392      7.2214      7.6379     10.9488    120.5254
  1199.5000    185.7653      7.2167      7.6373     10.6054    119.4437
  1199.7500    185.4518      7.2001      7.6024     10.2277    120.9948
  1200.0000    185.1210      7.1705      7.5373      9.9030    125.8851
  1200.2500    184.8027      7.1271      7.4478      9.6627    129.7221
  1200.5000    184.5211      7.0701      7.3407      9.4867    134.3789
  1200.7500    184.2877      7.0006      7.2226      9.3297    135.8598
  1201.0000    184.1009      6.9203      7.0996      9.1537    134.8997
  1201.2500    183.9464      6.8310      6.9770      8.9540    132.4551
  1201.5000    183.7983      6.7349      6.8586      8.7655    127.9829
  1201.7500    183.6261      6.6351      6.7470      8.6384    125.8056
  1202.0000    183.4107      6.5345      6.6431      8.5979    124.9474
  1202.2500    183.1556      6.4356      6.5468      8.6233    125.7493
  1202.5000    182.8851      6.3400      6.4569      8.6615    127.8575
  1202.7500    182.6301      6.2486      6.3716      8.6606    129.3656
  1203.0000    182.4167      6.1625      6.2895      8.5975    131.4458
  1203.2500    182.2623      6.0833      6.2096      8.4831    132.4917
  1203.5000    182.1732      6.0132      6.1317      8.3460    133.0204
  1203.7500    182.1410      5.9541      6.0564      8.2106    132.7197
