~Version Information
VERS.                      2.0: CWLS Log ASCII Standard - VERSION 2.0
WRAP.                       NO: One line per depth step
~Well Information Block
STRT.FT               686.2000: 
STOP.FT              1252.7000: 
STEP.FT                 0.1000: 
NULL.                -999.2500: 
COMP.          Pioneer Natural Resources: COMPANY
WELL.          Rock Island 44-24 Tr: WELL
FLD.           Purgatoire River: FIELD
LOC.           814' FSL & 761' FEL--: LOCATION
CNTY.               Las Animas: COUNTY
SRVC.                Patterson: SERVICE COMPANY
DATE.          Thu Apr 20 08:34:45 2006: LOG DATE
UWI.           05 071 08680 00: UNIQUE WELL ID
STAT.                 Colorado: STATE
~Curve Information Block
DEPT.FT            0 000 00 00: Depth
DCAL.in                       : CDL Caliper
RHOB.g/cc                     : CDL Bulk Density
RHOC.g/cc                     : CDL Density Correction
DPOR.pu                       : CDL Density Porosity
GR.GAPI                       : Gamma Ray
~Parameter Information Block
~A  Depth       DCAL        RHOB        RHOC        DPOR         GR     
# ...
   764.6000      7.9768      2.5965      0.1051      3.2427    130.4111
   764.7000      7.9768      2.5702      0.0429      4.8372    128.6306
   764.8000      7.9845      2.5422     -0.0198      6.5337    126.9655
   764.9000      7.9845      2.5416      0.0195      6.5724    123.1466
   765.0000      7.9922      2.5601      0.0561      5.4471    121.1514
   765.1000      7.9922      2.5747      0.0441      4.5625    122.9149
   765.2000      7.9922      2.5794      0.0406      4.2782    126.0404
   765.3000      7.9959      2.5838      0.0478      4.0132    130.8771
   765.4000      7.9959      2.5894      0.0541      3.6735    134.9985
   765.5000      7.9978      2.5883      0.0528      3.7420    132.8335
   765.6000      7.9978      2.5797      0.0513      4.2610    126.0952
   765.7000      7.9978      2.5732      0.0345      4.6530    122.1813
   765.8000      7.9996      2.5807      0.0392      4.1974    123.9511
   765.9000      7.9996      2.5988      0.0619      3.1002    126.9352
   766.0000      7.9999      2.6059      0.0477      2.6734    126.4421
   766.1000      7.9999      2.5899      0.0382      3.6447    121.9018
   766.2000      7.9999      2.5673      0.0078      5.0146    114.3164
   766.3000      7.9941      2.5635      0.0144      5.2417    106.7380
   766.4000      7.9941      2.5754      0.0578      4.5236    103.4003
   766.5000      7.9818      2.5823      0.0330      4.1047    104.5282
   766.6000      7.9818      2.5855     -0.0030      3.9071    107.8760
   766.7000      7.9818      2.5898      0.0952      3.6493    111.1018
   766.8000      7.9714      2.5871      0.0640      3.8106    112.3973
   766.9000      7.9714      2.5780      0.0856      4.3636    112.5125
   767.0000      7.9684      2.5698      0.0659      4.8635    111.6948
   767.1000      7.9684      2.5724      0.0446      4.7044    109.1077
   767.2000      7.9684      2.5917      0.0790      3.5342    108.0345
   767.3000      7.9709      2.6131      0.0819      2.2368    111.8507
   767.4000      7.9709      2.6181      0.0427      1.9310    117.2546
   767.5000      7.9712      2.6076      0.0236      2.5675    117.6188
   767.6000      7.9712      2.5928      0.0226      3.4686    112.2309
   767.7000      7.9712      2.5852      0.0073      3.9297    108.3462
   767.8000      7.9671      2.5915      0.0411      3.5447    107.3322
   767.9000      7.9671      2.6025      0.0610      2.8766    105.4972
   768.0000      7.9661      2.6102      0.0358      2.4099    103.2736
   768.1000      7.9661      2.6198      0.0499      1.8287    103.5001
   768.2000      7.9661      2.6338      0.0648      0.9795    106.4104
   768.3000      7.9692      2.6482      0.0700      0.1105    106.8157
   768.4000      7.9692      2.6589      0.0725     -0.5421    104.1880
   768.5000      7.9701      2.6716      0.0540     -1.3103    101.0380
   768.6000      7.9701      2.6930      0.0706     -2.6091     96.5840
   768.7000      7.9701      2.7095      0.1143     -3.6035     93.5239
   768.8000      7.9716      2.7068      0.0953     -3.4432     93.4707
   768.9000      7.9716      2.6994      0.0556     -2.9955     91.5245
   769.0000      7.9768      2.7016      0.0800     -3.1284     86.2304
   769.1000      7.9768      2.7035      0.0412     -3.2426     81.8776
   769.2000      7.9768      2.6920      0.0560     -2.5450     80.0161
   769.3000      7.9864      2.6646      0.0051     -0.8875     78.6535
   769.4000      7.9864      2.6373     -0.0694      0.7691     77.5229
   769.5000      7.9955      2.6257     -0.0231      1.4751     78.8796
   769.6000      7.9955      2.6206     -0.0173      1.7845     82.6644
   769.7000      7.9955      2.6110     -0.0155      2.3634     85.2395
   769.8000      7.9975      2.6028     -0.0181      2.8623     85.3444
   769.9000      7.9975      2.5969      0.0285      3.2200     84.7520
   770.0000      7.9937      2.5845     -0.0022      3.9691     85.3334
   770.1000      7.9937      2.5687      0.0162      4.9283     87.4490
   770.2000      7.9937      2.5606      0.0227      5.4158     88.5720
   770.3000      7.9847      2.5636      0.0397      5.2374     88.4061
   770.4000      7.9847      2.5690      0.0414      4.9079     86.8055
   770.5000      7.9743      2.5683      0.0230      4.9519     81.5414
   770.6000      7.9743      2.5646      0.0492      5.1734     76.5356
   770.7000      7.9743      2.5711     -0.0202      4.7790     78.1694
   770.8000      7.9701      2.5974      0.0606      3.1895     85.2137
   770.9000      7.9701      2.6248      0.1170      1.5285     91.7975
   771.0000      7.9699      2.6292      0.0898      1.2609     95.4044
   771.1000      7.9699      2.6155      0.0481      2.0934     98.5075
   771.2000      7.9699      2.6014      0.0689      2.9484    101.8799
   771.3000      7.9688      2.6020      0.0502      2.9078    100.0641
   771.4000      7.9688      2.6221      0.0752      1.6891     91.8771
   771.5000      7.9672      2.6424      0.1032      0.4598     85.0536
   771.6000      7.9672      2.6438      0.0998      0.3783     85.4098
   771.7000      7.9672      2.6305      0.0618      1.1840     91.9036
   771.8000      7.9671      2.6159      0.0341      2.0637     99.5376
   771.9000      7.9671      2.6056      0.0285      2.6914    103.4297
   772.0000      7.9671      2.6026      0.0131      2.8744    102.6342
   772.1000      7.9671      2.6105      0.0311      2.3923    100.4452
   772.2000      7.9671      2.6208      0.0533      1.7711     99.9129
   772.3000      7.9666      2.6217      0.0587      1.7136    101.3349
   772.4000      7.9666      2.6195      0.0482      1.8512    101.7892
   772.5000      7.9664      2.6203      0.0716      1.8025     98.1556
   772.6000      7.9664      2.6163      0.0390      2.0404     93.2409
   772.7000      7.9664      2.6095      0.0357      2.4532     90.1143
   772.8000      7.9659      2.6085      0.0585      2.5179     86.9547
   772.9000      7.9659      2.6093      0.0367      2.4657     82.7676
   773.0000      7.9649      2.6039      0.0651      2.7955     80.3229
   773.1000      7.9649      2.5912      0.0540      3.5610     81.7222
   773.2000      7.9649      2.5818      0.0094      4.1318     83.5946
   773.3000      7.9647      2.5813      0.0709      4.1631     82.7432
   773.4000      7.9647      2.5778      0.0487      4.3747     81.4718
   773.5000      7.9670      2.5659      0.0159      5.0965     82.0675
   773.6000      7.9670      2.5562      0.0280      5.6821     83.0031
   773.7000      7.9670      2.5602      0.0221      5.4397     82.7060
   773.8000      7.9740      2.5805      0.0382      4.2144     82.8068
   773.9000      7.9740      2.6038      0.1165      2.8013     84.8623
   774.0000      7.9834      2.6165      0.0513      2.0327     86.9583
   774.1000      7.9834      2.6204      0.0576      1.7913     85.9647
   774.2000      7.9834      2.6146      0.0843      2.1426     83.6099
   774.3000      7.9874      2.5926      0.0533      3.4805     83.7610
   774.4000      7.9874      2.5551      0.0626      5.7528     85.4636
   774.5000      7.9901      2.5110     -0.0077      8.4268     86.1507
   774.6000      7.9901      2.4773     -0.0405     10.4689     85.3118
   774.7000      7.9901      2.4634     -0.0113     11.3091     83.0099
   774.8000      7.9926      2.4687     -0.0326     10.9895     78.6352
   774.9000      7.9926      2.4896     -0.0006      9.7198     73.7815
   775.0000      7.9878      2.5095      0.0254      8.5149     71.6266
   775.1000      7.9878      2.5143      0.0091      8.2217     69.9596
   775.2000      7.9878      2.5123      0.0336      8.3446     65.7056
   775.3000      7.9728      2.5123      0.0875      8.3430     62.0258
   775.4000      7.9728      2.5133      0.0831      8.2839     60.7946
   775.5000      7.9523      2.5141      0.0623      8.2393     60.1088
   775.6000      7.9523      2.5110      0.0915      8.4218     58.1748
   775.7000      7.9523      2.5081      0.0408      8.5997     54.9609
