~Version Information
VERS.                      2.0: CWLS Log ASCII Standard - VERSION 2.0
WRAP.                       NO: One line per depth step
~Well Information Block
STRT.FT                -1.5000: 
STOP.FT              2143.7500: 
STEP.FT                 0.2500: 
NULL.                -999.2500: 
COMP.          Pioneer Natural Resources: COMPANY
WELL.              Kermit 32-7: WELL
FLD.           Purgatoire River: FIELD
LOC.           2002' FNL & 2103' FEL: LOCATION
PROV.                 Colorado: PROVINCE
CNTY.               Las Animas: COUNTRY
SRVC.                Patterson: SERVICE COMPANY
DATE.          Wed Jan 18 14:17:49 2006: LOG DATE
UWI.           05 071 08647 00: UNIQUE WELL ID
~Curve Information Block
DEPT.FT            0 000 00 00: Depth
GR.GAPI                       : Gamma Ray
CCL.                          : Casing Collar Locator
TT3.usec                      : CBL 3' Travel Time
AMP3.mV                       : CBL 3' Amplitude
~Parameter Information Block
~A  Depth        GR         CCL         TT3         AMP3    
# ...
  1975.0000     70.2060      0.0000    638.3353      9.5506
  1975.2500     71.1851      0.0000    638.2545      9.5822
  1975.5000     72.4432      0.0000    637.8775      9.6574
  1975.7500     74.6831      0.0000    640.1198      9.7562
  1976.0000     78.3332      0.0000    645.1736      9.8557
  1976.2500     83.0276      0.0000    650.8998      9.9407
  1976.5000     87.2924      0.0000    655.2835     10.0011
  1976.7500     89.3487      0.0000    657.8047     10.0289
  1977.0000     88.6142      0.0000    658.9619     10.0210
  1977.2500     86.1272      0.0000    659.2043      9.9792
  1977.5000     83.3651      0.0000    658.2421      9.9049
  1977.7500     81.0481      0.0000    654.6048      9.7953
  1978.0000     79.2518      0.0000    645.6807      9.6480
  1978.2500     78.1279      0.0000    629.3148      9.4691
  1978.5000     77.9534      0.0000    606.9931      9.2763
  1978.7500     78.5824      0.0000    585.6633      9.0938
  1979.0000     79.2758      0.0000    574.6656      8.9420
  1979.2500     79.2198      0.0000    579.1724      8.8259
  1979.5000     78.0118      0.0000    596.4316      8.7326
  1979.7500     75.4649      0.0000    618.5380      8.6394
  1980.0000     71.2238      0.0000    638.2579      8.5275
  1980.2500     65.1367      0.0000    652.1407      8.3915
  1980.5000     58.0377      0.0000    659.8493      8.2408
  1980.7500     51.5672      0.0000    662.6110      8.0966
  1981.0000     46.9641      0.0000    662.3823      7.9847
  1981.2500     44.3694      0.0000    661.0803      7.9280
  1981.5000     43.3960      0.0000    659.7582      7.9386
  1981.7500     43.9031      0.0000    658.3704      8.0177
  1982.0000     45.9617      0.0000    656.3202      8.1607
  1982.2500     49.4206      0.0000    653.3172      8.3604
  1982.5000     53.8079      0.0000    649.8351      8.6056
  1982.7500     58.4334      0.0000    646.4255      8.8770
  1983.0000     62.4191      0.0000    642.1539      9.1478
  1983.2500     64.9171      0.0000    633.9966      9.3913
  1983.5000     65.6584      0.0000    618.3071      9.5949
  1983.7500     65.3111      0.0000    593.0312      9.7703
  1984.0000     65.0756      0.0000    559.3373      9.9341
  1984.2500     65.6486      0.0000    522.7129     10.0463
  1984.5000     66.5436      0.0000    492.1599      9.9714
  1984.7500     66.6318      0.0000    475.4691      9.5755
  1985.0000     65.3656      0.0000    473.8008      8.9049
  1985.2500     63.1967      0.0000    481.8970      8.2076
  1985.5000     60.8832      0.0000    493.5801      7.7244
  1985.7500     58.8630      0.0000    505.8755      7.4961
  1986.0000     57.4347      0.0000    518.6453      7.3992
  1986.2500     57.1179      0.0000    531.7838      7.3154
  1986.5000     58.4853      3.0000    542.5531      7.2421
  1986.7500     61.6099      0.0000    545.8059      7.2814
  1987.0000     65.7662      0.0000    538.9751      7.5374
  1987.2500     69.7506      0.0000    526.7501      8.0085
  1987.5000     72.7178      0.0000    517.1159      8.5847
  1987.7500     74.8719      0.0000    512.1890      9.1675
  1988.0000     77.1821      0.0000    507.5419      9.7461
  1988.2500     80.1857      0.0000    501.5886     10.3267
  1988.5000     83.2397      0.0000    500.3030     10.8426
  1988.7500     85.2042      0.0000    509.8511     11.1895
  1989.0000     85.7190      0.0000    527.1666     11.3263
  1989.2500     85.5085      0.0000    540.3666     11.3169
  1989.5000     85.5229      0.0000    538.8118     11.2799
  1989.7500     86.1590      0.0000    522.1149     11.3037
  1990.0000     87.2689      0.0000    499.0352     11.3987
  1990.2500     88.3617      0.0000    479.8324     11.5222
  1990.5000     88.6081      0.0000    471.9866     11.6359
  1990.7500     87.1161      0.0000    479.8227     11.7279
  1991.0000     83.5978      0.0000    501.9841     11.7931
  1991.2500     78.6877      0.0000    528.2919     11.8206
  1991.5000     73.5023      0.0000    543.0822     11.8078
  1991.7500     68.9817      0.0000    535.1896     11.7752
  1992.0000     65.6664      0.0000    506.3111     11.7612
  1992.2500     63.7826      0.0000    470.3367     11.7981
  1992.5000     63.2792      0.0000    444.9783     11.8890
  1992.7500     63.8772      0.0000    443.0420     12.0026
  1993.0000     65.2830      0.0000    467.6075     12.0904
  1993.2500     67.3051      0.0000    510.9014     12.1183
  1993.5000     69.6770      0.0000    557.1470     12.0876
  1993.7500     71.9601      0.0000    589.6430     12.0268
  1994.0000     73.7841      0.0000    598.2850     11.9593
  1994.2500     75.0762      0.0000    583.5005     11.8783
  1994.5000     75.9206      0.0000    556.5378     11.7546
  1994.7500     76.3009      0.0000    535.4911     11.5681
  1995.0000     76.1077      0.0000    535.3404     11.3321
  1995.2500     75.3536      0.0000    557.6495     11.0891
  1995.5000     74.1938      0.0000    590.2723     10.8862
  1995.7500     72.6119      0.0000    617.1589     10.7522
  1996.0000     70.1391      0.0000    627.6348     10.6924
  1996.2500     66.1450      0.0000    619.1791     10.6949
  1996.5000     60.5922      0.0000    596.4047     10.7384
  1996.7500     54.4594      0.0000    568.5620     10.8000
  1997.0000     49.3503      0.0000    545.2023     10.8599
  1997.2500     46.6547      0.0000    531.6827     10.8992
  1997.5000     46.9375      0.0000    527.6428     10.8965
  1997.7500     49.8306      0.0000    528.9412     10.8337
  1998.0000     54.1897      0.0000    531.4296     10.7087
  1998.2500     58.3672      0.0000    533.1928     10.5446
  1998.5000     60.8470      0.0000    532.5606     10.3856
  1998.7500     61.2148      0.0000    526.2681     10.2829
  1999.0000     60.6219      0.0000    513.5173     10.2694
  1999.2500     61.0217      0.0000    500.6148     10.3400
  1999.5000     63.7912      0.0000    496.7253     10.4573
  1999.7500     68.9953      0.0000    504.5530     10.5806
  2000.0000     75.5862      0.0000    518.2444     10.6846
  2000.2500     82.0518      0.0000    529.9492     10.7547
  2000.5000     87.1696      0.0000    535.0103     10.7802
  2000.7500     90.4290      0.0000    531.1723     10.7664
  2001.0000     91.7131      0.0000    517.1448     10.7451
  2001.2500     90.8006      0.0000    495.2549     10.7565
  2001.5000     87.5508      0.0000    474.6493     10.8153
  2001.7500     82.6356      0.0000    467.8947     10.8975
  2002.0000     77.7384      0.0000    481.3684     10.9613
  2002.2500     74.6000      0.0000    509.1107     10.9802
  2002.5000     73.7260      0.0000    537.0991     10.9560
  2002.7500     74.2040      0.0000    553.0795     10.9097
  2003.0000     74.7846      0.0000    552.4821     10.8619
  2003.2500     74.9503      0.0000    537.8036     10.8208
  2003.5000     75.0911      0.0000    515.1187     10.7866
  2003.7500     75.9118      0.0000    491.2171     10.7673
  2004.0000     77.5248      0.0000    472.4878     10.7829
  2004.2500     78.9976      0.0000    464.2961     10.8498
  2004.5000     79.0479      0.0000    468.2013     10.9627
  2004.7500     77.1508      0.0000    478.5690     11.0959
  2005.0000     73.7479      0.0000    484.4149     11.2224
  2005.2500     69.7311      0.0000    477.1715     11.3285
  2005.5000     66.0720      0.0000    456.6618     11.4104
  2005.7500     63.5895      0.0000    429.6398     11.4648
  2006.0000     62.5802      0.0000    404.0814     11.4859
  2006.2500     62.5723      0.0000    385.2034     11.4745
  2006.5000     62.4468      0.0000    374.9540     11.4482
  2006.7500     60.9926      0.0000    373.3973     11.4390
  2007.0000     57.8965      0.0000    380.9141     11.4714
  2007.2500     54.5468      0.0000    399.9179     11.5359
  2007.5000     53.5833      0.0000    433.5464     11.5866
  2007.7500     57.1408      0.0000    480.9924     11.5730
  2008.0000     65.1697      0.0000    534.3736     11.4787
  2008.2500     75.2496      0.0000    581.9338     11.3244
