~Version Information
VERS.                      2.0: CWLS Log ASCII Standard - VERSION 2.0
WRAP.                       NO: One line per depth step
~Well Information Block
STRT.FT                -7.7500: 
STOP.FT              2446.5000: 
STEP.FT                 0.2500: 
NULL.                -999.2500: 
COMP.          XTO Energy Inc.: COMPANY
WELL.          Hill Ranch 15-09: WELL
FLD.           Purgatoire River: FIELD
LOC.           1816' FSL & 521' FEL: LOCATION
STAT.                 Colorado: State
CNTY.               Las Animas: COUNTY
CTRY. USA : Country
SECT. 15 : Section
TOWN. 35S : Township
RANG. 67W : Range
SRVC.          Patterson Wireline: SERVICE COMPANY
DATE.          Fri Dec 09 17:49:58 2005: LOG DATE
API. 05-071-08474                          : UNIQUE WELL ID
~Curve Information Block
DEPT.FT            0 000 00 00: Depth
CCL.                          : Casing Collar Locator
TT3.usec                      : CBL 3' Travel Time
AMP3.mV                       : CBL 3' Amplitude
AMP5.mV                       : CBL 5' Amplitude
GR.GAPI                       : Gamma Ray
~Parameter Information Block
~A  Depth       CCL         TT3         AMP3        AMP5         GR     
# ...
   328.2500      0.0000    757.9368      8.2190      2.0193    144.4465
   328.5000      0.0000    753.0444      8.1986      1.9683    147.2328
   328.7500      0.0000    746.2208      8.1718      1.9226    146.5297
   329.0000      0.0000    738.5596      8.1532      1.9264    142.5427
   329.2500      0.0000    733.7770      8.1670      1.9708    135.6552
   329.5000      0.0000    736.0167      8.2205      2.0166    126.0944
   329.7500      0.0000    746.9326      8.2975      2.0528    114.3452
   330.0000      0.0000    764.8211      8.3784      2.0980    101.5571
   330.2500      0.0000    785.5483      8.4576      2.1445     89.3785
   330.5000      0.0000    803.7905      8.5404      2.1468     79.4015
   330.7500      0.0000    815.3235      8.6284      2.0869     72.8114
   331.0000      0.0000    820.2377      8.7147      2.0218     70.3607
   331.2500      0.0000    822.9075      8.7925      2.0301     72.1834
   331.5000      0.0000    827.0220      8.8584      2.1178     77.3987
   331.7500      0.0000    831.2980      8.9002      2.1993     84.2485
   332.0000      0.0000    831.9085      8.8905      2.1798     91.1140
   332.2500      0.0000    828.4204      8.8065      2.0468     97.4894
   332.5000      0.0000    824.5373      8.6591      1.8798    103.8550
   332.7500      0.0000    822.6817      8.4968      1.7842    110.6225
   333.0000      0.0000    821.1947      8.3758      1.8227    117.3627
   333.2500      0.0000    817.8898      8.3273      1.9840    123.0796
   333.5000      0.0000    813.0684      8.3445      2.1851    127.0403
   333.7500      0.0000    808.1500      8.3937      2.3130    129.2854
   334.0000      0.0000    804.2418      8.4351      2.2968    130.6425
   334.2500      0.0000    802.6719      8.4404      2.1574    132.5232
   334.5000      0.0000    804.3808      8.4047      1.9880    136.4595
   334.7500      0.0000    807.7183      8.3459      1.8923    143.0876
   335.0000      0.0000    807.9351      8.2930      1.9280    151.0712
   335.2500      0.0000    799.7344      8.2653      2.0753    157.5228
   335.5000      0.0000    781.2300      8.2625      2.2399    160.2254
   335.7500      0.0000    756.6530      8.2757      2.3084    159.2507
   336.0000      0.0000    736.1777      8.3065      2.2323    155.9007
   336.2500      0.0000    731.8186      8.3698      2.0659    150.6051
   336.5000      0.0000    750.4189      8.4742      1.9220    142.8044
   336.7500      0.0000    788.8136      8.6061      1.8938    132.5931
   337.0000      0.0000    836.0090      8.7354      1.9994    121.5315
   337.2500      0.0000    879.3244      8.8375      2.1711    111.9002
   337.5000      0.0000    907.8808      8.9050      2.2923    105.7656
   337.7500      0.0000    913.7155      8.9397      2.2763    104.3850
   338.0000      0.0000    895.3636      8.9392      2.1334    107.4642
   338.2500      0.0000    862.3321      8.8978      1.9659    112.8418
   338.5000      0.0000    832.4460      8.8203      1.8995    117.7976
   338.7500      0.0000    819.9398      8.7293      2.0044    121.2674
   339.0000      0.0000    824.6740      8.6531      2.2547    124.5674
   339.2500      0.0000    833.9929      8.6036      2.5447    129.7839
   339.5000      0.0000    834.5644      8.5685      2.7543    137.6360
   339.7500      0.0000    820.8682      8.5253      2.8145    146.7337
   340.0000      0.0000    794.2981      8.4609      2.7332    154.3420
   340.2500      0.0000    759.6964      8.3802      2.5718    157.9320
   340.5000      0.0000    725.7855      8.3006      2.3990    156.8512
   340.7500      0.0000    705.2144      8.2424      2.2539    152.7564
   341.0000      0.0000    707.9092      8.2212      2.1388    148.0241
   341.2500      0.0000    733.0496      8.2451      2.0374    143.6720
   341.5000      0.0000    770.4343      8.3127      1.9405    139.1022
   341.7500      0.0000    810.0248      8.4159      1.8542    133.6947
   342.0000      0.0000    847.8788      8.5487      1.7860    128.0120
   342.2500      0.0000    883.7560      8.7161      1.7264    123.1340
   342.5000      0.0000    916.7538      8.9258      1.6542    119.3088
   342.7500      0.0000    944.4474      9.1683      1.5593    115.8511
   343.0000      0.0000    964.6431      9.4054      1.4549    112.3562
   343.2500      0.0000    976.9027      9.5898      1.3675    109.6889
   343.5000      0.0000    982.4213      9.6973      1.3199    109.4605
   343.7500      0.0000    982.4045      9.7385      1.3213    112.4437
   344.0000      0.0000    976.3152      9.7386      1.3641    117.8215
   344.2500      0.0000    961.7792      9.7090      1.4252    124.0617
   344.5000      0.0000    936.9227      9.6427      1.4749    130.0562
   344.7500      0.0000    903.6365      9.5339      1.4942    135.2376
   345.0000      0.0000    868.2564      9.3966      1.4862    139.1369
   345.2500      0.0000    837.9510      9.2576      1.4719    141.3529
   345.5000      0.0000    816.0430      9.1317      1.4777    142.0236
   345.7500      0.0000    801.1105      9.0089      1.5230    141.9755
   346.0000      0.0000    790.1881      8.8696      1.6038    142.0539
   346.2500      0.0000    781.9482      8.7103      1.6818    142.3142
   346.5000      0.0000    776.7447      8.5478      1.7025    142.1617
   346.7500      0.0000    774.6525      8.3998      1.6400    141.2556
   347.0000      0.0000    774.5262      8.2674      1.5197    139.9718
   347.2500      0.0000    774.8943      8.1434      1.3936    138.7998
   347.5000      0.0000    774.9253      8.0348      1.3034    137.4063
   347.7500      0.0000    774.4598      7.9701      1.2685    134.6006
   348.0000      0.0000    773.8393      7.9768      1.2904    129.4915
   348.2500      0.0000    773.7236      8.0518      1.3579    122.5522
   348.5000      0.0000    774.4311      8.1588      1.4486    115.2369
   348.7500      0.0000    775.5247      8.2534      1.5317    108.7658
   349.0000      0.0000    776.3870      8.3080      1.5833    103.7871
   349.2500      0.0000    776.8946      8.3166      1.6087    100.9647
   349.5000      0.0000    777.3314      8.2877      1.6442    101.0452
   349.7500      0.0000    778.0323      8.2367      1.7272    103.9476
   350.0000      0.0000    779.0942      8.1827      1.8680    108.1854
   350.2500      0.0000    780.0123      8.1471      2.0509    111.6191
   350.5000      0.0000    779.7670      8.1543      2.2507    112.9198
   350.7500      0.0000    777.7612      8.2226      2.4376    112.4144
   351.0000      0.0000    774.8109      8.3477      2.5808    111.6735
   351.2500      0.0000    773.0707      8.5020      2.6645    112.1520
   351.5000      0.0000    774.6349      8.6572      2.7030    113.9529
   351.7500      0.0000    779.7952      8.8075      2.7299    115.7604
   352.0000      0.0000    786.3917      8.9703      2.7663    116.0272
   352.2500      0.0000    790.9264      9.1716      2.7962    114.2879
   352.5000      0.0000    790.6994      9.4328      2.7745    111.3219
   352.7500      0.0000    785.4858      9.7581      2.6687    108.2067
   353.0000      0.0000    777.6511     10.1112      2.4957    105.3811
   353.2500      0.0000    770.8103     10.3990      2.3106    102.5975
   353.5000      0.0000    768.0754     10.4962      2.1583     99.6287
   353.7500      0.0000    771.0822     10.3272      2.0459     96.8885
   354.0000      0.0000    779.8332      9.9423      1.9527     95.2970
   354.2500      0.0000    792.4995      9.4971      1.8508     95.4747
   354.5000      0.0000    805.4196      9.1402      1.7215     97.1676
   354.7500      0.0000    814.9104      8.9246      1.5711     99.6159
   355.0000      0.0000    820.2551      8.8195      1.4387    102.4061
   355.2500     -2.0000    823.5223      8.7706      1.3752    105.7017
   355.5000      0.0000    825.3578      8.7381      1.4047    109.5770
   355.7500      0.0000    823.1533      8.7113      1.5037    113.4039
   356.0000      0.0000    814.9315      8.7160      1.6236    116.1993
