~Version Information
VERS.                      2.0: CWLS Log ASCII Standard - VERSION 2.0
WRAP.                       NO: One line per depth step
~Well Information Block
STRT.FT                 0.0000: 
STOP.FT               968.2500: 
STEP.FT                 0.2500: 
NULL.                -999.2500: 
COMP.          Pioneer Natural Resources: COMPANY
WELL.              Atlas 32-18: WELL
FLD.           Purgatorie River: FIELD
LOC.           1892' FNL & 1456' FEL: LOCATION
PROV.                 Colorado: PROVINCE
CNTY.               Las Animas: COUNTRY
SRVC.                Patterson: SERVICE COMPANY
DATE.          Fri Dec 02 11:37:22 2005: LOG DATE
UWI.                          : UNIQUE WELL ID
~Curve Information Block
DEPT.FT            0 000 00 00: Depth
CCL.                          : Casing Collar Locator
TT3.usec                      : CBL 3' Travel Time
AMP3.mV                       : CBL 3' Amplitude
GR.GAPI                       : Gamma Ray
~Parameter Information Block
~A  Depth       CCL         TT3         AMP3         GR     
# ...
    67.0000      0.0000    672.9003      9.8685     66.2250
    67.2500      0.0000    683.8501      9.8908     64.2937
    67.5000      0.0000    713.8234      9.7465     64.0898
    67.7500      0.0000    738.0648      9.4500     65.4985
    68.0000      0.0000    741.7092      9.1347     66.8255
    68.2500      0.0000    733.3815      8.9044     66.1212
    68.5000      0.0000    726.0276      8.7930     62.6400
    68.7500      0.0000    722.7051      8.7851     57.2368
    69.0000      0.0000    723.0247      8.8455     51.6056
    69.2500      0.0000    725.8519      8.9467     47.2128
    69.5000      0.0000    728.5645      9.0605     44.6350
    69.7500      0.0000    729.8153      9.1468     43.4958
    70.0000      0.0000    729.9985      9.1817     42.9578
    70.2500      0.0000    729.7854      9.1783     42.4413
    70.5000      0.0000    729.3579      9.1566     41.9331
    70.7500      0.0000    728.0589      9.1239     41.6208
    71.0000      0.0000    724.7352      9.1074     41.4369
    71.2500      0.0000    719.9449      9.1429     41.0531
    71.5000      0.0000    717.4054      9.2146     40.2036
    71.7500      0.0000    719.7766      9.2693     38.9394
    72.0000      0.0000    724.5591      9.2752     37.6157
    72.2500      0.0000    727.8991      9.2626     36.6257
    72.5000      0.0000    729.0148      9.3038     36.1725
    72.7500      0.0000    729.0997      9.4231     36.2803
    73.0000      0.0000    729.1646      9.5696     36.8461
    73.2500      0.0000    729.8839      9.7093     37.5099
    73.5000      0.0000    732.4510      9.8599     37.5757
    73.7500      0.0000    738.4024     10.0079     36.3310
    74.0000      0.0000    746.4158     10.0767     33.7236
    74.2500      0.0000    750.3914     10.0266     30.7154
    74.5000      0.0000    746.4471      9.9176     28.6496
    74.7500      0.0000    739.7446      9.8440     28.2069
    75.0000      0.0000    739.1880      9.8650     29.2021
    75.2500      0.0000    749.5396      9.9953     31.2121
    75.5000      0.0000    765.6672     10.1706     33.9648
    75.7500      0.0000    771.3298     10.2692     37.2444
    76.0000      0.0000    757.3199     10.2600     40.8503
    76.2500      0.0000    736.9228     10.2150     44.7014
    76.5000      0.0000    726.7739     10.1691     48.8670
    76.7500      0.0000    726.8295     10.1066     53.5304
    77.0000      0.0000    729.1685     10.0481     58.9305
    77.2500      0.0000    730.2237     10.0408     65.2447
    77.5000      0.0000    730.2741     10.0910     72.3611
    77.7500      0.0000    730.0146     10.1770     79.5945
    78.0000      0.0000    729.7723     10.2816     85.7131
    78.2500      0.0000    729.6409     10.3690     89.5879
    78.5000      0.0000    729.7611     10.3665     90.9575
    78.7500      0.0000    730.4536     10.2006     90.4135
    79.0000      0.0000    730.8531      9.8709     88.6858
    79.2500      0.0000    726.5792      9.5000     86.2603
    79.5000      0.0000    713.6523      9.2991     83.7064
    79.7500      0.0000    702.6700      9.3077     81.7734
    80.0000      0.0000    719.1153      9.1349     80.7052
    80.2500      0.0000    768.8664      8.4136     79.8013
    80.5000      0.0000    816.3759      7.4165     78.1297
    80.7500      0.0000    826.5884      6.6501     75.5292
    81.0000      0.0000    811.5286      6.2275     72.7750
    81.2500      2.0000    808.3188      5.9934     71.0191
    81.5000     -2.0000    838.8936      5.8398     71.0464
    81.7500      0.0000    905.2190      5.7495     72.8080
    82.0000      0.0000    986.0571      5.7456     75.6079
    82.2500      0.0000   1036.6936      5.9425     78.7703
    82.5000      0.0000   1021.2665      6.5174     82.0701
    82.7500      0.0000    946.6377      7.3855     85.5043
    83.0000      0.0000    858.2271      8.2188     88.6905
    83.2500      0.0000    796.1866      8.8619     90.6453
    83.5000      0.0000    763.9818      9.2983     90.3261
    83.7500      0.0000    746.7720      9.5215     87.4283
    84.0000      0.0000    736.8915      9.6022     82.6773
    84.2500      0.0000    733.4482      9.6350     77.4400
    84.5000      0.0000    735.6276      9.6672     73.0422
    84.7500      0.0000    741.4440      9.6951     70.1436
    85.0000      0.0000    747.4118      9.6904     68.4496
    85.2500      0.0000    750.0350      9.6332     66.9842
    85.5000      0.0000    747.8854      9.5365     64.7983
    85.7500      0.0000    742.0714      9.4228     61.6360
    86.0000      0.0000    735.9943      9.2780     58.0831
    86.2500      0.0000    732.4547      9.1118     55.1982
    86.5000      0.0000    731.3658      8.9994     54.0369
    86.7500      0.0000    731.5070      8.9658     55.4025
    87.0000      0.0000    732.9818      8.9270     59.6894
    87.2500      0.0000    737.8311      8.8185     66.5323
    87.5000      0.0000    747.7491      8.6904     74.5194
    87.7500      0.0000    760.2371      8.6020     81.6918
    88.0000      0.0000    769.3408      8.5084     86.8028
    88.2500      0.0000    771.4069      8.3250     90.1202
    88.5000      0.0000    768.4846      8.0472     92.7793
    88.7500      0.0000    766.2334      7.7291     95.2892
    89.0000      0.0000    767.2406      7.4194     96.7065
    89.2500      0.0000    767.1121      7.2181     95.3971
    89.5000      0.0000    761.3722      7.2656     90.8126
    89.7500      0.0000    753.1768      7.5588     84.4301
    90.0000      0.0000    748.2632      7.9269     78.6235
    90.2500      0.0000    745.7089      8.2493     74.6490
    90.5000      0.0000    741.2911      8.5294     72.1523
    90.7500      0.0000    735.7097      8.7327     70.4734
    91.0000      0.0000    732.3727      8.7685     69.5695
    91.2500      0.0000    732.6010      8.6898     69.3323
    91.5000      0.0000    736.9357      8.6764     68.8340
    91.7500      0.0000    745.5313      8.7515     67.0877
    92.0000      0.0000    754.9634      8.7676     64.2908
    92.2500      0.0000    760.6448      8.6848     61.6487
    92.5000      0.0000    763.6183      8.6147     60.0728
    92.7500      0.0000    767.6812      8.6429     59.6064
    93.0000      0.0000    771.3835      8.8106     59.9788
    93.2500      0.0000    769.6496      9.1867     61.0556
    93.5000      0.0000    760.5935      9.7551     62.5782
    93.7500      0.0000    747.9807     10.3135     64.0199
    94.0000      0.0000    737.6597     10.6785     64.9496
    94.2500      0.0000    732.0774     10.8626     65.1284
    94.5000      0.0000    729.8502     10.9229     64.2454
    94.7500      0.0000    729.1395     10.8463     62.0986
    95.0000      0.0000    729.1506     10.6462     59.0861
    95.2500      0.0000    729.5731     10.3972     56.0161
    95.5000      0.0000    730.0309     10.1428     53.3307
    95.7500      0.0000    730.2602      9.8938     50.8268
    96.0000      0.0000    730.4037      9.7097     48.2634
    96.2500      0.0000    730.6373      9.6373     45.9863
    96.5000      0.0000    730.7838      9.6225     44.6838
    96.7500      0.0000    730.6368      9.5924     44.5739
    97.0000      0.0000    730.3342      9.5391     45.1183
    97.2500      0.0000    730.1126      9.4974     45.5776
    97.5000      0.0000    729.9692      9.4884     45.5998
    97.7500      0.0000    729.8172      9.4898     45.2653
    98.0000      0.0000    729.6418      9.4770     44.8450
    98.2500      0.0000    729.3820      9.4747     44.6587
    98.5000      0.0000    728.9931      9.5581     45.0655
    98.7500      0.0000    728.6389      9.7791     46.3568
    99.0000      0.0000    728.5795     10.0610     48.4855
    99.2500      0.0000    728.7844     10.2545     50.9246
    99.5000      0.0000    728.8984     10.3308     52.9107
    99.7500      0.0000    728.7552     10.3960     53.8944
   100.0000      0.0000    728.6323     10.5134     53.7976
   100.2500      0.0000    728.7679     10.6172     52.9302
