~Version Information
 VERS.                                  2.0 : CWLS LAS VERSION
 WRAP.                                   NO : WRAPING MODE
 SWARE .                 MController 2.5.0N : SOFTWARE VERSION
~Well Information
 WELL.               Bear Cub Federal 11-23 : WELL
 COMP.    Pioneer Natural Resources USA Inc : COMPANY
 FLD.                      Purgatoire River : FIELD
 LOC.                 NW/NW Sec23 T33S R67W : LOCATION
 DATE.                          06/18-19/06 : DATE(S) LOGGED
 SRVC.       Blanco Geological Services LLC : SERVICE COMPANY
 STAT.                             Colorado : STATE
 CNTY.                           Las Animas : COUNTY
 CTRY.                                  USA : COUNTRY
 API.                       05-071-08509-00 : API NUMBER
 STRT.FT                             475.00 : START DEPTH
 STOP.FT                            2220.00 : STOP DEPTH
 STEP.FT                               1.00 : DEPTH INCREMENT
 NULL.                                -9999 : NULL VALUE
~Curve information
 DEPTH.FT                                   :
 ROP.MIN/FT                                 :
 GAS.UNITS                                  :
~ASCII Log data
# ...
      1075.0         0.27         34.3 
      1076.0         1.17         55.7 
      1077.0         0.52         55.4 
      1078.0         0.30         52.1 
      1079.0         0.20         51.4 
      1080.0         0.23         49.2 
      1081.0         0.20         47.7 
      1082.0         0.13         46.9 
      1083.0         0.10         46.9 
      1084.0         0.17         47.1 
      1085.0         0.23         46.4 
      1086.0         0.20         46.4 
      1087.0         0.17         47.7 
      1088.0         0.17         49.5 
      1089.0         0.20         50.4 
      1090.0         0.27         51.6 
      1091.0         0.23         52.9 
      1092.0         0.23         53.6 
      1093.0         0.25         55.5 
      1094.0         0.27         54.5 
      1095.0         0.27         55.9 
      1096.0         0.27         59.1 
      1097.0         0.23         49.0 
      1098.0         0.27         31.7 
      1099.0         0.23         24.7 
      1100.0         0.27         22.2 
      1101.0         0.33         24.3 
      1102.0         0.33         35.2 
      1103.0         0.33         47.0 
      1104.0         0.37         65.0 
      1105.0         0.28         68.2 
      1106.0         0.83         87.3 
      1107.0         0.43         71.0 
      1108.0         0.30         58.6 
      1109.0         0.30         56.3 
      1110.0         0.23         53.0 
      1111.0         0.23         51.2 
      1112.0         0.23         52.2 
      1113.0         0.20         52.0 
      1114.0         0.20         51.9 
      1115.0         0.25         51.6 
      1116.0         0.20         50.6 
      1117.0         0.23         51.1 
      1118.0         0.20         51.1 
      1119.0         0.20         50.9 
      1120.0         0.20         48.8 
      1121.0         0.23         48.0 
      1122.0         0.23         48.9 
      1123.0         0.23         49.7 
      1124.0         0.23         51.2 
      1125.0         0.23         50.9 
      1126.0         0.23         49.5 
      1127.0         0.27         45.5 
      1128.0         0.27         27.9 
      1129.0         0.25         27.6 
      1130.0         0.27         28.6 
      1131.0         0.23         28.6 
      1132.0         0.23         37.2 
      1133.0         0.23         47.3 
      1134.0         0.23         59.0 
      1135.0         0.37         70.1 
      1136.0         1.30        234.9 
      1137.0         0.27        265.4 
      1138.0         0.28        213.5 
      1139.0         0.27        168.0 
      1140.0         0.27        127.7 
      1141.0         0.30         90.1 
      1142.0         0.43         69.6 
      1143.0         0.27         52.6 
      1144.0         0.27         50.3 
      1145.0         0.27         50.3 
      1146.0         0.27         50.0 
      1147.0         0.27         49.5 
      1148.0         0.27         49.3 
      1149.0         0.27         49.1 
      1150.0         0.28         50.0 
      1151.0         0.27         50.6 
      1152.0         0.27         49.9 
      1153.0         0.27         50.7 
      1154.0         0.33         47.8 
      1155.0         0.23         47.2 
      1156.0         0.20         44.9 
      1157.0         0.23         42.4 
      1158.0         0.20         37.7 
      1159.0         0.23         30.8 
      1160.0         0.23         27.6 
      1161.0         0.23         29.3 
      1162.0         0.20         29.8 
      1163.0         0.17         36.9 
      1164.0         0.22         46.1 
      1165.0         0.17         49.7 
      1166.0         1.33         97.1 
      1167.0         0.67         83.9 
      1168.0         0.70         59.0 
      1169.0         0.38         48.4 
      1170.0         0.23         46.6 
      1171.0         0.20         46.5 
      1172.0         0.23         45.7 
      1173.0         0.23         44.3 
      1174.0         0.20         44.0 
      1175.0         0.30         39.5 
      1176.0         0.30         43.5 
      1177.0         0.37         45.3 
      1178.0         0.20         45.9 
      1179.0         0.13         45.6 
      1180.0         0.20         45.6 
      1181.0         0.30         45.2 
      1182.0         0.42         45.9 
      1183.0         0.27         45.0 
      1184.0         0.30         43.1 
      1185.0         0.33         42.9 
      1186.0         0.47         41.5 
      1187.0         0.30         19.7 
      1188.0         0.27         15.5 
      1189.0         0.23         14.5 
      1190.0         0.17         14.3 
      1191.0         0.17         14.6 
      1192.0         0.20         14.7 
      1193.0         0.17         14.5 
      1194.0         0.13         14.5 
      1195.0         0.45         20.3 
      1196.0         1.13         82.1 
      1197.0         0.20         44.8 
      1198.0         0.37         52.3 
      1199.0         0.23         52.3 
      1200.0         0.37         50.7 
      1201.0         0.30         46.2 
      1202.0         0.23         47.0 
      1203.0         0.23         45.1 
      1204.0         0.32         42.5 
      1205.0         0.33         40.9 
      1206.0         0.27         42.0 
      1207.0         0.33         41.6 
      1208.0         0.33         39.7 
      1209.0         0.37         44.4 
      1210.0         0.33         45.3 
      1211.0         0.37         46.0 
      1212.0         0.30         44.9 
      1213.0         0.33         43.2 
      1214.0         0.42         42.8 
      1215.0         0.33         42.8 
      1216.0         0.30         45.7 
      1217.0         0.27         44.6 
      1218.0         0.27         27.0 
      1219.0         0.23         21.2 
      1220.0         0.27         16.8 
      1221.0         0.40         15.4 
      1222.0         0.30         19.8 
      1223.0         0.30         38.8 
      1224.0         0.42         59.5 
      1225.0         0.43         59.4 
      1226.0         2.43         60.7 
      1227.0         0.12         47.7 
      1228.0         0.13         47.7 
      1229.0         0.30         46.4 
      1230.0         0.23         45.1 
      1231.0         0.20         45.5 
      1232.0         0.20         43.7 
      1233.0         0.20         42.9 
      1234.0         0.23         41.8 
      1235.0         0.23         39.6 
      1236.0         0.23         47.3 
      1237.0         0.23         49.2 
      1238.0         0.25         53.2 
      1239.0         0.23         56.5 
      1240.0         0.20         55.6 
      1241.0         0.20         54.3 
      1242.0         0.20         52.2 
      1243.0         0.17         51.7 
      1244.0         0.17         48.8 
      1245.0         0.20         48.8 
      1246.0         0.17         47.6 
      1247.0         0.13         35.9 
      1248.0         0.27         29.5 
      1249.0         0.27         26.8 
      1250.0         0.33         29.7 
      1251.0         0.23         37.3 
      1252.0         0.13         46.3 
      1253.0         0.17         52.7 
      1254.0         0.18         79.1 
      1255.0         0.20         90.9 
      1256.0         1.60         90.5 
      1257.0         0.27         53.0 
      1258.0         0.57         51.0 
      1259.0         0.43         46.0 
      1260.0         0.20         44.8 
      1261.0         0.25         46.1 
      1262.0         0.30         45.8 
      1263.0         0.27         44.3 
      1264.0         0.27         44.6 
      1265.0         0.33         45.5 
      1266.0         0.27         44.4 
      1267.0         0.23         44.0 
      1268.0         0.17         40.6 
      1269.0         0.13         40.6 
      1270.0         0.13         40.8 
      1271.0         0.27         44.2 
      1272.0         0.33         47.0 
      1273.0         0.23         45.8 
      1274.0         0.28         43.6 
