~Version Information
VERS.                      2.0: CWLS Log ASCII Standard - VERSION 2.0
WRAP.                       NO: One line per depth step
~Well Information Block
STRT.FT                -8.7500: 
STOP.FT              1525.0000: 
STEP.FT                 0.2500: 
NULL.                -999.2500: 
COMP.          Pioneer Natural Resources: COMPANY
WELL.          Grand Prix 13-12 Tr: WELL
FLD.           Purgatorie River: FIELD
LOC.           2595' FSL & 1277' FWL--: LOCATION
CNTY.               Las Animas: COUNTY
SRVC.          Patterson Wireline: SERVICE COMPANY
DATE.          Thu Apr 13 10:28:30 2006: LOG DATE
UWI.           05 071 08711 00: UNIQUE WELL ID
STAT.                       CO: STATE
~Curve Information Block
DEPT.FT            0 000 00 00: Depth
CCL.                          : Casing Collar Locator
TT3.usec                      : CBL 3' Travel Time
AMP3.mV                       : CBL 3' Amplitude
GR.GAPI                       : Gamma Ray
~Parameter Information Block
~A  Depth       CCL         TT3         AMP3         GR     
# ...
   393.2500      0.0000    774.0666      5.3406     48.4897
   393.5000      0.0000    772.1107      5.3440     50.3493
   393.7500      0.0000    770.9010      5.3369     51.0490
   394.0000      0.0000    770.5306      5.3122     50.1907
   394.2500      0.0000    769.8399      5.2576     47.9847
   394.5000      0.0000    768.1732      5.1731     45.2833
   394.7500      0.0000    766.1241      5.0695     43.5856
   395.0000      0.0000    764.7482      4.9615     44.1378
   395.2500      0.0000    764.0936      4.8622     46.6764
   395.5000      0.0000    762.4773      4.7788     49.7630
   395.7500      0.0000    757.4244      4.7116     52.6177
   396.0000      0.0000    747.6267      4.6560     55.8060
   396.2500      0.0000    734.2605      4.6060     59.6444
   396.5000      0.0000    720.5082      4.5578     62.8387
   396.7500      0.0000    709.6432      4.5127     63.7208
   397.0000      0.0000    703.3890      4.4759     62.4194
   397.2500      0.0000    701.7870      4.4525     60.7606
   397.5000      0.0000    703.9937      4.4440     60.2056
   397.7500      0.0000    708.7574      4.4475     60.7665
   398.0000      0.0000    714.4606      4.4593     61.7521
   398.2500      0.0000    719.4771      4.4769     62.6238
   398.5000      0.0000    722.8716      4.4968     62.9671
   398.7500      0.0000    724.6849      4.5138     62.4286
   399.0000      0.0000    725.5233      4.5254     61.1820
   399.2500      0.0000    725.9852      4.5376     60.1345
   399.5000      0.0000    726.4020      4.5597     60.1710
   399.7500      0.0000    726.8837      4.5953     61.0363
   400.0000      0.0000    727.4437      4.6384     61.2705
   400.2500      0.0000    728.0718      4.6792     59.6072
   400.5000      0.0000    728.7374      4.7107     56.3343
   400.7500      0.0000    729.3723      4.7291     52.9629
   401.0000      0.0000    729.8990      4.7322     50.7216
   401.2500      0.0000    730.2869      4.7189     49.8419
   401.5000      0.0000    730.5594      4.6899     50.1546
   401.7500      0.0000    730.7736      4.6472     51.6906
   402.0000      0.0000    731.1008      4.5925     54.5586
   402.2500      0.0000    732.0636      4.5300     58.7494
   402.5000      0.0000    734.6729      4.4695     64.0900
   402.7500      0.0000    740.0164      4.4231     69.9824
   403.0000      0.0000    748.2844      4.3976     75.2015
   403.2500      0.0000    758.1242      4.3904     78.4047
   403.5000      0.0000    767.2703      4.3931     79.1890
   403.7500      0.0000    774.0134      4.3977     78.6457
   404.0000      0.0000    778.0279      4.3999     78.7414
   404.2500      0.0000    779.9479      4.3976     81.0867
   404.5000      0.0000    780.4536      4.3889     86.1270
   404.7500      0.0000    779.7176      4.3730     93.0856
   405.0000      0.0000    777.4391      4.3539    100.2998
   405.2500      0.0000    773.4266      4.3424    105.9223
   405.5000      0.0000    768.3786      4.3504    108.9372
   405.7500      0.0000    763.8690      4.3816    109.6939
   406.0000      0.0000    760.9812      4.4264    109.3202
   406.2500      0.0000    759.0040      4.4717    108.7180
   406.5000      0.0000    756.1953      4.5135    108.1888
   406.7500      0.0000    751.9866      4.5574    107.7492
   407.0000      0.0000    747.9075      4.6087    107.3856
   407.2500      0.0000    746.3031      4.6659    106.9611
   407.5000      0.0000    748.4758      4.7244    106.1876
   407.7500      0.0000    753.7461      4.7810    104.9354
   408.0000      0.0000    759.6044      4.8331    103.5073
   408.2500      0.0000    762.9844      4.8775    102.3178
   408.5000      0.0000    762.4131      4.9112    101.3327
   408.7500      0.0000    759.4542      4.9338    100.2301
   409.0000      0.0000    757.4678      4.9458     99.1491
   409.2500      0.0000    758.3089      4.9486     98.7756
   409.5000      0.0000    760.7191      4.9423     99.3538
   409.7500      0.0000    762.5146      4.9217     99.9531
   410.0000      0.0000    763.5161      4.8784     99.1968
   410.2500      0.0000    765.3237      4.8103     96.7948
   410.5000      0.0000    768.7867      4.7268     94.1239
   410.7500      0.0000    772.8356      4.6414     93.1875
   411.0000      0.0000    775.6898      4.5616     94.9442
   411.2500      0.0000    776.3958      4.4877     98.5756
   411.5000      0.0000    775.2559      4.4171    102.2653
   411.7500      0.0000    773.4952      4.3469    104.4904
   412.0000      0.0000    772.5577      4.2761    104.6003
   412.2500      0.0000    773.1753      4.2080    102.7905
   412.5000      0.0000    774.9378      4.1503    100.1146
   412.7500      0.0000    776.9594      4.1124     98.1321
   413.0000      0.0000    778.9301      4.0988     97.7479
   413.2500      0.0000    781.3896      4.1058     98.3398
   413.5000      0.0000    785.0830      4.1231     98.4538
   413.7500      0.0000    790.1705      4.1405     97.3347
   414.0000      0.0000    795.9630      4.1526     95.4803
   414.2500      0.0000    801.0742      4.1596     93.7707
   414.5000      0.0000    803.3595      4.1648     92.5110
   414.7500      0.0000    799.8758      4.1727     91.6354
   415.0000      0.0000    788.0681      4.1872     91.4155
   415.2500      0.0000    768.1793      4.2100     92.3634
   415.5000      0.0000    744.4573      4.2396     94.5206
   415.7500      0.0000    723.0472      4.2738     97.2340
   416.0000      0.0000    708.1586      4.3118     99.5585
   416.2500      0.0000    700.2944      4.3516    100.7024
   416.5000      0.0000    697.7554      4.3846    100.3079
   416.7500      0.0000    699.1781      4.3983     98.5915
   417.0000      0.0000    704.6998      4.3858     96.1061
   417.2500      0.0000    715.1082      4.3524     93.3429
   417.5000      0.0000    729.8835      4.3123     90.7061
   417.7500      0.0000    746.0746      4.2805     88.6307
   418.0000      0.0000    759.4907      4.2653     87.4203
   418.2500      0.0000    767.2860      4.2642     87.1091
   418.5000      0.0000    769.4374      4.2663     87.5219
   418.7500      0.0000    768.0627      4.2614     88.3177
   419.0000      0.0000    765.5925      4.2493     89.1304
   419.2500      0.0000    763.5242      4.2360     89.7914
   419.5000      0.0000    762.7164      4.2239     90.2309
   419.7500      0.0000    764.1537      4.2088     90.2793
   420.0000      0.0000    768.2862      4.1856     89.9361
   420.2500      0.0000    773.7439      4.1549     89.7218
   420.5000      0.0000    778.0322      4.1207     90.4109
   420.7500      0.0000    779.8069      4.0851     92.4894
   421.0000      0.0000    779.7053      4.0485     95.8851
   421.2500      0.0000    779.1196      4.0137    100.0835
   421.5000      0.0000    778.9793      3.9877    104.4519
   421.7500      0.0000    779.7181      3.9767    108.4498
   422.0000      0.0000    781.7043      3.9801    111.4697
   422.2500      0.0000    785.2567      3.9899    112.7887
   422.5000      0.0000    790.2100      3.9963    112.1668
   422.7500      0.0000    795.6043      3.9955    110.4581
   423.0000      0.0000    799.9067      3.9927    109.1548
   423.2500      0.0000    801.7144      3.9970    109.2213
   423.5000      0.0000    800.7030      4.0128    110.5408
   423.7500      0.0000    798.2582      4.0367    112.2921
   424.0000      0.0000    796.7261      4.0608    113.6070
   424.2500      0.0000    797.4283      4.0791    114.1448
   424.5000      0.0000    799.4768      4.0912    114.2347
   424.7500      0.0000    800.7518      4.0997    114.1906
   425.0000      0.0000    799.7736      4.1047    113.6550
   425.2500      0.0000    796.5456      4.1010    112.2741
   425.5000      0.0000    792.1920      4.0816    110.5673
   425.7500      0.0000    788.2686      4.0440    109.1922
   426.0000      0.0000    786.1480      3.9940    107.6640
   426.2500      0.0000    786.5724      3.9428    104.6871
   426.5000      0.0000    789.3595      3.9014     99.6048
