~Version Information
VERS.                      2.0: CWLS Log ASCII Standard - VERSION 2.0
WRAP.                       NO: One line per depth step
~Well Information Block
STRT.FT               240.0000: 
STOP.FT               713.7500: 
STEP.FT                 0.2500: 
NULL.                -999.2500: 
COMP.          Pioneer Natural Resources: COMPANY
WELL.           Belvedere 14-7: WELL
FLD.           Purgatorie River: FIELD
LOC.           786' FSL & 1283' FWL: LOCATION
PROV.                 Colorado: PROVINCE
CNTY.               Las Animas: COUNTRY
SRVC.                Patterson: SERVICE COMPANY
DATE.          Sun Nov 27 03:38:28 2005: LOG DATE
UWI.           05-071-08557               : UNIQUE WELL ID
~Curve Information Block
DEPT.FT            0 000 00 00: Depth
DIR.Ohm-m                     : IEL Induction Resistivity
GR.GAPI                       : Gamma Ray
~Parameter Information Block
~A  Depth       DIR          GR     
# ...
   630.2500     28.7952     54.5482
   630.5000     28.3255     54.9654
   630.7500     27.9027     55.0041
   631.0000     27.5374     55.4448
   631.2500     27.2396     56.3903
   631.5000     27.0226     58.5358
   631.7500     26.9071     59.7751
   632.0000     26.9230     60.1263
   632.2500     27.1016     59.0672
   632.5000     27.4644     56.0344
   632.7500     28.0118     53.7812
   633.0000     28.7191     51.6118
   633.2500     29.5404     51.7819
   633.5000     30.4180     54.7856
   633.7500     31.2956     57.7208
   634.0000     32.1299     60.7505
   634.2500     32.8943     60.7905
   634.5000     33.5766     58.6227
   634.7500     34.1721     57.0430
   635.0000     34.6829     55.8930
   635.2500     35.1194     55.6616
   635.5000     35.4978     54.8032
   635.7500     35.8289     53.4994
   636.0000     36.1066     50.9978
   636.2500     36.3029     49.6796
   636.5000     36.3744     49.0746
   636.7500     36.2745     49.4673
   637.0000     35.9719     50.2645
   637.2500     35.4669     50.4284
   637.5000     34.7999     49.9779
   637.7500     34.0395     49.4616
   638.0000     33.2590     49.0579
   638.2500     32.5165     49.4827
   638.5000     31.8509     51.5684
   638.7500     31.2876     53.6567
   639.0000     30.8461     56.6053
   639.2500     30.5386     57.7608
   639.5000     30.3651     58.1107
   639.7500     30.3078     57.9540
   640.0000     30.3322     58.2100
   640.2500     30.3963     58.8753
   640.5000     30.4637     59.8918
   640.7500     30.5132     60.0086
   641.0000     30.5391     59.1037
   641.2500     30.5441     58.2097
   641.5000     30.5346     57.3913
   641.7500     30.5195     57.4075
   642.0000     30.5080     57.9847
   642.2500     30.5060     58.5003
   642.5000     30.5123     59.2173
   642.7500     30.5206     59.4619
   643.0000     30.5236     59.0045
   643.2500     30.5148     58.0813
   643.5000     30.4862     56.3863
   643.7500     30.4260     55.6430
   644.0000     30.3236     55.7054
   644.2500     30.1763     56.3227
   644.5000     29.9926     57.0891
   644.7500     29.7881     57.0942
   645.0000     29.5799     56.7341
   645.2500     29.3838     56.7805
   645.5000     29.2156     57.5469
   645.7500     29.0904     58.1878
   646.0000     29.0206     58.8050
   646.2500     29.0139     59.0658
   646.5000     29.0721     59.7489
   646.7500     29.1915     60.5536
   647.0000     29.3624     62.2679
   647.2500     29.5704     63.8566
   647.5000     29.7983     67.3652
   647.7500     30.0289     70.4927
   648.0000     30.2481     75.4354
   648.2500     30.4483     78.0495
   648.5000     30.6289     80.1851
   648.7500     30.7919     80.6389
   649.0000     30.9334     80.7479
   649.2500     31.0417     80.8299
   649.5000     31.1024     81.3023
   649.7500     31.1090     81.8994
   650.0000     31.0682     82.9071
   650.2500     30.9966     83.1363
   650.5000     30.9123     81.6564
   650.7500     30.8300     79.0840
   651.0000     30.7616     73.3064
   651.2500     30.7186     68.9294
   651.5000     30.7106     62.9856
   651.7500     30.7406     60.0888
   652.0000     30.8045     57.9720
   652.2500     30.8995     58.0578
   652.5000     31.0369     59.8177
   652.7500     31.2491     61.4969
   653.0000     31.5845     63.8556
   653.2500     32.0930     65.0374
   653.5000     32.8070     66.2904
   653.7500     33.7258     67.0889
   654.0000     34.8085     68.8710
   654.2500     35.9816     70.5510
   654.5000     37.1595     73.0965
   654.7500     38.2701     74.0362
   655.0000     39.2707     73.1469
   655.2500     40.1483     70.7296
   655.5000     40.9086     64.7096
   655.7500     41.5641     59.7877
   656.0000     42.1241     52.5802
   656.2500     42.5882     48.4650
   656.5000     42.9364     43.3379
   656.7500     43.1239     40.5604
   657.0000     43.0868     38.3474
   657.2500     42.7675     39.3437
   657.5000     42.1451     46.0268
   657.7500     41.2518     53.6289
   658.0000     40.1604     67.0168
   658.2500     38.9505     75.2659
   658.5000     37.6796     84.6444
   658.7500     36.3779     88.9799
   659.0000     35.0675     93.7583
   659.2500     33.7839     96.3414
   659.5000     32.5788     99.7241
   659.7500     31.5008    101.5464
   660.0000     30.5736    102.4526
   660.2500     29.7879    100.7620
   660.5000     29.1105     93.8566
   660.7500     28.5040     86.9613
   661.0000     27.9428     75.6235
   661.2500     27.4177     68.7400
   661.5000     26.9290     60.5446
   661.7500     26.4757     56.5355
   662.0000     26.0502     52.3107
   662.2500     25.6423     50.4529
   662.5000     25.2441     48.9807
   662.7500     24.8525     48.9564
   663.0000     24.4633     50.2498
   663.2500     24.0628     51.5554
   663.5000     23.6263     52.9254
   663.7500     23.1256     52.7368
   664.0000     22.5461     50.3863
   664.2500     21.8994     48.0671
   664.5000     21.2231     45.7759
   664.7500     20.5677     46.2084
   665.0000     19.9772     49.8310
   665.2500     19.4756     53.1353
   665.5000     19.0616     57.2476
   665.7500     18.7131     58.8536
   666.0000     18.3971     60.3224
   666.2500     18.0807     61.7699
   666.5000     17.7407     66.1505
   666.7500     17.3694     70.4817
   667.0000     16.9756     77.3789
   667.2500     16.5808     81.1164
   667.5000     16.2123     84.7332
   667.7500     15.8944     86.0278
   668.0000     15.6427     86.4913
   668.2500     15.4602     85.6960
   668.5000     15.3380     83.2773
   668.7500     15.2595     81.7485
   669.0000     15.2061     81.1242
   669.2500     15.1609     81.9504
   669.5000     15.1098     83.8148
   669.7500     15.0412     84.5128
   670.0000     14.9463     84.0410
   670.2500     14.8216     83.1516
   670.5000     14.6718     82.4099
   670.7500     14.5094     82.7684
   671.0000     14.3538     84.0147
   671.2500     14.2292     84.7433
   671.5000     14.1620     85.7828
   671.7500     14.1767     87.1530
   672.0000     14.2918     90.8769
   672.2500     14.5155     93.7844
   672.5000     14.8446     96.5127
   672.7500     15.2648     96.4729
   673.0000     15.7533     94.6277
   673.2500     16.2840     93.6715
   673.5000     16.8350     94.4124
   673.7500     17.3968     96.1185
   674.0000     17.9772     98.4003
   674.2500     18.5999     98.4781
   674.5000     19.2977     95.3974
   674.7500     20.1029     91.1886
   675.0000     21.0356     82.1055
   675.2500     22.0918     74.8865
   675.5000     23.2324     64.4242
   675.7500     24.3776     58.9885
   676.0000     25.4147     54.1513
   676.2500     26.2224     52.9223
   676.5000     26.7042     53.1538
   676.7500     26.8154     54.1078
   677.0000     26.5711     55.7627
   677.2500     26.0380     56.6058
   677.5000     25.3141     57.2549
   677.7500     24.5034     57.3749
   678.0000     23.6929     57.4165
   678.2500     22.9389     57.4804
   678.5000     22.2673     57.5052
   678.7500     21.6840     57.3612
   679.0000     21.1877     57.3501
   679.2500     20.7776     58.1251
   679.5000     20.4514     61.1633
   679.7500     20.1984     64.1246
   680.0000     19.9972     68.8326
   680.2500     19.8220     71.9356
   680.5000     19.6547     77.0934
   680.7500     19.4938     80.9310
   681.0000     19.3519     85.8994
   681.2500     19.2450     87.4379
   681.5000     19.1810     85.8961
   681.7500     19.1555     82.6869
   682.0000     19.1560     76.7545
   682.2500     19.1691     73.4612
   682.5000     19.1858     70.7840
   682.7500     19.2004     70.3980
   683.0000     19.2076     71.1630
   683.2500     19.1995     72.3099
   683.5000     19.1661     74.7243
   683.7500     19.0975     76.4424
   684.0000     18.9865     78.4262
   684.2500     18.8304     79.2161
   684.5000     18.6314     80.0875
   684.7500     18.3952     80.8960
   685.0000     18.1288     83.0014
   685.2500     17.8393     85.0979
   685.5000     17.5364     88.9995
   685.7500     17.2355     91.6635
