~Version Information
VERS.                      2.0: CWLS Log ASCII Standard - VERSION 2.0
WRAP.                       NO: One line per depth step
~Well Information Block
STRT.FT               260.0000: 
STOP.FT               713.2000: 
STEP.FT                 0.1000: 
NULL.                -999.2500: 
COMP.          Pioneer Natural Resources: COMPANY
WELL.           Quintessa 23-7: WELL
FLD.           Purgatoire River: FIELD
LOC.           1964' FSL & 2589' FWL--: LOCATION
PROV.                 Colorado: PROVINCE
CNTY.               Las Animas: COUNTRY
SRVC.                Patterson: SERVICE COMPANY
DATE.          Sat Nov 19 09:15:07 2005: LOG DATE
UWI.           05 071 08558 00: UNIQUE WELL ID
~Curve Information Block
DEPT.FT            0 000 00 00: Depth
DCAL.in                       : CDL Caliper
RHOB.g/cc                     : CDL Bulk Density
RHOC.g/cc                     : CDL Density Correction
DPOR.pu                       : CDL Density Porosity
NPOR.pu                       : Neutron Porosity
GR.GAPI                       : Gamma Ray
~Parameter Information Block
~A  Depth       DCAL        RHOB        RHOC        DPOR        NPOR         GR     
# ...
   317.6000      8.0187      2.5261      0.0648      7.5107     10.8388     50.0762
   317.7000      8.0187      2.5506      0.0724      6.0268     10.3143     51.7617
   317.8000      8.0162      2.5757      0.0883      4.5024     11.6447     51.1219
   317.9000      8.0162      2.5876      0.0638      3.7817     13.1224     50.7161
   318.0000      8.0144      2.5811      0.0817      4.1776     12.6078     53.7724
   318.1000      8.0144      2.5661      0.0516      5.0844     12.2858     55.9432
   318.2000      8.0144      2.5550      0.0395      5.7574     13.9147     51.7631
   318.3000      8.0108      2.5478      0.0309      6.1927     16.4354     45.9611
   318.4000      8.0108      2.5406      0.0175      6.6318     17.5340     44.4458
   318.5000      8.0069      2.5387      0.0119      6.7433     16.2904     46.3504
   318.6000      8.0069      2.5480      0.0129      6.1812     14.2058     49.8172
   318.7000      8.0069      2.5565      0.0681      5.6695     13.7349     52.3260
   318.8000      8.0022      2.5474      0.0252      6.2200     15.5092     51.7539
   318.9000      8.0022      2.5285     -0.0099      7.3628     17.8412     50.3661
   319.0000      8.0005      2.5184      0.0008      7.9762     17.8001     51.3682
   319.1000      8.0005      2.5179      0.0197      8.0087     14.1974     54.8969
   319.2000      8.0005      2.5131      0.0494      8.2946     10.3581     59.0767
   319.3000      8.0017      2.4965      0.0104      9.3026      9.3375     61.5726
   319.4000      8.0017      2.4802     -0.0108     10.2929     11.1989     61.5565
   319.5000      7.9988      2.4749      0.0400     10.6143     14.0729     60.6555
   319.6000      7.9988      2.4701      0.0261     10.9056     15.3896     57.6078
   319.7000      7.9988      2.4595      0.0167     11.5451     15.8974     52.1562
   319.8000      7.9992      2.4538      0.0095     11.8880     16.0398     47.5593
   319.9000      7.9992      2.4654      0.0124     11.1868     15.3545     46.1189
   320.0000      8.0118      2.4890      0.0646      9.7577     14.7829     50.6843
   320.1000      8.0118      2.5053      0.0515      8.7727     14.9248     60.6332
   320.2000      8.0118      2.5050      0.0436      8.7876     14.5069     68.4941
   320.3000      8.0300      2.4911      0.0654      9.6296     12.4584     69.4146
   320.4000      8.0300      2.4765      0.0284     10.5169     10.9045     66.4664
   320.5000      8.0417      2.4740      0.0358     10.6639     11.8650     67.4928
   320.6000      8.0417      2.4767      0.0545     10.5033     15.2462     76.2993
   320.7000      8.0417      2.4693      0.0438     10.9502     18.6654     87.4901
   320.8000      8.0456      2.4463      0.0256     12.3466     19.4134     96.9174
   320.9000      8.0456      2.4005      0.0370     15.1216     18.5751    107.0673
   321.0000      8.0465      2.3243     -0.0232     19.7384     19.8894    116.7682
   321.1000      8.0465      2.2304     -0.0611     25.4325     24.2244    121.0543
   321.2000      8.0465      2.1400     -0.0557     30.9096     28.0579    121.7402
   321.3000      8.0511      2.0689     -0.1227     35.2184     28.3554    123.3511
   321.4000      8.0511      2.0331     -0.1136     37.3888     25.3495    125.6156
   321.5000      8.0633      2.0363     -0.0679     37.1931     21.9357    125.1517
   321.6000      8.0633      2.0670     -0.0318     35.3325     21.1355    121.4172
   321.7000      8.0633      2.1086      0.0482     32.8111     22.4427    117.8190
   321.8000      8.0683      2.1529      0.0639     30.1265     23.1971    114.9212
   321.9000      8.0683      2.2115      0.1033     26.5739     22.5462    111.2919
   322.0000      8.0591      2.2917      0.1501     21.7169     21.8943    107.2564
   322.1000      8.0591      2.3710      0.2067     16.9095     22.0096    105.1351
   322.2000      8.0591      2.4215      0.1685     13.8499     21.8993    106.8579
   322.3000      8.0516      2.4413      0.1141     12.6479     20.3200    111.3719
   322.4000      8.0516      2.4484      0.0627     12.2158     17.6782    117.2508
   322.5000      8.0605      2.4584      0.0554     11.6119     16.2365    123.3877
   322.6000      8.0605      2.4722      0.0402     10.7753     16.9271    128.4334
   322.7000      8.0605      2.4845      0.0641     10.0315     18.4693    130.9353
   322.8000      8.0823      2.4927      0.0638      9.5345     19.9033    127.7715
   322.9000      8.0823      2.4945      0.0564      9.4237     21.0525    121.6763
   323.0000      8.0954      2.4828      0.0797     10.1360     20.8692    123.0234
   323.1000      8.0954      2.4545      0.0393     11.8468     20.1259    129.5981
   323.2000      8.0954      2.4304     -0.0355     13.3071     20.5507    129.5653
   323.3000      8.0930      2.4328      0.0193     13.1640     21.2257    123.5414
   323.4000      8.0930      2.4545      0.0281     11.8477     20.7487    120.6034
   323.5000      8.0820      2.4797      0.0547     10.3217     20.6484    123.5562
   323.6000      8.0820      2.4976      0.0770      9.2357     21.8235    129.8541
   323.7000      8.0820      2.4980      0.0622      9.2130     22.2234    135.9225
   323.8000      8.0706      2.4857      0.0222      9.9591     21.4590    138.8193
   323.9000      8.0706      2.4768      0.0420     10.4966     20.4523    139.4376
   324.0000      8.0594      2.4769      0.0701     10.4897     18.3696    138.8410
   324.1000      8.0594      2.4863      0.0433      9.9210     16.7939    133.6654
   324.2000      8.0594      2.5047      0.0651      8.8044     17.3893    124.0859
   324.3000      8.0468      2.5209      0.0401      7.8218     18.6723    117.9660
   324.4000      8.0468      2.5219      0.0642      7.7632     19.4562    120.1365
   324.5000      8.0335      2.5086      0.0410      8.5696     19.8467    127.7915
   324.6000      8.0335      2.4962      0.0097      9.3217     20.0315    134.1951
   324.7000      8.0335      2.4949      0.0005      9.4028     19.8787    133.8829
   324.8000      8.0264      2.4997      0.0190      9.1066     18.4243    128.0149
   324.9000      8.0264      2.5008      0.0510      9.0438     16.9214    121.8365
   325.0000      8.0276      2.4925      0.0058      9.5466     17.3080    118.1439
   325.1000      8.0276      2.4823      0.0228     10.1625     19.0252    118.4431
   325.2000      8.0276      2.4820     -0.0230     10.1806     20.5056    123.2360
   325.3000      8.0349      2.4906      0.0006      9.6610     20.2064    125.4095
   325.4000      8.0349      2.5036      0.0086      8.8728     17.4487    120.5198
   325.5000      8.0433      2.5265      0.0514      7.4835     14.5819    116.9054
   325.6000      8.0433      2.5528      0.0680      5.8916     13.6134    116.9559
   325.7000      8.0433      2.5616      0.0733      5.3566     13.4705    114.0857
   325.8000      8.0451      2.5502      0.0507      6.0466     13.1510    110.5764
   325.9000      8.0451      2.5362      0.0305      6.8999     13.5796    111.3726
   326.0000      8.0440      2.5266      0.0443      7.4802     14.4117    117.0788
   326.1000      8.0440      2.5139      0.0308      8.2505     14.6803    124.1460
   326.2000      8.0440      2.5017     -0.0107      8.9862     15.4974    129.0739
   326.3000      8.0443      2.5035      0.0022      8.8758     17.2419    134.5767
   326.4000      8.0443      2.5146      0.0418      8.2054     17.9701    139.3578
   326.5000      8.0434      2.5210      0.0199      7.8167     16.9564    138.5523
   326.6000      8.0434      2.5186      0.0861      7.9645     16.3906    133.3184
   326.7000      8.0434      2.5083      0.0160      8.5880     17.0225    125.3725
   326.8000      8.0382      2.4981      0.0375      9.2060     17.0796    117.6574
   326.9000      8.0382      2.4956      0.0192      9.3561     16.8828    117.1078
   327.0000      8.0293      2.5014      0.0198      9.0033     18.0972    123.8859
   327.1000      8.0293      2.5122      0.0463      8.3525     19.4381    130.0491
