~Version Information
VERS.                      2.0: CWLS Log ASCII Standard - VERSION 2.0
WRAP.                       NO: One line per depth step
~Well Information Block
STRT.FT                10.0000: 
STOP.FT               715.0000: 
STEP.FT                 0.1000: 
NULL.                -999.2500: 
COMP.          Pioneer Natural Resources: COMPANY
WELL.           Belvedere 14-7: WELL
FLD.           Purgatorie River: FIELD
LOC.           786' FSL & 1283' FWL: LOCATION
PROV.                 Colorado: PROVINCE
CNTY.               Las Animas: COUNTRY
SRVC.                Patterson: SERVICE COMPANY
DATE.          Mon Nov 28 07:30:54 2005: LOG DATE
UWI.           05-071-08557               : UNIQUE WELL ID
~Curve Information Block
DEPT.FT            0 000 00 00: Depth
DCAL.in                       : CDL Caliper
RHOB.g/cc                     : CDL Bulk Density
RHOC.g/cc                     : CDL Density Correction
DPOR.pu                       : CDL Density Porosity
GR.GAPI                       : Gamma Ray
NPOR.pu                       : Neutron Porosity
~Parameter Information Block
~A  Depth       DCAL        RHOB        RHOC        DPOR         GR         NPOR    
# ...
   106.0000      2.7444      2.0782      2.3271     -0.0114    102.6106     20.0761
   106.1000      2.7444      2.0830      2.3528     -0.0113    103.6936     20.6341
   106.2000      2.7444      2.0975      2.3699     -0.0111    107.8657     21.4043
   106.3000      2.7444      2.1228      2.3749     -0.0105    113.9229     21.9574
   106.4000      2.7444      2.1604      2.4273     -0.0098    117.5470     21.8696
   106.5000      2.7444      2.2023      2.4800     -0.0090    118.1127     21.3646
   106.6000      2.7444      2.2422      2.4834     -0.0082    118.6084     21.0974
   106.7000      2.7444      2.2776      2.5340     -0.0075    121.5609     21.1235
   106.8000      2.7444      2.2999      2.5473     -0.0070    127.7672     21.1014
   106.9000      2.7444      2.3064      2.5161     -0.0069    133.7411     21.2283
   107.0000      2.7444      2.3072      2.5191     -0.0069    137.0178     21.8268
   107.1000      2.7444      2.3089      2.5218     -0.0068    138.5902     22.3483
   107.2000      2.7444      2.3125      2.4818     -0.0068    138.6594     22.3302
   107.3000      2.7444      2.3226      2.4786     -0.0066    139.0772     22.1841
   107.4000      2.7444      2.3313      2.5134     -0.0064    142.7947     22.0875
   107.5000      2.7444      2.3220      2.4934     -0.0066    147.0865     21.9176
   107.6000      2.7444      2.3009      2.4420     -0.0070    145.6033     21.8373
   107.7000      2.7444      2.2879      2.4511     -0.0072    138.8645     21.7722
   107.8000      2.7444      2.2855      2.4500     -0.0073    133.9701     21.5997
   107.9000      2.7444      2.2893      2.4300     -0.0072    135.4658     21.6925
   108.0000      2.7444      2.2944      2.4499     -0.0071    141.8957     22.2913
   108.1000      2.7444      2.2910      2.4508     -0.0072    148.6327     22.9083
   108.2000      2.7444      2.2794      2.4138     -0.0074    151.4810     23.1913
   108.3000      2.7444      2.2673      2.4037     -0.0077    148.9800     23.2868
   108.4000      2.7444      2.2515      2.4319     -0.0080    144.0121     23.2767
   108.5000      2.7444      2.2285      2.3861     -0.0084    140.8365     23.1577
   108.6000      2.7444      2.2036      2.3941     -0.0089    141.3335     23.0829
   108.7000      2.7444      2.1868      2.3364     -0.0093    143.3441     23.1115
   108.8000      2.7444      2.1879      2.3756     -0.0092    141.7706     23.1026
   108.9000      2.7444      2.2026      2.3574     -0.0090    137.0354     23.1252
   109.0000      2.7444      2.2178      2.3857     -0.0086    133.6622     23.3910
   109.1000      2.7444      2.2210      2.3982     -0.0086    132.1349     23.7000
   109.2000      2.7444      2.2111      2.3509     -0.0088    131.2422     23.4235
   109.3000      2.7444      2.2001      2.3579     -0.0090    130.2407     22.5524
   109.4000      2.7444      2.1961      2.3535     -0.0091    127.3290     21.9797
   109.5000      2.7444      2.1983      2.3641     -0.0090    123.6205     22.1045
   109.6000      2.7444      2.2035      2.3519     -0.0089    122.4314     22.1814
   109.7000      2.7444      2.2105      2.3735     -0.0088    124.9341     21.7855
   109.8000      2.7444      2.2220      2.3427     -0.0086    128.5007     21.5192
   109.9000      2.7444      2.2376      2.3811     -0.0083    129.8213     21.9359
   110.0000      2.7444      2.2508      2.3964     -0.0080    129.6762     22.8313
   110.1000      2.7444      2.2588      2.3847     -0.0078    129.9718     23.3700
   110.2000      2.7444      2.2645      2.3990     -0.0077    131.2691     22.9122
   110.3000      2.7444      2.2687      2.4014     -0.0076    133.5980     21.8602
   110.4000      2.7444      2.2697      2.3938     -0.0076    136.6075     21.3183
   110.5000      2.7444      2.2688      2.3793     -0.0076    138.3071     21.8571
   110.6000      2.7444      2.2718      2.3948     -0.0076    136.0007     22.8054
   110.7000      2.7444      2.2776      2.4557     -0.0075    130.8985     23.2217
   110.8000      2.7444      2.2819      2.3947     -0.0074    126.4146     23.0854
   110.9000      2.7444      2.2902      2.4032     -0.0072    123.5210     23.0091
   111.0000      2.7444      2.3049      2.4153     -0.0069    123.1174     23.1432
   111.1000      2.7444      2.3189      2.4146     -0.0066    124.7593     23.0963
   111.2000      2.7444      2.3219      2.4564     -0.0066    123.6014     22.6753
   111.3000      2.7444      2.3106      2.4025     -0.0068    119.9989     21.9529
   111.4000      2.7444      2.2963      2.3933     -0.0071    120.9423     21.2561
   111.5000      2.7444      2.2811      2.4455     -0.0074    127.3898     20.9236
   111.6000      2.7444      2.2605      2.3963     -0.0078    133.4021     20.8570
   111.7000      2.7444      2.2524      2.3692     -0.0080    136.6285     21.0884
   111.8000      2.7444      2.2677      2.4142     -0.0077    137.9462     21.8080
   111.9000      2.7444      2.2850      2.4363     -0.0073    138.2638     22.6818
   112.0000      2.7444      2.2846      2.4227     -0.0073    139.3484     23.2730
   112.1000      2.7444      2.2710      2.4171     -0.0076    141.7979     23.4675
   112.2000      2.7444      2.2585      2.3888     -0.0078    144.2691     23.3800
   112.3000      2.7444      2.2524      2.4151     -0.0080    145.0506     23.3734
   112.4000      2.7444      2.2485      2.4248     -0.0080    146.0170     23.6096
   112.5000      2.7444      2.2505      2.3676     -0.0080    149.8723     23.9746
   112.6000      2.7444      2.2679      2.3847     -0.0076    153.3503     24.3613
   112.7000      2.7444      2.2853      2.4444     -0.0073    155.6791     24.4613
   112.8000      2.7444      2.2793      2.4238     -0.0074    160.8216     24.1861
   112.9000      2.7444      2.2582      2.3858     -0.0078    164.4158     23.8571
   113.0000      2.7444      2.2435      2.3565     -0.0081    161.4831     23.7738
   113.1000      2.7444      2.2372      2.4070     -0.0083    157.6263     24.0947
   113.2000      2.7444      2.2315      2.3798     -0.0084    157.7057     24.6931
   113.3000      2.7444      2.2305      2.3753     -0.0084    158.4457     25.3503
   113.4000      2.7444      2.2368      2.4043     -0.0083    157.3461     25.8152
   113.5000      2.7444      2.2397      2.4067     -0.0082    156.5442     25.7625
   113.6000      2.7444      2.2363      2.4041     -0.0083    156.1289     25.2690
   113.7000      2.7444      2.2404      2.3831     -0.0082    154.7839     24.8595
   113.8000      2.7444      2.2572      2.4243     -0.0079    152.9459     24.6785
   113.9000      2.7444      2.2665      2.4667     -0.0077    150.8881     24.6085
   114.0000      2.7444      2.2563      2.4013     -0.0079    149.7756     24.8860
   114.1000      2.7444      2.2440      2.3731     -0.0081    150.3534     25.3009
   114.2000      2.7444      2.2445      2.4065     -0.0081    150.9164     25.2558
   114.3000      2.7444      2.2564      2.3915     -0.0079    149.9868     24.8815
   114.4000      2.7444      2.2687      2.4092     -0.0076    147.6606     24.7914
   114.5000      2.7444      2.2644      2.4169     -0.0077    146.3838     24.9294
   114.6000      2.7444      2.2386      2.3917     -0.0082    148.6344     24.8993
   114.7000      2.7444      2.2036      2.3546     -0.0089    151.9782     24.7406
   114.8000      2.7444      2.1770      2.3429     -0.0095    151.0732     24.6374
   114.9000      2.7444      2.1693      2.3591     -0.0096    145.0748     24.8031
   115.0000      2.7444      2.1791      2.3506     -0.0094    139.9662     25.2357
   115.1000      2.7444      2.1983      2.3745     -0.0090    139.7016     25.4237
   115.2000      2.7444      2.2224      2.3614     -0.0086    139.4635     25.0714
   115.3000      2.7444      2.2528      2.3757     -0.0079    134.3656     24.5504
   115.4000      2.7444      2.2886      2.3974     -0.0072    127.8236     24.2160
   115.5000      2.7444      2.3214      2.4108     -0.0066    124.2695     24.0438
