~Version Information
VERS.                      2.0: CWLS Log ASCII Standard - VERSION 2.0
WRAP.                       NO: One line per depth step
~Well Information Block
STRT.FT               410.0000: 
STOP.FT              1530.5000: 
STEP.FT                 0.1000: 
NULL.                -999.2500: 
COMP.          Pioneer Natural Resources: COMPANY
WELL.          Pioneer 34-27 Tr: WELL
FLD.           Purgatoire River: FIELD
LOC.           243' FSL & 1593' FEL: LOCATION
STAT.                 Colorado: State
CNTY.               Las Animas: COUNTY
CTRY. USA : Country
SECT. 27 : Section
TOWN. 32S : Township
RANG. 67W : Range 
SRVC.                Patterson: SERVICE COMPANY
DATE.          Fri Oct 07 07:11:38 2005: LOG DATE
API.           05 071 08548 00: UNIQUE WELL ID
~Curve Information Block
DEPT.FT            0 000 00 00: Depth
DCAL.in                       : CDL Caliper
RHOB.g/cc                     : CDL Bulk Density
RHOC.g/cc                     : CDL Density Correction
DPOR.pu                       : CDL Density Porosity
GR.GAPI                       : Gamma Ray
NPOR.pu                       : Neutron Porosity
~Parameter Information Block
~A  Depth       DCAL        RHOB        RHOC        DPOR         GR         NPOR    
# ...
  1149.2000      8.0538      2.5785      0.1012      4.3322     66.3411     19.5473
  1149.3000      8.0525      2.5651      0.0794      5.1430     65.2650     19.6743
  1149.4000      8.0525      2.5715      0.0566      4.7556     66.2312     20.1348
  1149.5000      8.0332      2.5869      0.0877      3.8269     67.9052     20.9126
  1149.6000      8.0332      2.5861      0.0427      3.8723     69.0223     21.5279
  1149.7000      8.0332      2.5742      0.0188      4.5928     67.7298     21.6340
  1149.8000      8.0547      2.5726      0.0439      4.6903     65.2312     21.0628
  1149.9000      8.0547      2.5788      0.0397      4.3144     63.4215     20.3055
  1150.0000      8.0728      2.5834      0.0269      4.0387     62.7082     20.1398
  1150.1000      8.0728      2.5829      0.0633      4.0695     64.3879     20.6085
  1150.2000      8.0728      2.5679      0.0470      4.9752     69.2341     21.1101
  1150.3000      8.0786      2.5376      0.0796      6.8127     74.6264     21.1259
  1150.4000      8.0786      2.5154     -0.0006      8.1582     78.3940     20.8660
  1150.5000      8.0750      2.5266      0.0455      7.4784     81.1728     20.8670
  1150.6000      8.0750      2.5600      0.0776      5.4523     81.1899     21.0985
  1150.7000      8.0750      2.5809      0.0903      4.1849     77.0086     21.1999
  1150.8000      8.0410      2.5681      0.0997      4.9638     72.7299     21.1125
  1150.9000      8.0410      2.5315      0.0497      7.1789     71.7440     20.8972
  1151.0000      8.0379      2.5056      0.0057      8.7491     72.9091     20.7289
  1151.1000      8.0379      2.5046      0.0615      8.8132     72.4409     20.7673
  1151.2000      8.0379      2.5103      0.0501      8.4664     70.9789     20.8076
  1151.3000      8.0353      2.5107      0.0584      8.4431     70.7601     20.7906
  1151.4000      8.0353      2.5076      0.0469      8.6292     70.6769     20.9254
  1151.5000      8.0343      2.5090      0.0344      8.5466     71.1262     21.1844
  1151.6000      8.0343      2.5219      0.0482      7.7624     72.5212     21.4028
  1151.7000      8.0343      2.5398      0.1003      6.6760     75.5033     21.5472
  1151.8000      8.0341      2.5500      0.1060      6.0614     80.7628     21.5432
  1151.9000      8.0341      2.5463      0.1184      6.2826     84.7189     21.4351
  1152.0000      8.0332      2.5274      0.0893      7.4287     83.8334     21.4452
  1152.1000      8.0332      2.4984      0.0963      9.1900     79.9591     21.5856
  1152.2000      8.0332      2.4768      0.0644     10.4946     77.5532     21.7211
  1152.3000      8.0029      2.4808      0.0781     10.2563     80.9697     21.8844
  1152.4000      8.0029      2.5136      0.0741      8.2674     88.7835     22.1925
  1152.5000      7.9455      2.5685      0.1553      4.9418     92.5472     22.6370
  1152.6000      7.9455      2.6313      0.1959      1.1343     88.8056     23.2693
  1152.7000      7.9455      2.6874      0.2533     -2.2680     83.6741     24.1477
  1152.8000      7.9273      2.7231      0.2857     -4.4286     82.2830     24.7753
  1152.9000      7.9273      2.7294      0.2605     -4.8100     84.9045     24.8712
  1153.0000      7.9113      2.7149      0.1894     -3.9356     89.0338     24.9852
  1153.1000      7.9113      2.6948      0.1627     -2.7141     91.3289     25.2902
  1153.2000      7.9113      2.6761      0.0830     -1.5817     90.9139     25.3443
  1153.3000      7.9142      2.6637      0.0937     -0.8331     88.3013     25.1627
  1153.4000      7.9142      2.6601      0.1178     -0.6123     83.9439     25.0372
  1153.5000      7.9211      2.6683      0.1281     -1.1096     80.1964     24.7309
  1153.6000      7.9211      2.6820      0.1276     -1.9367     77.2800     24.1973
  1153.7000      7.9211      2.6786      0.1413     -1.7325     75.2494     23.9378
  1153.8000      7.9685      2.6563      0.0939     -0.3824     76.6350     24.1289
  1153.9000      7.9685      2.6391      0.0819      0.6576     79.8863     24.5779
  1154.0000      7.9444      2.6297      0.1164      1.2279     82.2422     24.9998
  1154.1000      7.9444      2.6140      0.1253      2.1828     83.9698     25.0608
  1154.2000      7.9444      2.5957      0.0904      3.2937     86.0083     24.6679
  1154.3000      7.9869      2.5849      0.1150      3.9459     87.7448     24.0219
  1154.4000      7.9869      2.5821      0.0985      4.1133     87.5499     23.4663
  1154.5000      8.0001      2.5851      0.1237      3.9304     86.9089     23.1395
  1154.6000      8.0001      2.5865      0.1516      3.8483     86.6807     22.7344
  1154.7000      8.0001      2.5817      0.1297      4.1424     82.6571     21.9664
  1154.8000      8.0128      2.5764      0.1540      4.4620     73.4628     21.0148
  1154.9000      8.0128      2.5737      0.1337      4.6259     65.4589     20.3020
  1155.0000      8.0070      2.5671      0.1804      5.0264     63.3213     20.0290
  1155.1000      8.0070      2.5506      0.1445      6.0230     65.1274     19.8950
  1155.2000      8.0070      2.5291      0.1442      7.3284     66.9956     19.6061
  1155.3000      7.9921      2.5084      0.1115      8.5830     67.9990     19.2108
  1155.4000      7.9921      2.4914      0.0950      9.6146     68.3643     18.9235
  1155.5000      8.0191      2.4786      0.1060     10.3899     66.0074     18.8989
  1155.6000      8.0191      2.4678      0.1270     11.0415     61.2717     19.0004
  1155.7000      8.0191      2.4607      0.1129     11.4754     58.2991     19.0715
  1155.8000      8.0750      2.4593      0.1205     11.5552     56.9284     19.0528
  1155.9000      8.0750      2.4574      0.0827     11.6735     55.1151     18.7284
  1156.0000      8.1252      2.4447      0.1033     12.4453     54.7003     18.0854
  1156.1000      8.1252      2.4234      0.0554     13.7307     55.3216     17.4081
  1156.2000      8.1252      2.4080      0.0576     14.6648     54.8070     16.9522
  1156.3000      8.1075      2.4042      0.0521     14.8999     56.2830     16.8355
  1156.4000      8.1075      2.4069      0.0743     14.7319     59.7001     16.7568
  1156.5000      8.0923      2.4100      0.0829     14.5483     57.6993     16.5871
  1156.6000      8.0923      2.4089      0.0469     14.6130     49.9412     16.5981
  1156.7000      8.0923      2.3993      0.0750     15.1911     45.3653     16.6864
  1156.8000      8.1065      2.3803      0.0273     16.3461     46.0737     16.7319
  1156.9000      8.1065      2.3638      0.0096     17.3481     46.5378     16.8640
  1157.0000      8.1067      2.3613      0.0412     17.4998     44.1349     17.0491
  1157.1000      8.1067      2.3678      0.0572     17.1046     41.9984     17.0507
  1157.2000      8.1067      2.3729      0.0254     16.7911     42.8867     16.9200
  1157.3000      8.1266      2.3766      0.0495     16.5674     44.7373     16.9630
  1157.4000      8.1266      2.3849      0.0253     16.0655     46.1511     17.1290
  1157.5000      8.1113      2.4024      0.0307     15.0031     47.7892     17.1477
  1157.6000      8.1113      2.4241      0.0968     13.6939     48.1602     16.9993
  1157.7000      8.1113      2.4326      0.1081     13.1739     47.4094     16.8424
  1157.8000      8.1032      2.4252      0.0904     13.6223     46.4663     16.8638
  1157.9000      8.1032      2.4187      0.1130     14.0185     44.9031     17.0106
  1158.0000      8.0907      2.4182      0.1170     14.0485     44.5774     17.0161
  1158.1000      8.0907      2.4136      0.0776     14.3251     46.8690     16.9948
  1158.2000      8.0907      2.4058      0.0360     14.8011     49.7922     17.2409
  1158.3000      8.0844      2.4062      0.0998     14.7739     48.9560     17.5873
  1158.4000      8.0844      2.4207      0.0685     13.8983     45.3213     17.7493
  1158.5000      8.0864      2.4469      0.0762     12.3062     45.6499     17.7195
  1158.6000      8.0864      2.4670      0.0955     11.0907     49.7707     17.6156
  1158.7000      8.0864      2.4621      0.0870     11.3888     52.2598     17.5996
