~Version Information
VERS.                      2.0: CWLS Log ASCII Standard - VERSION 2.0
WRAP.                       NO: One line per depth step
~Well Information Block
STRT.FT               245.0000: 
STOP.FT              1273.7000: 
STEP.FT                 0.1000: 
NULL.                -999.2500: 
COMP.          Pioneer Natural Resources: COMPANY
WELL.                 Ray 34-6: WELL
FLD.           Purgatoire River: FIELD
LOC.           684' FSL & 2254' FEL--: LOCATION
CNTY.               Las Animas: COUNTY
SRVC.                Patterson: SERVICE COMPANY
DATE.          Fri May 26 09:17:30 2006: LOG DATE
UWI.           05 071 08695 00: UNIQUE WELL ID
STAT.                 Colorado: STATE
~Curve Information Block
DEPT.FT            0 000 00 00: Depth
DCAL.in                       : CDL Caliper
RHOB.g/cc                     : CDL Bulk Density
RHOC.g/cc                     : CDL Density Correction
DPOR.pu                       : CDL Density Porosity
NPOR.pu                       : Neutron Porosity
GR.GAPI                       : Gamma Ray
~Parameter Information Block
~A  Depth       DCAL        RHOB        RHOC        DPOR        NPOR         GR     
# ...
   581.0000      8.0492      2.5340      0.1640      7.0282     24.7219    155.2708
   581.1000      8.0492      2.5853      0.1845      3.9217     25.2318    156.5459
   581.2000      8.0492      2.6065      0.1392      2.6379     25.2759    155.3221
   581.3000      8.0504      2.6056      0.0908      2.6921     25.1594    160.3213
   581.4000      8.0504      2.5949      0.1114      3.3387     25.1984    168.8489
   581.5000      8.0494      2.5764      0.0693      4.4582     25.2191    171.1776
   581.6000      8.0494      2.5603      0.0594      5.4340     24.9736    167.5604
   581.7000      8.0494      2.5606      0.0474      5.4204     24.5003    162.6985
   581.8000      8.0494      2.5687      0.0866      4.9281     24.0078    155.2041
   581.9000      8.0494      2.5654      0.0996      5.1287     23.8127    143.9315
   582.0000      8.0519      2.5511      0.0409      5.9958     23.9671    135.6153
   582.1000      8.0519      2.5388      0.0393      6.7412     24.1175    133.5665
   582.2000      8.0519      2.5362      0.0197      6.8985     24.0354    131.8521
   582.3000      8.0549      2.5548     -0.0189      5.7683     23.9554    126.6419
   582.4000      8.0549      2.5844      0.1239      3.9764     24.2030    121.5772
   582.5000      8.0546      2.5856      0.0427      3.9010     24.6989    119.6104
   582.6000      8.0546      2.5613     -0.0008      5.3746     25.2627    117.0359
   582.7000      8.0546      2.5562     -0.0392      5.6834     25.8696    113.6892
   582.8000      8.0515      2.5808      0.0685      4.1932     26.3831    113.9914
   582.9000      8.0515      2.6006      0.0539      2.9945     26.6935    115.6202
   583.0000      8.0483      2.5944      0.0373      3.3690     26.7379    115.1013
   583.1000      8.0483      2.5803      0.0117      4.2260     26.6142    114.5343
   583.2000      8.0483      2.5846     -0.0020      3.9649     26.6497    113.7414
   583.3000      8.0496      2.5980      0.0642      3.1509     27.0003    113.8852
   583.4000      8.0496      2.5956      0.0411      3.2983     27.5512    119.2071
   583.5000      8.0525      2.5834      0.0394      4.0350     28.3191    127.5521
   583.6000      8.0525      2.5772      0.0530      4.4122     29.0120    132.0051
   583.7000      8.0525      2.5752      0.0474      4.5344     28.9557    131.4442
   583.8000      8.0531      2.5656      0.0347      5.1130     28.2331    128.3231
   583.9000      8.0531      2.5421      0.0214      6.5390     27.5887    125.2727
   584.0000      8.0535      2.5138      0.0077      8.2548     27.3084    127.2039
   584.1000      8.0535      2.4922      0.0550      9.5614     27.2349    134.7823
   584.2000      8.0535      2.4850     -0.0346      9.9974     27.4889    141.1623
   584.3000      8.0546      2.4978      0.0361      9.2226     28.1289    141.1781
   584.4000      8.0546      2.5169      0.0527      8.0672     28.7137    138.2406
   584.5000      8.0542      2.5236      0.0733      7.6609     28.8463    136.9457
   584.6000      8.0542      2.5216      0.0426      7.7796     28.4779    137.0954
   584.7000      8.0542      2.5243      0.0947      7.6177     27.7484    139.6993
   584.8000      8.0516      2.5312      0.1161      7.2009     27.0484    144.5527
   584.9000      8.0516      2.5394      0.1141      6.7030     26.6918    148.4114
   585.0000      8.0511      2.5521      0.0959      5.9322     26.6562    149.5044
   585.1000      8.0511      2.5656      0.1073      5.1160     26.9138    147.2912
   585.2000      8.0511      2.5659      0.1127      5.0956     27.4807    144.1500
   585.3000      8.0522      2.5461      0.0795      6.2962     28.0663    142.3985
   585.4000      8.0522      2.5188      0.0581      7.9490     28.2344    139.4498
   585.5000      8.0537      2.5051     -0.0103      8.7833     28.1637    133.6989
   585.6000      8.0537      2.5133      0.0651      8.2848     28.2639    127.7527
   585.7000      8.0537      2.5307      0.0493      7.2285     28.3683    122.9022
   585.8000      8.0553      2.5491      0.0145      6.1146     28.1221    119.1081
   585.9000      8.0553      2.5677      0.1111      4.9881     27.5350    117.2171
   586.0000      8.0559      2.5820      0.0374      4.1199     27.0203    115.2631
   586.1000      8.0559      2.5912      0.0958      3.5636     26.8814    110.5452
   586.2000      8.0559      2.5922      0.0917      3.5047     26.8589    105.8929
   586.3000      8.0569      2.5910      0.0788      3.5764     26.7328    106.1622
   586.4000      8.0569      2.5992      0.1051      3.0792     26.7856    108.9167
   586.5000      8.0579      2.6176      0.1028      1.9627     27.0037    110.4660
   586.6000      8.0579      2.6384      0.1034      0.7024     27.0285    111.1622
   586.7000      8.0579      2.6468      0.1136      0.1910     26.9539    109.9790
   586.8000      8.0578      2.6314      0.1238      1.1244     26.9790    108.1540
   586.9000      8.0578      2.6028      0.0161      2.8617     26.9182    107.7348
   587.0000      8.0551      2.5874      0.0013      3.7936     26.7855    107.7661
   587.1000      8.0551      2.5894      0.0555      3.6751     26.7948    111.6257
   587.2000      8.0551      2.5876      0.0073      3.7796     26.9034    121.4193
   587.3000      8.0536      2.5765     -0.0043      4.4530     27.2595    129.5691
   587.4000      8.0536      2.5706     -0.0095      4.8110     28.0652    129.8316
   587.5000      8.0536      2.5705      0.0485      4.8175     28.8828    124.7783
   587.6000      8.0536      2.5655      0.0034      5.1186     29.2491    121.4637
   587.7000      8.0536      2.5604      0.0110      5.4280     29.3595    123.7840
   587.8000      8.0528      2.5575      0.0434      5.6070     29.3773    129.1902
   587.9000      8.0528      2.5457      0.0246      6.3204     29.1039    134.9888
   588.0000      8.0531      2.5231      0.0199      7.6930     28.7076    141.4431
   588.1000      8.0531      2.5026     -0.0258      8.9318     28.4853    147.6884
   588.2000      8.0531      2.4971     -0.0078      9.2682     28.2519    152.6324
   588.3000      8.0540      2.5076     -0.0179      8.6281     27.8958    155.3777
   588.4000      8.0540      2.5295      0.0078      7.3056     27.4378    155.5003
   588.5000      8.0535      2.5507      0.0890      6.0191     26.9642    154.5475
   588.6000      8.0535      2.5559      0.0678      5.7057     26.7180    154.6054
   588.7000      8.0535      2.5475      0.0309      6.2148     26.6149    155.6263
   588.8000      8.0514      2.5452     -0.0059      6.3516     26.3429    152.2076
   588.9000      8.0514      2.5618      0.0212      5.3459     26.0965    140.7890
   589.0000      8.0518      2.5857      0.0747      3.8978     26.2191    125.7880
   589.1000      8.0518      2.6005      0.0775      2.9979     26.6669    113.4202
   589.2000      8.0518      2.6113      0.0422      2.3427     27.1116    106.3381
   589.3000      8.0527      2.6223      0.1043      1.6770     27.3182    104.8938
   589.4000      8.0527      2.6240      0.0667      1.5738     27.2768    108.7373
   589.5000      8.0522      2.6194      0.0431      1.8547     26.9852    113.8337
   589.6000      8.0522      2.6164      0.0552      2.0358     26.5385    114.4157
   589.7000      8.0522      2.6125      0.0931      2.2715     26.1985    111.0253
   589.8000      8.0530      2.6053      0.0982      2.7108     26.0776    105.8071
   589.9000      8.0530      2.6019      0.0659      2.9164     26.2007     97.9203
   590.0000      8.0550      2.6096      0.0744      2.4463     26.5291     92.1444
   590.1000      8.0550      2.6228      0.0707      1.6485     26.6604     93.2143
   590.2000      8.0550      2.6298      0.0901      1.2237     26.4642    100.2325
   590.3000      8.0560      2.6230      0.0693      1.6358     26.1518    110.4912
   590.4000      8.0560      2.6008      0.0584      2.9790     25.8671    118.6193
   590.5000      8.0552      2.5745      0.0185      4.5735     25.6237    120.6534
