~Version Information
VERS.                      2.0: CWLS Log ASCII Standard - VERSION 2.0
WRAP.                       NO: One line per depth step
~Well Information Block
STRT.FT               452.0000: 
STOP.FT              1726.5000: 
STEP.FT                 0.1000: 
NULL.                -999.2500: 
COMP.          Pioneer Natural Resources: COMPANY
WELL.          Parrothead 31-31 Tr: WELL
FLD.           Purgatoire River: FIELD
LOC.           496' FNL & 1546' FEL: LOCATION
PROV.                 Colorado: PROVINCE
CNTY.               Las Animas: COUNTRY
SRVC.                Patterson: SERVICE COMPANY
DATE.          Thu Nov 10 07:29:36 2005: LOG DATE
UWI.           05 071 08610 00: UNIQUE WELL ID
~Curve Information Block
DEPT.FT            0 000 00 00: Depth
DCAL.in                       : CDL Caliper
RHOB.g/cc                     : CDL Bulk Density
RHOC.g/cc                     : CDL Density Correction
DPOR.pu                       : CDL Density Porosity
GR.GAPI                       : Gamma Ray
NPOR.pu                       : Neutron Porosity
~Parameter Information Block
~A  Depth       DCAL        RHOB        RHOC        DPOR         GR         NPOR    
# ...
  1037.6000      7.9916      2.4195      0.0504     13.9700    133.9339     23.4281
  1037.7000      7.9916      2.4326      0.0714     13.1784    138.7803     22.8248
  1037.8000      7.9782      2.4413      0.0242     12.6464    145.5712     21.9186
  1037.9000      7.9782      2.4604      0.1302     11.4911    148.8915     21.5204
  1038.0000      7.9818      2.4882      0.1647      9.8066    147.5099     21.9914
  1038.1000      7.9818      2.5075      0.1741      8.6357    144.6828     22.7887
  1038.2000      7.9818      2.5200      0.0694      7.8788    146.0040     23.2670
  1038.3000      8.0002      2.5403      0.1379      6.6459    152.7120     23.3125
  1038.4000      8.0002      2.5616      0.1629      5.3580    157.9320     23.3042
  1038.5000      7.9802      2.5660      0.1651      5.0928    158.5134     23.4228
  1038.6000      7.9802      2.5508      0.1392      6.0108    158.6774     23.2893
  1038.7000      7.9802      2.5257      0.1339      7.5312    158.1474     22.8070
  1038.8000      8.0129      2.4936      0.1646      9.4817    151.5279     22.1098
  1038.9000      8.0129      2.4545      0.0863     11.8515    140.9669     21.0900
  1039.0000      8.0068      2.4227      0.0675     13.7738    137.5921     20.0966
  1039.1000      8.0068      2.4092      0.0579     14.5914    144.3437     19.6262
  1039.2000      8.0068      2.4074      0.0730     14.7036    153.9429     19.4800
  1039.3000      8.0111      2.4123      0.0081     14.4088    157.8400     19.4220
  1039.4000      8.0111      2.4327      0.0537     13.1667    154.9171     19.2901
  1039.5000      8.0288      2.4660      0.1181     11.1545    155.8553     18.6630
  1039.6000      8.0288      2.4809      0.2499     10.2482    161.7430     17.6539
  1039.7000      8.0288      2.4500      0.2381     12.1197    162.1570     17.0054
  1039.8000      8.1066      2.3819      0.2484     16.2478    159.3148     16.7992
  1039.9000      8.1066      2.3017      0.1785     21.1079    161.5818     16.7086
  1040.0000      8.1969      2.2188      0.1195     26.1338    164.2383     16.8019
  1040.1000      8.1969      2.1331      0.0415     31.3274    159.4019     16.8264
  1040.2000      8.1969      2.0526      0.0244     36.2040    151.9801     16.1069
  1040.3000      8.2520      1.9777      0.0139     40.7458    147.3948     14.9195
  1040.4000      8.2520      1.8968     -0.0111     45.6503    141.2959     14.3926
  1040.5000      8.1583      1.8154     -0.0187     50.5791    130.2061     14.8705
  1040.6000      8.1583      1.7565     -0.0320     54.1500    121.2550     15.5703
  1040.7000      8.1583      1.7355     -0.0115     55.4244    120.2706     15.7108
  1040.8000      8.1182      1.7528      0.0119     54.3785    120.9969     15.5240
  1040.9000      8.1182      1.8006      0.0408     51.4760    117.8905     15.8418
  1041.0000      8.0456      1.8706      0.1069     47.2388    111.8025     16.9360
  1041.1000      8.0456      1.9559      0.1571     42.0641    102.7003     18.1478
  1041.2000      8.0456      2.0465      0.2911     36.5735     94.7491     18.8382
  1041.3000      8.1669      2.1321      0.2998     31.3850     94.0212     19.1263
  1041.4000      8.1669      2.2194      0.2953     26.0982     98.1255     19.2937
  1041.5000      8.1889      2.3166      0.2329     20.2065    102.5649     19.4343
  1041.6000      8.1889      2.4077      0.2627     14.6864    106.2348     19.9012
  1041.7000      8.1889      2.4693      0.2449     10.9511    108.1347     20.9383
  1041.8000      8.0212      2.5040      0.2575      8.8474    110.6531     22.1442
  1041.9000      8.0212      2.5278      0.2492      7.4074    118.7169     23.2933
  1042.0000      8.0019      2.5428      0.2934      6.4965    128.6935     24.3234
  1042.1000      8.0019      2.5513      0.2262      5.9811    131.0758     24.9162
  1042.2000      8.0019      2.5631      0.2016      5.2693    125.6827     25.0132
  1042.3000      8.0296      2.5702      0.2326      4.8338    119.9880     25.0033
  1042.4000      8.0296      2.5580      0.1946      5.5779    119.4366     25.5828
  1042.5000      8.0698      2.5349      0.1324      6.9769    124.6899     26.7316
  1042.6000      8.0698      2.5185      0.1498      7.9683    129.4878     27.3049
  1042.7000      8.0698      2.5113      0.1698      8.4082    126.6800     26.7490
  1042.8000      8.2122      2.5137      0.0741      8.2614    120.1067     25.9690
  1042.9000      8.2122      2.5306      0.0659      7.2365    118.8239     25.7525
  1043.0000      8.0172      2.5513      0.1054      5.9811    125.2585     25.8568
  1043.1000      8.0172      2.5619      0.1008      5.3398    134.0110     25.9040
  1043.2000      8.0172      2.5679      0.0744      4.9774    137.0842     25.9478
  1043.3000      7.9651      2.5743      0.1015      4.5856    133.4615     26.1365
  1043.4000      7.9651      2.5787      0.0657      4.3227    131.7917     26.3042
  1043.5000      7.9560      2.5802      0.1236      4.2332    135.0475     26.2507
  1043.6000      7.9560      2.5763      0.0908      4.4674    136.6355     26.1379
  1043.7000      7.9560      2.5748      0.0512      4.5591    133.1656     26.1266
  1043.8000      7.9537      2.5800      0.1039      4.2442    129.0597     25.8720
  1043.9000      7.9537      2.5835      0.0321      4.0326    127.9708     25.1537
  1044.0000      7.9562      2.5811      0.0587      4.1754    127.5617     24.4765
  1044.1000      7.9562      2.5698      0.0256      4.8625    123.2725     24.0152
  1044.2000      7.9562      2.5475      0.0276      6.2110    118.7015     23.2462
  1044.3000      7.9527      2.5123      0.0112      8.3449    122.6942     22.0930
  1044.4000      7.9527      2.4670     -0.0019     11.0929    134.8457     21.2451
  1044.5000      7.9579      2.4233      0.0247     13.7395    146.7207     21.1589
  1044.6000      7.9579      2.3930     -0.0244     15.5782    151.9063     21.6574
  1044.7000      7.9579      2.3850     -0.0153     16.0618    150.0929     22.4513
  1044.8000      7.9573      2.3988      0.0190     15.2257    145.8901     23.2858
  1044.9000      7.9573      2.4236      0.0408     13.7221    144.6383     24.0679
  1045.0000      7.9694      2.4493      0.0662     12.1614    144.9966     24.7917
  1045.1000      7.9694      2.4741      0.0896     10.6580    142.0652     25.2404
  1045.2000      7.9694      2.4972      0.0894      9.2579    139.9032     25.5306
  1045.3000      7.9859      2.5092      0.0861      8.5316    144.5611     25.8346
  1045.4000      7.9859      2.5005      0.0606      9.0614    148.7997     25.9920
  1045.5000      7.9939      2.4742      0.0395     10.6543    143.6198     25.9885
  1045.6000      7.9939      2.4500      0.0272     12.1209    135.3269     25.9507
  1045.7000      7.9939      2.4454     -0.0091     12.3993    134.4143     25.8817
  1045.8000      8.0174      2.4530      0.0287     11.9415    139.6069     25.6706
  1045.9000      8.0174      2.4570      0.0084     11.6980    140.6656     25.4511
  1046.0000      7.9936      2.4600     -0.0078     11.5132    133.4046     25.5654
  1046.1000      7.9936      2.4658      0.0145     11.1654    127.0271     25.4971
  1046.2000      7.9936      2.4612      0.0264     11.4435    127.4088     24.8796
  1046.3000      7.9767      2.4429      0.0182     12.5537    126.7011     24.6183
  1046.4000      7.9767      2.4290      0.0048     13.3949    121.4708     25.0118
  1046.5000      7.9684      2.4250      0.0615     13.6337    121.6854     25.1649
  1046.6000      7.9684      2.4161      0.0237     14.1758    130.4722     24.8839
  1046.7000      7.9684      2.4007      0.0209     15.1082    135.6030     24.8087
  1046.8000      7.9745      2.3845      0.0400     16.0926    132.6703     24.9155
  1046.9000      7.9745      2.3701     -0.0098     16.9650    130.9864     24.9769
  1047.0000      7.9744      2.3713      0.0090     16.8915    134.3894     25.0908
  1047.1000      7.9744      2.3886      0.0638     15.8407    138.7117     25.2335
