~Version Information
VERS.                      2.0: CWLS Log ASCII Standard - VERSION 2.0
WRAP.                       NO: One line per depth step
~Well Information Block
STRT.FT               420.0000: 
STOP.FT              2888.7000: 
STEP.FT                 0.1000: 
NULL.                -999.2500: 
COMP.          Pioneer Natural Resources: COMPANY
WELL.          Touchstone 11-32: WELL
FLD.           Purgatoire River: FIELD
LOC.           853' FNL & 407' FWL--: LOCATION
CNTY.               Las Animas: COUNTY
SRVC.                Patterson: SERVICE COMPANY
DATE.          Fri Feb 24 11:16:52 2006: LOG DATE
UWI.           05 071 08564 00: UNIQUE WELL ID
STAT.                 Colorado: STATE
~Curve Information Block
DEPT.FT            0 000 00 00: Depth
DCAL.in                       : CDL Caliper
RHOB.g/cc                     : CDL Bulk Density
RHOC.g/cc                     : CDL Density Correction
DPOR.pu                       : CDL Density Porosity
NPOR.pu                       : Neutron Porosity
GR.GAPI                       : Gamma Ray
~Parameter Information Block
~A  Depth       DCAL        RHOB        RHOC        DPOR        NPOR         GR     
# ...
  1236.0000      8.0582      2.4215      0.0925     13.8455     17.2855    124.6511
  1236.1000      8.0582      2.4546      0.1149     11.8409     16.9524    124.5159
  1236.2000      8.0582      2.4745      0.0740     10.6380     17.0468    122.0392
  1236.3000      8.0631      2.4904      0.1301      9.6724     17.4449    120.9686
  1236.4000      8.0631      2.4915      0.1050      9.6054     17.9226    125.4263
  1236.5000      8.0656      2.4764      0.0515     10.5230     18.2399    131.6089
  1236.6000      8.0656      2.4671      0.0211     11.0857     18.4635    133.4754
  1236.7000      8.0656      2.4703      0.0174     10.8931     18.7012    132.8323
  1236.8000      8.0642      2.4607      0.0456     11.4716     18.6888    131.7265
  1236.9000      8.0642      2.4301     -0.0353     13.3278     18.3055    127.0402
  1237.0000      8.0627      2.4097     -0.0108     14.5650     17.9628    120.4623
  1237.1000      8.0627      2.4144      0.0100     14.2809     18.0054    115.8040
  1237.2000      8.0627      2.4162      0.0806     14.1674     18.2394    114.6782
  1237.3000      8.0667      2.3984      0.0038     15.2475     18.3499    117.7693
  1237.4000      8.0667      2.3981     -0.0123     15.2693     18.2967    123.1200
  1237.5000      8.0758      2.4508      0.1028     12.0726     18.6152    128.7811
  1237.6000      8.0758      2.5383      0.1990      6.7680     19.7263    131.5833
  1237.7000      8.0758      2.6278      0.1927      1.3429     21.0605    127.4153
  1237.8000      8.0826      2.7159      0.2031     -3.9919     22.1008    119.2768
  1237.9000      8.0826      2.8052      0.2713     -9.4048     23.2853    111.1929
  1238.0000      8.0744      2.8694      0.3380    -13.2940     25.1960    103.3913
  1238.1000      8.0744      2.8846      0.2450    -14.2168     27.4900     98.1158
  1238.2000      8.0744      2.8668      0.1978    -13.1413     29.3558     95.1433
  1238.3000      8.0508      2.8364      0.1519    -11.2974     30.4911     92.6131
  1238.4000      8.0508      2.7911      0.1220     -8.5500     31.1142     93.3132
  1238.5000      8.0279      2.7292      0.0330     -4.8026     31.3209     97.4632
  1238.6000      8.0279      2.6733     -0.0659     -1.4125     30.9696    101.0633
  1238.7000      8.0279      2.6458     -0.0299      0.2561     30.2742    102.5448
  1238.8000      8.0189      2.6361     -0.0051      0.8409     29.4446    101.4054
  1238.9000      8.0189      2.6251     -0.0328      1.5100     28.2119     98.5685
  1239.0000      8.0175      2.6109     -0.0382      2.3697     26.8606     98.6704
  1239.1000      8.0175      2.5998     -0.0332      3.0411     26.1234    102.4146
  1239.2000      8.0175      2.5982     -0.0134      3.1414     25.8578    104.9755
  1239.3000      8.0163      2.6010      0.0661      2.9669     25.4176    104.5957
  1239.4000      8.0163      2.5968      0.0250      3.2250     24.7153    102.5645
  1239.5000      8.0144      2.5933      0.0485      3.4373     24.2650    100.2329
  1239.6000      8.0144      2.6022      0.0540      2.8944     24.2164     98.6533
  1239.7000      8.0144      2.6239      0.0559      1.5805     24.0741     99.4104
  1239.8000      8.0140      2.6546      0.0910     -0.2771     23.8242    103.5306
  1239.9000      8.0140      2.6781      0.1116     -1.7023     24.1099    107.6886
  1240.0000      8.0143      2.6744      0.1180     -1.4817     24.9052    107.6256
  1240.1000      8.0143      2.6484      0.0549      0.0945     25.3707    105.5368
  1240.2000      8.0143      2.6222      0.0576      1.6859     25.0771    107.2289
  1240.3000      8.0133      2.6055      0.0497      2.6958     24.4906    112.2810
  1240.4000      8.0133      2.5978      0.0302      3.1610     24.2809    113.3404
  1240.5000      8.0104      2.5965      0.0440      3.2440     24.3675    109.2606
  1240.6000      8.0104      2.5953      0.0272      3.3161     24.4180    105.3061
  1240.7000      8.0104      2.5914      0.0432      3.5490     24.5190    101.4946
  1240.8000      8.0104      2.5908      0.0229      3.5898     24.7263     96.1710
  1240.9000      8.0104      2.5972      0.0418      3.2024     25.1828     93.0161
  1241.0000      8.0137      2.5980      0.0651      3.1526     26.1419     95.7104
  1241.1000      8.0137      2.5857      0.0164      3.8947     27.1163    103.3631
  1241.2000      8.0137      2.5750      0.0313      4.5470     27.1365    109.0705
  1241.3000      8.0153      2.5785      0.0150      4.3337     26.3955    105.1054
  1241.4000      8.0153      2.5975      0.0134      3.1811     25.8903     95.7795
  1241.5000      8.0167      2.6223      0.0547      1.6763     25.8114     90.7718
  1241.6000      8.0167      2.6350      0.0440      0.9070     25.8082     91.6307
  1241.7000      8.0167      2.6304      0.0431      1.1880     25.8173     95.3100
  1241.8000      8.0226      2.6244      0.0223      1.5522     25.9509     98.3587
  1241.9000      8.0226      2.6341      0.0203      0.9650     26.0078     99.6680
  1242.0000      8.0292      2.6499      0.0847      0.0043     25.7772     99.9794
  1242.1000      8.0292      2.6415      0.0691      0.5162     25.5500     99.4477
  1242.2000      8.0292      2.6124      0.0038      2.2770     25.5704     98.7251
  1242.3000      8.0296      2.5973     -0.0082      3.1918     25.6247     97.9939
  1242.4000      8.0296      2.6041      0.0489      2.7793     25.5995     96.1178
  1242.5000      8.0220      2.6229     -0.0004      1.6438     25.4678     93.8006
  1242.6000      8.0220      2.6475      0.0499      0.1497     25.1192     92.6043
  1242.7000      8.0220      2.6683      0.0730     -1.1119     24.6030     90.8696
  1242.8000      8.0144      2.6791      0.0681     -1.7618     24.0405     88.1315
  1242.9000      8.0144      2.6739      0.0890     -1.4477     23.6618     84.9600
  1243.0000      8.0094      2.6476      0.0533      0.1478     23.6748     81.8648
  1243.1000      8.0094      2.6078      0.0388      2.5561     24.0604     81.0799
  1243.2000      8.0094      2.5689      0.0324      4.9159     24.6989     84.5462
  1243.3000      8.0028      2.5449     -0.0064      6.3687     25.4977     92.7595
  1243.4000      8.0028      2.5340      0.0404      7.0293     26.4616    101.1993
  1243.5000      7.9969      2.5197      0.0224      7.8976     27.4443    102.9445
  1243.6000      7.9969      2.5036     -0.0014      8.8747     28.0288     97.6888
  1243.7000      7.9969      2.4946      0.0444      9.4188     27.8188     90.8275
  1243.8000      7.9934      2.4966     -0.0049      9.2982     27.1456     87.6553
  1243.9000      7.9934      2.5318     -0.0159      7.1645     26.8015     90.3264
  1244.0000      7.9909      2.6100      0.0427      2.4239     27.1036     94.4778
  1244.1000      7.9909      2.6948      0.0844     -2.7128     27.6836     95.5582
  1244.2000      7.9909      2.7426      0.1652     -5.6117     28.0710     95.8666
  1244.3000      7.9905      2.7414      0.1792     -5.5388     28.1858     99.5601
  1244.4000      7.9905      2.7062      0.1628     -3.4031     27.8643    104.8684
  1244.5000      7.9961      2.6583      0.0620     -0.5047     26.9386    105.8147
  1244.6000      7.9961      2.6199     -0.0817      1.8245     25.6878    103.8856
  1244.7000      7.9961      2.6106     -0.1118      2.3899     24.4926    107.0047
  1244.8000      8.0149      2.6248     -0.0838      1.5282     23.6212    116.7786
  1244.9000      8.0149      2.6269     -0.0502      1.3984     23.1972    126.6946
  1245.0000      8.0440      2.5983     -0.0667      3.1348     23.0483    131.2253
  1245.1000      8.0440      2.5608     -0.0539      5.4077     22.8468    132.6432
  1245.2000      8.0440      2.5355      0.0389      6.9399     22.3494    135.6239
  1245.3000      8.0677      2.5196      0.1837      7.9014     21.6600    136.0419
  1245.4000      8.0677      2.4962      0.1990      9.3204     21.0253    129.7166
  1245.5000      8.0791      2.4514      0.1706     12.0384     20.2462    123.7451
