~Version Information
VERS.                      2.0: CWLS Log ASCII Standard - VERSION 2.0
WRAP.                       NO: One line per depth step
~Well Information Block
STRT.FT               597.2500: 
STOP.FT              1567.2500: 
STEP.FT                 0.2500: 
NULL.                -999.2500: 
COMP.          Pioneer Natural Resources: COMPANY
WELL.           Butch 33-10 Tr: WELL
FLD.           Purgatoire River: FIELD
LOC.           2309' FSL & 1337' FEL--: LOCATION
PROV.                 Colorado: PROVINCE
CNTY.               Las Animas: COUNTRY
SRVC.                Patterson: SERVICE COMPANY
DATE.          Sat Jan 14 05:18:29 2006: LOG DATE
UWI.           05 071 08649 00: UNIQUE WELL ID
~Curve Information Block
DEPT.FT            0 000 00 00: Depth
SN.Ohm-m                      : IEL Short Normal
SP.mV                         : IEL Spontaneous Potential
DIR.Ohm-m                     : IEL Induction Resistivity
GR.GAPI                       : Gamma Ray
~Parameter Information Block
~A  Depth        SN          SP         DIR          GR     
# ...
  1233.7500      9.1752      4.9171      8.3894    104.5129
  1234.0000      9.3461      4.9431      8.4407    109.5728
  1234.2500      9.7088      5.0157      8.4920    115.6175
  1234.5000     10.1603      5.1162      8.5348    126.0803
  1234.7500     10.5900      5.2275      8.5549    132.3576
  1235.0000     10.9170      5.3361      8.5406    139.3220
  1235.2500     11.1092      5.4324      8.4890    142.4238
  1235.5000     11.1753      5.5091      8.4084    145.4329
  1235.7500     11.1467      5.5590      8.3139    146.5093
  1236.0000     11.0619      5.5729      8.2213    146.6740
  1236.2500     10.9571      5.5376      8.1432    145.9301
  1236.5000     10.8579      5.4381      8.0880    144.1606
  1236.7500     10.7760      5.2606      8.0605    142.9186
  1237.0000     10.7122      4.9991      8.0632    141.1825
  1237.2500     10.6668      4.6623      8.0966    140.0222
  1237.5000     10.6460      4.2791      8.1600    138.0915
  1237.7500     10.6621      3.8994      8.2529    136.6592
  1238.0000     10.7285      3.5882      8.3748    134.4147
  1238.2500     10.8529      3.4125      8.5265    132.8622
  1238.5000     11.0326      3.4221      8.7097    130.0520
  1238.7500     11.2568      3.6322      8.9275    127.5371
  1239.0000     11.5171      4.0113      9.1844    122.6082
  1239.2500     11.8206      4.4817      9.4866    118.6851
  1239.5000     12.1974      4.9341      9.8434    112.4442
  1239.7500     12.6952      5.2532     10.2675    108.7660
  1240.0000     13.3588      5.3460     10.7736    105.6240
  1240.2500     14.2002      5.1652     11.3725    105.6173
  1240.5000     15.1742      4.7192     12.0610    107.7400
  1240.7500     16.1790      4.0664     12.8140    109.2307
  1241.0000     17.0898      3.2961     13.5838    109.7475
  1241.2500     17.8107      2.5037     14.3135    108.6787
  1241.5000     18.3194      1.7667     14.9579    105.2311
  1241.7500     18.6808      1.1292     15.5023    101.9159
  1242.0000     19.0209      0.5987     15.9653     96.3761
  1242.2500     19.4668      0.1528     16.3859     93.4539
  1242.5000     20.0818     -0.2466     16.8022     92.1097
  1242.7500     20.8301     -0.6370     17.2349     93.4258
  1243.0000     21.5925     -1.0430     17.6809     97.1745
  1243.2500     22.2216     -1.4694     18.1170     99.3595
  1243.5000     22.5997     -1.9017     18.5109     99.7952
  1243.7500     22.6735     -2.3112     18.8300     97.6110
  1244.0000     22.4658     -2.6629     19.0474     91.7659
  1244.2500     22.0649     -2.9230     19.1451     87.6333
  1244.5000     21.5883     -3.0647     19.1168     83.0381
  1244.7500     21.1319     -3.0700     18.9684     81.3070
  1245.0000     20.7334     -2.9298     18.7163     80.5188
  1245.2500     20.3693     -2.6415     18.3802     81.3208
  1245.5000     19.9787     -2.2068     17.9732     84.9948
  1245.7500     19.4993     -1.6307     17.4949     89.0517
  1246.0000     18.8958     -0.9233     16.9373     96.4771
  1246.2500     18.1713     -0.1025     16.2985    101.2820
  1246.5000     17.3626      0.8020     15.5954    106.7202
  1246.7500     16.5263      1.7478     14.8653    108.9153
  1247.0000     15.7208      2.6821     14.1545    110.7845
  1247.2500     14.9906      3.5502     13.5050    111.6423
  1247.5000     14.3591      4.3050     12.9438    112.7279
  1247.7500     13.8310      4.9169     12.4808    113.2994
  1248.0000     13.3971      5.3793     12.1104    114.2024
  1248.2500     13.0388      5.7077     11.8173    115.2646
  1248.5000     12.7348      5.9329     11.5816    117.9274
  1248.7500     12.4697      6.0921     11.3839    119.9230
  1249.0000     12.2387      6.2194     11.2083    121.4142
  1249.2500     12.0412      6.3401     11.0436    120.5766
  1249.5000     11.8722      6.4686     10.8837    116.8806
  1249.7500     11.7202      6.6101     10.7265    113.9078
  1250.0000     11.5739      6.7639     10.5735    110.7801
  1250.2500     11.4275      6.9264     10.4296    110.1531
  1250.5000     11.2808      7.0934     10.3002    110.9504
  1250.7500     11.1360      7.2616     10.1872    111.9347
  1251.0000     10.9962      7.4281     10.0874    112.9984
  1251.2500     10.8645      7.5910      9.9954    113.1599
  1251.5000     10.7440      7.7488      9.9081    112.8820
  1251.7500     10.6378      7.9006      9.8275    112.8857
  1252.0000     10.5489      8.0465      9.7590    114.2011
  1252.2500     10.4795      8.1869      9.7070    116.2346
  1252.5000     10.4275      8.3229      9.6718    120.4453
  1252.7500     10.3879      8.4545      9.6492    123.1707
  1253.0000     10.3555      8.5804      9.6350    125.7647
  1253.2500     10.3324      8.6971      9.6288    126.3378
  1253.5000     10.3303      8.7993      9.6346    126.3408
  1253.7500     10.3647      8.8809      9.6582    126.3740
  1254.0000     10.4449      8.9360      9.7035    126.6808
  1254.2500     10.5684      8.9607      9.7708    126.7565
  1254.5000     10.7254      8.9538      9.8576    126.1766
  1254.7500     10.9047      8.9173      9.9612    125.2255
  1255.0000     11.0966      8.8559     10.0808    122.9057
  1255.2500     11.2953      8.7760     10.2172    120.6763
  1255.5000     11.5022      8.6845     10.3724    116.1772
  1255.7500     11.7264      8.5871     10.5483    112.5328
  1256.0000     11.9772      8.4870     10.7464    106.8703
  1256.2500     12.2532      8.3848     10.9690    103.6602
  1256.5000     12.5360      8.2790     11.2179    100.9065
  1256.7500     12.7940      8.1666     11.4919    100.8558
  1257.0000     12.9996      8.0457     11.7836    103.0726
  1257.2500     13.1465      7.9164     12.0781    105.2345
  1257.5000     13.2528      7.7816     12.3558    108.0350
  1257.7500     13.3474      7.6464     12.5994    109.3350
  1258.0000     13.4542      7.5164     12.7994    110.8989
  1258.2500     13.5839      7.3955     12.9568    111.9696
  1258.5000     13.7357      7.2838     13.0818    113.5401
  1258.7500     13.9024      7.1775     13.1900    114.3473
  1259.0000     14.0752      7.0695     13.2990    115.1246
  1259.2500     14.2446      6.9515     13.4221    115.5339
  1259.5000     14.3950      6.8174     13.5629    116.0818
  1259.7500     14.4987      6.6659     13.7119    116.0878
  1260.0000     14.5186      6.5027     13.8494    114.6907
  1260.2500     14.4254      6.3406     13.9529    112.4679
  1260.5000     14.2171      6.1988     14.0036    107.1948
  1260.7500     13.9255      6.0993     13.9914    102.8239
  1261.0000     13.6076      6.0640     13.9149     96.5146
  1261.2500     13.3249      6.1097     13.7803     93.5498
  1261.5000     13.1166      6.2452     13.5978     92.2808
  1261.7500     12.9788      6.4685     13.3767     93.7218
  1262.0000     12.8715      6.7671     13.1232     98.6612
  1262.2500     12.7520      7.1195     12.8400    103.1445
  1262.5000     12.6049      7.4992     12.5297    110.4498
  1262.7500     12.4419      7.8788     12.1981    114.9917
  1263.0000     12.2824      8.2345     11.8560    120.0602
  1263.2500     12.1380      8.5485     11.5189    121.7359
  1263.5000     12.0129      8.8111     11.2042    121.5867
  1263.7500     11.9093      9.0201     10.9283    120.1006
  1264.0000     11.8302      9.1795     10.7050    116.8012
  1264.2500     11.7782      9.2977     10.5441    114.5493
  1264.5000     11.7557      9.3843     10.4512    112.2872
  1264.7500     11.7639      9.4488     10.4267    112.1060
  1265.0000     11.7988      9.4988     10.4633    114.1509
  1265.2500     11.8476      9.5399     10.5460    116.6951
  1265.5000     11.8920      9.5758     10.6552    120.9157
  1265.7500     11.9154      9.6096     10.7723    123.2257
  1266.0000     11.9077      9.6449     10.8846    125.4718
  1266.2500     11.8658      9.6865     10.9874    126.3535
  1266.5000     11.7950      9.7407     11.0813    127.0992
  1266.7500     11.7112      9.8146     11.1686    127.1943
  1267.0000     11.6397      9.9150     11.2509    126.6138
