~Version Information
VERS.                      2.0: CWLS Log ASCII Standard - VERSION 2.0
WRAP.                       NO: One line per depth step
~Well Information Block
STRT.FT                -7.7500: 
STOP.FT              1420.5000: 
STEP.FT                 0.2500: 
NULL.                -999.2500: 
COMP.          Pioneer Natural Resources: COMPANY
WELL.          Parklane 43-34 Tr: WELL
FLD.           Purgatorie River: FIELD
LOC.           1643' FSL & 966' FEL--: LOCATION
PROV.                       CO: PROVINCE
CNTY.               Las Animas: COUNTRY
SRVC.          Patterson Wireline: SERVICE COMPANY
DATE.          Tue Aug 02 11:35:27 2005: LOG DATE
UWI.           05 071 08452 00: UNIQUE WELL ID
~Curve Information Block
DEPT.FT            0 000 00 00: Depth
CCL.                          : Casing Collar Locator
TT3.usec                      : CBL 3' Travel Time
AMP3.mV                       : CBL 3' Amplitude
GR.GAPI                       : Gamma Ray
~Parameter Information Block
~A  Depth       CCL         TT3         AMP3         GR     
# ...
   193.2500      0.0000    848.9995     14.5399     92.8018
   193.5000      0.0000    856.7823     14.4805     92.7993
   193.7500      0.0000    864.1517     14.4763     93.9013
   194.0000      0.0000    872.0520     14.5274     95.9232
   194.2500      0.0000    880.5248     14.5977     98.4711
   194.5000      0.0000    888.3632     14.6395    100.6280
   194.7500      0.0000    894.3143     14.6285    100.8356
   195.0000      0.0000    897.6000     14.5757     97.9304
   195.2500      0.0000    897.3685     14.5084     92.2580
   195.5000      0.0000    893.0453     14.4475     85.4066
   195.7500      0.0000    885.9176     14.4019     79.0909
   196.0000      0.0000    879.5445     14.3761     74.7069
   196.2500      0.0000    877.5226     14.3770     73.4534
   196.5000      0.0000    880.5835     14.4117     75.6912
   196.7500      0.0000    886.2084     14.4784     79.9676
   197.0000      0.0000    891.1440     14.5592     83.7401
   197.2500      0.0000    894.0909     14.6254     85.7641
   197.5000      0.0000    895.9392     14.6573     87.2331
   197.7500      0.0000    897.7867     14.6598     90.1867
   198.0000      0.0000    899.1823     14.6566     95.2131
   198.2500      0.0000    898.1857     14.6715    101.0075
   198.5000      0.0000    892.7473     14.7130    105.8214
   198.7500      0.0000    882.3237     14.7697    108.9409
   199.0000      0.0000    868.9773     14.8163    110.6842
   199.2500      0.0000    857.0596     14.8233    111.1885
   199.5000      0.0000    851.0581     14.7582    109.7954
   199.7500      0.0000    852.9799     14.5739    106.0489
   200.0000      0.0000    861.2713     14.2003    101.0568
   200.2500      0.0000    872.0408     13.5810     97.2110
   200.5000      0.0000    881.7509     12.7611     96.2358
   200.7500      0.0000    890.0003     11.9185     97.5972
   201.0000      0.0000    900.2288     11.2329     98.9814
   201.2500      0.0000    916.5977     10.7199     98.3164
   201.5000      0.0000    939.5825     10.2698     95.2885
   201.7500      0.0000    966.0919      9.8294     91.0881
   202.0000      0.0000    994.1395      9.4527     87.0464
   202.2500      0.0000   1024.1024      9.1917     83.7039
   202.5000      0.0000   1054.0778      9.0305     81.0253
   202.7500     -2.0000   1078.0535      8.9305     79.1306
   203.0000      0.0000   1091.1095      8.8963     78.3926
   203.2500      0.0000   1093.0099      8.9885     78.6416
   203.5000      0.0000   1084.2520      9.2634     78.7256
   203.7500      0.0000   1061.9326      9.6832     77.4379
   204.0000      0.0000   1023.6747     10.1179     74.7465
   204.2500      0.0000    974.9410     10.4768     71.5963
   204.5000      0.0000    928.5595     10.7912     68.6849
   204.7500      0.0000    895.6831     11.1229     66.0761
   205.0000      0.0000    878.5825     11.4533     63.8959
   205.2500      0.0000    871.9957     11.7149     62.6140
   205.5000      0.0000    869.2257     11.8800     62.5713
   205.7500      0.0000    866.8021     11.9760     63.9344
   206.0000      0.0000    865.5378     12.0425     67.1874
   206.2500      0.0000    868.2720     12.1002     72.8416
   206.5000      0.0000    876.1613     12.1513     80.2173
   206.7500      0.0000    886.9740     12.1895     86.9996
   207.0000      0.0000    896.9517     12.2102     90.6208
   207.2500      0.0000    903.7262     12.2153     90.2055
   207.5000      0.0000    907.2587     12.2114     87.0842
   207.7500      0.0000    908.7521     12.2051     83.5785
   208.0000      0.0000    909.3453     12.1983     81.4539
   208.2500      0.0000    909.6580     12.1866     81.1685
   208.5000      0.0000    910.0028     12.1589     81.8800
   208.7500      0.0000    910.8912     12.1041     82.0345
   209.0000      0.0000    913.5628     12.0225     80.5098
   209.2500      0.0000    920.2092     11.9309     77.5074
   209.5000      0.0000    932.9221     11.8539     74.2638
   209.7500      0.0000    950.8303     11.8069     72.0977
   210.0000      0.0000    967.7801     11.7874     71.8049
   210.2500      0.0000    974.9155     11.7812     73.3671
   210.5000      0.0000    967.7521     11.7747     75.9567
   210.7500      0.0000    950.1320     11.7599     78.6546
   211.0000      0.0000    930.1262     11.7330     81.1648
   211.2500      0.0000    913.3303     11.6948     83.4626
   211.5000      0.0000    901.0255     11.6515     85.0432
   211.7500      0.0000    892.6531     11.6129     85.2320
   212.0000      0.0000    887.7064     11.5884     84.1459
   212.2500      0.0000    885.7046     11.5842     82.6977
   212.5000      0.0000    885.9395     11.6013     81.6404
   212.7500      0.0000    887.4818     11.6343     81.2833
   213.0000      0.0000    889.1337     11.6724     82.1267
   213.2500      0.0000    889.9685     11.7043     84.7400
   213.5000      0.0000    890.0887     11.7209     88.5841
   213.7500      0.0000    890.0516     11.7171     91.9047
   214.0000      0.0000    889.4250     11.6940     93.6769
   214.2500      0.0000    886.9148     11.6610     95.0038
   214.5000      0.0000    882.1446     11.6331     97.5731
   214.7500      0.0000    876.4249     11.6214    101.0495
   215.0000      0.0000    871.5164     11.6262    103.0636
   215.2500      0.0000    868.2382     11.6379    101.8642
   215.5000      0.0000    866.3710     11.6460     98.2104
   215.7500      0.0000    865.3491     11.6470     94.5513
   216.0000      0.0000    864.7675     11.6477     92.7869
   216.2500      0.0000    864.4610     11.6621     92.7567
   216.5000      0.0000    864.3839     11.7029     92.5401
   216.7500      0.0000    864.4954     11.7733     90.2731
   217.0000      0.0000    864.7280     11.8613     85.8405
   217.2500      0.0000    865.0205     11.9443     81.0036
   217.5000      0.0000    865.3569     12.0035     78.0740
   217.7500      0.0000    865.7540     12.0365     78.3090
   218.0000      0.0000    866.1853     12.0575     81.2208
   218.2500      0.0000    866.5188     12.0860     85.1360
   218.5000      0.0000    866.5121     12.1340     88.4035
   218.7500      0.0000    865.8448     12.1996     90.3553
   219.0000      0.0000    864.0938     12.2709     91.3993
   219.2500      0.0000    860.8611     12.3408     92.2085
   219.5000      0.0000    856.3627     12.4193     92.8145
   219.7500      0.0000    852.2267     12.5292     92.5567
   220.0000      0.0000    851.4562     12.6820     90.8014
   220.2500      0.0000    857.5242     12.8584     87.5754
   220.5000      0.0000    873.6987     13.0171     83.6009
   220.7500      0.0000    901.5423     13.1293     79.8382
   221.0000      0.0000    936.7094     13.1998     76.8407
   221.2500      0.0000    966.4415     13.2523     74.4727
   221.5000      0.0000    976.2940     13.2983     72.2633
   221.7500      0.0000    962.1390     13.3251     70.0070
   222.0000      0.0000    933.3929     13.3108     68.0932
   222.2500      0.0000    903.7366     13.2458     67.5495
   222.5000      0.0000    880.9111     13.1412     69.6306
   222.7500      0.0000    865.0719     13.0199     74.6907
   223.0000      0.0000    853.3190     12.8995     81.2065
   223.2500      0.0000    843.7735     12.7835     86.5565
   223.5000      0.0000    836.3184     12.6703     89.0932
   223.7500      0.0000    831.3323     12.5686     89.2170
   224.0000      0.0000    828.6324     12.4954     88.4945
   224.2500      0.0000    827.5417     12.4563     88.2112
   224.5000      0.0000    827.4952     12.4369     88.7607
   224.7500      0.0000    828.4582     12.4150     89.8363
   225.0000      0.0000    830.9470     12.3783     90.7606
   225.2500      0.0000    835.5801     12.3292     90.8635
   225.5000      0.0000    842.3042     12.2761     90.0961
   225.7500      0.0000    849.9456     12.2255     89.4235
   226.0000      0.0000    856.7560     12.1811     90.0722
   226.2500      0.0000    861.5553     12.1469     92.1716
   226.5000      0.0000    864.3000     12.1276     94.6091
