~Version Information
VERS.                      2.0: CWLS Log ASCII Standard - VERSION 2.0
WRAP.                       NO: One line per depth step
~Well Information Block
STRT.FT               615.0000: 
STOP.FT              2815.0000: 
STEP.FT                 0.2500: 
NULL.                -999.2500: 
COMP.          Pioneer Natural Resources: COMPANY
WELL.              Loews 41-32: WELL
FLD.           Purgatoire River: FIELD
LOC.           751' FNL & 128' FEL: LOCATION
CNTY.               Las Animas: COUNTY
SRVC.                Patterson: SERVICE COMPANY
DATE.          Sun Feb 12 02:27:11 2006: LOG DATE
UWI.           05 071 08693 00: UNIQUE WELL ID
STAT.                 Colorado: STATE
~Curve Information Block
DEPT.FT            0 000 00 00: Depth
SN.Ohm-m                      : IEL Short Normal
SP.mV                         : IEL Spontaneous Potential
DIR.Ohm-m                     : IEL Induction Resistivity
GR.GAPI                       : Gamma Ray
~Parameter Information Block
~A  Depth        SN          SP         DIR          GR     
# ...
  2658.5000     11.1742     87.7017     11.5197     90.5920
  2658.7500     11.3399     88.5776     11.4469     94.5886
  2659.0000     11.4038     89.2590     11.3334    101.0704
  2659.2500     11.3382     89.7097     11.1807    105.0220
  2659.5000     11.2265     89.9674     11.0035    108.5337
  2659.7500     11.1333     90.0982     10.8246    108.7543
  2660.0000     11.0250     90.1539     10.6649    106.7161
  2660.2500     10.8777     90.1602     10.5374    104.6947
  2660.5000     10.7458     90.1324     10.4458    101.8303
  2660.7500     10.6893     90.0904     10.3872    100.3007
  2661.0000     10.7012     90.0571     10.3565     98.5295
  2661.2500     10.7354     90.0500     10.3504     97.5399
  2661.5000     10.7729     90.0790     10.3678     96.2911
  2661.7500     10.8126     90.1478     10.4086     95.8250
  2662.0000     10.8236     90.2471     10.4713     95.9554
  2662.2500     10.7789     90.3493     10.5513     96.3351
  2662.5000     10.7192     90.4179     10.6420     96.1859
  2662.7500     10.7346     90.4285     10.7358     94.9385
  2663.0000     10.8773     90.3760     10.8249     90.9725
  2663.2500     11.0976     90.2643     10.9034     87.2929
  2663.5000     11.2895     90.0953     10.9697     81.5970
  2663.7500     11.4119     89.8703     11.0281     78.6223
  2664.0000     11.5318     89.5966     11.0876     76.4574
  2664.2500     11.7109     89.2871     11.1574     76.5700
  2664.5000     11.9144     88.9543     11.2415     78.2040
  2664.7500     12.0784     88.6067     11.3376     79.5449
  2665.0000     12.1745     88.2495     11.4402     80.9524
  2665.2500     12.2135     87.8831     11.5452     81.2997
  2665.5000     12.2562     87.5016     11.6527     81.1979
  2665.7500     12.3615     87.0951     11.7642     80.9219
  2666.0000     12.4985     86.6612     11.8790     80.2785
  2666.2500     12.5840     86.2150     11.9912     79.7491
  2666.5000     12.6066     85.7874     12.0915     79.3776
  2666.7500     12.6334     85.4093     12.1712     79.8854
  2667.0000     12.6847     85.0959     12.2261     81.8369
  2667.2500     12.7068     84.8446     12.2568     83.3357
  2667.5000     12.6776     84.6438     12.2672     84.8706
  2667.7500     12.6333     84.4764     12.2624     85.4472
  2668.0000     12.6057     84.3195     12.2486     86.3726
  2668.2500     12.5952     84.1518     12.2330     87.2241
  2668.5000     12.5677     83.9677     12.2242     88.5829
  2668.7500     12.4791     83.7821     12.2340     89.4025
  2669.0000     12.3337     83.6155     12.2785     90.5106
  2669.2500     12.2094     83.4730     12.3766     91.0954
  2669.5000     12.2153     83.3408     12.5458     91.3824
  2669.7500     12.4172     83.2045     12.7949     91.0057
  2670.0000     12.7921     83.0668     13.1189     89.3050
  2670.2500     13.2422     82.9440     13.4974     87.0967
  2670.5000     13.6722     82.8483     13.8994     81.6801
  2670.7500     14.0681     82.7765     14.2931     76.8379
  2671.0000     14.5310     82.7112     14.6552     68.9375
  2671.2500     15.2662     82.6232     14.9766     64.0261
  2671.5000     16.4449     82.4726     15.2623     57.8083
  2671.7500     18.0328     82.2167     15.5268     54.3601
  2672.0000     19.8196     81.8340     15.7902     49.9349
  2672.2500     21.5394     81.3464     16.0735     47.5135
  2672.5000     22.9264     80.8176     16.3931     45.2117
  2672.7500     23.8134     80.3232     16.7559     44.9132
  2673.0000     24.2182     79.9164     17.1540     46.3993
  2673.2500     24.2265     79.6134     17.5643     48.4071
  2673.5000     23.8418     79.4026     17.9542     52.3698
  2673.7500     23.0922     79.2599     18.2939     55.3865
  2674.0000     22.1568     79.1604     18.5648     60.0073
  2674.2500     21.2389     79.0828     18.7628     62.7599
  2674.5000     20.4452     79.0106     18.8948     65.5975
  2674.7500     19.8388     78.9322     18.9749     66.3212
  2675.0000     19.4719     78.8422     19.0216     65.8031
  2675.2500     19.3796     78.7427     19.0578     64.8147
  2675.5000     19.6012     78.6402     19.1108     63.2032
  2675.7500     20.1131     78.5402     19.2082     62.4070
  2676.0000     20.7749     78.4455     19.3674     61.8683
  2676.2500     21.4381     78.3599     19.5881     61.7947
  2676.5000     22.0194     78.2922     19.8540     61.5587
  2676.7500     22.4677     78.2536     20.1441     61.1340
  2677.0000     22.7939     78.2523     20.4414     60.2835
  2677.2500     23.1003     78.2918     20.7356     59.8049
  2677.5000     23.5142     78.3702     21.0214     59.4463
  2677.7500     24.1020     78.4738     21.3006     59.4148
  2678.0000     24.7778     78.5754     21.5814     59.3381
  2678.2500     25.3533     78.6474     21.8712     58.9511
  2678.5000     25.7796     78.6781     22.1642     57.4926
  2678.7500     26.1928     78.6748     22.4327     55.9944
  2679.0000     26.6673     78.6584     22.6348     53.3666
  2679.2500     27.0968     78.6575     22.7378     51.5600
  2679.5000     27.3188     78.6958     22.7410     49.0504
  2679.7500     27.2716     78.7737     22.6775     47.8222
  2680.0000     27.0453     78.8599     22.5909     47.3870
  2680.2500     26.7982     78.9080     22.5129     48.2667
  2680.5000     26.6329     78.8894     22.4615     50.9361
  2680.7500     26.5593     78.8159     22.4543     53.0146
  2681.0000     26.5312     78.7330     22.5087     55.5097
  2681.2500     26.4801     78.6852     22.6193     56.3792
  2681.5000     26.3283     78.6823     22.7357     56.5774
  2681.7500     26.0228     78.6919     22.7757     56.4551
  2682.0000     25.5900     78.6655     22.6785     57.0012
  2682.2500     25.1555     78.5764     22.4519     58.2638
  2682.5000     24.8705     78.4464     22.1614     61.2962
  2682.7500     24.7820     78.3418     21.8800     63.4477
  2683.0000     24.8117     78.3427     21.6462     65.5923
  2683.2500     24.8489     78.5060     21.4585     65.9630
  2683.5000     24.8050     78.8355     21.2940     65.4532
  2683.7500     24.6567     79.2716     21.1337     64.9819
  2684.0000     24.5144     79.7079     20.9795     64.4981
  2684.2500     24.5782     80.0371     20.8519     64.0905
  2684.5000     24.9535     80.1995     20.7672     62.8144
  2684.7500     25.5286     80.2000     20.7126     61.5399
  2685.0000     26.0817     80.0877     20.6400     59.5692
  2685.2500     26.4374     79.9243     20.4885     58.5136
  2685.5000     26.4732     79.7668     20.2149     57.3647
  2685.7500     26.1114     79.6676     19.8104     56.8378
  2686.0000     25.3781     79.6780     19.2962     56.7929
  2686.2500     24.4016     79.8507     18.7102     57.8104
  2686.5000     23.3374     80.2353     18.0953     61.7940
  2686.7500     22.3150     80.8613     17.4895     66.1092
  2687.0000     21.3940     81.7031     16.9193     74.0119
  2687.2500     20.5540     82.6570     16.3991     79.3562
  2687.5000     19.7744     83.5670     15.9381     86.4418
  2687.7500     19.0714     84.2913     15.5492     90.3341
  2688.0000     18.4365     84.7553     15.2495     94.8982
  2688.2500     17.8365     84.9546     15.0528     97.0454
  2688.5000     17.2753     84.9223     14.9597     98.6633
  2688.7500     16.7788     84.6990     14.9539     98.5956
  2689.0000     16.3607     84.3189     15.0066     97.0740
  2689.2500     16.0461     83.8119     15.0871     95.2743
  2689.5000     15.8556     83.2253     15.1732     90.8394
  2689.7500     15.7906     82.6635     15.2554     86.0140
  2690.0000     15.9074     82.3063     15.3353     75.3225
  2690.2500     16.3671     82.3551     15.4210     66.3947
  2690.5000     17.3649     82.9179     15.5234     52.5674
  2690.7500     19.0292     83.9279     15.6557     44.5699
  2691.0000     21.3543     85.1779     15.8338     36.0290
  2691.2500     24.1425     86.4418     16.0735     32.8636
  2691.5000     27.0058     87.5790     16.3846     31.9165
  2691.7500     29.4589     88.5585     16.7645     34.1286
