~Version Information
VERS.                      2.0: CWLS Log ASCII Standard - VERSION 2.0
WRAP.                       NO: One line per depth step
~Well Information Block
STRT.FT               770.0000: 
STOP.FT              2171.0000: 
STEP.FT                 0.1000: 
NULL.                -999.2500: 
COMP.          Pioneer Natural Resources: COMPANY
WELL.              Kermit 32-7: WELL
FLD.           Purgatoire River: FIELD
LOC.           2002' FNL & 2103' FEL: LOCATION
PROV.                 Colorado: PROVINCE
CNTY.               Las Animas: COUNTRY
SRVC.                Patterson: SERVICE COMPANY
DATE.          Thu Jan 12 03:02:28 2006: LOG DATE
UWI.           05 071 08647 00: UNIQUE WELL ID
~Curve Information Block
DEPT.FT            0 000 00 00: Depth
DCAL.in                       : CDL Caliper
RHOB.g/cc                     : CDL Bulk Density
RHOC.g/cc                     : CDL Density Correction
DPOR.pu                       : CDL Density Porosity
GR.GAPI                       : Gamma Ray
NPOR.pu                       : Neutron Porosity
~Parameter Information Block
~A  Depth       DCAL        RHOB        RHOC        DPOR         GR         NPOR    
# ...
  1691.6000      7.8933      2.5076      0.1611      8.6284     49.1878     18.1700
  1691.7000      7.8933      2.5392      0.1217      6.7161     46.7290     18.0634
  1691.8000      7.8970      2.5485      0.1540      6.1496     43.9501     17.8751
  1691.9000      7.8970      2.5370      0.1656      6.8509     41.2996     17.7055
  1692.0000      7.8985      2.5087      0.1453      8.5616     40.2018     17.6285
  1692.1000      7.8985      2.4771      0.1249     10.4817     41.0346     17.8016
  1692.2000      7.8985      2.4579      0.0856     11.6439     43.5451     18.2077
  1692.3000      7.9000      2.4550      0.0699     11.8169     47.0468     18.4015
  1692.4000      7.9000      2.4639      0.0203     11.2765     49.1625     18.0399
  1692.5000      7.9156      2.4776      0.1008     10.4502     49.2555     17.5316
  1692.6000      7.9156      2.4821      0.0746     10.1780     48.4739     17.4135
  1692.7000      7.9156      2.4723      0.0957     10.7704     45.9786     17.6576
  1692.8000      7.9132      2.4567      0.0495     11.7145     42.8411     17.9654
  1692.9000      7.9132      2.4428      0.0988     12.5567     42.7541     18.2977
  1693.0000      7.9138      2.4309      0.0588     13.2796     46.2148     18.6952
  1693.1000      7.9138      2.4139      0.0858     14.3068     50.3303     18.9435
  1693.2000      7.9138      2.3840      0.0306     16.1211     52.8719     18.9005
  1693.3000      7.9141      2.3462      0.0503     18.4149     52.7304     18.7815
  1693.4000      7.9141      2.3170     -0.0356     20.1845     51.5334     18.8535
  1693.5000      7.9145      2.3169     -0.0324     20.1888     51.8543     19.1515
  1693.6000      7.9145      2.3511      0.0358     18.1134     52.0682     19.4310
  1693.7000      7.9145      2.4052      0.0777     14.8360     50.7211     19.6668
  1693.8000      7.8848      2.4594      0.1467     11.5520     50.1311     20.1396
  1693.9000      7.8848      2.4972      0.1593      9.2591     51.2441     20.7887
  1694.0000      7.8727      2.5138      0.1518      8.2533     51.8637     21.2896
  1694.1000      7.8727      2.5169      0.1492      8.0690     50.1667     21.7970
  1694.2000      7.8727      2.5165      0.1578      8.0899     48.0963     22.5843
  1694.3000      7.8710      2.5199      0.0881      7.8832     49.8492     23.4765
  1694.4000      7.8710      2.5282      0.0738      7.3846     54.2186     24.2469
  1694.5000      7.8808      2.5271      0.0998      7.4470     57.3086     24.7523
  1694.6000      7.8808      2.5051      0.0737      8.7833     56.7191     24.9672
  1694.7000      7.8808      2.4763      0.0304     10.5255     54.5243     24.9013
  1694.8000      7.9120      2.4591      0.1194     11.5716     56.9490     24.4609
  1694.9000      7.9120      2.4524      0.1007     11.9771     62.6245     23.7879
  1695.0000      7.8809      2.4599      0.0905     11.5242     67.3961     23.3341
  1695.1000      7.8809      2.4946      0.1174      9.4183     74.7828     23.1800
  1695.2000      7.8809      2.5580      0.1261      5.5738     84.1949     23.0557
  1695.3000      7.8330      2.6343      0.2089      0.9527     89.6368     23.1598
  1695.4000      7.8330      2.6957      0.2588     -2.7709     91.6640     23.5889
  1695.5000      7.8098      2.7261      0.2944     -4.6107     95.8127     23.6760
  1695.6000      7.8098      2.7329      0.3167     -5.0246    103.5085     23.0254
  1695.7000      7.8098      2.7255      0.2860     -4.5734    109.4047     22.1051
  1695.8000      7.7808      2.6974      0.2320     -2.8757    108.8758     21.3145
  1695.9000      7.7808      2.6450      0.1179      0.3015    104.1889     20.7808
  1696.0000      7.8149      2.5867      0.0822      3.8386     97.2823     20.5414
  1696.1000      7.8149      2.5408      0.0344      6.6190     90.3860     20.2004
  1696.2000      7.8149      2.5097      0.0607      8.5031     88.6952     19.4417
  1696.3000      7.9028      2.4910      0.0428      9.6355     90.6002     18.4051
  1696.4000      7.9028      2.4872      0.0376      9.8684     90.0809     17.5800
  1696.5000      7.9627      2.4986      0.0543      9.1740     85.7561     17.4254
  1696.6000      7.9627      2.5095      0.0709      8.5128     78.9391     17.6466
  1696.7000      7.9627      2.5013      0.0537      9.0130     72.7487     17.6335
  1696.8000      7.9518      2.4768      0.0343     10.4956     70.5572     17.3498
  1696.9000      7.9518      2.4477      0.0402     12.2618     71.9508     16.9771
  1697.0000      7.9935      2.4208      0.0281     13.8910     73.3314     16.5822
  1697.1000      7.9935      2.4062      0.0395     14.7740     71.5038     16.2410
  1697.2000      7.9935      2.4068      0.0146     14.7390     66.9534     16.1030
  1697.3000      8.0149      2.4104      0.0582     14.5234     62.2284     16.1301
  1697.4000      8.0149      2.4014      0.0610     15.0691     57.7963     15.9845
  1697.5000      8.0254      2.3824      0.0388     16.2206     52.1949     15.6216
  1697.6000      8.0254      2.3700      0.0301     16.9695     47.7600     15.4603
  1697.7000      8.0254      2.3672      0.0728     17.1414     48.0161     15.5882
  1697.8000      8.0342      2.3667      0.0735     17.1713     51.8834     15.5496
  1697.9000      8.0342      2.3737     -0.0014     16.7473     56.3100     15.3103
  1698.0000      8.0400      2.3868      0.0560     15.9534     56.2043     15.2375
  1698.1000      8.0400      2.3843      0.0714     16.1043     50.6835     15.1847
  1698.2000      8.0400      2.3686      0.0295     17.0572     46.0262     14.7312
  1698.3000      8.0365      2.3645      0.0517     17.3033     46.3623     14.1674
  1698.4000      8.0365      2.3747      0.0617     16.6859     47.7284     14.1933
  1698.5000      8.0284      2.3825      0.0931     16.2124     45.7221     14.7483
  1698.6000      8.0284      2.3806      0.1150     16.3244     43.2506     15.1780
  1698.7000      8.0284      2.3857      0.0537     16.0208     42.2371     15.1628
  1698.8000      8.0073      2.4097      0.1367     14.5635     40.9793     14.8363
  1698.9000      8.0073      2.4337      0.1285     13.1093     39.8839     14.5765
  1699.0000      8.0052      2.4430      0.1125     12.5466     38.2068     14.6785
  1699.1000      8.0052      2.4456      0.0690     12.3891     34.9556     14.8611
  1699.2000      8.0052      2.4489      0.0973     12.1892     31.8486     14.5962
  1699.3000      8.0166      2.4487      0.1036     12.1974     31.5979     14.0926
  1699.4000      8.0166      2.4377      0.0876     12.8679     34.2968     13.9505
  1699.5000      8.0193      2.4149      0.0730     14.2473     35.5549     14.2698
  1699.6000      8.0193      2.3907      0.0370     15.7162     32.5085     14.8668
  1699.7000      8.0193      2.3791      0.0495     16.4186     28.0497     15.3804
  1699.8000      8.0269      2.3875      0.0204     15.9066     26.5698     15.3202
  1699.9000      8.0269      2.4027      0.0836     14.9853     28.3770     14.7249
  1700.0000      8.0235      2.4046      0.0395     14.8705     29.5798     14.2149
  1700.1000      8.0235      2.4018      0.0228     15.0404     28.5155     14.2634
  1700.2000      8.0235      2.4038      0.0829     14.9182     27.5797     14.7413
  1700.3000      8.0316      2.3954      0.0713     15.4327     28.7487     15.0844
  1700.4000      8.0316      2.3738      0.0762     16.7418     31.9532     15.0035
  1700.5000      8.0339      2.3585      0.0274     17.6693     35.8504     14.9617
  1700.6000      8.0339      2.3553      0.1089     17.8589     38.9415     15.1948
  1700.7000      8.0339      2.3476      0.0903     18.3252     40.6155     15.5070
  1700.8000      8.0300      2.3283      0.0669     19.4979     41.3988     15.9401
  1700.9000      8.0300      2.3126      0.0168     20.4460     41.7035     16.5583
  1701.0000      7.9728      2.3088      0.1275     20.6758     41.4488     17.1601
  1701.1000      7.9728      2.2892      0.1752     21.8674     40.5886     17.4340
