~Version Information
VERS.                      2.0: CWLS Log ASCII Standard - VERSION 2.0
WRAP.                       NO: One line per depth step
~Well Information Block
STRT.FT               428.8000: 
STOP.FT               951.7000: 
STEP.FT                 0.1000: 
NULL.                -999.2500: 
COMP.          Pioneer Natural Resources: COMPANY
WELL.          Sculpin 32-30 Tr: WELL
FLD.           Purgatoire River: FIELD
LOC.           1600' FNL & 1857' FEL--: LOCATION
CNTY.               Las Animas: COUNTY
SRVC.                Patterson: SERVICE COMPANY
DATE.          Wed Jul 19 09:12:32 2006: LOG DATE
UWI.           05 071 08706 00: UNIQUE WELL ID
STAT.                 Colorado: STATE
~Curve Information Block
DEPT.FT            0 000 00 00: Depth
DCAL.in                       : CDL Caliper
RHOB.g/cc                     : CDL Bulk Density
RHOC.g/cc                     : CDL Density Correction
DPOR.pu                       : CDL Density Porosity
GR.GAPI                       : Gamma Ray
~Parameter Information Block
~A  Depth       DCAL        RHOB        RHOC        DPOR         GR     
# ...
   596.8000      7.9195      2.2475      0.0939     24.3911    118.1226
   596.9000      7.9195      2.2404      0.0794     24.8247    119.0473
   597.0000      7.9200      2.2686      0.1177     23.1168    119.7743
   597.1000      7.9200      2.3326      0.1950     19.2376    124.6942
   597.2000      7.9200      2.4106      0.2498     14.5118    133.6577
   597.3000      7.9317      2.4878      0.2549      9.8296    140.0725
   597.4000      7.9317      2.5532      0.3318      5.8649    139.8312
   597.5000      7.9547      2.5841      0.3501      3.9948    135.7112
   597.6000      7.9547      2.5763      0.2686      4.4658    132.7675
   597.7000      7.9547      2.5607      0.2054      5.4093    130.0182
   597.8000      7.9869      2.5570      0.2386      5.6370    125.1286
   597.9000      7.9869      2.5573      0.2000      5.6152    120.1918
   598.0000      8.0037      2.5595      0.1401      5.4825    117.0112
   598.1000      8.0037      2.5702      0.0786      4.8354    115.1358
   598.2000      8.0037      2.5871      0.1494      3.8121    111.7544
   598.3000      7.9904      2.5997      0.1350      3.0466    106.2929
   598.4000      7.9904      2.6120      0.1334      2.3011    101.8911
   598.5000      7.9681      2.6382      0.1239      0.7170     99.3338
   598.6000      7.9681      2.6737      0.1729     -1.4388     95.4253
   598.7000      7.9681      2.6962      0.1782     -2.8023     89.7444
   598.8000      7.9564      2.6973      0.1306     -2.8644     85.6814
   598.9000      7.9564      2.6896      0.1079     -2.3999     83.5714
   599.0000      7.9563      2.6787      0.1162     -1.7367     81.0154
   599.1000      7.9563      2.6546      0.1037     -0.2804     77.6713
   599.2000      7.9563      2.6176      0.0397      1.9666     74.5254
   599.3000      7.9597      2.5827      0.0003      4.0769     73.2747
   599.4000      7.9597      2.5572     -0.0093      5.6235     74.0032
   599.5000      7.9609      2.5391      0.0027      6.7210     72.7389
   599.6000      7.9609      2.5326     -0.0203      7.1145     69.6928
   599.7000      7.9609      2.5383      0.0150      6.7697     72.1574
   599.8000      7.9597      2.5355      0.0964      6.9387     82.4093
   599.9000      7.9597      2.5157      0.0156      8.1410     91.9205
   600.0000      7.9570      2.5082      0.0152      8.5958     94.3056
   600.1000      7.9570      2.5209      0.0824      7.8224     92.1534
   600.2000      7.9570      2.5280      0.0925      7.3928     92.2519
   600.3000      7.9549      2.5254      0.0844      7.5514     96.6980
   600.4000      7.9549      2.5296      0.0903      7.2980    101.2527
   600.5000      7.9540      2.5417      0.1104      6.5614    102.5157
   600.6000      7.9540      2.5500      0.0889      6.0595    100.6709
   600.7000      7.9540      2.5516      0.0378      5.9656     98.0816
   600.8000      7.9543      2.5550      0.0826      5.7594     96.7582
   600.9000      7.9543      2.5602      0.0628      5.4452     94.2388
   601.0000      7.9530      2.5591      0.0978      5.5102     88.8316
   601.1000      7.9530      2.5521      0.0388      5.9321     86.5143
   601.2000      7.9530      2.5415      0.0697      6.5741     90.8660
   601.3000      7.9500      2.5258      0.0260      7.5295     96.6134
   601.4000      7.9500      2.5133      0.0052      8.2832     99.0591
   601.5000      7.9467      2.5111      0.0381      8.4189     99.4800
   601.6000      7.9467      2.5131      0.0473      8.2993     99.8801
   601.7000      7.9467      2.5174      0.0346      8.0349     99.5395
   601.8000      7.9431      2.5300      0.0228      7.2709     98.1179
   601.9000      7.9431      2.5471      0.0739      6.2372     97.0891
   602.0000      7.9392      2.5581      0.0711      5.5702     96.6991
   602.1000      7.9392      2.5556      0.1115      5.7205     95.8369
   602.2000      7.9392      2.5375      0.0642      6.8208     93.2694
   602.3000      7.9372      2.5133      0.0662      8.2867     86.7068
   602.4000      7.9372      2.4907      0.1208      9.6533     77.5049
   602.5000      7.9358      2.4726      0.0292     10.7486     71.3830
   602.6000      7.9358      2.4635      0.0599     11.3001     71.9820
   602.7000      7.9358      2.4665      0.0209     11.1221     77.8461
   602.8000      7.9355      2.4861      0.0879      9.9341     82.0664
   602.9000      7.9355      2.5205      0.0472      7.8501     78.3258
   603.0000      7.9409      2.5562      0.1105      5.6848     68.5559
   603.1000      7.9409      2.5718      0.1520      4.7421     61.9549
   603.2000      7.9409      2.5617      0.0989      5.3503     64.1146
   603.3000      7.9505      2.5443      0.1131      6.4039     70.5448
   603.4000      7.9505      2.5308      0.1126      7.2223     74.1799
   603.5000      7.9550      2.5182      0.1664      7.9897     73.9769
   603.6000      7.9550      2.5140      0.1191      8.2419     72.1228
   603.7000      7.9550      2.5345      0.1362      6.9982     69.8195
   603.8000      7.9524      2.5693      0.1649      4.8910     69.6406
   603.9000      7.9524      2.5870      0.1199      3.8201     70.9615
   604.0000      7.9479      2.5739      0.1047      4.6145     69.5595
   604.1000      7.9479      2.5445      0.0717      6.3941     65.5881
   604.2000      7.9479      2.5242      0.0663      7.6250     61.6074
   604.3000      7.9471      2.5165      0.1205      8.0884     59.0955
   604.4000      7.9471      2.5103      0.1063      8.4659     59.2850
   604.5000      7.9515      2.5142      0.0665      8.2309     62.9185
   604.6000      7.9515      2.5294      0.1942      7.3112     69.0960
   604.7000      7.9515      2.5267      0.1630      7.4749     74.8572
   604.8000      7.9555      2.5028      0.0923      8.9229     78.3627
   604.9000      7.9555      2.4975      0.0498      9.2407     79.4760
   605.0000      7.9524      2.5314      0.1034      7.1896     80.3410
   605.1000      7.9524      2.5747      0.1726      4.5625     84.0091
   605.2000      7.9524      2.5956      0.1710      3.2990     90.0414
   605.3000      7.9431      2.6010      0.1100      2.9682     95.8725
   605.4000      7.9431      2.6070      0.1661      2.6074     98.6415
   605.5000      7.9349      2.6050      0.2062      2.7295     96.4049
   605.6000      7.9349      2.5917      0.1410      3.5348     90.1107
   605.7000      7.9349      2.5825      0.1189      4.0935     84.1222
   605.8000      7.9316      2.5774      0.1371      4.3996     82.6261
   605.9000      7.9316      2.5649      0.0940      5.1586     84.9327
   606.0000      7.9340      2.5544      0.0648      5.7948     87.7685
   606.1000      7.9340      2.5646      0.0880      5.1757     91.1335
   606.2000      7.9340      2.6001      0.0816      3.0246     95.3783
   606.3000      7.9408      2.6516      0.1380     -0.0952     96.7904
   606.4000      7.9408      2.7069      0.1486     -3.4489     93.4827
   606.5000      7.9470      2.7573      0.1924     -6.5014     87.7547
   606.6000      7.9470      2.7850      0.2404     -8.1848     83.1058
   606.7000      7.9470      2.7772      0.2197     -7.7104     81.5562
   606.8000      7.9480      2.7460      0.1410     -5.8201     82.5449
   606.9000      7.9480      2.7062      0.0967     -3.4049     84.1419
   607.0000      7.9489      2.6549      0.0631     -0.2978     85.8741
   607.1000      7.9489      2.5892      0.0351      3.6821     88.9902
   607.2000      7.9489      2.5163     -0.0010      8.1008     93.0643
   607.3000      7.9522      2.4513     -0.0819     12.0440     98.7914
   607.4000      7.9522      2.4079     -0.0664     14.6701    106.6422
   607.5000      7.9531      2.3879     -0.0342     15.8865    112.4545
   607.6000      7.9531      2.3883      0.0291     15.8581    115.8127
   607.7000      7.9531      2.4017      0.0663     15.0458    121.2730
   607.8000      7.9531      2.4172      0.0672     14.1101    128.1302
   607.9000      7.9531      2.4322      0.0957     13.2008    132.2598
