~Version Information
VERS.                      2.0: CWLS Log ASCII Standard - VERSION 2.0
WRAP.                       NO: One line per depth step
~Well Information Block
STRT.FT               309.8000: 
STOP.FT              2184.7000: 
STEP.FT                 0.1000: 
NULL.                -999.2500: 
COMP.          Pioneer Natural Resources: COMPANY
WELL.             AMX 13-13 Tr: WELL
FLD.           Purgatoire River: FIELD
LOC.           2401' FSL & 895' FWL--: LOCATION
PROV.                 Colorado: PROVINCE
CNTY.               Las Animas: COUNTRY
SRVC.                Patterson: SERVICE COMPANY
DATE.          Thu Dec 22 15:57:57 2005: LOG DATE
UWI.           05 071 08631 00: UNIQUE WELL ID
~Curve Information Block
DEPT.FT            0 000 00 00: Depth
DCAL.in                       : CDL Caliper
RHOB.g/cc                     : CDL Bulk Density
RHOC.g/cc                     : CDL Density Correction
DPOR.pu                       : CDL Density Porosity
GR.GAPI                       : Gamma Ray
~Parameter Information Block
~A  Depth       DCAL        RHOB        RHOC        DPOR         GR     
# ...
   813.8000      8.1400      2.5709      0.0291      4.7911    118.8177
   813.9000      8.1400      2.5751      0.0504      4.5403    120.1393
   814.0000      8.1413      2.5742      0.0440      4.5967    123.0134
   814.1000      8.1413      2.5701      0.0171      4.8400    124.4366
   814.2000      8.1413      2.5727      0.0352      4.6875    121.7097
   814.3000      8.1378      2.5871      0.0703      3.8123    117.5232
   814.4000      8.1378      2.6072      0.0831      2.5928    114.3059
   814.5000      8.1350      2.6203      0.0992      1.7978    114.1672
   814.6000      8.1350      2.6232      0.0609      1.6220    119.5761
   814.7000      8.1350      2.6173      0.1021      1.9845    124.2049
   814.8000      8.1370      2.6003      0.0544      3.0144    122.6002
   814.9000      8.1370      2.5827      0.0135      4.0790    122.4772
   815.0000      8.1393      2.5779      0.0366      4.3713    128.4750
   815.1000      8.1393      2.5860      0.0066      3.8782    133.2969
   815.2000      8.1393      2.5956      0.0818      3.2972    131.7548
   815.3000      8.1374      2.5924      0.0650      3.4907    127.2572
   815.4000      8.1374      2.5796      0.0175      4.2644    123.9279
   815.5000      8.1327      2.5692      0.0039      4.8972    124.1119
   815.6000      8.1327      2.5618      0.0064      5.3433    126.1277
   815.7000      8.1327      2.5523      0.0290      5.9218    126.8407
   815.8000      8.1268      2.5422      0.0205      6.5314    128.0301
   815.9000      8.1268      2.5431     -0.0180      6.4777    130.5150
   816.0000      8.1224      2.5569      0.0507      5.6424    128.7685
   816.1000      8.1224      2.5680      0.0322      4.9716    122.3599
   816.2000      8.1224      2.5631      0.0391      5.2694    118.6303
   816.3000      8.1199      2.5489     -0.0074      6.1286    120.5425
   816.4000      8.1199      2.5472     -0.0196      6.2320    124.6948
   816.5000      8.1193      2.5591      0.0701      5.5085    125.6479
   816.6000      8.1193      2.5622      0.0541      5.3208    119.2599
   816.7000      8.1193      2.5489      0.0612      6.1266    108.5798
   816.8000      8.1185      2.5342      0.0009      7.0159    101.4241
   816.9000      8.1185      2.5256      0.0734      7.5403    101.4377
   817.0000      8.1176      2.5152      0.0297      8.1709    107.2601
   817.1000      8.1176      2.5078      0.0027      8.6159    113.1740
   817.2000      8.1176      2.5137      0.0112      8.2622    112.6518
   817.3000      8.1183      2.5326     -0.0261      7.1175    106.4185
   817.4000      8.1183      2.5585      0.0287      5.5468    100.5204
   817.5000      8.1194      2.5821      0.0645      4.1122     98.7621
   817.6000      8.1194      2.5920      0.1035      3.5168     99.4690
   817.7000      8.1194      2.5839      0.0687      4.0051     99.0655
   817.8000      8.1204      2.5734      0.0404      4.6397     96.8112
   817.9000      8.1204      2.5759      0.0654      4.4890     92.8133
   818.0000      8.1199      2.5844      0.0889      3.9762     87.5221
   818.1000      8.1199      2.5837      0.0754      4.0203     83.5625
   818.2000      8.1199      2.5735      0.0644      4.6364     82.7101
   818.3000      8.1183      2.5621      0.0406      5.3278     84.9061
   818.4000      8.1183      2.5508      0.0576      6.0147     88.7328
   818.5000      8.1179      2.5405      0.0090      6.6341     92.4726
   818.6000      8.1179      2.5385      0.0231      6.7563     95.0881
   818.7000      8.1179      2.5469     -0.0141      6.2466     96.0201
   818.8000      8.1189      2.5594      0.0271      5.4928     95.4429
   818.9000      8.1189      2.5678      0.0217      4.9788     92.7048
   819.0000      8.1204      2.5733      0.0433      4.6489     89.7457
   819.1000      8.1204      2.5848      0.0042      3.9527     89.5927
   819.2000      8.1204      2.6013      0.0603      2.9507     90.9570
   819.3000      8.1211      2.6040      0.0641      2.7909     91.0231
   819.4000      8.1211      2.5860      0.0320      3.8797     89.3429
   819.5000      8.1223      2.5676      0.0357      4.9933     89.0676
   819.6000      8.1223      2.5608      0.0584      5.4074     92.5810
   819.7000      8.1223      2.5538      0.0552      5.8279     97.8513
   819.8000      8.1232      2.5433     -0.0285      6.4679    102.1034
   819.9000      8.1232      2.5385      0.0222      6.7589    104.5886
   820.0000      8.1228      2.5368      0.0327      6.8630    105.5652
   820.1000      8.1228      2.5320      0.0280      7.1497    106.3765
   820.2000      8.1228      2.5285     -0.0089      7.3610    110.2439
   820.3000      8.1209      2.5342      0.0275      7.0205    118.5200
   820.4000      8.1209      2.5481      0.0512      6.1753    126.0609
   820.5000      8.1191      2.5600      0.0203      5.4533    125.2019
   820.6000      8.1191      2.5637      0.0912      5.2331    117.7022
   820.7000      8.1191      2.5663      0.0259      5.0752    110.6076
   820.8000      8.1192      2.5856      0.0456      3.9043    103.6541
   820.9000      8.1192      2.6179      0.1264      1.9458     97.4916
   821.0000      8.1189      2.6398      0.0904      0.6212     97.4126
   821.1000      8.1189      2.6464      0.0952      0.2161    100.2907
   821.2000      8.1189      2.6446      0.1112      0.3246     99.4697
   821.3000      8.1190      2.6362      0.0941      0.8358     96.5425
   821.4000      8.1190      2.6243      0.0747      1.5604     94.1431
   821.5000      8.1195      2.6149      0.0049      2.1285     92.1413
   821.6000      8.1195      2.6144      0.0012      2.1552     91.1917
   821.7000      8.1195      2.6189      0.0404      1.8878     89.2102
   821.8000      8.1184      2.6203      0.0285      1.7991     85.2422
   821.9000      8.1184      2.6201      0.0240      1.8139     83.7226
   822.0000      8.1181      2.6215      0.0152      1.7272     86.7409
   822.1000      8.1181      2.6163      0.0571      2.0443     91.6502
   822.2000      8.1181      2.5960      0.0083      3.2752     95.1139
   822.3000      8.1190      2.5720      0.0293      4.7300     96.5317
   822.4000      8.1190      2.5586     -0.0173      5.5423     97.3339
   822.5000      8.1192      2.5573     -0.0422      5.6184     96.6050
   822.6000      8.1192      2.5578      0.0206      5.5899     92.5275
   822.7000      8.1192      2.5525     -0.0126      5.9087     88.3928
   822.8000      8.1193      2.5562     -0.0420      5.6821     88.0989
   822.9000      8.1193      2.5787      0.0360      4.3217     90.7382
   823.0000      8.1210      2.5983      0.0399      3.1339     97.3386
   823.1000      8.1210      2.5969      0.0356      3.2166    107.4317
   823.2000      8.1210      2.5815      0.0334      4.1537    112.0186
   823.3000      8.1222      2.5691     -0.0081      4.9038    108.6063
   823.4000      8.1222      2.5701      0.0194      4.8422    104.7046
   823.5000      8.1226      2.5805      0.0134      4.2151    102.5939
   823.6000      8.1226      2.5944      0.0188      3.3705    102.9107
   823.7000      8.1226      2.6068      0.0693      2.6185    106.7868
   823.8000      8.1215      2.6085      0.0378      2.5154    108.9472
   823.9000      8.1215      2.5952      0.0582      3.3188    104.7420
   824.0000      8.1191      2.5795      0.0117      4.2706     96.6404
   824.1000      8.1191      2.5814      0.0086      4.1579     90.2162
   824.2000      8.1191      2.5996      0.0312      3.0520     89.7532
   824.3000      8.1182      2.6191      0.0443      1.8705     94.3937
   824.4000      8.1182      2.6267      0.0784      1.4107     97.2275
   824.5000      8.1184      2.6135      0.0700      2.2116     94.1036
   824.6000      8.1184      2.5890      0.0142      3.6973     89.2745
   824.7000      8.1184      2.5791     -0.0615      4.2943     87.9287
   824.8000      8.1190      2.5886      0.0362      3.7207     90.2686
   824.9000      8.1190      2.5866      0.0923      3.8399     94.4054
