~Version Information
VERS.                      2.0: CWLS Log ASCII Standard - VERSION 2.0
WRAP.                       NO: One line per depth step
~Well Information Block
STRT.FT                -8.7500: 
STOP.FT              1035.7500: 
STEP.FT                 0.2500: 
NULL.                -999.2500: 
COMP.          Pioneer Natural Resources: COMPANY
WELL.                Mac 22-36: WELL
FLD.           Purgatorie River: FIELD
LOC.           2545' FNL & 1398' FWL--: LOCATION
PROV.                       CO: PROVINCE
CNTY.               Las Animas: COUNTRY
SRVC.          Patterson Wireline: SERVICE COMPANY
DATE.          Thu Dec 08 13:20:05 2005: LOG DATE
UWI.           08 071 08594 00: UNIQUE WELL ID
~Curve Information Block
DEPT.FT            0 000 00 00: Depth
CCL.                          : Casing Collar Locator
TT3.usec                      : CBL 3' Travel Time
AMP3.mV                       : CBL 3' Amplitude
GR.GAPI                       : Gamma Ray
~Parameter Information Block
~A  Depth       CCL         TT3         AMP3         GR     
# ...
   996.2500      0.0000    887.3261      6.3132    102.3035
   996.5000      0.0000    872.8874      6.3323    104.4101
   996.7500      0.0000    849.3516      6.3499    105.1257
   997.0000      0.0000    827.8109      6.3546    103.8171
   997.2500      0.0000    814.0624      6.3436    101.3030
   997.5000      0.0000    805.2340      6.3225     99.3955
   997.7500      0.0000    796.3975      6.2920     99.3286
   998.0000      0.0000    787.4515      6.2455    100.7811
   998.2500      0.0000    781.9944      6.1867    102.3542
   998.5000      0.0000    781.1923      6.1389    102.9280
   998.7500      0.0000    781.1494      6.1311    102.5021
   999.0000      0.0000    776.2820      6.1704    101.6543
   999.2500      0.0000    764.1981      6.2181    100.4763
   999.5000      0.0000    747.8201      6.1917     98.5862
   999.7500      0.0000    733.9509      6.0178     96.0678
  1000.0000      0.0000    729.2849      5.7060     93.7209
  1000.2500      0.0000    736.6334      5.3655     92.3403
  1000.5000      0.0000    754.7816      5.1272     92.1289
  1000.7500      0.0000    780.6920      5.0454     92.6665
  1001.0000      0.0000    809.8480      5.0805     93.2752
  1001.2500      0.0000    835.5057      5.1572     93.6853
  1001.5000      2.0000    851.9789      5.2193     94.1679
  1001.7500      0.0000    859.9599      5.2379     94.5835
  1002.0000      0.0000    864.7899      5.2136     93.8341
  1002.2500      0.0000    867.7538      5.1971     91.1361
  1002.5000      0.0000    863.5421      5.2793     87.5986
  1002.7500      0.0000    849.3137      5.5127     85.5968
  1003.0000      0.0000    832.2181      5.8425     86.4755
  1003.2500      0.0000    824.2389      6.1519     89.4057
  1003.5000      0.0000    831.6276      6.3704     92.3510
  1003.7500      0.0000    850.6620      6.5119     93.3634
  1004.0000      0.0000    870.4855      6.6223     91.1175
  1004.2500      0.0000    878.6135      6.7237     85.5027
  1004.5000      0.0000    867.2381      6.8077     78.3017
  1004.7500      0.0000    837.7917      6.8607     72.4937
  1005.0000      0.0000    800.0437      6.8826     70.2903
  1005.2500      0.0000    765.5161      6.8840     71.9769
  1005.5000      0.0000    741.1809      6.8714     76.4182
  1005.7500      0.0000    728.9038      6.8406     82.0186
  1006.0000      0.0000    728.4676      6.7842     87.2906
  1006.2500      0.0000    738.3623      6.7021     91.5214
  1006.5000      0.0000    754.1144      6.6021     95.3752
  1006.7500      0.0000    768.7336      6.4954    100.3031
  1007.0000      0.0000    776.7051      6.3945    106.9297
  1007.2500      0.0000    777.4584      6.3126    114.1002
  1007.5000      0.0000    774.6487      6.2605    119.6463
  1007.7500      0.0000    772.4746      6.2390    122.0736
  1008.0000      0.0000    772.7233      6.2376    121.4680
  1008.2500      0.0000    774.4607      6.2413    118.9804
  1008.5000      0.0000    775.7812      6.2410    115.9201
  1008.7500      0.0000    776.0400      6.2397    113.3549
  1009.0000      0.0000    776.8073      6.2532    111.7842
  1009.2500      0.0000    780.6829      6.2991    110.6666
  1009.5000      0.0000    789.3765      6.3801    108.7545
  1009.7500      0.0000    803.1367      6.4768    105.4004
  1010.0000      0.0000    821.9481      6.5637    101.1918
  1010.2500      0.0000    846.2253      6.6295     97.0481
  1010.5000      0.0000    874.8715      6.6812     93.2821
  1010.7500      0.0000    902.3643      6.7330     89.9480
  1011.0000      0.0000    919.4906      6.7914     87.5207
  1011.2500      0.0000    918.9521      6.8468     86.5196
  1011.5000      0.0000    900.8486      6.8768     86.7253
  1011.7500      0.0000    872.8434      6.8639     87.4049
  1012.0000      0.0000    845.2262      6.8103     88.1099
  1012.2500      0.0000    824.7889      6.7348     88.8398
  1012.5000      0.0000    811.8207      6.6549     89.9928
  1012.7500      0.0000    802.1184      6.5785     92.5700
  1013.0000      0.0000    791.5862      6.5071     97.6320
  1013.2500      0.0000    779.1735      6.4448    104.8907
  1013.5000      0.0000    766.4568      6.4007    112.3621
  1013.7500      0.0000    755.4493      6.3876    118.0102
  1014.0000      0.0000    747.1343      6.4160    121.5626
  1014.2500      0.0000    741.5023      6.4868    124.3844
  1014.5000      0.0000    738.3210      6.5851    127.7522
  1014.7500      0.0000    737.5267      6.6843    131.3522
  1015.0000      0.0000    739.1707      6.7585    133.2496
  1015.2500      0.0000    743.3561      6.7935    131.2637
  1015.5000      0.0000    750.3591      6.7902    124.7345
  1015.7500      0.0000    760.2742      6.7623    115.3345
  1016.0000      0.0000    771.7867      6.7323    106.1498
  1016.2500      0.0000    781.7018      6.7233     99.7520
  1016.5000      0.0000    787.1475      6.7485     96.9962
  1016.7500      0.0000    788.7411      6.8026     97.3631
  1017.0000      0.0000    790.6030      6.8633     99.9449
  1017.2500      0.0000    796.1798      6.9044    103.8302
  1017.5000      0.0000    804.0867      6.9125    107.8592
  1017.7500      0.0000    808.8121      6.8936    110.7207
  1018.0000      0.0000    805.8606      6.8645    111.8806
  1018.2500      0.0000    795.9141      6.8407    112.3083
  1018.5000      0.0000    783.8788      6.8298    113.6928
  1018.7500      0.0000    774.6011      6.8349    116.6946
  1019.0000      0.0000    770.1776      6.8594    120.2639
  1019.2500      0.0000    770.5514      6.9085    122.6516
  1019.5000      0.0000    775.2500      6.9835    122.8776
  1019.7500      0.0000    784.0914      7.0752    121.3909
  1020.0000      0.0000    796.8121      7.1634    119.5775
  1020.2500      0.0000    812.3416      7.2275    118.6205
  1020.5000      0.0000    828.3447      7.2581    118.6599
  1020.7500      0.0000    841.7626      7.2603    118.6595
  1021.0000      0.0000    850.2722      7.2473    116.6338
  1021.2500      0.0000    853.2407      7.2327    110.1655
  1021.5000      0.0000    851.3003      7.2220     97.5904
  1021.7500      0.0000    845.3073      7.2080     79.2933
  1022.0000      0.0000    835.7124      7.1777     57.8700
  1022.2500      0.0000    822.7513      7.1258     37.0862
  1022.5000      0.0000    807.3904      7.0612     20.3531
  1022.7500      0.0000    791.9854      6.9999      9.3320
  1023.0000      0.0000    779.4548      6.9535      3.5006
  1023.2500      0.0000    771.6485      6.9231      1.0571
  1023.5000      0.0000    768.9327      6.9055      0.2533
  1023.7500      0.0000    771.3055      6.9055      0.0473
  1024.0000      0.0000    779.2469      6.9375      0.0068
  1024.2500      0.0000    792.9271      7.0101      0.0000
  1024.5000      0.0000    810.7552      7.1084   -999.2500
  1024.7500      0.0000    829.5257      7.1953   -999.2500
  1025.0000      0.0000    846.7635      7.2375   -999.2500
  1025.2500      0.0000    862.8584      7.2319   -999.2500
  1025.5000      0.0000    880.0687      7.2018   -999.2500
  1025.7500      0.0000    898.5679      7.1720   -999.2500
  1026.0000      0.0000    912.7658      7.1509   -999.2500
  1026.2500      0.0000    911.1794      7.1171   -999.2500
  1026.5000      0.0000    879.4332      6.9959   -999.2500
  1026.7500      0.0000    804.2074      6.6514   -999.2500
  1027.0000      0.0000    679.0953      5.9543   -999.2500
  1027.2500      0.0000    513.5853      4.9074   -999.2500
  1027.5000      0.0000    337.0835      3.7078   -999.2500
  1027.7500      0.0000    186.6991      2.6451   -999.2500
  1028.0000      0.0000     85.3411      1.9135   -999.2500
  1028.2500      0.0000     31.6666      1.5214   -999.2500
  1028.5000      0.0000      9.4241      1.3577   -999.2500
  1028.7500      0.0000      2.2267      1.3044   -999.2500
  1029.0000      0.0000      0.4115      1.2909   -999.2500
  1029.2500      0.0000      0.0547      1.2883   -999.2500
  1029.5000      0.0000   -999.2500   -999.2500   -999.2500
