~Version Information
VERS.                      2.0: CWLS Log ASCII Standard - VERSION 2.0
WRAP.                       NO: One line per depth step
~Well Information Block
STRT.FT               264.2500: 
STOP.FT              1134.7500: 
STEP.FT                 0.2500: 
NULL.                -999.2500: 
COMP.          Pioneer Natural Resources: COMPANY
WELL.          Black Cat 13-32 Tr: WELL
FLD.           Purgatoire River: FIELD
LOC.           1679' FSL & 1150' FWL--: LOCATION
CNTY.               Las Animas: COUNTY
SRVC.                Patterson: SERVICE COMPANY
DATE.          Tue Mar 07 10:58:06 2006: LOG DATE
UWI.           05 071 08721 00: UNIQUE WELL ID
STAT.                 Colorado: STATE
~Curve Information Block
DEPT.FT            0 000 00 00: Depth
SN.Ohm-m                      : IEL Short Normal
SP.mV                         : IEL Spontaneous Potential
DIR.Ohm-m                     : IEL Induction Resistivity
GR.GAPI                       : Gamma Ray
~Parameter Information Block
~A  Depth        SN          SP         DIR          GR     
# ...
  1001.2500    596.4604   -399.4298     35.4541     59.7553
  1001.5000    596.4545   -394.1364     33.5405     63.7353
  1001.7500    596.4263   -390.7946     31.3921     67.5417
  1002.0000    596.3221   -389.9738     29.1652     75.1681
  1002.2500    596.0320   -392.0012     26.9976     81.1194
  1002.5000    595.4313   -396.8510     24.9757     90.2736
  1002.7500    594.5368   -404.1075     23.1393     96.1210
  1003.0000    593.6611   -413.0240     21.5047    104.3941
  1003.2500    593.2882   -422.6636     20.0795    109.7031
  1003.5000    593.6611   -432.0831     18.8651    117.5677
  1003.7500    594.5368   -440.5034     17.8521    122.6716
  1004.0000    595.4313   -447.4210     17.0211    129.4619
  1004.2500    596.0320   -452.6404     16.3498    132.9085
  1004.5000    596.3221   -456.2352     15.8202    136.0573
  1004.7500    596.4263   -458.4656     15.4206    136.9429
  1005.0000    596.4545   -459.6832     15.1426    136.8008
  1005.2500    596.4604   -460.2467     14.9750    135.7643
  1005.5000    596.4615   -460.4628     14.9008    132.9157
  1005.7500    596.4615   -460.5532     14.8960    130.6077
  1006.0000    596.4615   -460.6453     14.9328    127.9117
  1006.2500    596.4615   -460.7817     14.9826    127.2751
  1006.5000    596.4615   -460.9433     15.0216    128.0308
  1006.7500    596.4615   -461.0793     15.0347    129.0101
  1007.0000    596.4615   -461.1382     15.0182    129.8760
  1007.2500    596.4615   -461.0936     14.9824    129.7324
  1007.5000    596.4615   -460.9572     14.9511    128.9751
  1007.7500    596.4615   -460.7713     14.9584    128.7347
  1008.0000    596.4615   -460.5977     15.0426    129.3517
  1008.2500    596.4615   -460.4963     15.2391    130.1671
  1008.5000    596.4615   -460.5084     15.5730    130.9125
  1008.7500    596.4615   -460.6461     16.0553    130.5198
  1009.0000    596.4615   -460.8933     16.6810    128.1805
  1009.2500    596.4615   -461.2140     17.4285    125.4946
  1009.5000    596.4615   -461.5627     18.2566    120.1436
  1009.7500    596.4615   -461.8952     19.0990    116.0850
  1010.0000    596.4615   -462.1744     19.8641    110.2480
  1010.2500    596.4615   -462.3716     20.4471    107.1226
  1010.5000    596.4615   -462.4663     20.7576    104.2127
  1010.7500    596.4615   -462.4461     20.7492    103.5754
  1011.0000    596.4615   -462.3076     20.4339    104.6912
  1011.2500    596.4615   -462.0596     19.8727    106.9314
  1011.5000    596.4615   -461.7263     19.1532    112.5618
  1011.7500    596.4615   -461.3481     18.3643    117.5351
  1012.0000    596.4615   -460.9787     17.5801    125.6344
  1012.2500    596.4615   -460.6791     16.8524    130.4872
  1012.5000    596.4615   -460.5079     16.2107    135.3722
  1012.7500    596.4615   -460.5113     15.6683    136.4836
  1013.0000    596.4615   -460.7148     15.2282    134.9038
  1013.2500    596.4615   -461.1171     14.8903    132.1582
  1013.5000    596.4615   -461.6892     14.6533    126.9193
  1013.7500    596.4615   -462.3773     14.5123    123.7021
  1014.0000    596.4615   -463.1110     14.4539    120.7231
  1014.2500    596.4615   -463.8143     14.4523    120.1492
  1014.5000    596.4615   -464.4188     14.4722    120.4104
  1014.7500    596.4615   -464.8745     14.4778    120.5569
  1015.0000    596.4615   -465.1567     14.4442    120.3937
  1015.2500    596.4615   -465.2664     14.3662    120.4976
  1015.5000    596.4615   -465.2253     14.2574    121.8149
  1015.7500    596.4615   -465.0667     14.1427    123.4441
  1016.0000    596.4615   -464.8278     14.0462    126.2091
  1016.2500    596.4615   -464.5412     13.9811    127.7929
  1016.5000    596.4615   -464.2316     13.9452    129.3591
  1016.7500    596.4615   -463.9127     13.9266    129.6545
  1017.0000    596.4615   -463.5858     13.9154    128.3581
  1017.2500    596.4615   -463.2393     13.9173    126.1894
  1017.5000    596.4615   -462.8497     13.9575    122.1725
  1017.7500    596.4615   -462.3863     14.0728    120.3267
  1018.0000    596.4615   -461.8180     14.2971    120.3804
  1018.2500    596.4615   -461.1211     14.6477    122.1705
  1018.5000    596.4615   -460.2865     15.1195    126.0378
  1018.7500    596.4615   -459.3214     15.6864    128.4290
  1019.0000    596.4615   -458.2468     16.3084    130.3992
  1019.2500    596.4615   -457.0889     16.9450    130.1436
  1019.5000    596.4615   -455.8691     17.5725    127.2164
  1019.7500    596.4615   -454.5935     18.1984    123.9281
  1020.0000    596.4615   -453.2479     18.8648    118.3154
  1020.2500    596.4615   -451.7976     19.6346    114.9641
  1020.5000    596.4615   -450.1938     20.5685    111.3114
  1020.7500    596.4615   -448.3842     21.7044    109.7089
  1021.0000    596.4615   -446.3264     23.0461    107.8681
  1021.2500    596.4615   -443.9976     24.5629    106.6465
  1021.5000    596.4615   -441.4023     26.1964    104.5927
  1021.7500    596.4615   -438.5717     27.8699    103.0785
  1022.0000    596.4615   -435.5573     29.4999    100.4804
  1022.2500    596.4615   -432.4226     31.0155     98.4076
  1022.5000    596.4615   -429.2324     32.3839     94.7776
  1022.7500    596.4615   -426.0443     33.6242     92.1834
  1023.0000    596.4615   -422.9044     34.7888     88.2877
  1023.2500    596.4615   -419.8462     35.9237     85.6409
  1023.5000    596.4615   -416.8899     37.0413     81.4719
  1023.7500    596.4615   -414.0445     38.1230     78.8367
  1024.0000    596.4615   -411.3089     39.1365     76.2450
  1024.2500    596.4615   -408.6717     40.0481     75.9774
  1024.5000    596.4615   -406.1121     40.8319     77.5074
  1024.7500    596.4615   -403.5998     41.4864     78.9915
  1025.0000    596.4615   -401.0952     42.0489     80.3578
  1025.2500    596.4615   -398.5507     42.5842     80.2348
  1025.5000    596.4615   -395.9129     43.1504     78.7090
  1025.7500    596.4615   -393.1264     43.7635     77.2884
  1026.0000    596.4615   -390.1398     44.3899     75.4203
  1026.2500    596.4615   -386.9134     44.9624     74.6008
  1026.5000    596.4615   -383.4268     45.4095     73.9215
  1026.7500    596.4615   -379.6834     45.6831     73.6514
  1027.0000    596.4615   -375.7118     45.7821     73.2185
  1027.2500    596.4615   -371.5602     45.7640     72.7181
  1027.5000    596.4615   -367.2908     45.7364     71.3741
  1027.7500    596.4615   -362.9722     45.8259     70.1355
  1028.0000    596.4615   -358.6758     46.1392     68.2890
  1028.2500    596.4615   -354.4761     46.7262     67.3865
  1028.5000    596.4615   -350.4529     47.5543     66.6623
  1028.7500    596.4615   -346.6916     48.5091     66.4240
  1029.0000    596.4615   -343.2777     49.4357     66.0018
  1029.2500    596.4615   -340.2870     50.2103     65.5203
  1029.5000    596.4615   -337.7728     50.7951     64.4443
  1029.7500    596.4615   -335.7562     51.2367     63.4477
  1030.0000    596.4615   -334.2253     51.6196     61.3630
  1030.2500    596.4615   -333.1415     52.0171     59.6414
  1030.5000    596.4615   -332.4526     52.4676     57.2074
  1030.7500    596.4615   -332.1057     52.9766     56.1139
  1031.0000    596.4615   -332.0568     53.5369     55.4760
  1031.2500    596.4615   -332.2717     54.1443     55.5575
  1031.5000    596.4615   -332.7246     54.7897     56.0607
  1031.7500    596.4615   -333.3929     55.4358     56.4284
  1032.0000    596.4615   -334.2559     56.0110     56.6527
  1032.2500    596.4615   -335.2975     56.4349     56.4810
  1032.5000    596.4615   -336.5139     56.6494     55.9404
  1032.7500    596.4615   -337.9249     56.6347     55.6644
  1033.0000    596.4615   -339.5843     56.4132     55.8517
  1033.2500    596.4615   -341.5849     56.0488     56.5156
  1033.5000    596.4615   -344.0549     55.6209     58.1377
  1033.7500    596.4615   -347.1427     55.1764     59.2998
  1034.0000    596.4615   -350.9930     54.6952     60.4825
  1034.2500    596.4615   -355.7174     54.1124     60.6270
  1034.5000    596.4615   -361.3660     53.3846     59.8294
