~Version Information
 VERS.                                  2.0 : CWLS LAS VERSION
 WRAP.                                   NO : WRAPING MODE
 SWARE .                 MController 2.5.0J : SOFTWARE VERSION
~Well Information
 WELL.                    McClaren 13 34 TR : WELL
 COMP.    Pioneer Natural Resources USA Inc : COMPANY
 FLD.                      Purgatoire River : FIELD
 LOC.                NW/SW Sec 34 T32S R67W : LOCATION
 DATE.                             07/12/05 : DATE(S) LOGGED
 SRVC.       BLANCO Geological Services LLC : SERVICE COMPANY
 STAT.                                   CO : STATE
 CNTY.                           Las Animas : COUNTY
 CTRY.                                  USA : COUNTRY
 API.                       05-071-08437-00 : API NUMBER
 STRT.FT                             595.00 : START DEPTH
 STOP.FT                            1555.00 : STOP DEPTH
 STEP.FT                               1.00 : DEPTH INCREMENT
 NULL.                                -9999 : NULL VALUE
~Curve information
 DEPTH.FT                                   :
 ROP.MIN/FT                                 :
 GAS.UNITS                                  :
~ASCII Log data
# ...
      1395.0         0.20        740.0 
      1396.0         0.17        742.5 
      1397.0         0.17        745.4 
      1398.0         0.13        747.9 
      1399.0         0.17        749.5 
      1400.0         0.17        749.8 
      1401.0         0.23        749.2 
      1402.0         0.27        746.6 
      1403.0         0.23        732.0 
      1404.0         0.23        717.4 
      1405.0         0.28        712.4 
      1406.0         3.85       1581.7 
      1407.0         0.23        942.8 
      1408.0         0.23        874.2 
      1409.0         0.23        827.9 
      1410.0         0.27        799.0 
      1411.0         0.27        783.8 
      1412.0         0.23        780.3 
      1413.0         0.20        777.7 
      1414.0         0.20        776.2 
      1415.0         0.23        770.4 
      1416.0         0.23        766.6 
      1417.0         0.22        763.1 
      1418.0         0.20        761.2 
      1419.0         0.17        760.9 
      1420.0         0.20        760.6 
      1421.0         0.20        758.1 
      1422.0         0.20        756.2 
      1423.0         0.17        751.1 
      1424.0         0.20        751.7 
      1425.0         0.23        750.1 
      1426.0         0.20        748.5 
      1427.0         0.17        747.6 
      1428.0         0.20        746.0 
      1429.0         0.20        743.8 
      1430.0         0.23        743.8 
      1431.0         0.20        742.5 
      1432.0         0.20        728.9 
      1433.0         0.20        712.7 
      1434.0         0.18        704.1 
      1435.0         0.20        700.9 
      1436.0         2.40       1399.5 
      1437.0         0.33       1403.3 
      1438.0         0.25       1297.0 
      1439.0         0.30       1179.5 
      1440.0         0.37       1038.0 
      1441.0         0.27        904.1 
      1442.0         0.33        840.9 
      1443.0         0.27        787.9 
      1444.0         0.23        771.1 
      1445.0         0.17        769.8 
      1446.0         0.23        777.7 
      1447.0         0.17        781.5 
      1448.0         0.13        783.5 
      1449.0         0.30        783.1 
      1450.0         0.30        777.4 
      1451.0         0.25        773.0 
      1452.0         0.23        768.2 
      1453.0         0.23        762.8 
      1454.0         0.27        757.7 
      1455.0         0.27        751.1 
      1456.0         0.27        747.9 
      1457.0         0.27        745.4 
      1458.0         0.23        741.6 
      1459.0         0.27        743.5 
      1460.0         0.27        743.5 
      1461.0         0.20        741.6 
      1462.0         0.17        739.3 
      1463.0         0.17        729.2 
      1464.0         0.17        716.8 
      1465.0         0.22        708.9 
      1466.0         3.32       1486.8 
      1467.0         0.53       1259.2 
      1468.0         0.27        977.1 
      1469.0         0.23        911.7 
      1470.0         0.17        878.0 
      1471.0         0.10        852.0 
      1472.0         0.23        838.7 
      1473.0         0.23        810.1 
      1474.0         0.20        794.2 
      1475.0         0.17        784.1 
      1476.0         0.23        778.4 
      1477.0         0.20        773.0 
      1478.0         0.20        770.4 
      1479.0         0.22        769.5 
      1480.0         0.20        766.3 
      1481.0         0.23        761.9 
      1482.0         0.20        758.7 
      1483.0         0.20        756.5 
      1484.0         0.20        753.6 
      1485.0         0.17        753.0 
      1486.0         0.23        751.1 
      1487.0         0.20        748.2 
      1488.0         0.20        747.0 
      1489.0         0.20        745.4 
      1490.0         0.23        745.7 
      1491.0         0.23        744.1 
      1492.0         0.23        739.3 
      1493.0         0.23        721.2 
      1494.0         0.22        715.2 
      1495.0         0.37        719.0 
      1496.0         4.12       1640.1 
      1497.0         0.33        869.1 
      1498.0         0.30        821.5 
      1499.0         0.30        795.8 
      1500.0         0.32        783.8 
      1501.0         0.23        777.1 
      1502.0         0.20        774.6 
      1503.0         0.27        770.4 
      1504.0         0.27        767.3 
      1505.0         0.30        764.7 
      1506.0         0.17        758.7 
      1507.0         0.23        754.3 
      1508.0         0.17        751.7 
      1509.0         0.27        753.0 
      1510.0         0.42        756.8 
      1511.0         0.27        758.4 
      1512.0         0.10        757.7 
      1513.0         0.17        758.1 
      1514.0         0.20        756.8 
      1515.0         0.23        754.6 
      1516.0         0.20        752.0 
      1517.0         0.30        752.0 
      1518.0         0.23        751.4 
      1519.0         0.23        752.0 
      1520.0         0.20        752.3 
      1521.0         0.23        750.1 
      1522.0         0.23        736.8 
      1523.0         0.18        727.9 
      1524.0         0.23        722.2 
      1525.0         0.20        728.2 
      1526.0         2.67       1189.1 
      1527.0         0.42        948.2 
      1528.0         0.40        861.8 
      1529.0         0.30        810.1 
      1530.0         0.33        788.8 
      1531.0         0.30        774.2 
      1532.0         0.27        775.2 
      1533.0         0.10        776.2 
      1534.0         0.13        776.8 
      1535.0         0.23        773.0 
      1536.0         0.30        769.8 
      1537.0         0.30        763.1 
      1538.0         0.23        756.5 
      1539.0         0.32        752.7 
      1540.0         0.40        751.1 
      1541.0         0.30        751.1 
      1542.0         0.20        749.5 
      1543.0         0.17        747.3 
      1544.0         0.33        745.4 
      1545.0         0.30        750.1 
      1546.0         0.33        750.8 
      1547.0         0.17        751.7 
      1548.0         0.17        750.4 
      1549.0         0.20        751.1 
      1550.0         0.17        752.3 
      1551.0         0.13      -9999.0 
      1552.0         0.17      -9999.0 
      1553.0         0.18      -9999.0 
      1554.0         0.13      -9999.0 
      1555.0         0.23      -9999.0 
