~Version Information
 VERS.                                  2.0 : CWLS LAS VERSION
 WRAP.                                   NO : WRAPING MODE
 SWARE .                 MController 2.5.0N : SOFTWARE VERSION
~Well Information
 WELL.                     Challenger 31-29 : WELL
 COMP.   Pioneer Natural Resources USA, Inc : COMPANY
 FLD.                      Purgatoire River : FIELD
 LOC.               NW/NE Sec 29 T33S  R65W : LOCATION
 DATE.                             09/15/05 : DATE(S) LOGGED
 SRVC.       BLANCO Geological Services LLC : SERVICE COMPANY
 STAT.                                   CO : STATE
 CNTY.                           Las Animas : COUNTY
 CTRY.                                  USA : COUNTRY
 API.                       05-071-08514-00 : API NUMBER
 STRT.FT                             396.00 : START DEPTH
 STOP.FT                            1345.00 : STOP DEPTH
 STEP.FT                               1.00 : DEPTH INCREMENT
 NULL.                                -9999 : NULL VALUE
~Curve information
 DEPTH.FT                                   :
 ROP.MIN/FT                                 :
 GAS.UNITS                                  :
~ASCII Log data
# ...
       796.0         0.13         39.2 
       797.0         0.20         39.0 
       798.0         0.20         39.0 
       799.0         0.20         38.6 
       800.0         0.20         36.3 
       801.0         0.20         34.2 
       802.0         0.17         34.2 
       803.0         0.13         31.1 
       804.0         0.17         29.8 
       805.0         0.27         26.3 
       806.0         1.18         56.8 
       807.0         0.33         66.9 
       808.0         0.30         69.4 
       809.0         0.20         66.6 
       810.0         0.10         63.2 
       811.0         0.27         60.2 
       812.0         0.20         57.0 
       813.0         0.23         52.2 
       814.0         0.17         50.8 
       815.0         0.17         47.7 
       816.0         0.13         46.5 
       817.0         0.17         45.5 
       818.0         0.17         43.1 
       819.0         0.13         40.6 
       820.0         0.18         40.9 
       821.0         0.20         39.2 
       822.0         0.13         37.5 
       823.0         0.10         37.5 
       824.0         0.10         36.2 
       825.0         0.13         36.8 
       826.0         0.17         36.9 
       827.0         0.17         36.1 
       828.0         0.27         34.5 
       829.0         0.10         32.0 
       830.0         0.10         30.6 
       831.0         0.13         28.6 
       832.0         0.13         25.9 
       833.0         0.23         24.9 
       834.0         0.07         23.5 
       835.0         0.27         23.0 
       836.0         0.87         61.0 
       837.0         0.28         73.4 
       838.0         0.30         75.3 
       839.0         0.27         66.1 
       840.0         0.20         64.9 
       841.0         0.13         56.1 
       842.0         0.37         51.8 
       843.0         0.20         42.0 
       844.0         0.20         39.4 
       845.0         0.23         37.0 
       846.0         0.20         34.8 
       847.0         0.23         34.1 
       848.0         0.27         33.6 
       849.0         0.17         33.0 
       850.0         0.13         32.1 
       851.0         0.13         30.7 
       852.0         0.15         30.4 
       853.0         0.13         31.0 
       854.0         0.37         30.7 
       855.0         0.23         30.3 
       856.0         0.17         31.1 
       857.0         0.10         30.3 
       858.0         0.10         30.3 
       859.0         0.13         29.1 
       860.0         0.13         25.9 
       861.0         0.13         25.1 
       862.0         0.13         23.3 
       863.0         0.13         23.3 
       864.0         0.37         21.6 
       865.0         0.37         26.7 
       866.0         0.78         66.2 
       867.0         0.23         68.9 
       868.0         0.43         67.8 
       869.0         0.23         59.2 
       870.0         0.20         53.2 
       871.0         0.17         48.6 
       872.0         0.17         46.4 
       873.0         0.17         40.6 
       874.0         0.17         40.1 
       875.0         0.13         36.5 
       876.0         0.13         35.3 
       877.0         0.13         33.3 
       878.0         0.17         32.7 
       879.0         0.13         31.5 
       880.0         0.13         30.7 
       881.0         0.17         30.7 
       882.0         0.20         29.9 
       883.0         0.20         27.7 
       884.0         0.22         26.7 
       885.0         0.20         25.9 
       886.0         0.13         26.2 
       887.0         0.13         26.2 
       888.0         0.23         25.2 
       889.0         0.17         23.1 
       890.0         0.20         23.8 
       891.0         0.13         21.6 
       892.0         0.23         20.6 
       893.0         0.07         19.7 
       894.0         0.27         19.5 
       895.0         0.27         22.7 
       896.0         0.77         69.8 
       897.0         0.30         97.0 
       898.0         0.32        113.3 
       899.0         0.27        118.5 
       900.0         0.20        116.5 
       901.0         0.17        113.3 
       902.0         0.20        103.8 
       903.0         0.20        101.7 
       904.0         0.17         96.2 
       905.0         0.23         93.4 
       906.0         0.17         89.7 
       907.0         0.17         84.1 
       908.0         0.13         81.9 
       909.0         0.17         80.9 
       910.0         0.13         78.3 
       911.0         0.17         76.0 
       912.0         0.13         74.0 
       913.0         0.13         73.6 
       914.0         0.17         69.9 
       915.0         0.13         69.9 
       916.0         0.17         69.3 
       917.0         0.22         67.7 
       918.0         0.27         65.9 
       919.0         0.17         52.7 
       920.0         0.13         52.7 
       921.0         0.13         51.4 
       922.0         0.37         46.3 
       923.0         0.33         52.0 
       924.0         0.27         71.4 
       925.0         0.32        108.1 
       926.0         0.57        138.4 
       927.0         0.20        139.6 
       928.0         0.13        135.6 
       929.0         0.17        127.9 
       930.0         0.20        124.8 
       931.0         0.20        110.8 
       932.0         0.17        103.0 
       933.0         0.10         94.6 
       934.0         0.17         91.9 
       935.0         0.20         84.1 
       936.0         0.22         76.2 
       937.0         0.13         72.8 
       938.0         0.17         67.1 
       939.0         0.13         65.6 
       940.0         0.13         64.7 
       941.0         0.23         64.4 
       942.0         0.13         63.2 
       943.0         0.17         63.2 
       944.0         0.17         63.0 
       945.0         0.13         61.0 
       946.0         0.17         60.2 
       947.0         0.17         54.4 
       948.0         0.20         53.4 
       949.0         0.27         48.2 
       950.0         0.22         47.3 
       951.0         0.03         43.3 
       952.0         0.27         43.0 
       953.0         0.20         48.6 
       954.0         0.30         70.2 
       955.0         0.37        100.9 
       956.0         0.57        127.0 
       957.0         0.30        126.8 
       958.0         0.27        116.8 
       959.0         0.27        107.4 
       960.0         0.20         93.6 
       961.0         0.27         82.7 
       962.0         0.22         73.8 
       963.0         0.17         73.0 
       964.0         0.13         65.7 
       965.0         0.17         65.1 
       966.0         0.20         61.3 
       967.0         0.17         60.2 
       968.0         0.20         58.7 
       969.0         0.17         55.1 
       970.0         0.17         54.0 
       971.0         0.20         53.8 
       972.0         0.17         55.5 
       973.0         0.13         63.4 
       974.0         0.13         70.2 
       975.0         0.10         82.7 
       976.0         0.17         95.3 
       977.0         0.17         95.3 
       978.0         0.17         95.0 
       979.0         0.13         95.0 
       980.0         0.17         89.3 
       981.0         0.17         85.3 
       982.0         0.17         78.1 
       983.0         0.12         78.1 
       984.0         0.20         75.9 
       985.0         0.27         74.5 
       986.0         0.87        178.2 
       987.0         0.30        263.2 
       988.0         0.33        294.4 
       989.0         0.43        271.8 
       990.0         0.30        229.0 
       991.0         0.23        195.8 
       992.0         0.28        165.3 
       993.0         0.17        138.7 
       994.0         0.17        129.9 
       995.0         0.20        109.0 
