~Version Information
VERS.                      2.0: CWLS Log ASCII Standard - VERSION 2.0
WRAP.                       NO: One line per depth step
~Well Information Block
STRT.FT               196.3000: 
STOP.FT              1631.0000: 
STEP.FT                 0.1000: 
NULL.                -999.2500: 
COMP.          Petrogulf Corporation: COMPANY
WELL.             State 16-44R: WELL
FLD.           Purgatoire River: FIELD
LOC.           632' FSL & 223' FEL--: LOCATION
PROV.                 Colorado: PROVINCE
CNTY.               Las Animas: COUNTRY
SRVC.                Patterson: SERVICE COMPANY
DATE.          Fri Oct 21 14:20:18 2005: LOG DATE
UWI.           05 071 08457 00: UNIQUE WELL ID
~Curve Information Block
DEPT.FT            0 000 00 00: Depth
DCAL.in                       : CDL Caliper
RHOB.g/cc                     : CDL Bulk Density
RHOC.g/cc                     : CDL Density Correction
DPOR.pu                       : CDL Density Porosity
NPOR.pu                       : Neutron Porosity
GR.GAPI                       : Gamma Ray
~Parameter Information Block
~A  Depth       DCAL        RHOB        RHOC        DPOR        NPOR         GR     
# ...
   484.3000      8.1130      2.5749      0.0704      4.5500     26.0224    116.0023
   484.4000      8.1130      2.5643      0.0894      5.1937     25.9237    114.0338
   484.5000      8.1084      2.5387      0.0326      6.7467     26.1359    115.4817
   484.6000      8.1084      2.5181     -0.0121      7.9955     26.5784    118.2052
   484.7000      8.1084      2.5193     -0.0119      7.9194     26.7949    117.6891
   484.8000      8.1026      2.5332      0.0422      7.0795     26.7176    116.0908
   484.9000      8.1026      2.5461      0.0208      6.2989     26.5125    118.7273
   485.0000      8.0989      2.5615      0.0859      5.3662     26.4345    121.8520
   485.1000      8.0989      2.5751      0.1068      4.5380     26.6603    122.3962
   485.2000      8.0989      2.5743      0.0801      4.5873     27.1043    122.8617
   485.3000      8.0984      2.5619      0.0600      5.3389     27.6414    121.6097
   485.4000      8.0984      2.5512      0.0607      5.9867     28.0191    118.5393
   485.5000      8.0992      2.5520      0.0352      5.9376     28.0866    118.7265
   485.6000      8.0992      2.5641      0.0628      5.2059     28.2404    121.6206
   485.7000      8.0992      2.5719      0.0955      4.7311     28.8468    124.3732
   485.8000      8.0982      2.5678      0.0093      4.9796     29.4962    124.6705
   485.9000      8.0982      2.5637      0.0353      5.2296     29.7579    120.9463
   486.0000      8.0970      2.5612      0.0112      5.3791     30.0594    118.7666
   486.1000      8.0970      2.5526      0.0513      5.9059     30.5048    122.0404
   486.2000      8.0970      2.5389      0.0056      6.7362     30.4087    126.0133
   486.3000      8.1005      2.5321      0.0144      7.1463     29.8775    127.2696
   486.4000      8.1005      2.5396      0.0235      6.6930     29.5934    128.0968
   486.5000      8.1092      2.5512      0.0239      5.9882     29.5961    129.1769
   486.6000      8.1092      2.5496      0.0347      6.0871     29.6636    129.3050
   486.7000      8.1092      2.5354      0.0013      6.9459     29.5289    130.0619
   486.8000      8.1198      2.5294     -0.0229      7.3081     28.8133    130.8729
   486.9000      8.1198      2.5388      0.0348      6.7389     27.5521    129.6631
   487.0000      8.1248      2.5453      0.0568      6.3447     26.3799    128.0913
   487.1000      8.1248      2.5356      0.0566      6.9317     25.6116    126.9686
   487.2000      8.1248      2.5175      0.0330      8.0300     24.7329    124.6535
   487.3000      8.1245      2.5024      0.0530      8.9433     23.6892    121.1487
   487.4000      8.1245      2.4980      0.0028      9.2145     23.0876    119.2885
   487.5000      8.1246      2.5103      0.0238      8.4686     22.7413    121.0454
   487.6000      8.1246      2.5330      0.0720      7.0938     22.2280    122.6323
   487.7000      8.1246      2.5481      0.0648      6.1766     21.8077    119.3552
   487.8000      8.1263      2.5500      0.0480      6.0605     21.8886    113.0747
   487.9000      8.1263      2.5490      0.0415      6.1230     22.3416    107.4671
   488.0000      8.1275      2.5487      0.0804      6.1373     22.6824    102.0422
   488.1000      8.1275      2.5531      0.0108      5.8697     22.9465     97.6702
   488.2000      8.1275      2.5746      0.0350      4.5670     23.4628     96.8311
   488.3000      8.1267      2.6042      0.1063      2.7729     24.0575     99.0629
   488.4000      8.1267      2.6212      0.0770      1.7471     24.4880    101.4787
   488.5000      8.1236      2.6235      0.1046      1.6079     24.7874     98.9125
   488.6000      8.1236      2.6187      0.0728      1.8969     24.6734     91.0268
   488.7000      8.1236      2.6149      0.0906      2.1249     23.9437     83.8442
   488.8000      8.1180      2.6177      0.1003      1.9554     23.1400     81.5642
   488.9000      8.1180      2.6238      0.1277      1.5902     22.5880     82.1203
   489.0000      8.1113      2.6266      0.0880      1.4199     22.1094     79.9119
   489.1000      8.1113      2.6250      0.1057      1.5134     21.6537     75.7027
   489.2000      8.1113      2.6170      0.0577      2.0020     21.2914     74.8462
   489.3000      8.1114      2.5987      0.0638      3.1108     21.2508     76.3807
   489.4000      8.1114      2.5778      0.0046      4.3775     21.4981     76.5145
   489.5000      8.1213      2.5677      0.0228      4.9879     21.7508     74.6940
   489.6000      8.1213      2.5694      0.0209      4.8878     22.0815     71.7427
   489.7000      8.1213      2.5793      0.0072      4.2848     22.4736     68.7448
   489.8000      8.1352      2.5886      0.0673      3.7184     22.4739     66.8020
   489.9000      8.1352      2.5849      0.0424      3.9455     22.1623     68.6539
   490.0000      8.1488      2.5758      0.0223      4.4969     21.9018     75.0253
   490.1000      8.1488      2.5712      0.0506      4.7776     21.6359     81.0270
   490.2000      8.1488      2.5621      0.0405      5.3294     21.4398     81.3319
   490.3000      8.1547      2.5446      0.0433      6.3899     21.6538     77.0723
   490.4000      8.1547      2.5297      0.0131      7.2885     22.3107     73.3838
   490.5000      8.1551      2.5307     -0.0018      7.2306     22.9806     74.0265
   490.6000      8.1551      2.5503      0.0061      6.0452     23.2893     78.8509
   490.7000      8.1551      2.5759      0.0368      4.4885     23.1348     82.7885
   490.8000      8.1572      2.5869      0.0698      3.8235     22.6623     83.4224
   490.9000      8.1572      2.5738      0.0954      4.6157     22.2646     83.1141
   491.0000      8.1589      2.5511      0.0630      5.9932     22.2131     82.2327
   491.1000      8.1589      2.5392      0.0703      6.7126     22.4009     81.2434
   491.2000      8.1589      2.5408      0.0517      6.6187     22.6667     82.6267
   491.3000      8.1573      2.5470      0.0513      6.2439     22.9969     85.5398
   491.4000      8.1573      2.5547      0.0230      5.7763     23.0926     85.7780
   491.5000      8.1562      2.5629      0.0373      5.2818     22.4457     80.9057
   491.6000      8.1562      2.5674     -0.0013      5.0037     21.2413     75.0171
   491.7000      8.1562      2.5680      0.0052      4.9714     19.9439     74.3572
   491.8000      8.1616      2.5601      0.0116      5.4480     18.8640     77.6692
   491.9000      8.1616      2.5390      0.0359      6.7292     18.3139     78.0585
   492.0000      8.1720      2.5167      0.0098      8.0766     18.2532     73.5913
   492.1000      8.1720      2.5161      0.0130      8.1123     18.5316     68.9437
   492.2000      8.1720      2.5408      0.0572      6.6209     19.1082     67.5389
   492.3000      8.1805      2.5693      0.0365      4.8893     19.6290     69.2000
   492.4000      8.1805      2.5911      0.0362      3.5673     19.6802     71.3638
   492.5000      8.1857      2.6155      0.0166      2.0932     19.3852     71.4863
   492.6000      8.1857      2.6365      0.0770      0.8154     19.1782     70.6241
   492.7000      8.1857      2.6276      0.0805      1.3575     19.2400     68.4136
   492.8000      8.1875      2.5878      0.0265      3.7679     19.4467     64.7045
   492.9000      8.1875      2.5534     -0.0227      5.8557     19.4998     62.5138
   493.0000      8.1873      2.5494      0.0022      6.0983     19.1573     63.6750
   493.1000      8.1873      2.5613      0.0363      5.3756     18.6443     69.1645
   493.2000      8.1873      2.5632     -0.0052      5.2605     18.4232     74.5141
   493.3000      8.1866      2.5520     -0.0486      5.9398     18.4922     73.0435
   493.4000      8.1866      2.5396     -0.0236      6.6934     18.4900     67.6358
   493.5000      8.1861      2.5364     -0.0095      6.8851     18.2521     64.2345
   493.6000      8.1861      2.5402      0.0660      6.6519     17.7473     64.2056
   493.7000      8.1861      2.5316      0.0721      7.1755     16.8565     64.1876
   493.8000      8.1854      2.5060      0.0323      8.7298     15.8784     62.0647
