~Version Information
VERS.                      2.0: CWLS Log ASCII Standard - VERSION 2.0
WRAP.                       NO: One line per depth step
~Well Information Block
STRT.FT               655.0000: 
STOP.FT              2623.7500: 
STEP.FT                 0.2500: 
NULL.                -999.2500: 
COMP.          Pioneer Natural Resources: COMPANY
WELL.             Aviator 12-4: WELL
FLD.           Purgatoire River: FIELD
LOC.           1969' FNL & 732' FWL--: LOCATION
CNTY.               Las Animas: COUNTY
SRVC.                Patterson: SERVICE COMPANY
DATE.          Sun Apr 09 14:25:03 2006: LOG DATE
UWI.           05 071 08714 00: UNIQUE WELL ID
STAT.                 Colorado: STATE
~Curve Information Block
DEPT.FT            0 000 00 00: Depth
SN.Ohm-m                      : IEL Short Normal
SP.mV                         : IEL Spontaneous Potential
DIR.Ohm-m                     : IEL Induction Resistivity
GR.GAPI                       : Gamma Ray
~Parameter Information Block
~A  Depth        SN          SP         DIR          GR     
# ...
  1827.5000      8.4070      9.0667      7.3559    158.2782
  1827.7500      8.7221      9.0750      7.4826    159.0739
  1828.0000      8.9781      9.0819      7.6436    158.8410
  1828.2500      9.1649      9.0932      7.8276    157.7619
  1828.5000      9.3084      9.1133      8.0258    154.6725
  1828.7500      9.4409      9.1447      8.2338    151.5726
  1829.0000      9.5887      9.1871      8.4518    146.2371
  1829.2500      9.7644      9.2370      8.6813    143.3401
  1829.5000      9.9740      9.2884      8.9229    141.3392
  1829.7500     10.2218      9.3332      9.1750    141.2239
  1830.0000     10.4979      9.3629      9.4341    141.0334
  1830.2500     10.7776      9.3698      9.6961    140.1516
  1830.5000     11.0402      9.3489      9.9564    137.7474
  1830.7500     11.2767      9.2983     10.2102    135.7760
  1831.0000     11.4821      9.2204     10.4539    132.6229
  1831.2500     11.6623      9.1210     10.6881    130.4065
  1831.5000     11.8479      9.0079     10.9195    126.7416
  1831.7500     12.0796      8.8893     11.1615    123.9835
  1832.0000     12.3852      8.7715     11.4302    119.6697
  1832.2500     12.7737      8.6581     11.7386    117.2324
  1832.5000     13.2258      8.5492     12.0906    115.4698
  1832.7500     13.6890      8.4434     12.4778    115.9294
  1833.0000     14.0999      8.3389     12.8793    118.3984
  1833.2500     14.4107      8.2363     13.2669    120.2354
  1833.5000     14.5982      8.1394     13.6125    121.6529
  1833.7500     14.6717      8.0556     13.8962    121.2929
  1834.0000     14.6686      7.9948     14.1116    119.0309
  1834.2500     14.6313      7.9680     14.2651    116.8365
  1834.5000     14.5899      7.9846     14.3694    113.7060
  1834.7500     14.5641      8.0508     14.4358    112.6277
  1835.0000     14.5674      8.1688     14.4678    113.9221
  1835.2500     14.5889      8.3358     14.4603    117.0094
  1835.5000     14.5776      8.5443     14.4022    124.0569
  1835.7500     14.4701      8.7835     14.2835    129.1552
  1836.0000     14.2399      9.0397     14.1009    135.3179
  1836.2500     13.9045      9.2986     13.8613    138.0634
  1836.5000     13.5107      9.5462     13.5804    141.3686
  1836.7500     13.1220      9.7710     13.2786    144.0101
  1837.0000     12.7909      9.9645     12.9767    148.8057
  1837.2500     12.5317     10.1225     12.6911    151.6021
  1837.5000     12.3263     10.2440     12.4299    153.1080
  1837.7500     12.1321     10.3317     12.1912    151.8221
  1838.0000     11.8961     10.3899     11.9654    147.6230
  1838.2500     11.5958     10.4243     11.7423    144.6734
  1838.5000     11.2610     10.4407     11.5177    141.6925
  1838.7500     10.9461     10.4443     11.2960    140.7519
  1839.0000     10.6919     10.4401     11.0852    140.1988
  1839.2500     10.5092     10.4322     10.8903    140.0056
  1839.5000     10.3820     10.4244     10.7081    139.5406
  1839.7500     10.2869     10.4202     10.5296    138.9631
  1840.0000     10.2095     10.4230     10.3459    137.8123
  1840.2500     10.1370     10.4356     10.1536    137.1455
  1840.5000     10.0580     10.4597      9.9551    136.7220
  1840.7500      9.9751     10.4957      9.7549    136.8001
  1841.0000      9.8918     10.5421      9.5567    137.1115
  1841.2500      9.8006     10.5957      9.3628    137.3689
  1841.5000      9.6989     10.6523      9.1765    138.2159
  1841.7500      9.5944     10.7079      9.0030    139.4424
  1842.0000      9.4920     10.7599      8.8473    142.3370
  1842.2500      9.3902     10.8086      8.7114    144.5028
  1842.5000      9.2842     10.8568      8.5924    147.1036
  1842.7500      9.1730     10.9099      8.4842    148.2164
  1843.0000      9.0677     10.9744      8.3812    149.4009
  1843.2500      8.9835     11.0562      8.2799    150.2695
  1843.5000      8.9207     11.1599      8.1797    152.1924
  1843.7500      8.8619     11.2869      8.0813    153.9024
  1844.0000      8.7866     11.4360      7.9860    156.3235
  1844.2500      8.6897     11.6027      7.8963    157.0970
  1844.5000      8.5857     11.7801      7.8145    156.4068
  1844.7500      8.4910     11.9601      7.7427    155.1662
  1845.0000      8.4078     12.1338      7.6814    153.5323
  1845.2500      8.3274     12.2933      7.6297    153.0264
  1845.5000      8.2404     12.4323      7.5852    152.8381
  1845.7500      8.1482     12.5471      7.5442    152.7054
  1846.0000      8.0655     12.6366      7.5027    152.4771
  1846.2500      8.0092     12.7016      7.4582    152.8269
  1846.5000      7.9857     12.7439      7.4113    155.0087
  1846.7500      7.9844     12.7657      7.3671    157.3565
  1847.0000      7.9869     12.7686      7.3335    160.4538
  1847.2500      7.9893     12.7536      7.3187    161.2493
  1847.5000      8.0032     12.7217      7.3291    160.4376
  1847.7500      8.0367     12.6746      7.3674    159.2515
  1848.0000      8.0878     12.6151      7.4320    157.5365
  1848.2500      8.1517     12.5482      7.5188    156.5590
  1848.5000      8.2323     12.4799      7.6227    155.1732
  1848.7500      8.3391     12.4170      7.7407    154.2390
  1849.0000      8.4753     12.3661      7.8718    152.7027
  1849.2500      8.6349     12.3325      8.0165    151.4959
  1849.5000      8.8114     12.3193      8.1743    149.4553
  1849.7500      8.9996     12.3278      8.3421    148.1367
  1850.0000      9.1912     12.3576      8.5133    146.5814
  1850.2500      9.3654     12.4067      8.6789    145.7805
  1850.5000      9.4919     12.4728      8.8290    144.1881
  1850.7500      9.5610     12.5531      8.9546    142.3470
  1851.0000      9.5966     12.6452      9.0505    138.5569
  1851.2500      9.6280     12.7468      9.1154    136.3516
  1851.5000      9.6569     12.8560      9.1522    135.7756
  1851.7500      9.6707     12.9710      9.1669    137.7056
  1852.0000      9.6707     13.0904      9.1672    142.4212
  1852.2500      9.6631     13.2125      9.1609    145.0162
  1852.5000      9.6415     13.3350      9.1537    146.1084
  1852.7500      9.6037     13.4555      9.1478    145.1541
  1853.0000      9.5735     13.5705      9.1427    143.0569
  1853.2500      9.5826     13.6760      9.1384    142.2055
  1853.5000      9.6358     13.7678      9.1384    142.0154
  1853.7500      9.7106     13.8419      9.1513    142.0435
  1854.0000      9.7909     13.8948      9.1886    141.2216
  1854.2500      9.8901     13.9237      9.2636    139.8214
  1854.5000     10.0442     13.9269      9.3888    136.5025
  1854.7500     10.2894     13.9032      9.5747    133.6450
  1855.0000     10.6418     13.8514      9.8277    128.7756
  1855.2500     11.0911     13.7703     10.1507    125.3493
  1855.5000     11.6122     13.6578     10.5451    120.1681
  1855.7500     12.1876     13.5116     11.0124    116.8739
  1856.0000     12.8168     13.3291     11.5559    112.7713
  1856.2500     13.5108     13.1088     12.1790    110.9162
  1856.5000     14.2810     12.8514     12.8827    109.3901
  1856.7500     15.1273     12.5603     13.6638    108.6844
  1857.0000     16.0486     12.2427     14.5157    106.7619
  1857.2500     17.0665     11.9086     15.4322    104.5060
  1857.5000     18.2228     11.5706     16.4119    100.5689
  1857.7500     19.5526     11.2420     17.4593     98.6646
  1858.0000     21.0601     10.9360     18.5787     97.7529
  1858.2500     22.6920     10.6643     19.7646     97.8434
  1858.5000     24.3349     10.4371     20.9912     97.2317
  1858.7500     25.8487     10.2625     22.2108     95.7616
  1859.0000     27.1217     10.1463     23.3656     92.3629
  1859.2500     28.1453     10.0918     24.4111     90.0166
  1859.5000     29.0408     10.0985     25.3386     87.6902
  1859.7500     29.9650     10.1625     26.1761     87.4214
  1860.0000     30.9636     10.2756     26.9679     88.7370
  1860.2500     31.9291     10.4262     27.7464     89.9898
  1860.5000     32.7106     10.6006     28.5134     90.9269
  1860.7500     33.2404     10.7839     29.2428     90.6788
