~Version Information
VERS.                      2.0: CWLS Log ASCII Standard - VERSION 2.0
WRAP.                       NO: One line per depth step
~Well Information Block
STRT.FT                10.0000: 
STOP.FT              1044.5000: 
STEP.FT                 0.1000: 
NULL.                -999.2500: 
COMP.          Pioneer Natural Resources: COMPANY
WELL.          Stags Leap 13-30: WELL
FLD.           Purgatorie River: FIELD
LOC.           1813' FSL & 117' FWL: LOCATION
PROV.                 Colorado: PROVINCE
CNTY.               Las Animas: COUNTRY
SRVC.                Patterson: SERVICE COMPANY
DATE.          Fri Dec 09 09:46:17 2005: LOG DATE
UWI.                          : UNIQUE WELL ID
~Curve Information Block
DEPT.FT            0 000 00 00: Depth
DCAL.in                       : CDL Caliper
RHOB.g/cc                     : CDL Bulk Density
RHOC.g/cc                     : CDL Density Correction
DPOR.pu                       : CDL Density Porosity
GR.GAPI                       : Gamma Ray
NPOR.pu                       : Neutron Porosity
~Parameter Information Block
~A  Depth       DCAL        RHOB        RHOC        DPOR         GR         NPOR    
# ...
  1027.6000      8.0263      2.5685      0.0249      4.9399     99.5964   -999.2500
  1027.7000      8.0263      2.5746      0.0026      4.5708    101.5844   -999.2500
  1027.8000      8.0326      2.5765      0.0224      4.4527    103.4572   -999.2500
  1027.9000      8.0326      2.5726      0.0427      4.6892    103.8232   -999.2500
  1028.0000      8.0284      2.5688      0.0179      4.9194    104.5121   -999.2500
  1028.1000      8.0284      2.5805      0.0273      4.2135    106.3599   -999.2500
  1028.2000      8.0284      2.6072      0.0697      2.5945    107.7367   -999.2500
  1028.3000      8.0277      2.6293      0.0673      1.2574    108.2277   -999.2500
  1028.4000      8.0277      2.6354      0.0761      0.8845    107.5073   -999.2500
  1028.5000      8.0245      2.6284      0.0504      1.3116    104.0807   -999.2500
  1028.6000      8.0245      2.6157      0.0152      2.0789     98.8244   -999.2500
  1028.7000      8.0245      2.6033      0.0292      2.8309     95.2116   -999.2500
  1028.8000      8.0061      2.5900      0.0031      3.6380     93.9427   -999.2500
  1028.9000      8.0061      2.5763     -0.0217      4.4681     92.7746   -999.2500
  1029.0000      8.0449      2.5672      0.0091      5.0172     93.2365   -999.2500
  1029.1000      8.0449      2.5613      0.0137      5.3732     96.3553   -999.2500
  1029.2000      8.0449      2.5533      0.0041      5.8595     97.1204   -999.2500
  1029.3000      8.0543      2.5456     -0.0493      6.3269     94.5474   -999.2500
  1029.4000      8.0543      2.5487     -0.0345      6.1413     94.1189   -999.2500
  1029.5000      8.0307      2.5677      0.0029      4.9906     96.9161   -999.2500
  1029.6000      8.0307      2.5871      0.0560      3.8127     99.6900   -999.2500
  1029.7000      8.0307      2.5830      0.0395      4.0582    101.9810   -999.2500
  1029.8000      8.0039      2.5552     -0.0009      5.7428    105.5254   -999.2500
  1029.9000      8.0039      2.5274      0.0113      7.4329    109.1004   -999.2500
  1030.0000      7.9998      2.5155      0.0227      8.1528    108.7886   -999.2500
  1030.1000      7.9998      2.5208     -0.0210      7.8319    105.1059   -999.2500
  1030.2000      7.9998      2.5368      0.0201      6.8628    103.9184   -999.2500
  1030.3000      7.9926      2.5463      0.0956      6.2855    106.6022   -999.2500
  1030.4000      7.9926      2.5411      0.0253      6.6003    107.2885   -999.2500
  1030.5000      7.9922      2.5347      0.0314      6.9879    102.7947   -999.2500
  1030.6000      7.9922      2.5353      0.0161      6.9536     91.8517   -999.2500
  1030.7000      7.9922      2.5389      0.0391      6.7335     67.7889   -999.2500
  1030.8000      8.0218      2.5432     -0.0028      6.4698     34.9027   -999.2500
  1030.9000      8.0218      2.5454      0.0308      6.3408     11.0883   -999.2500
  1031.0000      8.0037      2.5391      0.0456      6.7183      2.0243   -999.2500
  1031.1000      8.0037      2.5289      0.0238      7.3411      0.2040   -999.2500
  1031.2000      8.0037      2.5317      0.0060      7.1718      0.0108   -999.2500
  1031.3000      8.0010      2.5470      0.0716      6.2409      0.0000   -999.2500
  1031.4000      8.0010      2.5552      0.0278      5.7445   -999.2500   -999.2500
  1031.5000      8.0044      2.5533      0.0251      5.8629   -999.2500   -999.2500
  1031.6000      8.0044      2.5510      0.0413      6.0030   -999.2500   -999.2500
  1031.7000      8.0044      2.5524      0.0301      5.9153   -999.2500   -999.2500
  1031.8000      8.0088      2.5571      0.0337      5.6280   -999.2500   -999.2500
  1031.9000      8.0088      2.5665      0.0318      5.0634   -999.2500   -999.2500
  1032.0000      7.9997      2.5815      0.0337      4.1517   -999.2500   -999.2500
  1032.1000      7.9997      2.5964      0.0630      3.2457   -999.2500   -999.2500
  1032.2000      7.9997      2.6007      0.0416      2.9887   -999.2500   -999.2500
  1032.3000      7.9966      2.5900      0.0227      3.6339   -999.2500   -999.2500
  1032.4000      7.9966      2.5722      0.0454      4.7131   -999.2500   -999.2500
  1032.5000      8.0163      2.5588      0.0225      5.5256   -999.2500   -999.2500
  1032.6000      8.0163      2.5560      0.0343      5.6950   -999.2500   -999.2500
  1032.7000      8.0163      2.5576      0.0393      5.6011   -999.2500   -999.2500
  1032.8000      8.0440      2.5522      0.0636      5.9253   -999.2500   -999.2500
  1032.9000      8.0440      2.5367      0.0189      6.8697   -999.2500   -999.2500
  1033.0000      8.0005      2.5182      0.0175      7.9860   -999.2500   -999.2500
  1033.1000      8.0005      2.5128     -0.0316      8.3169   -999.2500   -999.2500
  1033.2000      8.0005      2.5289      0.0222      7.3367   -999.2500   -999.2500
  1033.3000      7.9834      2.5553      0.0083      5.7380   -999.2500   -999.2500
  1033.4000      7.9834      2.5784      0.0457      4.3409   -999.2500   -999.2500
  1033.5000      7.9887      2.5901      0.0800      3.6314   -999.2500   -999.2500
  1033.6000      7.9887      2.5882      0.0929      3.7478   -999.2500   -999.2500
  1033.7000      7.9887      2.5768      0.0567      4.4350   -999.2500   -999.2500
  1033.8000      8.0412      2.5631      0.0261      5.2652   -999.2500   -999.2500
  1033.9000      8.0412      2.5528      0.0410      5.8896   -999.2500   -999.2500
  1034.0000      7.9965      2.5468      0.0245      6.2570   -999.2500   -999.2500
  1034.1000      7.9965      2.5510     -0.0022      6.0030   -999.2500   -999.2500
  1034.2000      7.9965      2.5688      0.0728      4.9234   -999.2500   -999.2500
  1034.3000      7.9801      2.5867      0.0691      3.8392   -999.2500   -999.2500
  1034.4000      7.9801      2.5949      0.0461      3.3397   -999.2500   -999.2500
  1034.5000      7.9615      2.5937      0.0913      3.4150   -999.2500   -999.2500
  1034.6000      7.9615      2.5812      0.0674      4.1710   -999.2500   -999.2500
  1034.7000      7.9615      2.5657      0.0202      5.1073   -999.2500   -999.2500
  1034.8000      7.9069      2.5627      0.0492      5.2890   -999.2500   -999.2500
  1034.9000      7.9069      2.5777      0.0562      4.3801   -999.2500   -999.2500
  1035.0000      7.8879      2.6035      0.1030      2.8201   -999.2500   -999.2500
  1035.1000      7.8879      2.6220      0.1052      1.6974   -999.2500   -999.2500
  1035.2000      7.8879      2.6207      0.0576      1.7785   -999.2500   -999.2500
  1035.3000      7.9414      2.6061      0.0609      2.6577   -999.2500   -999.2500
  1035.4000      7.9414      2.5950      0.0303      3.3355   -999.2500   -999.2500
  1035.5000      7.9430      2.5932      0.0734      3.4408   -999.2500   -999.2500
  1035.6000      7.9430      2.5937      0.0636      3.4099   -999.2500   -999.2500
  1035.7000      7.9430      2.5921      0.0368      3.5089   -999.2500   -999.2500
  1035.8000      7.9558      2.5898      0.0395      3.6470   -999.2500   -999.2500
  1035.9000      7.9558      2.5883      0.0540      3.7397   -999.2500   -999.2500
  1036.0000      8.0246      2.5902      0.0307      3.6232   -999.2500   -999.2500
  1036.1000      8.0246      2.5943      0.0205      3.3730   -999.2500   -999.2500
  1036.2000      8.0246      2.5920      0.0698      3.5161   -999.2500   -999.2500
  1036.3000      8.0061      2.5849      0.0257      3.9481   -999.2500   -999.2500
  1036.4000      8.0061      2.5860      0.0315      3.8814   -999.2500   -999.2500
  1036.5000      7.9803      2.5952      0.0477      3.3186   -999.2500   -999.2500
  1036.6000      7.9803      2.6032      0.0441      2.8366   -999.2500   -999.2500
  1036.7000      7.9803      2.6077      0.0548      2.5628   -999.2500   -999.2500
  1036.8000      7.9818      2.6133      0.0262      2.2265   -999.2500   -999.2500
  1036.9000      7.9818      2.6153      0.0909      2.1028   -999.2500   -999.2500
  1037.0000      7.9978      2.6044      0.0316      2.7643   -999.2500   -999.2500
  1037.1000      7.9978      2.5889      0.0412      3.7032   -999.2500   -999.2500
