~Version Information
VERS.                      2.0: CWLS Log ASCII Standard - VERSION 2.0
WRAP.                       NO: One line per depth step
~Well Information Block
STRT.FT               687.7500: 
STOP.FT              1252.7500: 
STEP.FT                 0.2500: 
NULL.                -999.2500: 
COMP.          Pioneer Natural Resources: COMPANY
WELL.          Rock Island 44-24 Tr: WELL
FLD.           Purgatoire River: FIELD
LOC.           814' FSL & 761' FEL--: LOCATION
CNTY.               Las Animas: COUNTY
SRVC.                Patterson: SERVICE COMPANY
DATE.          Wed Apr 19 21:31:44 2006: LOG DATE
UWI.           05 071 08680 00: UNIQUE WELL ID
STAT.                 Colorado: STATE
~Curve Information Block
DEPT.FT            0 000 00 00: Depth
DIR.Ohm-m                     : IEL Induction Resistivity
GR.GAPI                       : Gamma Ray
~Parameter Information Block
~A  Depth       DIR          GR     
# ...
  1078.0000     14.4766     95.0155
  1078.2500     14.9787     89.9306
  1078.5000     15.3986     80.2497
  1078.7500     15.7061     73.5606
  1079.0000     15.8978     65.6978
  1079.2500     15.9959     63.2438
  1079.5000     16.0327     64.9828
  1079.7500     16.0304     69.6060
  1080.0000     15.9920     80.0547
  1080.2500     15.9065     87.8744
  1080.5000     15.7624     98.4580
  1080.7500     15.5601    103.9222
  1081.0000     15.3151    109.4821
  1081.2500     15.0513    111.5889
  1081.5000     14.7921    112.4202
  1081.7500     14.5536    111.3923
  1082.0000     14.3440    107.9460
  1082.2500     14.1656    105.1041
  1082.5000     14.0179    101.4874
  1082.7500     13.8993    100.0199
  1083.0000     13.8088     99.2407
  1083.2500     13.7446     99.4176
  1083.5000     13.7028    100.4041
  1083.7500     13.6760    101.4469
  1084.0000     13.6552    103.2667
  1084.2500     13.6336    104.2647
  1084.5000     13.6096    104.6364
  1084.7500     13.5860    103.8699
  1085.0000     13.5661    101.5961
  1085.2500     13.5510     99.9839
  1085.5000     13.5394     98.4735
  1085.7500     13.5277     98.3179
  1086.0000     13.5104     99.2861
  1086.2500     13.4793    100.6477
  1086.5000     13.4232    103.6529
  1086.7500     13.3300    106.1093
  1087.0000     13.1915    109.8306
  1087.2500     13.0084    111.9511
  1087.5000     12.7926    114.2638
  1087.7500     12.5645    115.1741
  1088.0000     12.3460    115.4223
  1088.2500     12.1561    114.7277
  1088.5000     12.0076    112.5964
  1088.7500     11.9074    110.9019
  1089.0000     11.8590    108.8769
  1089.2500     11.8640    108.1226
  1089.5000     11.9227    107.6363
  1089.7500     12.0334    107.4881
  1090.0000     12.1889    107.4281
  1090.2500     12.3771    107.5786
  1090.5000     12.5839    108.0187
  1090.7500     12.7972    108.1810
  1091.0000     13.0089    107.5942
  1091.2500     13.2141    106.4687
  1091.5000     13.4089    104.1264
  1091.7500     13.5896    102.7639
  1092.0000     13.7549    101.9184
  1092.2500     13.9077    102.0952
  1092.5000     14.0562    102.4047
  1092.7500     14.2113    102.0294
  1093.0000     14.3824    100.6582
  1093.2500     14.5727     99.8272
  1093.5000     14.7762     99.5087
  1093.7500     14.9779     99.7043
  1094.0000     15.1570     99.5604
  1094.2500     15.2916     98.8963
  1094.5000     15.3636     97.8265
  1094.7500     15.3621     97.8427
  1095.0000     15.2847     99.5267
  1095.2500     15.1355    101.3579
  1095.5000     14.9203    104.0267
  1095.7500     14.6447    105.3820
  1096.0000     14.3152    106.7567
  1096.2500     13.9424    107.2284
  1096.5000     13.5431    107.0586
  1096.7500     13.1381    106.4281
  1097.0000     12.7477    105.5079
  1097.2500     12.3886    105.5007
  1097.5000     12.0729    106.7534
  1097.7500     11.8066    108.0738
  1098.0000     11.5894    109.6552
  1098.2500     11.4146    109.9678
  1098.5000     11.2717    109.5469
  1098.7500     11.1496    109.3538
  1099.0000     11.0409    110.2603
  1099.2500     10.9435    111.6623
  1099.5000     10.8591    114.0263
  1099.7500     10.7880    115.2444
  1100.0000     10.7252    116.2430
  1100.2500     10.6603    116.3702
  1100.5000     10.5804    115.7881
  1100.7500     10.4770    115.0399
  1101.0000     10.3493    113.8985
  1101.2500     10.2052    113.2887
  1101.5000     10.0569    112.5210
  1101.7500      9.9163    112.1898
  1102.0000      9.7909    112.5531
  1102.2500      9.6841    113.5546
  1102.5000      9.5971    115.5874
  1102.7500      9.5300    116.6042
  1103.0000      9.4834    116.8527
  1103.2500      9.4579    116.3085
  1103.5000      9.4546    115.4330
  1103.7500      9.4737    115.3267
  1104.0000      9.5145    115.7728
  1104.2500      9.5740    115.8445
  1104.5000      9.6488    114.5252
  1104.7500      9.7372    112.6252
  1105.0000      9.8402    109.3356
  1105.2500      9.9608    107.8263
  1105.5000     10.1022    107.8030
  1105.7500     10.2661    109.2713
  1106.0000     10.4522    112.2262
  1106.2500     10.6589    113.4043
  1106.5000     10.8863    112.4881
  1106.7500     11.1382    110.1842
  1107.0000     11.4226    105.7784
  1107.2500     11.7476    103.3785
  1107.5000     12.1149    101.8459
  1107.7500     12.5151    102.1407
  1108.0000     12.9263    103.3672
  1108.2500     13.3204    103.9782
  1108.5000     13.6724    104.2398
  1108.7500     13.9674    104.3118
  1109.0000     14.2009    104.9636
  1109.2500     14.3717    105.8127
  1109.5000     14.4758    107.1354
  1109.7500     14.5056    107.6771
  1110.0000     14.4572    107.9725
  1110.2500     14.3402    108.2286
  1110.5000     14.1835    109.3647
  1110.7500     14.0287    110.5320
  1111.0000     13.9174    111.9956
  1111.2500     13.8789    112.3292
  1111.5000     13.9254    111.7046
  1111.7500     14.0558    110.5378
  1112.0000     14.2651    107.3894
  1112.2500     14.5536    104.2970
  1112.5000     14.9320     98.9902
  1112.7500     15.4163     96.0266
  1113.0000     16.0164     94.0175
  1113.2500     16.7195     94.3952
  1113.5000     17.4706     96.0069
  1113.7500     18.1603     96.5197
  1114.0000     18.6383     95.1359
  1114.2500     18.7702     92.9296
  1114.5000     18.5152     89.4074
  1114.7500     17.9565     88.2902
  1115.0000     17.2514     90.0144
  1115.2500     16.5507     93.2584
  1115.5000     15.9530     99.3489
  1115.7500     15.5035    102.9764
  1116.0000     15.2150    106.8954
  1116.2500     15.0839    108.8355
  1116.5000     15.0960    111.6513
  1116.7500     15.2255    113.4418
  1117.0000     15.4319    114.7659
  1117.2500     15.6634    113.9860
  1117.5000     15.8661    110.4734
  1117.7500     15.9914    107.6134
  1118.0000     15.9985    104.5941
  1118.2500     15.8504    103.9575
  1118.5000     15.5149    104.7209
  1118.7500     14.9767    106.0935
  1119.0000     14.2535    110.0370
  1119.2500     13.4006    114.7814
  1119.5000     12.4941    125.5045
  1119.7500     11.6060    133.6603
  1120.0000     10.7867    142.8216
  1120.2500     10.0632    144.7536
  1120.5000      9.4441    141.6288
  1120.7500      8.9276    137.7059
  1121.0000      8.5052    133.0847
  1121.2500      8.1650    131.9199
  1121.5000      7.8931    132.6402
  1121.7500      7.6752    134.0231
  1122.0000      7.4976    136.2108
  1122.2500      7.3491    137.0098
  1122.5000      7.2217    136.1986
  1122.7500      7.1125    134.3803
  1123.0000      7.0248    131.1901
  1123.2500      6.9685    129.6648
  1123.5000      6.9583    128.6581
  1123.7500      7.0109    128.5431
  1124.0000      7.1423    128.8253
  1124.2500      7.3659    129.2791
  1124.5000      7.6918    130.3952
  1124.7500      8.1278    131.5780
  1125.0000      8.6808    134.4681
  1125.2500      9.3612    137.1992
  1125.5000     10.1901    141.6225
  1125.7500     11.2076    143.6586
  1126.0000     12.4785    142.8785
  1126.2500     14.0888    138.6701
  1126.5000     16.1305    126.6704
  1126.7500     18.6672    116.0075
  1127.0000     21.6772     98.9769
  1127.2500     24.9861     88.4201
  1127.5000     28.2410     75.0827
  1127.7500     30.9972     67.9446
  1128.0000     32.9174     59.4922
  1128.2500     33.9437     55.2577
  1128.5000     34.2904     51.5112
  1128.7500     34.2801     51.2466
  1129.0000     34.1690     54.3247
  1129.2500     34.0546     57.9080
  1129.5000     33.8691     63.2120
  1129.7500     33.4377     65.5250
  1130.0000     32.5754     66.7213
  1130.2500     31.1859     66.6625
  1130.5000     29.3123     67.0114
  1130.7500     27.1202     68.3564
  1131.0000     24.8299     72.8062
  1131.2500     22.6439     77.5535
  1131.5000     20.6970     87.2911
  1131.7500     19.0425     95.2075
  1132.0000     17.6664    107.7068
  1132.2500     16.5178    114.9545
  1132.5000     15.5411    121.5070
  1132.7500     14.6985    122.2456
  1133.0000     13.9771    118.9751
  1133.2500     13.3820    115.5196
  1133.5000     12.9215    111.2818
