~Version Information
VERS.                                  2.0 : CWLS LAS VERSION
WRAP.                                   NO : WRAPING MODE
SWARE .                  MController 2.5.1 : SOFTWARE VERSION
~Well Information
WELL.                  Horesfeathers 24-34 : WELL
COMP.  Pioneer Natural Resources USA, Inc. : COMPANY
FLD.                      Purgatoire River : FIELD
LOC.                      SE/SW 34-32S-67W : LOCATION
DATE.                02/03/2006-02/05/2006 : DATE(S) LOGGED
SRVC.                  Entrada GeoSciences : SERVICE COMPANY
STAT.                             Colorado : STATE
CNTY.                           Las Animas : COUNTY
CTRY.                        United States : COUNTRY
API.                          05-071-xxxxx : API NUMBER
STRT.FT                             514.00 : START DEPTH
STOP.FT                            2575.00 : STOP DEPTH
STEP.FT                               1.00 : DEPTH INCREMENT
NULL.                                -9999 : NULL VALUE
~Curve information
DEPTH.FT                                   :
ROP.MIN/FT                                 :
GAS.UNITS                                  :
~ASCII Log data
# ...
      720.00         0.20         15.9
      721.00         0.20         15.9
      722.00         0.17         15.7
      723.00         0.17         15.7
      724.00         0.17         16.0
      725.00         0.17         16.1
      726.00         0.17         16.3
      727.00         0.17         16.3
      728.00         0.20         16.4
      729.00         0.17         16.3
      730.00         0.17         16.3
      731.00         0.20         16.5
      732.00         0.23         16.6
      733.00         0.20         16.5
      734.00         0.23         16.8
      735.00         0.25         16.6
      736.00         0.23         16.3
      737.00         0.27         16.9
      738.00         0.20         16.5
      739.00         0.23         16.7
      740.00         0.23         16.7
      741.00         0.33         16.5
      742.00         0.23         17.1
      743.00         0.23         16.8
      744.00         0.20         17.1
      745.00         0.20         16.6
      746.00         0.20         16.8
      747.00         0.20         16.7
      748.00         0.17         16.8
      749.00         0.17         16.8
      750.00         0.17         16.6
      751.00         0.17         16.6
      752.00         0.20         16.6
      753.00         0.22         16.6
      754.00         0.20         17.0
      755.00         0.23         16.8
      756.00         0.23         16.4
      757.00         0.20         16.8
      758.00         0.20         16.9
      759.00         0.30         16.9
      760.00         0.30         16.3
      761.00         0.30         16.5
      762.00         0.33         16.6
      763.00         0.27         16.7
      764.00         0.33         16.8
      765.00         0.23         16.7
      766.00         0.32         17.2
      767.00         0.20         17.0
      768.00         0.20         17.9
      769.00         0.20         17.4
      770.00         0.33         18.7
      771.00         0.40         17.0
      772.00         0.22         17.1
      773.00         0.17         17.3
      774.00         0.17         17.0
      775.00         0.20         16.6
      776.00         0.23         17.0
      777.00         0.20         17.0
      778.00         0.20         17.0
      779.00         0.20         16.9
      780.00         0.23         16.9
      781.00         0.27         16.4
      782.00         0.23         17.0
      783.00         0.27         16.8
      784.00         0.23         17.3
      785.00         0.27         17.1
      786.00         0.20         17.1
      787.00         0.25         17.3
      788.00         0.20         16.9
      789.00         0.17         17.1
      790.00         0.17         17.0
      791.00         0.20         16.9
      792.00         0.20         16.9
      793.00         0.20         17.1
      794.00         0.17         17.1
      795.00         0.20         17.3
      796.00         0.20         17.3
      797.00         0.17         17.1
      798.00         0.20         16.9
      799.00         0.20         17.3
      800.00         0.27         17.1
      801.00         0.27         17.4
      802.00         0.20         17.3
      803.00         0.20         17.5
      804.00         0.17         17.3
      805.00         0.20         17.3
      806.00         0.20         17.5
      807.00         0.20         17.6
      808.00         0.27         17.4
      809.00         0.20         17.4
      810.00         0.23         17.4
      811.00         0.25         17.5
      812.00         0.27         16.9
      813.00         0.27         17.2
      814.00         0.27         17.2
      815.00         0.30         17.2
      816.00         0.27         17.7
      817.00         0.27         17.2
      818.00         0.27         17.1
      819.00         0.23         17.3
      820.00         0.17         17.3
      821.00         0.30         17.3
      822.00         0.23         16.9
      823.00         0.20         17.4
      824.00         0.28         17.1
      825.00         0.27         17.3
      826.00         0.30         17.3
      827.00         0.23         17.1
      828.00         0.23         16.7
      829.00         0.20         16.8
      830.00         0.30         16.8
      831.00         0.33         17.9
      832.00         0.23         17.4
      833.00         0.20         17.7
      834.00         0.23         17.8
      835.00         0.33         17.8
      836.00         0.27         17.7
      837.00         0.27         17.2
      838.00         0.23         17.6
      839.00         0.23         17.7
      840.00         0.23         17.6
      841.00         0.25         17.7
      842.00         0.30         17.7
      843.00         0.23         17.4
      844.00         0.23         17.6
      845.00         0.23         18.1
      846.00         0.27         17.6
      847.00         0.23         18.0
      848.00         0.20         17.6
      849.00         0.20         17.5
      850.00         0.17         17.5
      851.00         0.13         17.5
      852.00         0.17         17.6
      853.00         0.17         17.7
      854.00         0.17         18.0
      855.00         0.20         17.9
      856.00         0.20         18.2
      857.00         0.18         18.2
      858.00         0.20         18.0
      859.00         0.13         17.9
      860.00         0.27         17.9
      861.00         0.27         18.0
      862.00         0.30         17.9
      863.00         0.28         17.1
      864.00         0.17         17.1
      865.00         0.23         17.9
      866.00         0.23         18.1
      867.00         0.23         17.7
      868.00         0.27         18.0
      869.00         0.23         17.9
      870.00         0.23         18.0
      871.00         0.23         17.8
      872.00         0.23         17.0
      873.00         0.30         17.2
      874.00         0.33         17.0
      875.00         0.43         17.1
      876.00         0.25         17.6
      877.00         0.23         17.6
      878.00         0.23         17.3
      879.00         0.20         17.1
      880.00         0.23         17.0
      881.00         0.23         17.2
      882.00         0.20         17.0
      883.00         0.23         17.3
      884.00         0.20         17.3
      885.00         0.23         19.7
      886.00         0.10         19.7
      887.00         0.13         38.3
      888.00         0.17         53.0
      889.00         0.17         53.0
      890.00         0.17         60.9
      891.00         0.43         62.4
      892.00         0.23         16.7
      893.00         0.23         17.8
      894.00         0.23         17.6
      895.00         0.20         17.3
      896.00         0.27         17.0
      897.00         0.23         16.7
      898.00         0.28         16.2
      899.00         0.27         16.6
      900.00         0.20         16.9
      901.00         0.17         16.7
      902.00         0.13         16.8
      903.00         0.17         16.9
      904.00         0.17         16.9
      905.00         0.17         16.8
      906.00         0.17         16.9
      907.00         0.20         17.1
      908.00         0.23         17.5
      909.00         0.20         17.1
      910.00         0.20         17.1
      911.00         0.23         17.2
      912.00         0.23         17.4
      913.00         0.23         16.9
      914.00         0.30         16.5
      915.00         0.25         16.4
      916.00         0.23         16.7
      917.00         0.20         16.7
      918.00         0.20         16.8
      919.00         0.20         16.6
      920.00         0.20         16.8
      921.00         0.20         16.3
      922.00         0.37         16.4
      923.00         0.30         16.5
      924.00         0.53         16.5
      925.00         0.23         15.6
