~Version Information
VERS.                      2.0: CWLS Log ASCII Standard - VERSION 2.0
WRAP.                       NO: One line per depth step
~Well Information Block
STRT.FT               570.0000: 
STOP.FT              1958.5000: 
STEP.FT                 0.2500: 
NULL.                -999.2500: 
COMP.          Petrogulf Corporation: COMPANY
WELL.            Montoya 7-14R: WELL
FLD.           Purgatorie River: FIELD
LOC.           628' FSL & 454' FWL: LOCATION
PROV.                 Colorado: PROVINCE
CNTY.               Las Animas: COUNTRY
SRVC.                Patterson: SERVICE COMPANY
DATE.          Sat Oct 08 17:13:52 2005: LOG DATE
UWI.                          : UNIQUE WELL ID
~Curve Information Block
DEPT.FT            0 000 00 00: Depth
SP.mV                         : DIL Spontaneous Potential
RILD.Ohm-m                    : DIL Deep Resistivity
RILM.Ohm-m                    : DIL Medium Resistivity
RLL3.Ohm-m                    : DIL Shallow Resistivity
GR.GAPI                       : Gamma Ray
~Parameter Information Block
~A  Depth        SP         RILD        RILM        RLL3         GR     
# ...
  1130.0000    156.5246     18.1483     16.8023     21.9614    133.3706
  1130.2500    154.4740     18.2019     16.9376     22.4765    130.3744
  1130.5000    152.3941     18.2954     17.0793     22.9026    127.4805
  1130.7500    150.3158     18.4516     17.2325     23.2262    126.7550
  1131.0000    148.2712     18.6895     17.4082     23.3948    126.3082
  1131.2500    146.2936     19.0245     17.6235     23.3536    125.6872
  1131.5000    144.4169     19.4666     17.9006     23.0860    123.9688
  1131.7500    142.6746     20.0178     18.2660     22.6995    122.8695
  1132.0000    141.0983     20.6706     18.7482     22.5616    122.7457
  1132.2500    139.7146     21.4134     19.3755     23.3465    124.0294
  1132.5000    138.5395     22.2405     20.1742     25.8210    127.2028
  1132.7500    137.5691     23.1571     21.1671     30.3397    129.2811
  1133.0000    136.7685     24.1771     22.3726     36.3608    130.8858
  1133.2500    136.0719     25.3152     23.8053     42.5440    130.1419
  1133.5000    135.4024     26.5862     25.4770     47.6506    125.7297
  1133.7500    134.7034     28.0131     27.3980     51.6168    121.4524
  1134.0000    133.9615     29.6353     29.5789     55.9056    116.1629
  1134.2500    133.2046     31.5041     32.0284     62.9711    114.6950
  1134.5000    132.4810     33.6636     34.7494     75.3466    114.8681
  1134.7500    131.8389     36.1237     37.7306     94.7041    114.8788
  1135.0000    131.3146     38.8384     40.9357    120.9737    112.0067
  1135.2500    130.9315     41.6999     44.2950    151.8351    107.4074
  1135.5000    130.7017     44.5597     47.7027    182.9275     96.7213
  1135.7500    130.6300     47.2754     51.0233    208.6142     88.0270
  1136.0000    130.7170     49.7516     54.1075    223.0630     75.1619
  1136.2500    130.9578     51.9424     56.8136    221.9732     67.9847
  1136.5000    131.3358     53.8157     59.0290    204.8929     59.8425
  1136.7500    131.8176     55.3313     60.6898    176.4499     55.5919
  1137.0000    132.3555     56.4605     61.7896    144.6611     50.0910
  1137.2500    132.8993     57.2160     62.3780    117.0395     47.2346
  1137.5000    133.4093     57.6466     62.5453     97.4782     45.3682
  1137.7500    133.8651     57.7942     62.3971     85.9448     46.0885
  1138.0000    134.2648     57.6641     62.0284     80.3354     49.3109
  1138.2500    134.6244     57.2389     61.5045     78.4832     51.9284
  1138.5000    134.9758     56.5227     60.8535     79.0137     55.1753
  1138.7500    135.3629     55.5738     60.0719     81.1200     56.4923
  1139.0000    135.8297     54.4991     59.1378     84.0858     56.9458
  1139.2500    136.4085     53.4216     58.0313     87.1123     56.2237
  1139.5000    137.1169     52.4446     56.7513     89.3339     54.1652
  1139.7500    137.9618     51.6300     55.3266     89.7837     52.9522
  1140.0000    138.9409     50.9905     53.8136     87.5356     52.9981
  1140.2500    140.0371     50.4963     52.2855     82.2852     54.9202
  1140.5000    141.2167     50.0919     50.8156     74.9150     61.1231
  1140.7500    142.4388     49.7193     49.4621     67.2745     67.3957
  1141.0000    143.6698     49.3336     48.2584     61.1826     78.7994
  1141.2500    144.8879     48.9056     47.2114     57.5045     86.3070
  1141.5000    146.0742     48.4135     46.3055     55.9873     94.8521
  1141.7500    147.2043     47.8443     45.5111     55.7487     98.0403
  1142.0000    148.2482     47.2065     44.7952     55.8840     99.9329
  1142.2500    149.1758     46.5423     44.1319     55.8075    100.4569
  1142.5000    149.9615     45.9179     43.5095     55.2984    101.4969
  1142.7500    150.5894     45.3925     42.9338     54.4196    102.2832
  1143.0000    151.0607     44.9885     42.4263     53.4440    103.0607
  1143.2500    151.3949     44.6800     42.0170     52.7768    103.5886
  1143.5000    151.6228     44.4055     41.7356     52.8152    105.6518
  1143.7500    151.7751     44.0989     41.6013     53.7684    108.0316
  1144.0000    151.8760     43.7276     41.6157     55.5410    111.4185
  1144.2500    151.9412     43.3142     41.7591     57.7455    112.2122
  1144.5000    151.9771     42.9208     41.9937     59.8454    110.5298
  1144.7500    151.9826     42.6042     42.2710     61.3876    108.3326
  1145.0000    151.9580     42.3776     42.5458     62.2320    105.5352
  1145.2500    151.9120     42.2087     42.7883     62.6138    104.7781
  1145.5000    151.8609     42.0515     42.9918     62.9392    105.6075
  1145.7500    151.8188     41.8848     43.1724     63.4468    107.3044
  1146.0000    151.7906     41.7286     43.3602     64.0551    110.7087
  1146.2500    151.7713     41.6304     43.5887     64.5449    112.6210
  1146.5000    151.7497     41.6386     43.8855     64.8464    113.5447
  1146.7500    151.7096     41.7843     44.2689     65.1058    113.0249
  1147.0000    151.6299     42.0806     44.7474     65.5186    112.4545
  1147.2500    151.4861     42.5322     45.3229     66.1758    113.1181
  1147.5000    151.2559     43.1406     45.9935     67.0508    115.1879
  1147.7500    150.9264     43.9009     46.7554     68.0750    116.1975
  1148.0000    150.4951     44.7997     47.6051     69.2251    115.6534
  1148.2500    149.9687     45.8222     48.5409     70.5400    113.7404
  1148.5000    149.3621     46.9650     49.5646     72.0071    109.3621
  1148.7500    148.7013     48.2387     50.6827     73.4401    106.2801
  1149.0000    148.0218     49.6556     51.9063     74.5836    102.6150
  1149.2500    147.3633     51.2216     53.2507     75.4196    100.9635
  1149.5000    146.7632     52.9480     54.7373     76.3361     98.9310
  1149.7500    146.2537     54.8761     56.3984     77.9790     97.1788
  1150.0000    145.8615     57.0784     58.2864     81.0969     93.2490
  1150.2500    145.6058     59.6169     60.4811     86.8111     90.0480
  1150.5000    145.4961     62.4782     63.0932     97.2647     85.6318
  1150.7500    145.5319     65.5316     66.2560    115.9676     83.2237
  1151.0000    145.7085     68.5356     70.1052    146.9498     79.2452
  1151.2500    146.0228     71.1836     74.7404    192.4325     75.3427
  1151.5000    146.4780     73.1477     80.1650    250.1514     67.0920
  1151.7500    147.0857     74.0902     86.1937    312.6827     60.5597
  1152.0000    147.8677     73.6653     92.3250    370.2352     50.7344
  1152.2500    148.8526     71.5794     97.6104    415.1511     44.9249
  1152.5000    150.0702     67.7291    100.6364    444.2100     38.2054
  1152.7500    151.5461     62.3319     99.8385    457.0527     35.2853
  1153.0000    153.3026     55.9117     94.2593    453.3438     33.0033
  1153.2500    155.3617     49.1227     84.3357    432.2458     32.4691
  1153.5000    157.7386     42.5441     71.8808    394.3585     32.5424
  1153.7500    160.4268     36.5668     59.1115    343.1485     33.0750
  1154.0000    163.3851     31.3830     47.6400    283.9616     34.6879
  1154.2500    166.5360     27.0303     38.1667    222.1779     36.4003
  1154.5000    169.7758     23.4496     30.7248    162.7950     40.2980
  1154.7500    172.9865     20.5378     25.0323    110.8273     44.2190
  1155.0000    176.0501     18.1836     20.7286     70.4456     53.0404
  1155.2500    178.8628     16.2847     17.4843     43.1118     61.2346
  1155.5000    181.3431     14.7510     15.0337     26.9906     76.3067
  1155.7500    183.4334     13.5028     13.1745     18.4584     86.8455
  1156.0000    185.1005     12.4708     11.7570     14.1709    100.6896
  1156.2500    186.3418     11.5978     10.6705     12.0458    107.8945
  1156.5000    187.1906     10.8422      9.8339     11.0610    116.2950
  1156.7500    187.7117     10.1790      9.1868     10.7038    120.9510
  1157.0000    187.9842      9.5973      8.6841     10.6507    127.0410
  1157.2500    188.0825      9.0954      8.2921     10.6953    130.6243
  1157.5000    188.0651      8.6746      7.9855     10.7385    135.6273
  1157.7500    187.9745      8.3359      7.7453     10.7598    138.6392
