~Version Information
VERS.                      2.0: CWLS Log ASCII Standard - VERSION 2.0
WRAP.                       NO: One line per depth step
~Well Information Block
STRT.FT               588.7000: 
STOP.FT              1820.2000: 
STEP.FT                 0.1000: 
NULL.                -999.2500: 
COMP.          Pioneer Natural Resources: COMPANY
WELL.           Loews 41-32 Tr: WELL
FLD.           Purgatoire River: FIELD
LOC.           706' FNL & 224' FEL--: LOCATION
CNTY.               Las Animas: COUNTY
SRVC.                Patterson: SERVICE COMPANY
DATE.          Tue Feb 21 10:23:46 2006: LOG DATE
UWI.           05 071 08690 00: UNIQUE WELL ID
STAT.                 Colorado: STATE
~Curve Information Block
DEPT.FT            0 000 00 00: Depth
DCAL.in                       : CDL Caliper
RHOB.g/cc                     : CDL Bulk Density
RHOC.g/cc                     : CDL Density Correction
DPOR.pu                       : CDL Density Porosity
GR.GAPI                       : Gamma Ray
~Parameter Information Block
~A  Depth       DCAL        RHOB        RHOC        DPOR         GR     
# ...
  1630.3000      7.9087      2.4359      0.1219     12.9771    119.4648
  1630.4000      7.9087      2.4577      0.1435     11.6563    126.2378
  1630.5000      7.9065      2.4591      0.0689     11.5693    136.5892
  1630.6000      7.9065      2.4759      0.0459     10.5531    144.8810
  1630.7000      7.9065      2.5176      0.0842      8.0250    146.6435
  1630.8000      7.9061      2.5535      0.1517      5.8494    142.8199
  1630.9000      7.9061      2.5601      0.1041      5.4491    139.9250
  1631.0000      7.9060      2.5459      0.1125      6.3101    141.8449
  1631.1000      7.9060      2.5283      0.0851      7.3751    143.1664
  1631.2000      7.9060      2.5147      0.0976      8.2023    140.4287
  1631.3000      7.9070      2.5025      0.0668      8.9372    136.1684
  1631.4000      7.9070      2.4907      0.0772      9.6573    131.4254
  1631.5000      7.9035      2.4831      0.0511     10.1166    130.5130
  1631.6000      7.9035      2.4835      0.0353     10.0897    137.6916
  1631.7000      7.9035      2.4915      0.0459      9.6050    147.9375
  1631.8000      7.8932      2.5071      0.0429      8.6581    152.2915
  1631.9000      7.8932      2.5359      0.0379      6.9161    149.8919
  1632.0000      7.8810      2.5733      0.1234      4.6470    145.9057
  1632.1000      7.8810      2.5951      0.1619      3.3291    141.1189
  1632.2000      7.8810      2.5914      0.1023      3.5519    136.9989
  1632.3000      7.8754      2.5847      0.1175      3.9588    136.0444
  1632.4000      7.8754      2.5998      0.0933      3.0424    133.3463
  1632.5000      7.8794      2.6356      0.1409      0.8713    124.9814
  1632.6000      7.8794      2.6644      0.1643     -0.8741    117.2858
  1632.7000      7.8794      2.6699      0.0995     -1.2055    116.3806
  1632.8000      7.8872      2.6626      0.1230     -0.7659    120.0937
  1632.9000      7.8872      2.6582      0.0720     -0.4949    123.3374
  1633.0000      7.8924      2.6614      0.0590     -0.6910    122.0996
  1633.1000      7.8924      2.6643      0.0871     -0.8692    115.0579
  1633.2000      7.8924      2.6671      0.0460     -1.0390    105.7369
  1633.3000      7.8946      2.6810      0.0560     -1.8797     97.9171
  1633.4000      7.8946      2.6902      0.1293     -2.4353     94.8814
  1633.5000      7.8959      2.6703      0.0710     -1.2310     96.6341
  1633.6000      7.8959      2.6407      0.0259      0.5614     95.8747
  1633.7000      7.8959      2.6348      0.0552      0.9219     90.8972
  1633.8000      7.8967      2.6518      0.0847     -0.1071     89.6274
  1633.9000      7.8967      2.6685      0.0867     -1.1190     95.2348
  1634.0000      7.8978      2.6672      0.1204     -1.0399    103.2069
  1634.1000      7.8978      2.6472      0.0969      0.1678    108.8436
  1634.2000      7.8978      2.6306      0.0369      1.1762    113.3502
  1634.3000      7.8995      2.6375      0.0887      0.7581    121.6070
  1634.4000      7.8995      2.6603      0.0587     -0.6238    129.8649
  1634.5000      7.9006      2.6843      0.0740     -2.0781    129.6886
  1634.6000      7.9006      2.7101      0.0702     -3.6417    121.6331
  1634.7000      7.9006      2.7420      0.0876     -5.5742    111.0045
  1634.8000      7.9010      2.7654      0.1427     -6.9946    105.2138
  1634.9000      7.9010      2.7744      0.0598     -7.5422    108.6444
  1635.0000      7.8983      2.7842      0.0691     -8.1305    115.3168
  1635.1000      7.8983      2.7904      0.0858     -8.5095    117.0042
  1635.2000      7.8983      2.7795      0.0679     -7.8500    111.6407
  1635.3000      7.8894      2.7539      0.0463     -6.2960    103.3651
  1635.4000      7.8894      2.7232      0.0095     -4.4333     97.9644
  1635.5000      7.8802      2.6962      0.0004     -2.7985     97.1007
  1635.6000      7.8802      2.6696      0.0550     -1.1902     99.0843
  1635.7000      7.8802      2.6364     -0.0073      0.8271    103.4255
  1635.8000      7.8769      2.6094      0.0019      2.4603    107.7195
  1635.9000      7.8769      2.6043      0.0026      2.7687    107.7972
  1636.0000      7.8764      2.6131      0.0271      2.2358    102.7106
  1636.1000      7.8764      2.6160      0.0526      2.0616     95.6068
  1636.2000      7.8764      2.6116      0.0627      2.3281     89.8190
  1636.3000      7.8764      2.6121      0.0657      2.2942     88.0439
  1636.4000      7.8764      2.6203      0.0713      1.8020     89.4060
  1636.5000      7.8787      2.6254      0.1194      1.4926     88.3994
  1636.6000      7.8787      2.6240      0.0775      1.5729     82.7908
  1636.7000      7.8787      2.6311      0.0670      1.1425     76.7162
  1636.8000      7.8846      2.6503      0.0899     -0.0195     75.6491
  1636.9000      7.8846      2.6653      0.1027     -0.9291     79.0144
  1637.0000      7.8905      2.6659      0.0698     -0.9645     79.7199
  1637.1000      7.8905      2.6582      0.0615     -0.4961     75.1800
  1637.2000      7.8905      2.6542      0.0626     -0.2524     70.7848
  1637.3000      7.8938      2.6528      0.0722     -0.1692     69.5335
  1637.4000      7.8938      2.6425      0.0612      0.4532     69.6929
  1637.5000      7.8971      2.6261      0.0300      1.4514     70.8033
  1637.6000      7.8971      2.6197      0.0233      1.8335     71.6313
  1637.7000      7.8971      2.6256      0.0679      1.4780     72.3244
  1637.8000      7.9005      2.6291      0.0441      1.2642     76.6580
  1637.9000      7.9005      2.6215      0.0452      1.7270     81.2446
  1638.0000      7.9043      2.6053      0.0345      2.7112     80.1051
  1638.1000      7.9043      2.5855      0.0468      3.9094     79.0046
  1638.2000      7.9043      2.5635      0.0393      5.2396     84.3837
  1638.3000      7.9073      2.5434      0.0250      6.4612     89.1521
  1638.4000      7.9073      2.5277      0.0455      7.4103     86.1379
  1638.5000      7.9067      2.5149      0.0206      8.1877     79.6116
  1638.6000      7.9067      2.5056      0.0327      8.7506     74.5793
  1638.7000      7.9067      2.5059     -0.0133      8.7327     71.3908
  1638.8000      7.9050      2.5213      0.0666      7.7975     69.7196
  1638.9000      7.9050      2.5416      0.0727      6.5704     72.0208
  1639.0000      7.9056      2.5503      0.0791      6.0411     76.4143
  1639.1000      7.9056      2.5443      0.1046      6.4031     75.5193
  1639.2000      7.9056      2.5311      0.0541      7.2047     69.2517
  1639.3000      7.9054      2.5169      0.0580      8.0695     64.9103
  1639.4000      7.9054      2.5007      0.0499      9.0513     64.7197
  1639.5000      7.9044      2.4835      0.0160     10.0910     65.2604
  1639.6000      7.9044      2.4651      0.0450     11.2049     65.2417
  1639.7000      7.9044      2.4427      0.0187     12.5650     65.9223
  1639.8000      7.9048      2.4269      0.0234     13.5206     66.7310
  1639.9000      7.9048      2.4314      0.0422     13.2461     65.3480
  1640.0000      7.9045      2.4481      0.0357     12.2342     62.1872
  1640.1000      7.9045      2.4545      0.0875     11.8489     58.7892
  1640.2000      7.9045      2.4432      0.0321     12.5339     55.1967
  1640.3000      7.9045      2.4288      0.0656     13.4056     52.6510
  1640.4000      7.9045      2.4280      0.0218     13.4548     52.1577
  1640.5000      7.9062      2.4505      0.0176     12.0901     52.4294
  1640.6000      7.9062      2.4838      0.0740     10.0698     52.3275
  1640.7000      7.9062      2.4969      0.1152      9.2813     51.7422
  1640.8000      7.9075      2.4870      0.0496      9.8810     51.6834
  1640.9000      7.9075      2.4801      0.0649     10.2952     53.1639
  1641.0000      7.9067      2.4832      0.0433     10.1121     55.3682
  1641.1000      7.9067      2.4811      0.0721     10.2382     56.3298
  1641.2000      7.9067      2.4666      0.0619     11.1134     56.7254
  1641.3000      7.9050      2.4519      0.0407     12.0036     58.8087
  1641.4000      7.9050      2.4528      0.0532     11.9542     63.4437
