~Version Information
VERS.                      2.0: CWLS Log ASCII Standard - VERSION 2.0
WRAP.                       NO: One line per depth step
~Well Information Block
STRT.FT               585.0000: 
STOP.FT              2277.5000: 
STEP.FT                 0.1000: 
NULL.                -999.2500: 
COMP.          Pioneer Natural Resources: COMPANY
WELL.          Interceptor 43-13 Tr: WELL
FLD.           Purgatoire River: FIELD
LOC.           2006' FSL & 438' FEL: LOCATION
PROV.                 Colorado: PROVINCE
CNTY.               Las Animas: COUNTRY
SRVC.                Patterson: SERVICE COMPANY
DATE.          Mon Oct 17 07:15:06 2005: LOG DATE
UWI.           05 071 08549 00: UNIQUE WELL ID
~Curve Information Block
DEPT.FT            0 000 00 00: Depth
DCAL.in                       : CDL Caliper
RHOB.g/cc                     : CDL Bulk Density
RHOC.g/cc                     : CDL Density Correction
DPOR.pu                       : CDL Density Porosity
GR.GAPI                       : Gamma Ray
NPOR.pu                       : Neutron Porosity
~Parameter Information Block
~A  Depth       DCAL        RHOB        RHOC        DPOR         GR         NPOR    
# ...
  1708.2000      7.9756      2.6241      0.0395      1.5722    126.5489     25.2687
  1708.3000      7.9715      2.6210      0.0586      1.7564    133.4622     25.2575
  1708.4000      7.9715      2.6143      0.0611      2.1651    141.4144     25.4849
  1708.5000      7.9567      2.6136      0.0628      2.2039    147.1033     26.0046
  1708.6000      7.9567      2.6199      0.0272      1.8221    148.6233     26.3274
  1708.7000      7.9567      2.6343      0.0422      0.9534    145.5988     26.2786
  1708.8000      7.9341      2.6449      0.0889      0.3089    139.1509     26.1908
  1708.9000      7.9341      2.6374      0.0687      0.7650    133.2157     26.0308
  1709.0000      7.9086      2.6249      0.0440      1.5210    130.7712     25.7690
  1709.1000      7.9086      2.6303      0.0372      1.1937    132.1012     25.7325
  1709.2000      7.9086      2.6491      0.1513      0.0517    136.0181     25.6090
  1709.3000      7.8996      2.6592      0.1270     -0.5602    139.1925     25.2029
  1709.4000      7.8996      2.6564      0.1405     -0.3885    139.0004     25.0125
  1709.5000      7.8911      2.6493      0.1073      0.0454    138.7986     25.0510
  1709.6000      7.8911      2.6400      0.0622      0.6046    140.0053     25.2167
  1709.7000      7.8911      2.6284      0.0661      1.3088    139.7006     25.4866
  1709.8000      7.9045      2.6166      0.0664      2.0213    136.5172     25.7218
  1709.9000      7.9045      2.6077      0.0799      2.5634    131.5186     25.9112
  1710.0000      7.9159      2.6047      0.0448      2.7469    129.6360     26.1010
  1710.1000      7.9159      2.6059      0.0971      2.6703    133.3583     26.3002
  1710.2000      7.9159      2.6024      0.0769      2.8867    138.2265     26.6275
  1710.3000      7.9135      2.5865      0.0346      3.8469    141.4307     26.8170
  1710.4000      7.9135      2.5635      0.0017      5.2446    143.6651     26.5204
  1710.5000      7.9158      2.5452      0.0161      6.3523    145.4627     26.1824
  1710.6000      7.9158      2.5257      0.0334      7.5362    146.0242     26.1802
  1710.7000      7.9158      2.4990     -0.0260      9.1541    143.9642     26.2690
  1710.8000      7.9126      2.4851     -0.0455      9.9916    145.2802     26.0560
  1710.9000      7.9126      2.4986     -0.0158      9.1730    157.1257     25.7472
  1711.0000      7.9046      2.5255      0.0329      7.5445    167.9158     25.7877
  1711.1000      7.9046      2.5546      0.0048      5.7804    164.0744     26.0044
  1711.2000      7.9046      2.5834      0.1009      4.0353    156.1806     26.1255
  1711.3000      7.8931      2.5953      0.1200      3.3156    154.9032     26.1890
  1711.4000      7.8931      2.5834      0.0859      4.0389    154.6545     25.9802
  1711.5000      7.8811      2.5668      0.1079      5.0424    152.2641     25.2234
  1711.6000      7.8811      2.5595      0.0940      5.4831    150.9446     24.4774
  1711.7000      7.8811      2.5511      0.0603      5.9954    151.5583     24.5221
  1711.8000      7.8801      2.5304      0.0368      7.2490    151.9392     25.2937
  1711.9000      7.8801      2.4995     -0.0025      9.1193    152.1694     26.1288
  1712.0000      7.8945      2.4628     -0.0169     11.3478    154.3538     26.3963
  1712.1000      7.8945      2.4320     -0.0501     13.2119    156.1860     25.8594
  1712.2000      7.8945      2.4236     -0.0037     13.7228    154.1355     24.8312
  1712.3000      7.9065      2.4304     -0.0028     13.3089    149.9085     23.4710
  1712.4000      7.9065      2.4172      0.1138     14.1094    148.0290     21.5614
  1712.5000      7.9109      2.3621     -0.0083     17.4495    147.8188     19.5039
  1712.6000      7.9109      2.2908     -0.0548     21.7670    143.5572     17.9175
  1712.7000      7.9109      2.2322     -0.0285     25.3230    135.4494     16.6516
  1712.8000      7.9075      2.1686      0.0177     29.1772    129.9473     15.3417
  1712.9000      7.9075      2.0598      0.0277     35.7671    126.7881     13.9262
  1713.0000      7.9066      1.9013     -0.0217     45.3787    123.9912     12.6575
  1713.1000      7.9066      1.7409     -0.0571     55.0991    122.1757     11.7044
  1713.2000      7.9066      1.6315     -0.0557     61.7259    118.6194     10.8518
  1713.3000      7.9038      1.5710     -0.0099     65.3946    111.1785      9.9955
  1713.4000      7.9038      1.5072      0.0100     69.2595    104.5314      9.3607
  1713.5000      7.9926      1.4074     -0.0227     75.3086     99.9761      9.1371
  1713.6000      7.9926      1.2961      0.0292     82.0522     93.1822      9.1312
  1713.7000      7.9926      1.2178     -0.0006     86.7980     84.6528      8.9635
  1713.8000      8.1789      1.1842      0.0256     88.8390     77.5702      8.7100
  1713.9000      8.1789      1.1693      0.0559     89.7387     69.9230      8.7113
  1714.0000      8.3523      1.1517      0.0451     90.8035     61.3820      8.9037
  1714.1000      8.3523      1.1476      0.0537     91.0570     56.8088      9.0413
  1714.2000      8.3523      1.1901      0.1368     88.4773     57.4883      9.1695
  1714.3000      8.4924      1.2805      0.2585     83.0008     58.8648      9.3079
  1714.4000      8.4924      1.3815      0.3343     76.8801     59.3437      9.3730
  1714.5000      8.5232      1.4594      0.3537     72.1566     60.9367      9.2973
  1714.6000      8.5232      1.5059      0.3780     69.3366     63.1376      8.9929
  1714.7000      8.5232      1.5250      0.3572     68.1839     64.0749      8.6982
  1714.8000      8.5423      1.5141      0.3791     68.8397     63.5508      8.7444
  1714.9000      8.5423      1.4677      0.2986     71.6528     64.8000      9.0306
  1715.0000      8.6064      1.3979      0.1953     75.8852     68.5260      9.2206
  1715.1000      8.6064      1.3231      0.1742     80.4194     68.1055      9.0976
  1715.2000      8.6064      1.2496      0.1158     84.8726     61.2274      8.7699
  1715.3000      8.7590      1.1910     -0.0237     88.4230     55.4236      8.4274
  1715.4000      8.7590      1.1658      0.0318     89.9514     54.8059      8.1032
  1715.5000      8.7821      1.1709      0.0775     89.6408     55.8344      7.9135
  1715.6000      8.7821      1.1981      0.0807     87.9954     54.3248      7.9827
  1715.7000      8.7821      1.2506      0.1150     84.8112     49.2921      8.2821
  1715.8000      8.7775      1.3231      0.2443     80.4211     44.1826      8.6340
  1715.9000      8.7775      1.3945      0.2658     76.0887     42.2282      8.8641
  1716.0000      8.7972      1.4412      0.3186     73.2621     40.9625      8.9859
  1716.1000      8.7972      1.4404      0.2994     73.3067     38.2120      9.2162
  1716.2000      8.7972      1.3933      0.2469     76.1606     36.9772     10.0121
  1716.3000      8.9101      1.3500      0.0776     78.7888     40.5232     11.7896
  1716.4000      8.9101      1.3930      0.0201     76.1848     47.0408     14.2642
  1716.5000      8.6993      1.5654      0.0843     65.7363     54.6173     16.6094
  1716.6000      8.6993      1.8163      0.2284     50.5256     62.0418     18.4767
  1716.7000      8.6993      2.0568      0.2224     35.9538     65.6852     20.2833
  1716.8000      8.5177      2.2434      0.4078     24.6401     63.5994     22.4864
  1716.9000      8.5177      2.3782      0.4789     16.4725     58.1412     24.5988
  1717.0000      8.3005      2.4803      0.4904     10.2831     53.9296     25.9971
  1717.1000      8.3005      2.5526      0.5179      5.9027     55.5480     26.9979
  1717.2000      8.3005      2.5841      0.2349      3.9934     64.7155     27.5727
  1717.3000      8.2238      2.5909      0.0919      3.5813     75.0956     27.3102
  1717.4000      8.2238      2.5846      0.1055      3.9620     82.2752     26.5891
  1717.5000      8.0942      2.5514      0.1031      5.9762     88.5196     26.0435
  1717.6000      8.0942      2.5031      0.0194      8.9037     95.6508     25.9098
  1717.7000      8.0942      2.4739      0.0421     10.6739    102.1920     25.5801
