~Version Information
VERS.                      2.0: CWLS Log ASCII Standard - VERSION 2.0
WRAP.                       NO: One line per depth step
~Well Information Block
STRT.FT                10.0000: 
STOP.FT              1360.0000: 
STEP.FT                 0.1000: 
NULL.                -999.2500: 
COMP.          Pioneer Natural Resources: COMPANY
WELL.              Geyser 41-2: WELL
FLD.           Purgatorie River: FIELD
LOC.           506' FNL & 1127' FEL: LOCATION
PROV.                 Colorado: PROVINCE
CNTY.               Las Animas: COUNTRY
SRVC.                Patterson: SERVICE COMPANY
DATE.          Thu Dec 01 07:38:14 2005: LOG DATE
UWI.                          : UNIQUE WELL ID
~Curve Information Block
DEPT.FT            0 000 00 00: Depth
DCAL.in                       : CDL Caliper
RHOB.g/cc                     : CDL Bulk Density
RHOC.g/cc                     : CDL Density Correction
DPOR.pu                       : CDL Density Porosity
GR.GAPI                       : Gamma Ray
NPOR.pu                       : Neutron Porosity
~Parameter Information Block
~A  Depth       DCAL        RHOB        RHOC        DPOR         GR         NPOR    
# ...
   192.4000      2.7444      1.6120      2.3641     -0.0208    142.7039     34.5048
   192.5000      2.7444      1.6116      2.3796     -0.0208    140.3295     34.4707
   192.6000      2.7444      1.6009      2.3827     -0.0210    138.7379     34.0735
   192.7000      2.7444      1.5724      2.3779     -0.0216    139.3648     33.2058
   192.8000      2.7444      1.5263      2.3495     -0.0225    140.9301     32.0076
   192.9000      2.7444      1.4714      2.3032     -0.0236    141.7323     30.6950
   193.0000      2.7444      1.4203      2.2844     -0.0246    142.6275     29.4303
   193.1000      2.7444      1.3800      2.2455     -0.0254    144.3075     28.6271
   193.2000      2.7444      1.3507      2.2372     -0.0260    144.6581     28.3493
   193.3000      2.7444      1.3273      2.2419     -0.0265    142.1028     28.0702
   193.4000      2.7444      1.3037      2.2275     -0.0269    137.8903     27.5581
   193.5000      2.7444      1.2837      2.2077     -0.0273    136.4879     27.1865
   193.6000      2.7444      1.2736      2.2196     -0.0275    139.9562     27.0180
   193.7000      2.7444      1.2692      2.2337     -0.0276    144.0542     26.6621
   193.8000      2.7444      1.2644      2.2139     -0.0277    145.5007     26.2545
   193.9000      2.7444      1.2605      2.2046     -0.0278    145.4684     26.1253
   194.0000      2.7444      1.2625      2.1925     -0.0278    143.3606     26.2434
   194.1000      2.7444      1.2752      2.1829     -0.0275    139.5722     26.3708
   194.2000      2.7444      1.2999      2.2096     -0.0270    137.6688     26.1436
   194.3000      2.7444      1.3259      2.2398     -0.0265    138.7308     25.7074
   194.4000      2.7444      1.3374      2.2447     -0.0263    141.7947     25.5019
   194.5000      2.7444      1.3345      2.2178     -0.0263    146.1864     25.4367
   194.6000      2.7444      1.3291      2.2207     -0.0264    149.2929     25.4336
   194.7000      2.7444      1.3245      2.2475     -0.0265    147.7951     25.6288
   194.8000      2.7444      1.3185      2.2139     -0.0266    142.0877     25.7936
   194.9000      2.7444      1.3179      2.2225     -0.0267    139.1032     25.8216
   195.0000      2.7444      1.3265      2.2561     -0.0265    142.6106     25.7141
   195.1000      2.7444      1.3363      2.2894     -0.0263    148.6540     25.4215
   195.2000      2.7444      1.3389      2.2595     -0.0262    152.2441     25.4941
   195.3000      2.7444      1.3321      2.3053     -0.0264    150.4767     26.2795
   195.4000      2.7444      1.3199      2.2319     -0.0266    144.9931     26.9458
   195.5000      2.7444      1.3142      2.2334     -0.0267    140.5966     26.5791
   195.6000      2.7444      1.3157      2.2618     -0.0267    139.9525     25.6380
   195.7000      2.7444      1.3094      2.2673     -0.0268    143.5524     25.0068
   195.8000      2.7444      1.2865      2.2339     -0.0273    148.3994     24.8492
   195.9000      2.7444      1.2536      2.2035     -0.0279    148.7240     25.1764
   196.0000      2.7444      1.2266      2.1595     -0.0285    146.0970     25.6352
   196.1000      2.7444      1.2136      2.1763     -0.0287    146.1913     25.7305
   196.2000      2.7444      1.2060      2.1961     -0.0289    147.6568     25.5809
   196.3000      2.7444      1.1942      2.1759     -0.0291    147.3644     25.5395
   196.4000      2.7444      1.1793      2.1635     -0.0294    146.6611     25.7762
   196.5000      2.7444      1.1638      2.1495     -0.0297    147.0889     26.1252
   196.6000      2.7444      1.1493      2.1162     -0.0300    148.8607     26.2218
   196.7000      2.7444      1.1397      2.1194     -0.0302    149.6422     26.0062
   196.8000      2.7444      1.1367      2.1026     -0.0303    145.7367     25.8113
   196.9000      2.7444      1.1381      2.1119     -0.0303    139.6603     25.8627
   197.0000      2.7444      1.1434      2.1111     -0.0301    137.2006     25.9493
   197.1000      2.7444      1.1572      2.0997     -0.0299    137.5863     25.9784
   197.2000      2.7444      1.1806      2.1410     -0.0294    137.9535     26.2658
   197.3000      2.7444      1.2032      2.1772     -0.0290    137.5863     26.6534
   197.4000      2.7444      1.2161      2.1582     -0.0287    135.6051     26.4583
   197.5000      2.7444      1.2193      2.1846     -0.0286    132.8454     25.9330
   197.6000      2.7444      1.2182      2.1705     -0.0287    133.0931     25.6542
   197.7000      2.7444      1.2223      2.1709     -0.0286    136.7872     25.6153
   197.8000      2.7444      1.2313      2.1871     -0.0284    140.7435     25.7824
   197.9000      2.7444      1.2348      2.2010     -0.0283    143.3595     25.9687
   198.0000      2.7444      1.2325      2.1672     -0.0284    144.1255     25.9080
   198.1000      2.7444      1.2285      2.1995     -0.0284    144.8667     25.4648
   198.2000      2.7444      1.2160      2.2138     -0.0287    147.2141     24.8862
   198.3000      2.7444      1.1955      2.1505     -0.0291    150.0670     24.6976
   198.4000      2.7444      1.1814      2.1614     -0.0294    151.4207     25.1168
   198.5000      2.7444      1.1801      2.1388     -0.0294    150.3032     25.9192
   198.6000      2.7444      1.1820      2.1920     -0.0294    147.7421     26.7936
   198.7000      2.7444      1.1765      2.1578     -0.0295    145.3793     27.4498
   198.8000      2.7444      1.1672      2.1497     -0.0297    143.5076     27.4685
   198.9000      2.7444      1.1615      2.1644     -0.0298    141.2026     26.6491
   199.0000      2.7444      1.1634      2.1126     -0.0297    137.8702     25.5631
   199.1000      2.7444      1.1725      2.1778     -0.0296    135.3616     25.0808
   199.2000      2.7444      1.1790      2.1583     -0.0294    136.2166     25.2076
   199.3000      2.7444      1.1763      2.1688     -0.0295    140.9241     25.4067
   199.4000      2.7444      1.1682      2.1562     -0.0297    147.0762     25.4580
   199.5000      2.7444      1.1649      2.1199     -0.0297    149.2945     25.4099
   199.6000      2.7444      1.1723      2.1389     -0.0296    146.2887     25.4964
   199.7000      2.7444      1.1823      2.1890     -0.0294    142.6129     25.7453
   199.8000      2.7444      1.1870      2.1360     -0.0293    141.1868     25.9620
   199.9000      2.7444      1.1884      2.1680     -0.0292    141.5677     26.0961
   200.0000      2.7444      1.1852      2.1574     -0.0293    141.7865     26.0990
   200.1000      2.7444      1.1756      2.1343     -0.0295    139.3527     25.8946
   200.2000      2.7444      1.1656      2.1367     -0.0297    134.3266     25.3634
   200.3000      2.7444      1.1630      2.1183     -0.0298    129.3245     24.6560
   200.4000      2.7444      1.1689      2.1518     -0.0296    126.4593     24.5160
   200.5000      2.7444      1.1732      2.1790     -0.0296    126.4378     25.1992
   200.6000      2.7444      1.1710      2.1232     -0.0296    127.1292     25.8013
   200.7000      2.7444      1.1664      2.1744     -0.0297    125.6373     25.6618
   200.8000      2.7444      1.1571      2.1552     -0.0299    124.2597     25.1734
   200.9000      2.7444      1.1400      2.1673     -0.0302    127.5129     24.6528
   201.0000      2.7444      1.1240      2.1035     -0.0305    133.7081     24.1160
   201.1000      2.7444      1.1205      2.1110     -0.0306    140.7962     23.8284
   201.2000      2.7444      1.1250      2.1285     -0.0305    147.2595     23.8030
   201.3000      2.7444      1.1221      2.1438     -0.0306    148.6304     23.6459
   201.4000      2.7444      1.1068      2.1047     -0.0309    145.5114     23.2643
   201.5000      2.7444      1.0908      2.0677     -0.0312    142.5125     22.6528
   201.6000      2.7444      1.0850      2.0769     -0.0313    142.0347     21.9221
   201.7000      2.7444      1.0851      2.1123     -0.0313    141.2893     21.5619
   201.8000      2.7444      1.0825      2.0792     -0.0314    135.8958     21.8056
   201.9000      2.7444      1.0799      2.0780     -0.0314    127.5740     22.3502
