~Version Information
VERS.                      2.0: CWLS Log ASCII Standard - VERSION 2.0
WRAP.                       NO: One line per depth step
~Well Information Block
STRT.FT                -6.0000: 
STOP.FT               783.7500: 
STEP.FT                 0.2500: 
NULL.                -999.2500: 
COMP.          Pioneer Natural Resources: COMPANY
WELL.           Weissach 32-32: WELL
FLD.           Purgatorie River: FIELD
LOC.           --2193' FNL & 2256' FEL--: LOCATION
STAT.                       CO: State
CNTY.               Las Animas: COUNTY
CTRY. USA : Country
SECT. 32 : Section
TOWN. 33S : Township
RANG. 65W : Range
SRVC.          Patterson Wireline: SERVICE COMPANY
DATE.          Thu Sep 29 12:52:09 2005: LOG DATE
API.           05 071 08523 00: UNIQUE WELL ID
~Curve Information Block
DEPT.FT            0 000 00 00: Depth
CCL.                          : Casing Collar Locator
TT3.usec                      : CBL 3' Travel Time
AMP3.mV                       : CBL 3' Amplitude
GR.GAPI                       : Gamma Ray
~Parameter Information Block
~A  Depth       CCL         TT3         AMP3         GR     
# ...
   463.0000      0.0000    797.9705      6.1162    105.3435
   463.2500      0.0000    836.2233      6.3631     99.6007
   463.5000      0.0000    869.7513      6.5597     93.2409
   463.7500     -2.0000    893.9474      6.6813     86.7929
   464.0000      0.0000    906.0081      6.7406     81.6511
   464.2500      0.0000    905.6704      6.7789     79.0381
   464.5000      0.0000    893.0004      6.8713     78.9264
   464.7500      0.0000    868.3278      7.0831     80.2614
   465.0000      0.0000    835.7292      7.3970     82.0703
   465.2500      0.0000    803.3909      7.7292     84.2893
   465.5000      0.0000    778.5753      8.0333     87.6658
   465.7500      0.0000    763.2970      8.3371     92.8038
   466.0000      0.0000    755.1264      8.6642     99.2571
   466.2500      0.0000    750.8174      8.9736    105.6605
   466.5000      0.0000    748.5873      9.2046    110.6970
   466.7500      0.0000    748.0634      9.3513    113.7127
   467.0000      0.0000    749.3046      9.4629    114.6691
   467.2500      0.0000    751.9409      9.5863    114.1074
   467.5000      0.0000    754.7710      9.7318    113.1602
   467.7500      0.0000    756.1760      9.8901    113.0452
   468.0000      0.0000    755.2774     10.0584    114.2861
   468.2500      0.0000    752.5928     10.2373    116.5296
   468.5000      0.0000    749.2675     10.4089    119.0424
   468.7500      0.0000    745.9380     10.5332    121.3592
   469.0000      0.0000    742.7271     10.5723    123.6107
   469.2500      0.0000    740.1538     10.5227    126.1535
   469.5000      0.0000    739.4122     10.4207    128.8258
   469.7500      0.0000    741.3148     10.3141    130.8676
   470.0000      0.0000    744.8128     10.2264    131.5116
   470.2500      0.0000    746.2710     10.1505    130.0684
   470.5000      0.0000    739.7737     10.0725    125.6255
   470.7500      0.0000    718.7285      9.9964    117.6442
   471.0000      0.0000    679.2982      9.9415    107.2929
   471.2500      0.0000    624.5314      9.9221     97.6872
   471.5000      0.0000    565.1809      9.9346     92.2117
   471.7500      0.0000    514.3568      9.9641     92.3477
   472.0000      0.0000    479.8447      9.9954     96.9605
   472.2500      0.0000    461.3125     10.0165    103.4573
   472.5000      0.0000    453.8995     10.0173    109.4964
   472.7500      0.0000    453.0587      9.9925    113.8769
   473.0000      0.0000    456.5654      9.9499    116.3853
   473.2500      0.0000    464.3033      9.9144    117.4181
   473.5000      0.0000    478.2005      9.9145    117.8661
   473.7500      0.0000    502.3183      9.9603    118.7075
   474.0000      0.0000    540.7358     10.0465    120.0161
   474.2500      0.0000    592.6552     10.1783    120.3039
   474.5000      0.0000    649.0446     10.3772    117.3542
   474.7500      0.0000    695.5933     10.6380    110.0921
   475.0000      0.0000    720.8108     10.8909     99.6902
   475.2500      0.0000    723.2586     11.0247     88.8607
   475.5000      0.0000    712.7319     10.9572     80.2434
   475.7500      0.0000    703.5004     10.6872     75.5418
   476.0000      0.0000    703.3752     10.2897     75.7917
   476.2500      0.0000    707.7467      9.8693     81.6676
   476.5000      0.0000    704.0391      9.5152     92.7740
   476.7500      0.0000    681.6645      9.2834    106.4660
   477.0000      0.0000    639.3656      9.1998    118.2020
   477.2500      0.0000    586.0267      9.2594    124.2876
   477.5000      0.0000    535.1347      9.4250    124.5947
   477.7500      0.0000    496.8192      9.6413    122.1812
   478.0000      0.0000    473.6640      9.8596    120.2242
   478.2500      0.0000    462.4954     10.0476    119.7768
   478.5000      0.0000    458.6879     10.1799    120.2503
   478.7500      0.0000    458.8346     10.2370    120.9212
   479.0000      0.0000    460.9293     10.2183    121.3203
   479.2500      0.0000    463.5284     10.1498    120.7630
   479.5000      0.0000    465.6580     10.0690    118.3958
   479.7500      0.0000    467.8282      9.9956    114.0930
   480.0000      0.0000    472.8513      9.9207    109.0609
   480.2500      0.0000    485.4594      9.8303    105.1113
   480.5000      0.0000    511.0368      9.7397    103.3909
   480.7500      0.0000    553.2080      9.6943    104.0716
   481.0000      0.0000    609.9471      9.7316    106.8078
   481.2500      0.0000    671.4660      9.8457    110.8213
   481.5000      0.0000    724.4235      9.9924    114.8157
   481.7500      0.0000    760.0692     10.1227    117.6276
   482.0000      0.0000    778.1381     10.2062    119.1366
   482.2500      0.0000    783.6819     10.2362    120.1745
   482.5000      0.0000    782.2041     10.2260    121.4457
   482.7500      0.0000    777.8400     10.2045    122.8078
   483.0000      0.0000    773.5990     10.2078    123.6159
   483.2500      0.0000    770.9763     10.2665    123.3969
   483.5000      0.0000    769.2663     10.3928    122.0928
   483.7500      0.0000    766.5922     10.5767    120.0892
   484.0000      0.0000    762.1420     10.7918    118.1044
   484.2500      0.0000    756.9932     11.0053    116.5934
   484.5000      0.0000    752.7414     11.1897    115.2777
   484.7500      0.0000    749.9138     11.3311    113.6085
   485.0000      0.0000    747.6370     11.4287    111.4700
   485.2500      0.0000    744.2057     11.4842    109.1288
   485.5000      0.0000    737.7422     11.4930    106.8687
   485.7500      0.0000    726.6317     11.4490    105.0627
   486.0000      0.0000    709.3291     11.3569    104.1120
   486.2500      0.0000    683.6924     11.2351    103.7663
   486.5000      0.0000    647.5746     11.1047    102.9335
   486.7500      0.0000    601.8814     10.9746    100.8058
   487.0000      0.0000    553.0909     10.8409     97.9025
   487.2500      0.0000    510.5917     10.7045     95.5837
   487.5000      0.0000    480.0998     10.5854     94.8675
   487.7500      0.0000    460.0554     10.5115     96.0063
   488.0000      0.0000    444.3733     10.4948     98.6658
   488.2500      0.0000    427.9065     10.5206    102.0010
   488.5000      0.0000    409.6830     10.5579    104.8682
   488.7500      0.0000    392.3367     10.5756    106.3499
   489.0000      0.0000    379.3818     10.5530    105.9234
   489.2500      0.0000    373.2293     10.4844    103.1842
   489.5000      0.0000    375.5844     10.3814     98.0795
   489.7500      0.0000    388.9863     10.2698     91.7828
   490.0000      0.0000    416.5709     10.1800     86.7337
   490.2500      0.0000    458.8683     10.1376     85.0872
   490.5000      0.0000    509.3163     10.1555     87.0558
   490.7500      0.0000    552.4613     10.2286     90.9124
   491.0000      0.0000    569.2689     10.3368     94.5124
   491.2500      0.0000    549.4677     10.4574     96.7730
   491.5000      0.0000    501.1383     10.5782     97.9137
   491.7500      0.0000    445.8825     10.6967     98.6791
   492.0000      0.0000    402.9600     10.8118     99.5598
   492.2500      0.0000    378.9900     10.9208    100.5981
   492.5000      0.0000    371.2803     11.0220    101.4881
   492.7500      0.0000    377.0093     11.1189    101.6318
   493.0000      0.0000    397.6272     11.2162    100.3394
   493.2500      0.0000    434.9039     11.3125     97.1856
   493.5000      0.0000    482.9510     11.3937     92.0557
   493.7500      0.0000    526.0734     11.4405     84.9288
   494.0000      0.0000    548.3893     11.4463     75.9607
   494.2500      0.0000    546.4030     11.4301     65.9776
   494.5000      0.0000    529.8655     11.4259     56.7360
   494.7500      0.0000    511.1013     11.4607     50.3324
   495.0000      0.0000    496.6924     11.5386     48.0869
   495.2500      0.0000    489.4482     11.6433     49.8467
   495.5000      0.0000    494.5201     11.7507     54.2013
   495.7500      0.0000    519.4636     11.8392     59.2402
   496.0000      0.0000    566.2084     11.8902     63.2760
   496.2500      0.0000    624.0346     11.8846     65.4028
