~Version Information
VERS.                      2.0: CWLS Log ASCII Standard - VERSION 2.0
WRAP.                       NO: One line per depth step
~Well Information Block
STRT.FT               315.0000: 
STOP.FT              1292.5000: 
STEP.FT                 0.1000: 
NULL.                -999.2500: 
COMP.          Pioneer Natural Resources: COMPANY
WELL.          Hot Tomatoes 22-20: WELL
FLD.           Purgatoire River: FIELD
LOC.           2120' FNL & 2585' FWL: LOCATION
CNTY.               Las Animas: COUNTY
SRVC.                Patterson: SERVICE COMPANY
DATE.          Mon Feb 27 07:06:41 2006: LOG DATE
UWI.           05 071 08701 00: UNIQUE WELL ID
STAT.                 Colorado: STATE
~Curve Information Block
DEPT.FT            0 000 00 00: Depth
DCAL.in                       : CDL Caliper
RHOB.g/cc                     : CDL Bulk Density
RHOC.g/cc                     : CDL Density Correction
DPOR.pu                       : CDL Density Porosity
GR.GAPI                       : Gamma Ray
NPOR.pu                       : Neutron Porosity
~Parameter Information Block
~A  Depth       DCAL        RHOB        RHOC        DPOR         GR         NPOR    
# ...
   439.8000      8.0272      2.5498      0.0607      6.0738    113.3097     21.1025
   439.9000      8.0272      2.5309      0.0756      7.2153    114.4922     21.6899
   440.0000      8.0297      2.5129      0.0169      8.3094    112.5705     22.3502
   440.1000      8.0297      2.4988      0.0086      9.1666    114.7757     22.5312
   440.2000      8.0297      2.4912     -0.0210      9.6244    120.5103     22.7498
   440.3000      8.0305      2.4888      0.0333      9.7701    124.8480     23.2667
   440.4000      8.0305      2.4849      0.0413     10.0038    125.5388     23.4897
   440.5000      8.0343      2.4840     -0.0222     10.0584    119.7433     23.3217
   440.6000      8.0343      2.4944      0.0265      9.4273    109.1946     22.9298
   440.7000      8.0343      2.5080      0.0378      8.6081    102.7264     22.2426
   440.8000      8.0355      2.5138      0.0802      8.2530    107.1534     21.5033
   440.9000      8.0355      2.5187      0.0427      7.9570    118.6174     20.8753
   441.0000      8.0405      2.5348      0.0928      6.9821    126.6889     20.4518
   441.1000      8.0405      2.5555      0.0497      5.7278    129.3963     20.7958
   441.2000      8.0405      2.5658      0.1134      5.1006    130.7313     22.0309
   441.3000      8.0387      2.5647      0.0926      5.1709    129.6397     23.2283
   441.4000      8.0387      2.5652      0.0924      5.1398    127.0779     23.4823
   441.5000      8.0338      2.5690      0.1483      4.9104    126.7274     23.0608
   441.6000      8.0338      2.5663      0.0887      5.0745    129.0340     22.8714
   441.7000      8.0338      2.5607      0.0642      5.4091    133.9588     23.4556
   441.8000      8.0345      2.5601      0.0898      5.4485    137.5904     24.3722
   441.9000      8.0345      2.5608      0.0532      5.4047    136.7150     24.5682
   442.0000      8.0369      2.5559      0.0529      5.7020    134.1994     23.7417
   442.1000      8.0369      2.5441      0.0871      6.4187    131.8291     22.7465
   442.2000      8.0369      2.5314      0.0415      7.1904    129.1967     22.2105
   442.3000      8.0335      2.5284      0.0011      7.3678    127.4107     22.1016
   442.4000      8.0335      2.5334      0.0418      7.0663    129.1139     22.3934
   442.5000      8.0365      2.5326      0.0544      7.1122    132.8269     22.9064
   442.6000      8.0365      2.5326     -0.0207      7.1179    132.3651     23.1592
   442.7000      8.0365      2.5417      0.0660      6.5646    125.1733     22.7980
   442.8000      8.0357      2.5446      0.0842      6.3898    116.4036     21.9471
   442.9000      8.0357      2.5362      0.0133      6.8962    112.5912     21.2630
   443.0000      8.0369      2.5263      0.0079      7.4963    113.0845     21.1699
   443.1000      8.0369      2.5177      0.0098      8.0206    114.2138     21.3586
   443.2000      8.0369      2.5192     -0.0408      7.9282    115.5234     21.4042
   443.3000      8.0396      2.5350      0.0464      6.9714    115.7540     21.3466
   443.4000      8.0396      2.5496      0.0405      6.0876    112.3787     21.4146
   443.5000      8.0336      2.5550      0.0698      5.7560    108.3952     21.8680
   443.6000      8.0336      2.5542      0.0506      5.8044    107.1853     22.5395
   443.7000      8.0336      2.5466      0.0833      6.2692    108.4396     22.7011
   443.8000      8.0318      2.5304      0.0129      7.2496    111.2011     22.3685
   443.9000      8.0318      2.5057      0.0427      8.7454    112.8008     22.1837
   444.0000      8.0350      2.4781     -0.0022     10.4156    110.2933     22.3349
   444.1000      8.0350      2.4718     -0.0689     10.8025    104.5898     22.8643
   444.2000      8.0350      2.4962      0.0386      9.3196    100.8101     23.6961
   444.3000      8.0354      2.5249      0.0410      7.5844    103.1082     24.3260
   444.4000      8.0354      2.5479      0.0408      6.1904    110.2276     24.6137
   444.5000      8.0334      2.5839      0.0385      4.0077    117.6842     24.8101
   444.6000      8.0334      2.6297      0.0962      1.2292    122.2103     24.2913
   444.7000      8.0334      2.6554      0.1363     -0.3288    123.3354     22.6414
   444.8000      8.0476      2.6510      0.0708     -0.0584    123.0775     21.3861
   444.9000      8.0476      2.6394      0.0460      0.6451    119.3474     21.4888
   445.0000      8.0625      2.6349      0.0850      0.9152    112.4749     21.9652
   445.1000      8.0625      2.6305      0.0610      1.1804    111.0157     22.3445
   445.2000      8.0625      2.6276      0.0262      1.3561    115.3389     22.8417
   445.3000      8.0608      2.6317      0.0347      1.1081    116.9467     23.4036
   445.4000      8.0608      2.6330      0.0264      1.0284    114.5220     23.9584
   445.5000      8.0421      2.6238      0.0484      1.5880    114.2098     24.3290
   445.6000      8.0421      2.6076      0.0738      2.5676    116.9331     24.2644
   445.7000      8.0421      2.5885      0.0761      3.7255    119.8627     23.5995
   445.8000      8.0426      2.5640      0.0516      5.2130    124.0659     22.7504
   445.9000      8.0426      2.5335      0.0081      7.0598    129.3269     22.3252
   446.0000      8.0411      2.5082      0.0194      8.5960    134.3452     22.4593
   446.1000      8.0411      2.4986      0.0045      9.1745    137.2780     23.1241
   446.2000      8.0411      2.5007      0.0257      9.0508    136.4394     24.1264
   446.3000      8.0410      2.5058      0.0104      8.7376    132.8932     24.5474
   446.4000      8.0410      2.5204      0.0285      7.8549    127.7077     24.2460
   446.5000      8.0464      2.5480      0.0528      6.1815    122.4234     24.1452
   446.6000      8.0464      2.5826     -0.0036      4.0850    121.6664     24.0376
   446.7000      8.0464      2.6209      0.0699      1.7657    128.0991     22.9827
   446.8000      8.0481      2.6493      0.1275      0.0436    136.0873     21.3481
   446.9000      8.0481      2.6507      0.0813     -0.0420    139.9010     20.4648
   447.0000      8.0455      2.6285      0.0396      1.3031    140.6393     20.8418
   447.1000      8.0455      2.5981     -0.0001      3.1483    142.1664     21.6916
   447.2000      8.0455      2.5722     -0.0450      4.7140    146.7024     21.9939
   447.3000      8.0495      2.5552     -0.0196      5.7432    149.4123     21.7159
   447.4000      8.0495      2.5379      0.0197      6.7923    145.5436     21.4230
   447.5000      8.0516      2.5160      0.0212      8.1202    142.7038     21.0394
   447.6000      8.0516      2.5005      0.0388      9.0586    145.8058     20.3046
   447.7000      8.0516      2.4895      0.0452      9.7301    147.8149     19.5578
   447.8000      8.0563      2.4681      0.0216     11.0230    147.8018     19.3684
   447.9000      8.0563      2.4438     -0.0893     12.4962    148.9864     19.5368
   448.0000      8.0634      2.4351     -0.0031     13.0234    149.6678     19.4799
   448.1000      8.0634      2.4346      0.0204     13.0525    148.8751     19.5615
   448.2000      8.0634      2.4253      0.0079     13.6195    147.6571     20.0590
   448.3000      8.0734      2.4088     -0.0150     14.6173    149.4035     20.0654
   448.4000      8.0734      2.3961     -0.0013     15.3898    157.8233     19.3881
   448.5000      8.1025      2.3899      0.0021     15.7611    168.5052     18.9337
   448.6000      8.1025      2.3898     -0.0127     15.7669    171.0998     19.0002
   448.7000      8.1025      2.3983      0.0194     15.2536    161.9395     19.3203
   448.8000      8.1470      2.4119      0.0551     14.4290    151.6786     19.9467
   448.9000      8.1470      2.4274      0.0282     13.4938    152.2424     20.6354
   449.0000      8.1616      2.4452      0.0596     12.4107    161.0843     20.5142
   449.1000      8.1616      2.4605      0.0283     11.4860    168.5381     19.7497
   449.2000      8.1616      2.4708      0.0651     10.8633    169.8412     19.4566
   449.3000      8.1332      2.4759      0.0986     10.5499    167.4824     20.0712
