~Version Information
VERS.                      2.0: CWLS Log ASCII Standard - VERSION 2.0
WRAP.                       NO: One line per depth step
~Well Information Block
STRT.FT                -7.5000: 
STOP.FT              1350.7500: 
STEP.FT                 0.2500: 
NULL.                -999.2500: 
COMP.          Pioneer Natural Resources: COMPANY
WELL.            Gamma 13-3 Tr: WELL
FLD.           Purgatorie River: FIELD
LOC.           2127' FSL & 738' FWL: LOCATION
STAT.                       CO: State
CNTY.               Las Animas: COUNTY
CTRY.                      USA: Country
SECT.                        3: Section
TOWN.                      33S: Township
RANG.                      67W: Range
SRVC.          Patterson Wireline: SERVICE COMPANY
DATE.          Fri Sep 23 13:24:40 2005: LOG DATE
API.           05 071 08524 00: API
~Curve Information Block
DEPT.FT            0 000 00 00: Depth
CCL.                          : Casing Collar Locator
TT3.usec                      : CBL 3' Travel Time
AMP3.mV                       : CBL 3' Amplitude
GR.GAPI                       : Gamma Ray
~Parameter Information Block
~A  Depth       CCL         TT3         AMP3         GR     
# ...
   260.5000      0.0000    737.7114     12.3757     97.7853
   260.7500      0.0000    726.9424     12.3836     93.7829
   261.0000      0.0000    718.2537     12.4100     88.0448
   261.2500      0.0000    712.2236     12.4549     82.2733
   261.5000      0.0000    709.8335     12.5108     78.0345
   261.7500      0.0000    712.4909     12.5654     75.9176
   262.0000      0.0000    720.8339     12.6062     75.7351
   262.2500      0.0000    733.7520     12.6270     77.2123
   262.5000      0.0000    748.5388     12.6291     80.0354
   262.7500      0.0000    761.7844     12.6204     83.3258
   263.0000      0.0000    770.5573     12.6095     85.7974
   263.2500      0.0000    773.1341     12.6015     86.7658
   263.5000      0.0000    768.8629     12.5985     86.5348
   263.7500      0.0000    758.4444     12.6029     85.6851
   264.0000      0.0000    745.3501     12.6156     84.3685
   264.2500      0.0000    735.9772     12.6319     82.2425
   264.5000      0.0000    736.0026     12.6414     78.8932
   264.7500      0.0000    745.7303     12.6372     74.6142
   265.0000      0.0000    759.9586     12.6246     70.7030
   265.2500      0.0000    772.3904     12.6192     68.3829
   265.5000      0.0000    779.4434     12.6345     67.3514
   265.7500      0.0000    780.8305     12.6696     66.0073
   266.0000      0.0000    778.6021     12.7121     63.3266
   266.2500      0.0000    775.8286     12.7522     59.9551
   266.5000      0.0000    774.7828     12.7945     57.1015
   266.7500      0.0000    775.7111     12.8515     54.8722
   267.0000      0.0000    777.4513     12.9278     52.3633
   267.2500      0.0000    778.9631     13.0103     49.2513
   267.5000      0.0000    780.0963     13.0770     46.6380
   267.7500      0.0000    781.4297     13.1138     45.9963
   268.0000      0.0000    783.8201     13.1254     47.4343
   268.2500      0.0000    787.8297     13.1298     49.1586
   268.5000      0.0000    793.0028     13.1418     48.7976
   268.7500      0.0000    797.5822     13.1625     45.4904
   269.0000      0.0000    799.3924     13.1837     40.6451
   269.2500      0.0000    797.4588     13.2022     36.4784
   269.5000      0.0000    792.8181     13.2292     34.0043
   269.7500      0.0000    787.6440     13.2824     32.7287
   270.0000      0.0000    783.6464     13.3713     31.9939
   270.2500      0.0000    781.2888     13.4899     31.9925
   270.5000      0.0000    780.1987     13.6232     33.2997
   270.7500      0.0000    779.9854     13.7588     35.8302
   271.0000      0.0000    780.7209     13.8908     38.6304
   271.2500      0.0000    782.9081     14.0136     40.6164
   271.5000      0.0000    787.0350     14.1143     41.3324
   271.7500      0.0000    792.9188     14.1762     41.0267
   272.0000      0.0000    799.3241     14.1910     40.2329
   272.2500      0.0000    804.3057     14.1666     39.3525
   272.5000      0.0000    806.0507     14.1214     38.4973
   272.7500      0.0000    803.5656     14.0731     37.6136
   273.0000      0.0000    797.0684     14.0331     36.7667
   273.2500      0.0000    788.2427     14.0076     36.2676
   273.5000      0.0000    779.9429     13.9977     36.4747
   273.7500      0.0000    774.8589     13.9997     37.4383
   274.0000      0.0000    773.8652     14.0071     38.7343
   274.2500      0.0000    775.6542     14.0160     39.8061
   274.5000      0.0000    778.0798     14.0296     40.5864
   274.7500      0.0000    779.7498     14.0572     41.5029
   275.0000      0.0000    780.4645     14.1082     42.5861
   275.2500      0.0000    780.6616     14.1806     42.9135
   275.5000      0.0000    780.8053     14.2567     41.5373
   275.7500      0.0000    781.2000     14.3107     38.8612
   276.0000      0.0000    782.1567     14.3248     36.5438
   276.2500      0.0000    784.1890     14.3009     35.9713
   276.5000      0.0000    787.8331     14.2584     37.1542
   276.7500      0.0000    792.9874     14.2209     39.0289
   277.0000      0.0000    798.3823     14.2015     40.5125
   277.2500      0.0000    801.9738     14.1999     41.2820
   277.5000      0.0000    802.1873     14.2131     41.7260
   277.7500      0.0000    798.9925     14.2454     42.3161
   278.0000      0.0000    793.8488     14.3048     43.2594
   278.2500      0.0000    788.5100     14.3884     44.7457
   278.5000      0.0000    783.6943     14.4764     47.1404
   278.7500      0.0000    778.8270     14.5475     50.7395
   279.0000      0.0000    773.1602     14.5978     55.4138
   279.2500      0.0000    767.2654     14.6448     60.5308
   279.5000      0.0000    763.2833     14.7106     65.2349
   279.7500      0.0000    763.2560     14.8015     69.0190
   280.0000      0.0000    767.1050     14.9048     72.1249
   280.2500      0.0000    772.5988     15.0005     75.1686
   280.5000      0.0000    777.2989     15.0754     78.2413
   280.7500      0.0000    780.1635     15.1309     80.5295
   281.0000      0.0000    781.4615     15.1804     80.9947
   281.2500      0.0000    781.8617     15.2360     79.5696
   281.5000      0.0000    781.8698     15.2964     77.6436
   281.7500      0.0000    781.7560     15.3475     77.0232
   282.0000      0.0000    781.6176     15.3766     78.2692
   282.2500      0.0000    781.4117     15.3822     80.4487
   282.5000      0.0000    780.9683     15.3675     82.5518
   282.7500      0.0000    779.9673     15.3271     84.5914
   283.0000      0.0000    778.0026     15.2364     87.1695
   283.2500      0.0000    774.8700     15.0393     90.4284
   283.5000      0.0000    770.7555     14.6441     93.5729
   283.7500      0.0000    765.6537     13.9691     95.3738
   284.0000      0.0000    758.6350     13.0486     95.3660
   284.2500      0.0000    748.8062     12.0977     94.4530
   284.5000      0.0000    738.0951     11.4039     93.9290
   284.7500      0.0000    732.3877     11.1083     93.9275
   285.0000      0.0000    737.9417     11.1183     93.2259
   285.2500      0.0000    755.6486     11.2386     90.6689
   285.5000      0.0000    779.1757     11.3391     86.5699
   285.7500     -2.0000    798.7541     11.3955     82.5558
   286.0000      2.0000    805.3965     11.4441     80.1471
   286.2500      0.0000    792.0419     11.5477     79.5461
   286.5000      0.0000    754.8262     11.8038     79.6749
   286.7500      0.0000    696.4558     12.3504     79.3635
   287.0000      0.0000    627.7021     13.2871     78.5449
   287.2500      0.0000    563.7133     14.5197     78.2330
   287.5000      0.0000    516.9927     15.7209     79.2739
   287.7500      0.0000    491.6353     16.5569     81.2866
   288.0000      0.0000    483.5525     16.9504     82.9962
   288.2500      0.0000    486.5127     17.0595     83.4871
   288.5000      0.0000    497.1191     17.0564     82.9790
   288.7500      0.0000    515.4568     17.0052     82.5881
   289.0000      0.0000    544.7322     16.9021     83.5911
   289.2500      0.0000    588.1179     16.7442     86.5931
   289.5000      0.0000    641.3146     16.5498     90.9125
   289.7500      0.0000    691.0018     16.3453     94.7905
   290.0000      0.0000    724.7545     16.1524     96.5134
   290.2500      0.0000    740.6103     15.9831     95.4813
   290.5000      0.0000    745.1890     15.8424     92.5407
   290.7500      0.0000    745.4169     15.7274     89.5790
   291.0000      0.0000    744.1974     15.6301     88.5122
   291.2500      0.0000    741.9948     15.5404     90.1166
   291.5000      0.0000    739.6398     15.4497     93.6018
   291.7500      0.0000    738.8253     15.3566     97.2964
   292.0000      0.0000    740.7656     15.2731     99.6408
   292.2500      0.0000    745.1779     15.2231     99.6693
   292.5000      0.0000    750.4908     15.2262     97.0525
   292.7500      0.0000    754.6939     15.2835     92.2282
   293.0000      0.0000    756.2056     15.3764     86.6217
   293.2500      0.0000    754.7399     15.4782     82.4349
   293.5000      0.0000    751.8681     15.5665     81.5489
   293.7500      0.0000    750.1229     15.6306     83.9771
