~Version Information
VERS.                      2.0: CWLS Log ASCII Standard - VERSION 2.0
WRAP.                       NO: One line per depth step
~Well Information Block
STRT.FT               555.0000: 
STOP.FT              2283.0000: 
STEP.FT                 0.2500: 
NULL.                -999.2500: 
COMP.          Pioneer Natural Resources: COMPANY
WELL.          Roadster 41-33 Kv: WELL
FLD.           Purgatoire River: FIELD
LOC.           903' FNL & 248' FEL: LOCATION
PROV.                 Colorado: PROVINCE
CNTY.               Las Animas: COUNTRY
SRVC.                Patterson: SERVICE COMPANY
DATE.          Wed Dec 14 23:52:42 2005: LOG DATE
UWI.           05 071 08615 00: UNIQUE WELL ID
~Curve Information Block
DEPT.FT            0 000 00 00: Depth
SN.Ohm-m                      : IEL Short Normal
SP.mV                         : IEL Spontaneous Potential
DIR.Ohm-m                     : IEL Induction Resistivity
GR.GAPI                       : Gamma Ray
~Parameter Information Block
~A  Depth        SN          SP         DIR          GR     
# ...
  1459.5000     11.4590     28.9398      9.2517    158.1948
  1459.7500     11.4054     28.9429      9.2735    158.7015
  1460.0000     11.3259     28.9453      9.3365    160.1597
  1460.2500     11.2372     28.9509      9.4377    161.5526
  1460.5000     11.1604     28.9588      9.5693    163.5544
  1460.7500     11.0920     28.9662      9.7205    163.9183
  1461.0000     11.0167     28.9734      9.8812    161.2747
  1461.2500     10.9379     28.9870     10.0469    157.1342
  1461.5000     10.8735     29.0211     10.2220    149.1256
  1461.7500     10.8538     29.0963     10.4181    144.3586
  1462.0000     10.9375     29.2337     10.6513    140.3594
  1462.2500     11.2223     29.4439     10.9398    140.0666
  1462.5000     11.8423     29.7172     11.3026    142.1476
  1462.7500     12.9092     30.0214     11.7576    144.1985
  1463.0000     14.3773     30.3131     12.3150    146.4642
  1463.2500     16.0010     30.5547     12.9678    146.6759
  1463.5000     17.4915     30.7285     13.6841    144.8846
  1463.7500     18.7006     30.8412     14.4086    142.8190
  1464.0000     19.6412     30.9180     15.0783    139.2762
  1464.2500     20.3932     30.9921     15.6438    136.4975
  1464.5000     21.0329     31.0918     16.0814    130.7809
  1464.7500     21.6286     31.2328     16.3901    125.7941
  1465.0000     22.2424     31.4159     16.5819    117.8458
  1465.2500     22.8839     31.6286     16.6760    113.5591
  1465.5000     23.4814     31.8499     16.6965    110.6945
  1465.7500     23.9176     32.0542     16.6696    111.7500
  1466.0000     24.0621     32.2141     16.6183    117.3291
  1466.2500     23.8011     32.3056     16.5568    122.7292
  1466.5000     23.1279     32.3150     16.4887    131.3931
  1466.7500     22.1892     32.2455     16.4125    136.7485
  1467.0000     21.1757     32.1156     16.3262    143.4095
  1467.2500     20.2086     31.9523     16.2317    146.6677
  1467.5000     19.3567     31.7811     16.1339    149.7236
  1467.7500     18.6987     31.6192     16.0396    150.9731
  1468.0000     18.3110     31.4714     15.9564    152.8554
  1468.2500     18.1856     31.3319     15.8925    154.3427
  1468.5000     18.2171     31.1905     15.8618    155.4821
  1468.7500     18.3279     31.0385     15.8902    154.0612
  1469.0000     18.5657     30.8691     16.0141    147.4025
  1469.2500     19.0428     30.6735     16.2688    140.6592
  1469.5000     19.8514     30.4425     16.6717    129.7200
  1469.7500     21.0493     30.1753     17.2138    123.0495
  1470.0000     22.6416     29.8875     17.8588    114.2426
  1470.2500     24.5405     29.6074     18.5492    108.6216
  1470.5000     26.5488     29.3652     19.2205     99.8568
  1470.7500     28.4032     29.1837     19.8236     94.0326
  1471.0000     29.8927     29.0717     20.3462     86.4573
  1471.2500     30.9532     29.0200     20.8105     82.5724
  1471.5000     31.6316     29.0001     21.2510     78.1317
  1471.7500     31.9802     28.9720     21.6908     75.7063
  1472.0000     32.0159     28.9023     22.1350     72.9555
  1472.2500     31.7607     28.7846     22.5779     72.2767
  1472.5000     31.2881     28.6433     23.0090     73.9667
  1472.7500     30.7267     28.5184     23.4138     76.8864
  1473.0000     30.2245     28.4441     23.7703     82.5201
  1473.2500     29.8920     28.4365     24.0522     85.8245
  1473.5000     29.7472     28.4901     24.2456     88.4593
  1473.7500     29.7467     28.5805     24.3673     88.4675
  1474.0000     29.8996     28.6728     24.4658     86.5357
  1474.2500     30.3082     28.7371     24.5958     84.5132
  1474.5000     31.1042     28.7599     24.7899     81.0058
  1474.7500     32.3521     28.7469     25.0497     78.3915
  1475.0000     33.9498     28.7162     25.3589     73.8164
  1475.2500     35.6230     28.6874     25.6957     70.3814
  1475.5000     37.0686     28.6697     26.0302     65.4704
  1475.7500     38.1013     28.6567     26.3089     63.0559
  1476.0000     38.6833     28.6340     26.4452     61.5745
  1476.2500     38.8660     28.5930     26.3329     62.0592
  1476.5000     38.6956     28.5368     25.8820     64.2788
  1476.7500     38.1771     28.4754     25.0613     66.1294
  1477.0000     37.3156     28.4171     23.9169     68.7948
  1477.2500     36.0975     28.3625     22.5512     70.4948
  1477.5000     34.4493     28.3032     21.0823     73.1411
  1477.7500     32.3157     28.2248     19.6120     75.0710
  1478.0000     29.7647     28.1155     18.2127     78.7751
  1478.2500     26.9939     27.9782     16.9294     82.5037
  1478.5000     24.2553     27.8324     15.7859     91.3584
  1478.7500     21.7549     27.7018     14.7902     99.8718
  1479.0000     19.6032     27.5983     13.9385    116.2134
  1479.2500     17.8398     27.5199     13.2220    128.6453
  1479.5000     16.4569     27.4585     12.6333    147.4187
  1479.7500     15.4049     27.4047     12.1702    158.6606
  1480.0000     14.6159     27.3495     11.8329    169.9321
  1480.2500     14.0278     27.2880     11.6172    174.5906
  1480.5000     13.6050     27.2207     11.5098    178.1936
  1480.7500     13.3446     27.1534     11.4904    178.5211
  1481.0000     13.2556     27.0980     11.5389    176.2414
  1481.2500     13.3430     27.0761     11.6426    173.0030
  1481.5000     13.6001     27.1161     11.7997    166.0027
  1481.7500     13.9805     27.2404     12.0170    160.3630
  1482.0000     14.4066     27.4533     12.3047    151.3582
  1482.2500     14.8586     27.7399     12.6712    145.4758
  1482.5000     15.4490     28.0714     13.1198    137.1430
  1482.7500     16.3585     28.4122     13.6473    131.5578
  1483.0000     17.6593     28.7298     14.2420    122.1729
  1483.2500     19.2053     29.0053     14.8795    115.3620
  1483.5000     20.7332     29.2365     15.5173    106.5501
  1483.7500     22.0542     29.4317     16.0928    103.3123
  1484.0000     23.0967     29.6002     16.5347    103.3270
  1484.2500     23.7998     29.7491     16.7868    105.3354
  1484.5000     24.0330     29.8853     16.8339    107.8253
  1484.7500     23.6661     30.0163     16.7103    107.8733
  1485.0000     22.7420     30.1461     16.4822    106.3576
  1485.2500     21.5344     30.2732     16.2191    106.0757
  1485.5000     20.3624     30.3894     15.9720    109.6840
  1485.7500     19.3816     30.4834     15.7656    115.3595
  1486.0000     18.5905     30.5430     15.6005    127.4634
  1486.2500     17.9437     30.5579     15.4586    136.2191
  1486.5000     17.3984     30.5223     15.3099    146.9566
  1486.7500     16.9157     30.4397     15.1246    150.8288
  1487.0000     16.4808     30.3248     14.8867    150.3171
  1487.2500     16.1094     30.2008     14.6036    146.0838
  1487.5000     15.8250     30.0945     14.3049    136.3329
  1487.7500     15.6647     30.0295     14.0305    129.8238
  1488.0000     15.7009     30.0178     13.8149    123.9926
  1488.2500     15.9881     30.0518     13.6781    123.8274
  1488.5000     16.4677     30.1040     13.6221    127.5482
  1488.7500     16.9580     30.1404     13.6327    130.4235
  1489.0000     17.2424     30.1406     13.6826    132.3753
  1489.2500     17.2007     30.1081     13.7347    131.8768
  1489.5000     16.8947     30.0654     13.7485    129.6760
  1489.7500     16.4959     30.0405     13.6888    127.9826
  1490.0000     16.1568     30.0550     13.5359    125.9790
  1490.2500     15.9298     30.1167     13.2928    125.4941
  1490.5000     15.7383     30.2161     12.9826    126.5477
  1490.7500     15.4586     30.3308     12.6373    128.1828
  1491.0000     15.0403     30.4326     12.2847    131.2088
  1491.2500     14.5262     30.4950     11.9400    133.6324
  1491.5000     13.9977     30.5003     11.6076    138.7959
  1491.7500     13.5212     30.4460     11.2871    143.4578
  1492.0000     13.1170     30.3462     10.9791    151.1641
  1492.2500     12.7649     30.2227     10.6866    155.8258
  1492.5000     12.4335     30.0902     10.4137    161.2552
  1492.7500     12.1122     29.9502     10.1639    163.7738
