~Version Information
VERS.                      2.0: CWLS Log ASCII Standard - VERSION 2.0
WRAP.                       NO: One line per depth step
~Well Information Block
STRT.FT               665.0000: 
STOP.FT              2193.5000: 
STEP.FT                 0.1000: 
NULL.                -999.2500: 
COMP.          Pioneer Natural Resources: COMPANY
WELL.          Bear Cub Federal 11-23: WELL
FLD.           Purgatoire River: FIELD
LOC.           1225' FNL & 1268' FWL--: LOCATION
CNTY.               Las Animas: COUNTY
SRVC.                Patterson: SERVICE COMPANY
DATE.          Tue Jun 20 09:14:02 2006: LOG DATE
UWI.           05 071 08509 00: UNIQUE WELL ID
STAT.                 Colorado: STATE
~Curve Information Block
DEPT.FT            0 000 00 00: Depth
DCAL.in                       : CDL Caliper
RHOB.g/cc                     : CDL Bulk Density
RHOC.g/cc                     : CDL Density Correction
DPOR.pu                       : CDL Density Porosity
NPOR.pu                       : Neutron Porosity
GR.GAPI                       : Gamma Ray
~Parameter Information Block
~A  Depth       DCAL        RHOB        RHOC        DPOR        NPOR         GR     
# ...
  1557.8000      7.9646      2.4079      0.0798     14.6752     23.4275     86.9298
  1557.9000      7.9646      2.3859      0.0210     16.0071     23.5457     91.3243
  1558.0000      7.9687      2.3562      0.0261     17.8037     23.6002     96.6555
  1558.1000      7.9687      2.3245     -0.0006     19.7274     23.3252    101.8181
  1558.2000      7.9687      2.2918      0.0462     21.7071     22.6928    105.7162
  1558.3000      7.9713      2.2475      0.0583     24.3913     21.7727    109.7931
  1558.4000      7.9713      2.1964      0.0159     27.4879     20.8845    114.9722
  1558.5000      7.9687      2.1719      0.0065     28.9757     20.0960    118.6024
  1558.6000      7.9687      2.1899      0.1338     27.8856     19.0405    119.2631
  1558.7000      7.9687      2.2253      0.1900     25.7394     17.7974    118.8587
  1558.8000      7.9661      2.2519      0.1717     24.1254     16.9044    120.6512
  1558.9000      7.9661      2.2713      0.1507     22.9529     16.6751    126.1759
  1559.0000      7.9670      2.2956      0.1531     21.4764     16.9797    133.1621
  1559.1000      7.9670      2.3279      0.1996     19.5203     17.4832    139.3996
  1559.2000      7.9670      2.3614      0.2438     17.4923     18.3142    142.5343
  1559.3000      7.9683      2.3920      0.1978     15.6369     19.6480    141.1230
  1559.4000      7.9683      2.4223      0.1011     13.8001     20.9559    139.4953
  1559.5000      7.9689      2.4528      0.0998     11.9527     21.7753    140.6488
  1559.6000      7.9689      2.4835      0.1191     10.0885     22.4003    142.5036
  1559.7000      7.9689      2.5196      0.1203      7.9003     23.1646    143.1140
  1559.8000      7.9690      2.5560      0.1448      5.6999     24.0421    142.8217
  1559.9000      7.9690      2.5743      0.1271      4.5860     24.7676    142.8508
  1560.0000      7.9665      2.5700      0.1298      4.8477     25.0309    144.4185
  1560.1000      7.9665      2.5540      0.1119      5.8153     25.0783    145.0931
  1560.2000      7.9665      2.5415      0.0848      6.5731     25.2559    141.6265
  1560.3000      7.9614      2.5454      0.0791      6.3368     25.4104    139.9888
  1560.4000      7.9614      2.5640      0.0996      5.2149     25.6164    144.3894
  1560.5000      7.9570      2.5744      0.1316      4.5841     26.1944    147.4906
  1560.6000      7.9570      2.5648      0.0651      5.1660     26.8250    143.7384
  1560.7000      7.9570      2.5546      0.0576      5.7802     26.9037    136.1740
  1560.8000      7.9533      2.5562      0.0915      5.6850     26.5275    128.8393
  1560.9000      7.9533      2.5566      0.0835      5.6634     26.1201    125.2545
  1561.0000      7.9494      2.5485      0.0713      6.1493     25.8220    127.8609
  1561.1000      7.9494      2.5452      0.0509      6.3525     25.8243    134.2312
  1561.2000      7.9494      2.5558      0.0894      5.7071     26.0434    139.7574
  1561.3000      7.9475      2.5682      0.1071      4.9598     25.9396    142.2533
  1561.4000      7.9475      2.5704      0.1235      4.8242     25.4802    141.3991
  1561.5000      7.9458      2.5653      0.1076      5.1313     25.2290    138.4502
  1561.6000      7.9458      2.5599      0.0889      5.4589     25.4731    136.6765
  1561.7000      7.9458      2.5569      0.0848      5.6446     25.9602    136.7180
  1561.8000      7.9447      2.5595      0.0910      5.4822     26.3071    136.5778
  1561.9000      7.9447      2.5738      0.0723      4.6211     26.2080    136.6649
  1562.0000      7.9456      2.5841      0.1455      3.9935     25.6200    135.3689
  1562.1000      7.9456      2.5656      0.0922      5.1155     24.9284    130.7258
  1562.2000      7.9456      2.5266      0.0727      7.4804     24.4275    124.9285
  1562.3000      7.9449      2.4918      0.0595      9.5863     24.0933    120.3341
  1562.4000      7.9449      2.4787      0.0593     10.3801     23.8546    118.1703
  1562.5000      7.9453      2.4945      0.0554      9.4220     23.7763    118.1463
  1562.6000      7.9453      2.5289      0.0962      7.3367     23.8176    118.1568
  1562.7000      7.9453      2.5586      0.0876      5.5401     23.9350    118.4567
  1562.8000      7.9509      2.5741      0.0961      4.5985     24.2369    123.4116
  1562.9000      7.9509      2.5856      0.1047      3.9055     24.6165    132.5662
  1563.0000      7.9552      2.5997      0.1180      3.0513     24.8081    137.1288
  1563.1000      7.9552      2.6085      0.1449      2.5179     24.7248    130.9487
  1563.2000      7.9552      2.6027      0.1247      2.8669     24.6081    118.5071
  1563.3000      7.9497      2.5891      0.1267      3.6885     24.6761    108.9105
  1563.4000      7.9497      2.5798      0.1276      4.2522     24.7691    106.2360
  1563.5000      7.9386      2.5759      0.1408      4.4926     24.7896    107.0208
  1563.6000      7.9386      2.5765      0.0613      4.4531     24.8374    105.5403
  1563.7000      7.9386      2.5813      0.1074      4.1632     25.0008    102.0053
  1563.8000      7.9328      2.5839      0.0811      4.0076     25.3833    100.3571
  1563.9000      7.9328      2.5896      0.0700      3.6632     25.7445     99.4470
  1564.0000      7.9340      2.6005      0.1103      2.9982     25.7646     98.2061
  1564.1000      7.9340      2.6066      0.0966      2.6331     25.7209     99.9307
  1564.2000      7.9340      2.6149      0.0738      2.1291     26.1119    103.7677
  1564.3000      7.9358      2.6381      0.1167      0.7213     27.0398    105.4260
  1564.4000      7.9358      2.6617      0.1869     -0.7106     28.1427    104.5399
  1564.5000      7.9368      2.6647      0.1357     -0.8884     29.0282    104.4580
  1564.6000      7.9368      2.6507      0.1226     -0.0446     29.6245    105.4065
  1564.7000      7.9368      2.6282      0.0647      1.3198     29.8351    104.7561
  1564.8000      7.9400      2.5969      0.0645      3.2168     29.7159    104.1243
  1564.9000      7.9400      2.5630      0.0418      5.2713     29.5210    104.6415
  1565.0000      7.9473      2.5369      0.0426      6.8554     29.4020    105.3611
  1565.1000      7.9473      2.5237     -0.0148      7.6556     29.4646    107.9636
  1565.2000      7.9473      2.5240      0.0298      7.6392     29.4215    112.9781
  1565.3000      7.9534      2.5236      0.0771      7.6628     28.8468    117.0759
  1565.4000      7.9534      2.5105      0.0445      8.4518     28.0439    119.5143
  1565.5000      7.9552      2.4949      0.0743      9.4025     27.3429    123.4213
  1565.6000      7.9552      2.4807      0.0735     10.2595     26.4856    129.0123
  1565.7000      7.9552      2.4578      0.1221     11.6489     25.4327    135.4322
  1565.8000      7.9603      2.4225      0.0964     13.7867     24.5876    141.3773
  1565.9000      7.9603      2.3713      0.1147     16.8890     24.0617    144.0347
  1566.0000      7.9696      2.2954      0.0716     21.4930     23.5760    143.1972
  1566.1000      7.9696      2.2132      0.0164     26.4707     22.7629    141.1399
  1566.2000      7.9696      2.1644      0.0406     29.4325     21.6358    137.7128
  1566.3000      7.9744      2.1589      0.0585     29.7657     20.5916    133.5237
  1566.4000      7.9744      2.1771      0.0802     28.6581     19.7684    131.9064
  1566.5000      7.9738      2.2053      0.1011     26.9527     18.8504    132.3551
  1566.6000      7.9738      2.2413      0.1313     24.7668     17.7632    130.6012
  1566.7000      7.9738      2.2836      0.1869     22.2046     17.0534    126.2957
  1566.8000      7.9743      2.3325      0.2034     19.2437     17.1217    121.2784
  1566.9000      7.9743      2.3858      0.2519     16.0120     17.7135    117.2336
  1567.0000      7.9731      2.4281      0.2427     13.4512     18.7620    116.4603
  1567.1000      7.9731      2.4558      0.1130     11.7694     20.5330    117.2780
  1567.2000      7.9731      2.4916      0.0742      9.5982     22.4827    116.9286
  1567.3000      7.9695      2.5388      0.1078      6.7390     23.8912    117.5816
