~Version Information
 VERS.                                  2.0 : CWLS LAS VERSION
 WRAP.                                   NO : WRAPING MODE
 SWARE .                 MController 2.5.0J : SOFTWARE VERSION
~Well Information
 WELL.                    Buena Vista 31-03 : WELL
 COMP.    Pioneer Natural Resources USA Inc : COMPANY
 FLD.                      Purgatoire River : FIELD
 LOC.                  NWNE Sec03 T35S R65W : LOCATION
 DATE.                             01/24/06 : DATE(S) LOGGED
 SRVC.       Blanco Geological Services LLC : SERVICE COMPANY
 STAT.                             Colorado : STATE
 CNTY.                           Las Animas : COUNTY
 CTRY.                                  USA : COUNTRY
 API.                          05-071-08663 : API NUMBER
 STRT.FT                             175.00 : START DEPTH
 STOP.FT                            1165.00 : STOP DEPTH
 STEP.FT                               1.00 : DEPTH INCREMENT
 NULL.                                -9999 : NULL VALUE
~Curve information
 DEPTH.FT                                   :
 ROP.MIN/FT                                 :
 GAS.UNITS                                  :
~ASCII Log data
# ...
       975.0         0.20         69.3 
       976.0         0.17         67.7 
       977.0         0.17         65.6 
       978.0         0.17         61.7 
       979.0         0.23         52.7 
       980.0         0.27         46.5 
       981.0         0.20         44.9 
       982.0         0.17         41.4 
       983.0         0.20         34.4 
       984.0         0.17         34.4 
       985.0         0.17         30.2 
       986.0         4.70         51.3 
       987.0         0.47         31.1 
       988.0         0.27         31.1 
       989.0         0.27         32.6 
       990.0         0.20         33.2 
       991.0         0.17         31.9 
       992.0         0.23         29.7 
       993.0         0.27         27.9 
       994.0         0.23         25.5 
       995.0         0.27         28.5 
       996.0         0.20         31.4 
       997.0         0.18         33.8 
       998.0         0.17         34.3 
       999.0         0.17         32.2 
      1000.0         0.13         30.1 
      1001.0         0.20         32.4 
      1002.0         0.17         32.4 
      1003.0         0.17         48.9 
      1004.0         0.20         48.9 
      1005.0         0.17         65.2 
      1006.0         0.17         76.1 
      1007.0         0.17         76.1 
      1008.0         0.20         77.5 
      1009.0         0.20         74.3 
      1010.0         0.33         70.8 
      1011.0         0.27         69.4 
      1012.0         0.23         66.4 
      1013.0         0.27         65.0 
      1014.0         0.28         55.8 
      1015.0         0.27         41.2 
      1016.0         3.12        107.8 
      1017.0         0.37         82.2 
      1018.0         0.33         76.5 
      1019.0         0.33         71.4 
      1020.0         0.30         68.8 
      1021.0         0.27         64.3 
      1022.0         0.27         58.9 
      1023.0         0.30         54.3 
      1024.0         0.27         51.3 
      1025.0         0.30         48.4 
      1026.0         0.30         47.7 
      1027.0         0.32         46.8 
      1028.0         0.30         47.2 
      1029.0         0.27         46.0 
      1030.0         0.30         46.9 
      1031.0         0.30         46.1 
      1032.0         0.27         44.4 
      1033.0         0.30         44.7 
      1034.0         0.30         45.3 
      1035.0         0.30         45.7 
      1036.0         0.30         45.3 
      1037.0         0.30         45.5 
      1038.0         0.28         45.7 
      1039.0         0.27         46.5 
      1040.0         0.30         46.7 
      1041.0         0.27         46.4 
      1042.0         0.27         49.4 
      1043.0         0.27         48.6 
      1044.0         0.30         42.3 
      1045.0         0.33         32.1 
      1046.0         3.38        100.5 
      1047.0         0.37         65.9 
      1048.0         0.30         65.7 
      1049.0         0.27         64.3 
      1050.0         0.23         61.7 
      1051.0         0.28         61.1 
      1052.0         0.27         56.8 
      1053.0         0.27         53.1 
      1054.0         0.27         49.2 
      1055.0         0.27         48.1 
      1056.0         0.30         48.2 
      1057.0         0.30         47.5 
      1058.0         0.27         46.6 
      1059.0         0.27         45.7 
      1060.0         0.30         45.5 
      1061.0         0.27         44.6 
      1062.0         0.30         45.2 
      1063.0         0.28         44.7 
      1064.0         0.30         46.2 
      1065.0         0.30         46.6 
      1066.0         0.30         45.7 
      1067.0         0.30         45.6 
      1068.0         0.30         45.4 
      1069.0         0.30         44.7 
      1070.0         0.30         44.8 
      1071.0         0.30         48.6 
      1072.0         0.30         49.8 
      1073.0         0.30         43.3 
      1074.0         0.35         32.0 
      1075.0         0.30         20.1 
      1076.0         3.25        115.6 
      1077.0         0.40         66.5 
      1078.0         0.40         62.9 
      1079.0         0.33         58.1 
      1080.0         0.33         54.8 
      1081.0         0.37         53.1 
      1082.0         0.30         52.3 
      1083.0         0.33         51.2 
      1084.0         0.33         49.3 
      1085.0         0.35         47.6 
      1086.0         0.37         47.2 
      1087.0         0.33         46.4 
      1088.0         0.33         46.3 
      1089.0         0.33         47.5 
      1090.0         0.33         47.9 
      1091.0         0.33         44.0 
      1092.0         0.33         48.2 
      1093.0         0.17         48.2 
      1094.0         0.33         51.1 
      1095.0         0.23         51.1 
      1096.0         0.25         49.8 
      1097.0         0.23         48.6 
      1098.0         0.27         48.2 
      1099.0         0.23         51.6 
      1100.0         0.37         63.8 
      1101.0         0.20         74.4 
      1102.0         0.27         64.4 
      1103.0         0.20         42.2 
      1104.0         0.23         33.5 
      1105.0         0.47         28.1 
      1106.0         3.12        164.2 
      1107.0         0.37        170.6 
      1108.0         0.40        349.6 
      1109.0         0.22        364.9 
      1110.0         0.20       1033.2 
      1111.0         0.20       1184.0 
      1112.0         0.27       1308.7 
      1113.0         0.23       1145.0 
      1114.0         0.20        978.3 
      1115.0         0.17        978.3 
      1116.0         0.17        809.5 
      1117.0         0.20        772.3 
      1118.0         0.27        628.9 
      1119.0         0.33        601.6 
      1120.0         0.53        491.5 
      1121.0         0.33        435.0 
      1122.0         0.38        431.2 
      1123.0         0.37        411.5 
      1124.0         0.30        400.0 
      1125.0         0.27        400.0 
      1126.0         0.27         96.4 
      1127.0         0.27         97.4 
      1128.0         0.27         92.6 
      1129.0         0.23         90.0 
      1130.0         0.30         84.1 
      1131.0         0.23         84.5 
      1132.0         0.40         86.7 
      1133.0         0.48         91.8 
      1134.0         0.47         99.8 
      1135.0         0.60         67.5 
      1136.0         4.08        209.7 
      1137.0         0.43        131.5 
      1138.0         0.33        129.3 
      1139.0         0.37        109.2 
      1140.0         0.32         91.4 
      1141.0         0.27         86.9 
      1142.0         0.30         86.3 
      1143.0         0.23         83.6 
      1144.0         0.20         81.6 
      1145.0         0.20         73.1 
      1146.0         0.43         69.6 
      1147.0         0.43         66.3 
      1148.0         0.47         68.3 
      1149.0         0.43         71.3 
      1150.0         0.45         70.1 
      1151.0         0.43         70.2 
      1152.0         0.57         69.6 
      1153.0         0.50         63.5 
      1154.0         0.43         65.1 
      1155.0         0.53         66.1 
      1156.0         0.55         64.5 
      1157.0         0.53         63.0 
      1158.0         0.50         62.9 
      1159.0         0.53         62.0 
      1160.0         0.50         64.0 
      1161.0         0.67         63.5 
      1162.0         0.27         63.1 
      1163.0         0.42         60.5 
      1164.0         0.37         62.9 
      1165.0         0.60        114.3 
