~Version Information
VERS.                      2.0: CWLS Log ASCII Standard - VERSION 2.0
WRAP.                       NO: One line per depth step
~Well Information Block
STRT.FT               860.0000: 
STOP.FT              2360.5000: 
STEP.FT                 0.1000: 
NULL.                -999.2500: 
COMP.          Pioneer Natural Resources: COMPANY
WELL.            Cayenne 23-23: WELL
FLD.           Purgatoire River: FIELD
LOC.           2555' FSL & 2386' FWL: LOCATION
PROV.                 Colorado: PROVINCE
CNTY.               Las Animas: COUNTRY
SRVC.                Patterson: SERVICE COMPANY
DATE.          Wed Aug 17 08:28:25 2005: LOG DATE
UWI.           05 071 08476 00: UNIQUE WELL ID
~Curve Information Block
DEPT.FT            0 000 00 00: Depth
DCAL.in                       : CDL Caliper
RHOB.g/cc                     : CDL Bulk Density
RHOC.g/cc                     : CDL Density Correction
DPOR.pu                       : CDL Density Porosity
GR.GAPI                       : Gamma Ray
NPOR.pu                       : Neutron Porosity
~Parameter Information Block
~A  Depth       DCAL        RHOB        RHOC        DPOR         GR         NPOR    
# ...
  2348.0000      7.8516      2.5073      0.0086      8.6496   -999.2500   -999.2500
  2348.1000      7.8516      2.4934      0.0401      9.4906   -999.2500   -999.2500
  2348.2000      7.8516      2.4762      0.0245     10.5336   -999.2500   -999.2500
  2348.3000      7.8282      2.4712     -0.0022     10.8382   -999.2500   -999.2500
  2348.4000      7.8282      2.4904      0.0016      9.6735   -999.2500   -999.2500
  2348.5000      7.8418      2.5133      0.0428      8.2855   -999.2500   -999.2500
  2348.6000      7.8418      2.5157      0.0252      8.1376   -999.2500   -999.2500
  2348.7000      7.8418      2.5135     -0.0458      8.2710   -999.2500   -999.2500
  2348.8000      7.8515      2.5265      0.0498      7.4821   -999.2500   -999.2500
  2348.9000      7.8515      2.5392      0.0877      6.7169   -999.2500   -999.2500
  2349.0000      7.8506      2.5409      0.0371      6.6106   -999.2500   -999.2500
  2349.1000      7.8506      2.5410      0.0113      6.6049   -999.2500   -999.2500
  2349.2000      7.8506      2.5384      0.0692      6.7665   -999.2500   -999.2500
  2349.3000      7.8556      2.5300     -0.0030      7.2752   -999.2500   -999.2500
  2349.4000      7.8556      2.5248      0.0623      7.5892   -999.2500   -999.2500
  2349.5000      7.8545      2.5274      0.0269      7.4292   -999.2500   -999.2500
  2349.6000      7.8545      2.5318      0.0410      7.1652   -999.2500   -999.2500
  2349.7000      7.8545      2.5254      0.0512      7.5504   -999.2500   -999.2500
  2349.8000      7.8559      2.5083     -0.0302      8.5908   -999.2500   -999.2500
  2349.9000      7.8559      2.4906      0.0111      9.6623   -999.2500   -999.2500
  2350.0000      7.8670      2.4759     -0.0152     10.5540   -999.2500   -999.2500
  2350.1000      7.8670      2.4761     -0.0003     10.5411   -999.2500   -999.2500
  2350.2000      7.8670      2.5021      0.0115      8.9658   -999.2500   -999.2500
  2350.3000      7.8570      2.5355      0.0787      6.9371   -999.2500   -999.2500
  2350.4000      7.8570      2.5539      0.0592      5.8265   -999.2500   -999.2500
  2350.5000      7.8563      2.5597      0.0596      5.4700   -999.2500   -999.2500
  2350.6000      7.8563      2.5617      0.0475      5.3517   -999.2500   -999.2500
  2350.7000      7.8563      2.5557      0.0514      5.7179   -999.2500   -999.2500
  2350.8000      7.8608      2.5346      0.0552      6.9957   -999.2500   -999.2500
  2350.9000      7.8608      2.5073      0.0144      8.6484   -999.2500   -999.2500
  2351.0000      7.8433      2.4941      0.0238      9.4489   -999.2500   -999.2500
  2351.1000      7.8433      2.4975      0.0581      9.2415   -999.2500   -999.2500
  2351.2000      7.8433      2.5057      0.0501      8.7431   -999.2500   -999.2500
  2351.3000      7.8434      2.5147      0.0477      8.1970   -999.2500   -999.2500
  2351.4000      7.8434      2.5172      0.0620      8.0504   -999.2500   -999.2500
  2351.5000      7.8506      2.5071     -0.0154      8.6608   -999.2500   -999.2500
  2351.6000      7.8506      2.4983      0.0265      9.1965   -999.2500   -999.2500
  2351.7000      7.8506      2.5035      0.0488      8.8778   -999.2500   -999.2500
  2351.8000      7.8603      2.5229      0.0396      7.7032   -999.2500   -999.2500
  2351.9000      7.8603      2.5500      0.0684      6.0628   -999.2500   -999.2500
  2352.0000      7.8537      2.5649      0.0972      5.1550   -999.2500   -999.2500
  2352.1000      7.8537      2.5528      0.0880      5.8880   -999.2500   -999.2500
  2352.2000      7.8537      2.5374      0.0293      6.8262   -999.2500   -999.2500
  2352.3000      7.8474      2.5392      0.1137      6.7168   -999.2500   -999.2500
  2352.4000      7.8474      2.5382      0.0772      6.7760   -999.2500   -999.2500
  2352.5000      7.8509      2.5220      0.0691      7.7555   -999.2500   -999.2500
  2352.6000      7.8509      2.5039      0.0320      8.8569   -999.2500   -999.2500
  2352.7000      7.8509      2.4972      0.0075      9.2603   -999.2500   -999.2500
  2352.8000      7.8467      2.5028      0.0270      8.9208   -999.2500   -999.2500
  2352.9000      7.8467      2.5153      0.0432      8.1650   -999.2500   -999.2500
  2353.0000      7.8505      2.5345      0.0278      7.0001   -999.2500   -999.2500
  2353.1000      7.8505      2.5590      0.0842      5.5135   -999.2500   -999.2500
  2353.2000      7.8505      2.5761      0.0954      4.4767   -999.2500   -999.2500
  2353.3000      7.8469      2.5729      0.1082      4.6717   -999.2500   -999.2500
  2353.4000      7.8469      2.5564      0.0273      5.6706   -999.2500   -999.2500
  2353.5000      7.8507      2.5507     -0.0133      6.0174   -999.2500   -999.2500
  2353.6000      7.8507      2.5632      0.0291      5.2595   -999.2500   -999.2500
  2353.7000      7.8507      2.5713      0.0978      4.7693   -999.2500   -999.2500
  2353.8000      7.8591      2.5553      0.0370      5.7367   -999.2500   -999.2500
  2353.9000      7.8591      2.5280     -0.0177      7.3968   -999.2500   -999.2500
  2354.0000      7.8616      2.5139      0.0065      8.2497   -999.2500   -999.2500
  2354.1000      7.8616      2.5185      0.0100      7.9712   -999.2500   -999.2500
  2354.2000      7.8616      2.5335      0.0410      7.0614   -999.2500   -999.2500
  2354.3000      7.8683      2.5506      0.0495      6.0238   -999.2500   -999.2500
  2354.4000      7.8683      2.5639      0.0473      5.2211   -999.2500   -999.2500
  2354.5000      7.8664      2.5758      0.0319      4.4988   -999.2500   -999.2500
  2354.6000      7.8664      2.5924      0.0496      3.4891   -999.2500   -999.2500
  2354.7000      7.8664      2.6126      0.0663      2.2686   -999.2500   -999.2500
  2354.8000      7.8664      2.6225      0.0970      1.6685   -999.2500   -999.2500
  2354.9000      7.8664      2.6104      0.0521      2.4020   -999.2500   -999.2500
  2355.0000      7.8496      2.5846      0.0402      3.9648   -999.2500   -999.2500
  2355.1000      7.8496      2.5551      0.0430      5.7522   -999.2500   -999.2500
  2355.2000      7.8496      2.5190      0.0323      7.9368   -999.2500   -999.2500
  2355.3000      7.8478      2.4809     -0.0066     10.2492   -999.2500   -999.2500
  2355.4000      7.8478      2.4597     -0.0660     11.5351   -999.2500   -999.2500
  2355.5000      7.8388      2.4631      0.0056     11.3301   -999.2500   -999.2500
  2355.6000      7.8388      2.4728      0.0424     10.7381   -999.2500   -999.2500
  2355.7000      7.8388      2.4782      0.0666     10.4108   -999.2500   -999.2500
  2355.8000      7.8447      2.4947      0.0431      9.4124   -999.2500   -999.2500
  2355.9000      7.8447      2.5348      0.1107      6.9824   -999.2500   -999.2500
  2356.0000      7.8294      2.5800      0.1586      4.2423   -999.2500   -999.2500
  2356.1000      7.8294      2.6004      0.1529      3.0052   -999.2500   -999.2500
  2356.2000      7.8294      2.5931      0.1065      3.4470   -999.2500   -999.2500
  2356.3000      7.7696      2.5711      0.1678      4.7822   -999.2500   -999.2500
  2356.4000      7.7696      2.5389      0.1276      6.7355   -999.2500   -999.2500
  2356.5000      7.7664      2.4991      0.1473      9.1451   -999.2500   -999.2500
  2356.6000      7.7664      2.4511      0.1309     12.0570   -999.2500   -999.2500
  2356.7000      7.7664      2.4043      0.0440     14.8890   -999.2500   -999.2500
  2356.8000      7.6660      2.3994      0.0234     15.1863   -999.2500   -999.2500
  2356.9000      7.6660      2.4883      0.0378      9.7977   -999.2500   -999.2500
  2357.0000      7.0019      2.5559      0.0829      5.7015   -999.2500   -999.2500
  2357.1000      7.0019      2.1708      0.6244     29.0407   -999.2500   -999.2500
  2357.2000      7.0019      1.2447      0.0200     85.1671   -999.2500   -999.2500
  2357.3000      6.7575      0.4244      0.0200    134.8865   -999.2500   -999.2500
  2357.4000      6.7575      0.0808   -999.2500    155.7081   -999.2500   -999.2500
  2357.5000      6.5578      0.0083   -999.2500    160.1004   -999.2500   -999.2500
