~Version Information
VERS.                      2.0: CWLS Log ASCII Standard - VERSION 2.0
WRAP.                       NO: One line per depth step
~Well Information Block
STRT.FT               240.0000: 
STOP.FT              1043.5000: 
STEP.FT                 0.2500: 
NULL.                -999.2500: 
COMP.          Pioneer Natural Resources: COMPANY
WELL.          Stags Leap 13-30: WELL
FLD.           Purgatorie River: FIELD
LOC.           1813' FSL & 117' FWL: LOCATION
PROV.                 Colorado: PROVINCE
CNTY.               Las Animas: COUNTRY
SRVC.                Patterson: SERVICE COMPANY
DATE.          Thu Dec 08 19:20:57 2005: LOG DATE
UWI.                          : UNIQUE WELL ID
~Curve Information Block
DEPT.FT            0 000 00 00: Depth
DIR.Ohm-m                     : IEL Induction Resistivity
GR.GAPI                       : Gamma Ray
~Parameter Information Block
~A  Depth       DIR          GR     
# ...
   686.0000     11.8640    133.4627
   686.2500     11.9041    129.7898
   686.5000     11.9029    122.5983
   686.7500     11.8688    117.0385
   687.0000     11.8073    108.7051
   687.2500     11.7201    104.1953
   687.5000     11.6064    100.9802
   687.7500     11.4656    101.8943
   688.0000     11.2974    107.4219
   688.2500     11.1030    112.8463
   688.5000     10.8872    121.5572
   688.7500     10.6610    126.8751
   689.0000     10.4432    133.3432
   689.2500     10.2568    136.5239
   689.5000     10.1229    139.8187
   689.7500     10.0549    141.3812
   690.0000     10.0566    143.5711
   690.2500     10.1239    145.2998
   690.5000     10.2505    148.3892
   690.7500     10.4340    150.4706
   691.0000     10.6779    152.8976
   691.2500     10.9890    153.8743
   691.5000     11.3728    154.6808
   691.7500     11.8295    154.9445
   692.0000     12.3547    154.5043
   692.2500     12.9433    153.1348
   692.5000     13.5952    149.0642
   692.7500     14.3199    145.3185
   693.0000     15.1371    139.1968
   693.2500     16.0744    135.2988
   693.5000     17.1638    130.1839
   693.7500     18.4373    127.3525
   694.0000     19.9217    123.9016
   694.2500     21.6285    121.9522
   694.5000     23.5403    119.2581
   694.7500     25.6015    117.6617
   695.0000     27.7221    115.9969
   695.2500     29.7967    115.5376
   695.5000     31.7257    115.4458
   695.7500     33.4247    115.2579
   696.0000     34.8205    114.0340
   696.2500     35.8520    112.4768
   696.5000     36.4872    109.2404
   696.7500     36.7399    106.6903
   697.0000     36.6632    102.8043
   697.2500     36.3168    100.6071
   697.5000     35.7413     98.5848
   697.7500     34.9594     98.2323
   698.0000     33.9954     98.9467
   698.2500     32.8879     99.9593
   698.5000     31.6912    101.7752
   698.7500     30.4675    102.9252
   699.0000     29.2776    104.2565
   699.2500     28.1702    104.8171
   699.5000     27.1721    105.1078
   699.7500     26.2841    104.8696
   700.0000     25.4839    103.9805
   700.2500     24.7347    103.3768
   700.5000     23.9996    103.1121
   700.7500     23.2542    103.3895
   701.0000     22.4920    103.8403
   701.2500     21.7204    103.7538
   701.5000     20.9556    102.8034
   701.7500     20.2224    101.6933
   702.0000     19.5543     99.5739
   702.2500     18.9887     98.1650
   702.5000     18.5546     96.9814
   702.7500     18.2609     97.3623
   703.0000     18.0887     99.9455
   703.2500     17.9916    102.6336
   703.5000     17.9038    107.1572
   703.7500     17.7575    110.2359
   704.0000     17.5040    115.3047
   704.2500     17.1289    119.3394
   704.5000     16.6532    126.2105
   704.7500     16.1223    130.5624
   705.0000     15.5896    135.0635
   705.2500     15.1026    136.2299
   705.5000     14.6940    135.7152
   705.7500     14.3797    134.6089
   706.0000     14.1600    133.2304
   706.2500     14.0228    133.2329
   706.5000     13.9476    135.2168
   706.7500     13.9106    137.5059
   707.0000     13.8909    140.7379
   707.2500     13.8773    141.7310
   707.5000     13.8707    140.5482
   707.7500     13.8797    138.0369
   708.0000     13.9143    132.6273
   708.2500     13.9806    128.7590
   708.5000     14.0802    123.8673
   708.7500     14.2142    121.5730
   709.0000     14.3859    119.3773
   709.2500     14.6004    118.3409
   709.5000     14.8590    116.6869
   709.7500     15.1529    115.1963
   710.0000     15.4615    112.1740
   710.2500     15.7564    109.7538
   710.5000     16.0088    106.0148
   710.7500     16.1930    103.8002
   711.0000     16.2848    101.4874
   711.2500     16.2587    100.8916
   711.5000     16.0926    101.4556
   711.7500     15.7790    102.5232
   712.0000     15.3349    104.6342
   712.2500     14.8002    106.3357
   712.5000     14.2247    109.5456
   712.7500     13.6534    112.1160
   713.0000     13.1169    116.1372
   713.2500     12.6305    118.4632
   713.5000     12.1978    120.5413
   713.7500     11.8173    120.6131
   714.0000     11.4876    118.7915
   714.2500     11.2085    116.7697
   714.5000     10.9804    113.6860
   714.7500     10.8041    112.1394
   715.0000     10.6813    110.9078
   715.2500     10.6143    110.6608
   715.5000     10.6046    110.7672
   715.7500     10.6504    111.1497
   716.0000     10.7449    112.4960
   716.2500     10.8774    113.9136
   716.5000     11.0364    116.1560
   716.7500     11.2123    117.1782
   717.0000     11.3995    117.4669
   717.2500     11.5968    116.9095
   717.5000     11.8076    115.5783
   717.7500     12.0395    114.7908
   718.0000     12.3047    114.1429
   718.2500     12.6186    113.9908
   718.5000     12.9969    113.9014
   718.7500     13.4486    113.9238
   719.0000     13.9686    114.2866
   719.2500     14.5322    114.8147
   719.5000     15.0976    115.9080
   719.7500     15.6145    116.6480
   720.0000     16.0383    117.3394
   720.2500     16.3413    117.3006
   720.5000     16.5181    116.4194
   720.7500     16.5835    115.4589
   721.0000     16.5668    113.8627
   721.2500     16.5032    112.7836
   721.5000     16.4273    110.9311
   721.7500     16.3678    109.3615
   722.0000     16.3438    106.5727
   722.2500     16.3593    104.8128
   722.5000     16.3994    103.3314
   722.7500     16.4319    103.5669
   723.0000     16.4186    105.7274
   723.2500     16.3321    107.8390
   723.5000     16.1688    110.7296
   723.7500     15.9494    111.9194
   724.0000     15.7095    112.3533
   724.2500     15.4896    111.9212
   724.5000     15.3287    110.7329
   724.7500     15.2609    109.8917
   725.0000     15.3092    108.8541
   725.2500     15.4798    108.3232
   725.5000     15.7604    107.7302
   725.7500     16.1247    107.5229
   726.0000     16.5418    107.6400
   726.2500     16.9832    108.0184
   726.5000     17.4257    108.8614
   726.7500     17.8521    109.4003
   727.0000     18.2557    109.7406
   727.2500     18.6457    109.4924
   727.5000     19.0475    108.5560
   727.7500     19.4962    107.8499
   728.0000     20.0250    106.9563
   728.2500     20.6561    106.3021
   728.5000     21.3953    104.9050
   728.7500     22.2289    103.9678
   729.0000     23.1224    103.6879
   729.2500     24.0248    104.6400
   729.5000     24.8830    107.1255
   729.7500     25.6614    108.5885
   730.0000     26.3512    109.2046
   730.2500     26.9626    108.3487
   730.5000     27.5093    105.5190
   730.7500     28.0027    102.8512
   731.0000     28.4566     97.8319
   731.2500     28.8885     93.9442
   731.5000     29.3061     88.1140
   731.7500     29.6863     84.9332
   732.0000     29.9653     82.0782
   732.2500     30.0597     81.4846
   732.5000     29.9154     81.9351
   732.7500     29.5514     82.6138
   733.0000     29.0564     83.5302
   733.2500     28.5418     83.9780
   733.5000     28.0971     84.6552
   733.7500     27.7881     85.2681
   734.0000     27.6831     86.4012
   734.2500     27.8635     87.1595
   734.5000     28.3981     88.1768
   734.7500     29.2995     88.8232
   735.0000     30.4961     89.7641
   735.2500     31.8424     90.1794
   735.5000     33.1678     89.8466
   735.7500     34.3408     88.6373
   736.0000     35.3125     85.1606
   736.2500     36.1200     81.9512
   736.5000     36.8638     76.5626
   736.7500     37.6781     73.0363
   737.0000     38.6987     68.2750
   737.2500     40.0189     65.5349
   737.5000     41.6386     62.2410
   737.7500     43.4369     60.7177
   738.0000     45.1993     59.4360
   738.2500     46.6998     59.0736
   738.5000     47.7793     58.9005
   738.7500     48.3678     58.8370
   739.0000     48.4536     58.5034
   739.2500     48.0397     58.0525
   739.5000     47.1137     57.3022
   739.7500     45.6467     56.9893
   740.0000     43.6278     56.9168
   740.2500     41.1123     57.0606
   740.5000     38.2487     57.6102
   740.7500     35.2519     58.3761
   741.0000     32.3383     60.2951
   741.2500     29.6683     61.9503
   741.5000     27.3237     64.5321
