~Version Information
VERS.                      2.0: CWLS Log ASCII Standard - VERSION 2.0
WRAP.                       NO: One line per depth step
~Well Information Block
STRT.FT               800.0000: 
STOP.FT              3500.0000: 
STEP.FT                 0.1000: 
NULL.                -999.2500: 
COMP.          Pioneer Natural Resources: COMPANY
WELL.          Cordillera 34-7: WELL
FLD.           Purgatoire River: FIELD
LOC.           598' FSL & 1770' FEL--: LOCATION
PROV.                 Colorado: PROVINCE
CNTY.               Las Animas: COUNTRY
SRVC.                Patterson: SERVICE COMPANY
DATE.          Fri Oct 28 07:22:44 2005: LOG DATE
UWI.           05 071 08552 00: UNIQUE WELL ID
~Curve Information Block
DEPT.FT            0 000 00 00: Depth
DCAL.in                       : CDL Caliper
RHOB.g/cc                     : CDL Bulk Density
RHOC.g/cc                     : CDL Density Correction
DPOR.pu                       : CDL Density Porosity
NPOR.pu                       : Neutron Porosity
GR.GAPI                       : Gamma Ray
~Parameter Information Block
~A  Depth       DCAL        RHOB        RHOC        DPOR        NPOR         GR     
# ...
  3286.4000      7.9239      2.4934      0.0405      9.4923     27.9232    128.7782
  3286.5000      7.9269      2.4971      0.0770      9.2664     27.8321    123.9319
  3286.6000      7.9269      2.5019      0.0422      8.9739     27.7533    121.3720
  3286.7000      7.9269      2.5053      0.0848      8.7691     27.4447    124.9712
  3286.8000      7.9276      2.5041      0.0693      8.8416     26.9238    131.3340
  3286.9000      7.9276      2.4950      0.0816      9.3958     26.8535    134.0051
  3287.0000      7.9252      2.4807      0.0365     10.2583     27.3542    129.2283
  3287.1000      7.9252      2.4669      0.0602     11.0985     27.6782    120.1581
  3287.2000      7.9252      2.4487      0.0469     12.2030     27.4360    112.3085
  3287.3000      7.9244      2.4223      0.0309     13.8003     26.8777    110.4153
  3287.4000      7.9244      2.3939      0.0250     15.5223     26.7430    116.0262
  3287.5000      7.9252      2.3707     -0.0051     16.9300     27.4471    123.3815
  3287.6000      7.9252      2.3580      0.0184     17.6995     28.3263    125.3033
  3287.7000      7.9252      2.3549      0.0165     17.8852     28.8237    119.0777
  3287.8000      7.9232      2.3564      0.0222     17.7948     28.8737    109.2428
  3287.9000      7.9232      2.3527      0.0388     18.0161     28.2371    105.8024
  3288.0000      7.9215      2.3384      0.0261     18.8850     26.9555    112.2372
  3288.1000      7.9215      2.3255      0.0322     19.6640     25.9761    123.9196
  3288.2000      7.9215      2.3228      0.1020     19.8295     26.0328    133.4570
  3288.3000      7.9230      2.3211      0.0928     19.9356     26.6309    132.1287
  3288.4000      7.9230      2.3193      0.0874     20.0450     26.9689    121.3806
  3288.5000      7.9244      2.3261      0.0675     19.6318     26.8612    114.7239
  3288.6000      7.9244      2.3439      0.0604     18.5536     26.7403    118.6422
  3288.7000      7.9244      2.3718      0.0558     16.8614     27.1282    126.5634
  3288.8000      7.9252      2.3992      0.1305     15.2010     27.6808    132.3609
  3288.9000      7.9252      2.4115      0.1280     14.4536     27.3555    136.2772
  3289.0000      7.9262      2.4184      0.0890     14.0338     26.1355    138.7212
  3289.1000      7.9262      2.4367      0.1057     12.9302     25.1393    138.3208
  3289.2000      7.9262      2.4607      0.0985     11.4706     24.8938    133.3474
  3289.3000      7.9276      2.4802      0.1167     10.2938     24.8972    126.9007
  3289.4000      7.9276      2.4952      0.0927      9.3839     24.7814    121.2151
  3289.5000      7.9286      2.5094      0.0537      8.5231     24.7109    110.3475
  3289.6000      7.9286      2.5244      0.0651      7.6094     24.7812     96.4698
  3289.7000      7.9286      2.5356      0.0890      6.9313     24.8110     94.3475
  3289.8000      7.9270      2.5347      0.0826      6.9893     24.6905    107.3189
  3289.9000      7.9270      2.5233      0.0561      7.6760     24.7626    122.9454
  3290.0000      7.9238      2.5127      0.0425      8.3228     25.1279    133.5036
  3290.1000      7.9238      2.5134      0.0120      8.2818     25.3679    141.9059
  3290.2000      7.9238      2.5283      0.0430      7.3736     25.5434    145.9006
  3290.3000      7.9222      2.5468      0.0881      6.2530     25.6341    142.1375
  3290.4000      7.9222      2.5576      0.0662      5.5982     25.0594    136.6946
  3290.5000      7.9226      2.5661      0.0457      5.0869     23.9322    131.2231
  3290.6000      7.9226      2.5837      0.0641      4.0191     23.0827    124.7027
  3290.7000      7.9226      2.6058      0.0924      2.6815     22.9830    120.9008
  3290.8000      7.9247      2.6200      0.0969      1.8168     23.3588    119.2158
  3290.9000      7.9247      2.6234      0.0932      1.6149     23.6550    118.5346
  3291.0000      7.9273      2.6142      0.0797      2.1682     23.6408    121.0963
  3291.1000      7.9273      2.5984      0.0141      3.1280     23.4275    127.8582
  3291.2000      7.9273      2.5928      0.0379      3.4685     23.2258    134.2528
  3291.3000      7.9269      2.5997      0.0413      3.0513     23.1620    134.0384
  3291.4000      7.9269      2.6079      0.0718      2.5495     23.3603    131.0840
  3291.5000      7.9234      2.6148      0.0561      2.1341     23.8978    136.2998
  3291.6000      7.9234      2.6196      0.0726      1.8454     24.6869    151.7119
  3291.7000      7.9234      2.6173      0.0735      1.9833     25.3357    162.4540
  3291.8000      7.9214      2.6115      0.0446      2.3311     25.4853    158.0706
  3291.9000      7.9214      2.6006      0.0871      2.9941     25.3843    148.7401
  3292.0000      7.9226      2.5759      0.0552      4.4920     25.3391    142.3411
  3292.1000      7.9226      2.5501      0.0294      6.0517     25.3423    138.1938
  3292.2000      7.9226      2.5367      0.0530      6.8647     25.2341    138.3295
  3292.3000      7.9236      2.5320      0.0031      7.1502     25.0277    140.5942
  3292.4000      7.9236      2.5348      0.0355      6.9802     24.9063    136.0257
  3292.5000      7.9231      2.5455      0.0349      6.3339     24.8396    126.7056
  3292.6000      7.9231      2.5628      0.0311      5.2834     24.8136    121.3359
  3292.7000      7.9231      2.5777      0.0734      4.3826     25.0793    117.2746
  3292.8000      7.9234      2.5743      0.0572      4.5850     25.2980    112.6145
  3292.9000      7.9234      2.5527      0.0346      5.8986     24.8874    111.7255
  3293.0000      7.9235      2.5273      0.0490      7.4363     24.0398    116.4467
  3293.1000      7.9235      2.5099      0.0387      8.4933     23.4485    124.3914
  3293.2000      7.9235      2.5066      0.0266      8.6889     23.5691    128.4462
  3293.3000      7.9244      2.5164      0.0233      8.0977     24.2228    126.5341
  3293.4000      7.9244      2.5304      0.0561      7.2514     24.6967    127.3908
  3293.5000      7.9262      2.5401      0.0547      6.6582     24.8045    133.3134
  3293.6000      7.9262      2.5388      0.0651      6.7388     25.0162    137.2299
  3293.7000      7.9262      2.5236      0.0548      7.6590     25.1275    136.7178
  3293.8000      7.9258      2.5078      0.0227      8.6210     24.8018    134.8094
  3293.9000      7.9258      2.5101      0.0305      8.4775     24.5312    134.5869
  3294.0000      7.9255      2.5322      0.0665      7.1405     24.5748    136.2970
  3294.1000      7.9255      2.5605      0.0680      5.4225     24.4277    137.0054
  3294.2000      7.9255      2.5862      0.0824      3.8661     23.7741    133.9734
  3294.3000      7.9256      2.6058      0.0864      2.6767     22.7257    129.6532
  3294.4000      7.9256      2.6160      0.1215      2.0583     21.8356    129.4528
  3294.5000      7.9248      2.6174      0.0840      1.9755     21.5983    133.4726
  3294.6000      7.9248      2.6119      0.1225      2.3100     21.7439    137.2875
  3294.7000      7.9248      2.5998      0.0789      3.0412     22.0050    137.3234
  3294.8000      7.9250      2.5908      0.0580      3.5853     22.5252    135.2702
  3294.9000      7.9250      2.5897      0.0949      3.6570     23.2632    134.8842
  3295.0000      7.9250      2.5906      0.0754      3.5981     23.8099    135.7162
  3295.1000      7.9250      2.5949      0.0620      3.3389     23.7303    136.5863
  3295.2000      7.9250      2.6036      0.0595      2.8149     23.1600    135.2348
  3295.3000      7.9249      2.6105      0.0827      2.3911     22.8225    134.0443
  3295.4000      7.9249      2.6097      0.0926      2.4410     23.1269    136.8768
  3295.5000      7.9261      2.5993      0.0661      3.0709     23.8171    137.2118
  3295.6000      7.9261      2.5828      0.0551      4.0727     24.1666    133.4208
  3295.7000      7.9261      2.5700      0.0506      4.8459     23.6035    131.4356
  3295.8000      7.9275      2.5678      0.0330      4.9830     22.5794    130.6304
  3295.9000      7.9275      2.5695      0.0506      4.8817     22.0263    126.8478
