~Version Information
VERS.                      2.0: CWLS Log ASCII Standard - VERSION 2.0
WRAP.                       NO: One line per depth step
~Well Information Block
STRT.FT                -6.7500: 
STOP.FT              2256.0000: 
STEP.FT                 0.2500: 
NULL.                -999.2500: 
COMP.          Pioneer Natural Resources: COMPANY
WELL.               Relay 12-7: WELL
FLD.           Purgatorie River: FIELD
LOC.           1999' FNL & 848' FWL--: LOCATION
PROV.                       CO: PROVINCE
CNTY.               Las Animas: COUNTRY
SRVC.          Patterson Wireline: SERVICE COMPANY
DATE.          Thu Dec 22 09:06:31 2005: LOG DATE
UWI.           05 071 08453 00: UNIQUE WELL ID
~Curve Information Block
DEPT.FT            0 000 00 00: Depth
CCL.                          : Casing Collar Locator
TT3.usec                      : CBL 3' Travel Time
AMP3.mV                       : CBL 3' Amplitude
GR.GAPI                       : Gamma Ray
~Parameter Information Block
~A  Depth       CCL         TT3         AMP3         GR     
# ...
  2103.7500      0.0000    378.0701      3.7060     52.4882
  2104.0000      0.0000    379.5572      3.6860     51.1409
  2104.2500      0.0000    380.8453      3.6396     50.8350
  2104.5000      0.0000    382.7486      3.5576     52.2744
  2104.7500      0.0000    385.5231      3.4525     55.1920
  2105.0000      0.0000    388.3675      3.3630     59.0944
  2105.2500      0.0000    389.8675      3.3356     63.8097
  2105.5000      0.0000    389.4642      3.3845     69.0374
  2105.7500      0.0000    388.1964      3.4850     73.7847
  2106.0000      0.0000    387.5455      3.6172     76.7109
  2106.2500      0.0000    387.9058      3.7952     77.2149
  2106.5000      0.0000    388.7032      4.0325     76.0615
  2106.7500      0.0000    389.8790      4.2948     74.6579
  2107.0000      0.0000    393.1519      4.5100     73.7326
  2107.2500     -2.0000    402.2385      4.6227     73.0739
  2107.5000      0.0000    421.3917      4.6331     72.5020
  2107.7500      0.0000    451.2440      4.5892     72.4220
  2108.0000      0.0000    483.9542      4.5385     73.0765
  2108.2500      0.0000    504.4126      4.4774     73.8792
  2108.5000      0.0000    500.7797      4.3607     74.1630
  2108.7500      0.0000    475.1320      4.1789     74.1966
  2109.0000      0.0000    441.6405      4.0013     74.8193
  2109.2500      0.0000    414.3539      3.9156     76.3952
  2109.5000      0.0000    398.5140      3.9410     78.6331
  2109.7500      0.0000    392.0784      4.0241     81.1698
  2110.0000      0.0000    391.7749      4.1025     83.8883
  2110.2500      0.0000    396.9006      4.1498     86.5780
  2110.5000      0.0000    409.3340      4.1702     88.4784
  2110.7500      0.0000    430.5161      4.1757     88.4930
  2111.0000      0.0000    457.7226      4.1741     86.1099
  2111.2500      0.0000    483.6986      4.1708     82.0154
  2111.5000      0.0000    500.7820      4.1720     77.5406
  2111.7500      0.0000    504.8272      4.1826     73.6035
  2112.0000      0.0000    495.8179      4.2011     70.3856
  2112.2500      0.0000    477.7778      4.2227     67.7070
  2112.5000      0.0000    458.3118      4.2463     65.4476
  2112.7500      0.0000    444.6455      4.2755     63.8686
  2113.0000      0.0000    438.3657      4.3102     63.5339
  2113.2500      0.0000    435.0822      4.3437     64.4726
  2113.5000      0.0000    429.6927      4.3690     65.5959
  2113.7500      0.0000    421.5851      4.3843     65.5704
  2114.0000      0.0000    414.8087      4.3892     64.1404
  2114.2500      0.0000    413.6317      4.3816     62.2143
  2114.5000      0.0000    417.8489      4.3624     60.9677
  2114.7500      0.0000    422.2175      4.3398     61.0434
  2115.0000      0.0000    420.9561      4.3253     62.2127
  2115.2500      0.0000    412.9182      4.3257     63.5209
  2115.5000      0.0000    402.3302      4.3411     63.9063
  2115.7500      0.0000    395.4618      4.3701     62.9296
  2116.0000      0.0000    398.2442      4.4120     61.0827
  2116.2500      0.0000    416.5864      4.4643     59.3087
  2116.5000      0.0000    455.3280      4.5192     58.0783
  2116.7500      0.0000    513.1534      4.5652     57.0991
  2117.0000      0.0000    578.6743      4.5930     56.0857
  2117.2500      0.0000    635.1459      4.5986     55.4917
  2117.5000      0.0000    671.5786      4.5828     56.1287
  2117.7500      0.0000    688.7251      4.5527     58.1562
  2118.0000      0.0000    693.8507      4.5193     60.6545
  2118.2500      0.0000    691.1013      4.4907     62.3676
  2118.5000      0.0000    678.0582      4.4655     62.9573
  2118.7500      0.0000    651.1369      4.4372     63.2972
  2119.0000      0.0000    612.9037      4.4070     64.3850
  2119.2500      0.0000    572.8346      4.3861     66.3588
  2119.5000      0.0000    540.6291      4.3822     68.7217
  2119.7500      0.0000    519.4436      4.3863     71.0524
  2120.0000      0.0000    505.9002      4.3768     73.2639
  2120.2500      0.0000    495.4004      4.3395     75.4068
  2120.5000      0.0000    486.2227      4.2830     77.3085
  2120.7500      0.0000    479.4156      4.2326     78.4307
  2121.0000      0.0000    476.9968      4.2081     78.3074
  2121.2500      0.0000    481.5312      4.2074     77.1290
  2121.5000      0.0000    496.6667      4.2107     75.6113
  2121.7500      0.0000    525.7123      4.1998     74.4125
  2122.0000      0.0000    567.4759      4.1724     73.9944
  2122.2500      0.0000    613.6450      4.1424     74.7822
  2122.5000      0.0000    652.6817      4.1282     76.8613
  2122.7500      0.0000    677.7141      4.1374     79.5818
  2123.0000      0.0000    690.0904      4.1592     81.9643
  2123.2500      0.0000    695.7227      4.1730     83.5607
  2123.5000      0.0000    699.8941      4.1672     84.6098
  2123.7500      0.0000    705.2222      4.1451     85.4752
  2124.0000      0.0000    711.5761      4.1148     86.2111
  2124.2500      0.0000    716.2794      4.0795     86.5544
  2124.5000      0.0000    715.7794      4.0382     86.1622
  2124.7500      0.0000    708.8813      3.9926     84.9298
  2125.0000      0.0000    698.6950      3.9465     83.0666
  2125.2500      0.0000    690.4886      3.8994     80.8768
  2125.5000      0.0000    686.9307      3.8430     78.6751
  2125.7500      0.0000    686.3046      3.7684     76.9774
  2126.0000      0.0000    685.8483      3.6756     76.5702
  2126.2500      0.0000    685.1906      3.5741     78.0916
  2126.5000      0.0000    685.5466      3.4767     81.4133
  2126.7500      0.0000    687.3625      3.3952     85.5631
  2127.0000      0.0000    690.3828      3.3384     89.5379
  2127.2500      0.0000    694.9614      3.3060     93.2255
  2127.5000      0.0000    701.4230      3.2832     97.0702
  2127.7500      0.0000    707.9052      3.2431    100.6357
  2128.0000      0.0000    710.3975      3.1608    102.1186
  2128.2500      0.0000    705.9645      3.0255     99.7393
  2128.5000      0.0000    695.3983      2.8436     93.1901
  2128.7500      0.0000    682.4453      2.6340     83.6355
  2129.0000      0.0000    671.4279      2.4214     73.0151
  2129.2500      0.0000    665.5462      2.2309     63.4503
  2129.5000      0.0000    665.9387      2.0834     56.4596
  2129.7500      0.0000    671.3399      1.9907     52.2390
  2130.0000      0.0000    678.7673      1.9508     49.9028
  2130.2500      0.0000    684.8633      1.9470     48.5225
  2130.5000      0.0000    687.1614      1.9537     47.8051
  2130.7500      0.0000    685.2426      1.9478     47.7714
  2131.0000      0.0000    681.3057      1.9186     47.9880
  2131.2500      0.0000    678.8361      1.8724     47.3983
  2131.5000      0.0000    679.7139      1.8266     45.2493
  2131.7500      0.0000    682.5969      1.7968     42.2000
  2132.0000      0.0000    684.5113      1.7873     40.1043
  2132.2500      0.0000    683.8444      1.7926     40.4378
  2132.5000      0.0000    681.5052      1.8083     43.0428
  2132.7500      0.0000    679.7130      1.8391     46.5008
  2133.0000      0.0000    680.3540      1.8958     49.5167
  2133.2500      0.0000    684.1818      1.9850     51.8324
  2133.5000      0.0000    690.6421      2.1014     54.0667
  2133.7500      0.0000    698.1735      2.2319     57.1584
  2134.0000      0.0000    705.2499      2.3663     62.0437
  2134.2500      0.0000    711.3617      2.5046     69.4778
  2134.5000      0.0000    716.4150      2.6528     79.7771
  2134.7500      0.0000    719.1315      2.8177     92.5315
  2135.0000      0.0000    717.2142      3.0050    106.4574
  2135.2500      0.0000    709.7238      3.2179    119.6359
  2135.5000      0.0000    698.0131      3.4490    130.1348
  2135.7500      0.0000    683.4695      3.6745    136.5072
  2136.0000      0.0000    665.5815      3.8579    137.8195
  2136.2500      0.0000    643.4809      3.9646    133.7970
  2136.5000      0.0000    618.6934      3.9776    125.4991
  2136.7500      0.0000    595.2674      3.9041    115.6417
  2137.0000      0.0000    577.5753      3.7698    107.7492
