~Version Information
VERS.                      2.0: CWLS Log ASCII Standard - VERSION 2.0
WRAP.                       NO: One line per depth step
~Well Information Block
STRT.FT                -0.5000: 
STOP.FT              1417.0000: 
STEP.FT                 0.2500: 
NULL.                -999.2500: 
COMP.          Pioneer Natural Resources: COMPANY
WELL.              Darren 11-7: WELL
FLD.           Purgatoire River: FIELD
LOC.           230' FNL & 596' FWL: LOCATION
CNTY.               Las Animas: COUNTY
SRVC.                Patterson: SERVICE COMPANY
DATE.          Thu Mar 30 10:43:52 2006: LOG DATE
UWI.           05 071 08720 00: UNIQUE WELL ID
STAT.                 Colorado: STATE
~Curve Information Block
DEPT.FT            0 000 00 00: Depth
GR.GAPI                       : Gamma Ray
CCL.                          : Casing Collar Locator
TT3.usec                      : CBL 3' Travel Time
AMP3.mV                       : CBL 3' Amplitude
~Parameter Information Block
~A  Depth        GR         CCL         TT3         AMP3    
# ...
   167.0000     82.4453      0.0000    767.7619     12.5842
   167.2500     78.0495      0.0000    767.4920     12.8165
   167.5000     71.8773      0.0000    767.2290     13.0511
   167.7500     65.2872      0.0000    767.0018     13.2606
   168.0000     59.6577      0.0000    766.8621     13.4204
   168.2500     55.6747      0.0000    766.9025     13.5060
   168.5000     53.4183      0.0000    767.2346     13.4969
   168.7500     52.5058      0.0000    767.9597     13.3939
   169.0000     52.1914      0.0000    769.2040     13.2277
   169.2500     51.8362      0.0000    771.1045     13.0428
   169.5000     51.4658      0.0000    773.5497     12.8758
   169.7500     51.6864      0.0000    775.8775     12.7483
   170.0000     52.9571      0.0000    777.1073     12.6720
   170.2500     55.0265      0.0000    776.7351     12.6468
   170.5000     57.0782      0.0000    775.1936     12.6541
   170.7500     58.3113      0.0000    773.3980     12.6614
   171.0000     58.3485      0.0000    771.9957     12.6426
   171.2500     57.3052      0.0000    771.1270     12.5922
   171.5000     55.6706      0.0000    770.6540     12.5223
   171.7500     54.1206      0.0000    770.4016     12.4506
   172.0000     53.2886      0.0000    770.2364     12.3917
   172.2500     53.4770      0.0000    770.0666     12.3535
   172.5000     54.4296      0.0000    769.8418     12.3376
   172.7500     55.4061      0.0000    769.5592     12.3419
   173.0000     55.6515      0.0000    769.2880     12.3618
   173.2500     54.9292      0.0000    769.1976     12.3864
   173.5000     53.5943      0.0000    769.5701     12.4014
   173.7500     52.1471      0.0000    770.6935     12.4024
   174.0000     50.8561      0.0000    772.5468     12.4024
   174.2500     49.7993      0.0000    774.4952     12.4258
   174.5000     49.0050      0.0000    775.5302     12.4947
   174.7500     48.4596      0.0000    775.0879     12.6190
   175.0000     48.1429      0.0000    773.5598     12.7948
   175.2500     48.0388      0.0000    771.8755     13.0074
   175.5000     47.9787      0.0000    770.8063     13.2367
   175.7500     47.5987      0.0000    770.8483     13.4608
   176.0000     46.6220      0.0000    772.4885     13.6562
   176.2500     45.1226      0.0000    776.1130     13.7986
   176.5000     43.4984      0.0000    781.4103     13.8700
   176.7500     42.3236      0.0000    786.9291     13.8667
   177.0000     42.2196      0.0000    790.5269     13.7993
   177.2500     43.6382      0.0000    790.5905     13.6842
   177.5000     46.6257      0.0000    787.0746     13.5380
   177.7500     50.7567      0.0000    781.4885     13.3768
   178.0000     55.2475      0.0000    775.8691     13.2192
   178.2500     59.1745      0.0000    771.6136     13.0854
   178.5000     61.8630      0.0000    769.0376     12.9928
   178.7500     63.3359      0.0000    767.6680     12.9485
   179.0000     64.4112      0.0000    766.6870     12.9403
   179.2500     66.0762      0.0000    765.1736     12.9357
   179.5000     68.5452      0.0000    762.2844     12.8984
   179.7500     71.0819      0.0000    757.7364     12.8192
   180.0000     72.9149      0.0000    752.5154     12.7330
   180.2500     74.1392      0.0000    748.8546     12.6963
   180.5000     75.5539      0.0000    748.7363     12.7438
   180.7500     77.7805      0.0000    752.1077     12.8683
   181.0000     80.6348      0.0000    756.9227     13.0406
   181.2500     83.1053      0.0000    760.9769     13.2364
   181.5000     83.8032      0.0000    763.3685     13.4394
   181.7500     81.8012      0.0000    764.3824     13.6287
   182.0000     77.5327      0.0000    764.6299     13.7741
   182.2500     72.9485      0.0000    764.4889     13.8500
   182.5000     70.4432      0.0000    763.9608     13.8571
   182.7500     71.2443      0.0000    762.6483     13.8287
   183.0000     74.6946      0.0000    759.8672     13.8072
   183.2500     79.0692      0.0000    755.1271     13.8086
   183.5000     83.0377      0.0000    748.9098     13.8149
   183.7500     86.4152      0.0000    742.9344     13.8022
   184.0000     89.8335      0.0000    739.1827     13.7626
   184.2500     93.8435      0.0000    738.4842     13.6998
   184.5000     98.1548      0.0000    740.3890     13.6208
   184.7500    101.6699      0.0000    744.2604     13.5460
   185.0000    103.2710      0.0000    749.6725     13.5136
   185.2500    102.5449      0.0000    755.7072     13.5525
   185.5000     99.9883      0.0000    761.0371     13.6455
   185.7500     96.8262      0.0000    765.1510     13.7253
   186.0000     94.3773      0.0000    768.5619     13.7159
   186.2500     93.0373      0.0000    771.4423     13.5834
   186.5000     91.8843      0.0000    772.9808     13.3502
   186.7500     89.7522      0.0000    772.5032     13.0661
   187.0000     86.6907      0.0000    770.5367     12.7722
   187.2500     83.9570      0.0000    768.3491     12.4940
   187.5000     82.5626      0.0000    766.8375     12.2546
   187.7500     82.3088      0.0000    766.1071     12.0768
   188.0000     82.3912      0.0000    765.8241     11.9655
   188.2500     82.3364      0.0000    765.6716     11.8955
   188.5000     81.9405      0.0000    765.5176     11.8226
   188.7500     80.8869      0.0000    765.2916     11.7101
   189.0000     79.0368      0.0000    764.7814     11.5475
   189.2500     76.7875      0.0000    763.4987     11.3540
   189.5000     74.7378      0.0000    760.8780     11.1701
   189.7500     73.1655      0.0000    757.0237     11.0405
   190.0000     71.9394      0.0000    753.4703     10.9901
   190.2500     70.7803      0.0000    752.6616     11.0068
   190.5000     69.6528      0.0000    755.9658     11.0469
   190.7500     68.9752      0.0000    762.2236     11.0638
   191.0000     69.2497      0.0000    768.5409     11.0425
   191.2500     70.3626      0.0000    772.4208     11.0072
   191.5000     71.3601      0.0000    773.2009     10.9956
   191.7500     71.1252      0.0000    771.9216     11.0265
   192.0000     69.4077      0.0000    770.1409     11.0938
   192.2500     67.1571      0.0000    768.8394     11.1880
   192.5000     65.7458      0.0000    768.1761     11.3153
   192.7500     65.8926      0.0000    767.8750     11.4915
   193.0000     67.2873      0.0000    767.6370     11.7200
   193.2500     69.0380      0.0000    767.3067     11.9798
   193.5000     70.4133      0.0000    766.8848     12.2377
   193.7500     71.2475      0.0000    766.4553     12.4712
   194.0000     71.6144      0.0000    766.0837     12.6767
   194.2500     71.2962      0.0000    765.7542     12.8515
   194.5000     70.1415      0.0000    765.3475     12.9792
   194.7500     68.9696      0.0000    764.6151     13.0419
   195.0000     69.3124      0.0000    763.2455     13.0476
   195.2500     71.9150      0.0000    761.2157     13.0352
   195.5000     75.9275      0.0000    759.2095     13.0510
   195.7500     79.7243      0.0000    758.3781     13.1213
   196.0000     82.2225      0.0000    759.3240     13.2374
   196.2500     83.3961      0.0000    761.4402     13.3559
   196.5000     83.7341      0.0000    763.4928     13.4208
   196.7500     83.3617      0.0000    764.7003     13.4031
   197.0000     81.8052      0.0000    765.0974     13.3275
   197.2500     78.7409      0.0000    765.1115     13.2641
   197.5000     74.9576      0.0000    765.0723     13.2852
   197.7500     72.3744      0.0000    765.0464     13.4117
   198.0000     72.7822      0.0000    764.8920     13.5855
   198.2500     76.3525      0.0000    764.2855     13.6993
   198.5000     81.2595      0.0000    762.7532     13.6665
   198.7500     84.7109      0.0000    759.9273     13.4703
   199.0000     84.5806      0.0000    755.9897     13.1574
   199.2500     80.6237      0.0000    751.8535     12.7988
   199.5000     74.5296      0.0000    748.8527     12.4587
   199.7500     68.6793      0.0000    748.1918     12.1812
   200.0000     64.4764      0.0000    750.3322     11.9886
   200.2500     61.6237      0.0000    754.5233     11.8772
