~Version Information
VERS.                      2.0: CWLS Log ASCII Standard - VERSION 2.0
WRAP.                       NO: One line per depth step
~Well Information Block
STRT.FT                -7.5000: 
STOP.FT              1572.0000: 
STEP.FT                 0.2500: 
NULL.                -999.2500: 
COMP.          Pioneer Natural Resources: COMPANY
WELL.          Galloway 32-13 Tr: WELL
FLD.           Purgatoire River: FIELD
LOC.           --1910' FNL & 2002' FEL----: LOCATION
PROV.                       CO: PROVINCE
CNTY.               Las Animas: COUNTRY
SRVC.          Patterson Wireline: SERVICE COMPANY
DATE.          Thu Nov 17 12:46:45 2005: LOG DATE
UWI.           05 071 08608 00: UNIQUE WELL ID
~Curve Information Block
DEPT.FT            0 000 00 00: Depth
CCL.                          : Casing Collar Locator
TT3.usec                      : CBL 3' Travel Time
AMP3.mV                       : CBL 3' Amplitude
GR.GAPI                       : Gamma Ray
~Parameter Information Block
~A  Depth       CCL         TT3         AMP3         GR     
# ...
  1332.5000      0.0000    323.5726     27.8042    101.7701
  1332.7500      0.0000    323.4641     28.2653     97.1301
  1333.0000      0.0000    323.3862     28.7748     92.9647
  1333.2500      0.0000    323.3549     29.2418     89.2767
  1333.5000      0.0000    323.3695     29.6093     86.7486
  1333.7500      0.0000    323.4085     29.8702     85.9404
  1334.0000      0.0000    323.4405     30.0558     86.9448
  1334.2500      0.0000    323.4398     30.2187     89.8629
  1334.5000      0.0000    323.3962     30.4156     95.0305
  1334.7500      0.0000    323.3187     30.6826    102.2053
  1335.0000      0.0000    323.2334     31.0020    109.6562
  1335.2500      0.0000    323.1748     31.2855    114.8013
  1335.5000      0.0000    323.1712     31.3972    116.2469
  1335.7500      0.0000    323.2549     31.2149    115.0033
  1336.0000      0.0000    323.4978     30.6834    113.6108
  1336.2500      0.0000    324.3247     29.8120    114.2006
  1336.5000      0.0000    327.1498     28.6347    117.2382
  1336.7500      0.0000    335.2949     27.1807    121.9401
  1337.0000      0.0000    354.0044     25.4773    127.6049
  1337.2500      0.0000    388.2739     23.5655    134.0023
  1337.5000      0.0000    439.5309     21.5180    140.4796
  1337.7500      0.0000    504.4171     19.4438    145.4887
  1338.0000      0.0000    576.0776     17.4860    147.4865
  1338.2500      0.0000    645.0402     15.8272    146.0290
  1338.5000      0.0000    700.1625     14.6529    141.9392
  1338.7500      0.0000    732.2837     14.0385    136.8775
  1339.0000      0.0000    737.9379     13.8746    132.7492
  1339.2500      0.0000    720.2479     13.9266    131.0007
  1339.5000      2.0000    688.6719     13.9574    132.0454
  1339.7500      0.0000    656.7209     13.8534    135.2340
  1340.0000      0.0000    633.5262     13.7496    139.4761
  1340.2500      0.0000    614.8734     14.0318    144.0149
  1340.5000      0.0000    586.3478     15.0690    148.6901
  1340.7500      0.0000    538.3528     16.8512    153.5962
  1341.0000      0.0000    476.6696     18.9605    158.5352
  1341.2500      0.0000    417.4241     20.9584    162.6590
  1341.5000      0.0000    373.4923     22.7194    164.7085
  1341.7500      0.0000    347.2129     24.3137    163.8845
  1342.0000      0.0000    333.7496     25.6993    160.3990
  1342.2500      0.0000    327.4706     26.6987    154.9393
  1342.5000      0.0000    324.7646     27.2211    147.9161
  1342.7500      0.0000    323.7427     27.3674    139.8227
  1343.0000      0.0000    323.4164     27.3294    132.1146
  1343.2500      0.0000    323.3222     27.2631    126.7970
  1343.5000      0.0000    323.2718     27.2456    124.7797
  1343.7500      0.0000    323.2252     27.2930    125.1770
  1344.0000      0.0000    323.1859     27.3926    126.4046
  1344.2500      0.0000    323.1586     27.5298    127.3049
  1344.5000      0.0000    323.1436     27.6935    127.0007
  1344.7500      0.0000    323.1375     27.8745    124.4120
  1345.0000      0.0000    323.1356     28.0777    118.5337
  1345.2500      0.0000    323.1304     28.3356    109.2942
  1345.5000      0.0000    323.1159     28.6969     98.0532
  1345.7500      0.0000    323.0930     29.1889     87.0043
  1346.0000      0.0000    323.0706     29.7923     77.9700
  1346.2500      0.0000    323.0577     30.4521     71.7375
  1346.5000      0.0000    323.0497     31.1207     68.1612
  1346.7500      0.0000    323.0208     31.8011     66.4550
  1347.0000      0.0000    322.9033     32.5469     65.6242
  1347.2500      0.0000    322.5227     33.4073     65.1420
  1347.5000      0.0000    321.5020     34.3694     65.2635
  1347.7500      0.0000    319.3021     35.3555     66.4661
  1348.0000      0.0000    315.6779     36.2631     68.7423
  1348.2500      0.0000    311.4095     36.9865     71.8198
  1348.5000      0.0000    308.3813     37.4154     76.0430
  1348.7500      0.0000    308.3221     37.4559     82.3391
  1349.0000      0.0000    311.2478     37.0784     90.7670
  1349.2500      0.0000    315.4492     36.3444     99.5230
  1349.5000      0.0000    319.0356     35.3834    106.1358
  1349.7500      0.0000    321.2069     34.3399    109.7191
  1350.0000      0.0000    322.1997     33.3256    111.8362
  1350.2500      0.0000    322.5642     32.4025    115.1005
  1350.5000      0.0000    322.6920     31.5945    120.7451
  1350.7500      0.0000    322.7555     30.9078    127.5398
  1351.0000      0.0000    322.8035     30.3427    133.3349
  1351.2500      0.0000    322.8453     29.9012    137.1480
  1351.5000      0.0000    322.8834     29.6002    139.1815
  1351.7500      0.0000    322.9157     29.4765    139.6571
  1352.0000      0.0000    322.9327     29.5665    138.5132
  1352.2500      0.0000    322.9239     29.8632    135.7288
  1352.5000      0.0000    322.8900     30.2864    131.3792
  1352.7500      0.0000    322.8496     30.7058    125.6042
  1353.0000      0.0000    322.8302     31.0109    118.7208
  1353.2500      0.0000    322.8522     31.1646    111.2811
  1353.5000      0.0000    322.9190     31.1926    104.0329
  1353.7500      0.0000    323.0163     31.1338     97.7656
  1354.0000      0.0000    323.1180     31.0270     93.0731
  1354.2500      0.0000    323.1942     30.9430     90.2327
  1354.5000      0.0000    323.2207     30.9932     89.2294
  1354.7500      0.0000    323.1910     31.2595     89.7671
  1355.0000      0.0000    323.1219     31.7040     91.4016
  1355.2500      0.0000    323.0463     32.1604     94.0246
  1355.5000      0.0000    322.9965     32.4269     98.2386
  1355.7500      0.0000    322.9911     32.3767    104.8535
  1356.0000      0.0000    323.0329     32.0019    113.7320
  1356.2500      0.0000    323.1102     31.3905    123.1755
  1356.5000      0.0000    323.1970     30.6790    130.6201
  1356.7500      0.0000    323.2566     30.0074    134.2063
  1357.0000      0.0000    323.2557     29.4900    133.9967
  1357.2500      0.0000    323.1798     29.1975    131.9329
  1357.5000      0.0000    323.0425     29.1392    130.5984
  1357.7500      0.0000    322.8837     29.2412    131.6345
  1358.0000      0.0000    322.7536     29.3630    134.7875
  1358.2500      0.0000    322.6853     29.3758    138.1489
  1358.5000      0.0000    322.6772     29.2409    139.4342
  1358.7500      0.0000    322.7015     29.0087    137.5056
  1359.0000      0.0000    322.7288     28.7505    133.0894
  1359.2500      0.0000    322.7440     28.5146    127.8935
  1359.5000      0.0000    322.7427     28.3373    122.6721
  1359.7500      0.0000    322.7216     28.2601    116.2938
  1360.0000      0.0000    322.6778     28.3229    107.2307
  1360.2500      0.0000    322.6103     28.5443     95.9514
  1360.5000      0.0000    322.5202     28.9087     85.2496
  1360.7500      0.0000    322.4112     29.3587     78.0114
  1361.0000      0.0000    322.2896     29.8027     75.1200
  1361.2500      0.0000    322.1635     30.1492     75.5182
  1361.5000      0.0000    322.0393     30.3487     77.4627
  1361.7500      0.0000    321.9261     30.4040     79.3222
  1362.0000      0.0000    321.8390     30.3433     79.7906
  1362.2500      0.0000    321.7961     30.1881     78.2701
  1362.5000      0.0000    321.8090     29.9433     75.4650
  1362.7500      0.0000    321.8777     29.6056     73.3731
  1363.0000      0.0000    321.9927     29.1741     74.2565
  1363.2500      0.0000    322.1377     28.6643     79.2158
  1363.5000      0.0000    322.2913     28.1217     87.4874
  1363.7500      0.0000    322.4298     27.6190     96.9777
  1364.0000      0.0000    322.5303     27.2335    105.5803
  1364.2500      0.0000    322.5746     27.0200    112.1542
  1364.5000      0.0000    322.5549     26.9916    116.5035
  1364.7500      0.0000    322.4787     27.1117    118.9640
  1365.0000      0.0000    322.3701     27.2953    120.4494
  1365.2500      0.0000    322.2654     27.4362    122.3500
  1365.5000      0.0000    322.2012     27.4587    125.5457
  1365.7500      0.0000    322.1982     27.3629    129.6803
