~Version Information
VERS.                      2.0: CWLS Log ASCII Standard - VERSION 2.0
WRAP.                       NO: One line per depth step
~Well Information Block
STRT.FT               233.8000: 
STOP.FT              1692.5000: 
STEP.FT                 0.1000: 
NULL.                -999.2500: 
COMP.          Pioneer Natural Resources: COMPANY
WELL.            Relay 12-7 Tr: WELL
FLD.           Purgatoire River: FIELD
LOC.           2025' FNL & 790' FWL: LOCATION
PROV.                 Colorado: PROVINCE
CNTY.               Las Animas: COUNTRY
SRVC.                Patterson: SERVICE COMPANY
DATE.          Mon Jan 16 13:23:17 2006: LOG DATE
UWI.           05 071 08603 00: UNIQUE WELL ID
~Curve Information Block
DEPT.FT            0 000 00 00: Depth
DCAL.in                       : CDL Caliper
RHOB.g/cc                     : CDL Bulk Density
RHOC.g/cc                     : CDL Density Correction
DPOR.pu                       : CDL Density Porosity
GR.GAPI                       : Gamma Ray
~Parameter Information Block
~A  Depth       DCAL        RHOB        RHOC        DPOR         GR     
# ...
  1107.4000      7.9479      2.5420      0.0088      6.5426    138.8371
  1107.5000      7.9347      2.5350      0.0175      6.9703    136.3698
  1107.6000      7.9347      2.5142     -0.0015      8.2317    134.0802
  1107.7000      7.9347      2.4863     -0.0264      9.9191    133.6184
  1107.8000      7.9362      2.4696     -0.0669     10.9360    129.4905
  1107.9000      7.9362      2.4689     -0.0902     10.9741    123.0304
  1108.0000      7.9646      2.4804      0.0379     10.2773    123.1364
  1108.1000      7.9646      2.4924     -0.0177      9.5513    132.3293
  1108.2000      7.9646      2.4945      0.0536      9.4272    142.3747
  1108.3000      8.0084      2.4894     -0.0055      9.7323    146.8971
  1108.4000      8.0084      2.4928      0.0344      9.5243    148.7281
  1108.5000      8.0118      2.5040      0.0113      8.8475    152.0325
  1108.6000      8.0118      2.5001      0.0561      9.0850    155.3345
  1108.7000      8.0118      2.4715      0.0451     10.8195    155.0850
  1108.8000      8.0335      2.4400     -0.0247     12.7279    153.1316
  1108.9000      8.0335      2.4325     -0.0316     13.1806    153.5185
  1109.0000      8.0092      2.4488      0.0515     12.1915    152.1095
  1109.1000      8.0092      2.4672      0.0299     11.0800    143.5499
  1109.2000      8.0092      2.4684      0.0901     11.0090    131.1536
  1109.3000      7.9752      2.4421      0.0678     12.5991    124.0088
  1109.4000      7.9752      2.3839      0.0132     16.1275    126.5902
  1109.5000      7.9570      2.2942     -0.0175     21.5642    133.7093
  1109.6000      7.9570      2.1871     -0.0374     28.0566    137.2431
  1109.7000      7.9570      2.0900     -0.1077     33.9391    135.6221
  1109.8000      7.9207      2.0246     -0.0979     37.9059    135.9227
  1109.9000      7.9207      1.9963     -0.0852     39.6168    138.4912
  1110.0000      7.9394      1.9931     -0.0358     39.8108    137.4855
  1110.1000      7.9394      1.9959     -0.0463     39.6412    135.9781
  1110.2000      7.9394      2.0063     -0.0175     39.0143    138.6108
  1110.3000      7.9489      2.0375      0.0469     37.1187    144.0166
  1110.4000      7.9489      2.0837      0.1449     34.3204    146.8422
  1110.5000      7.9441      2.1194      0.1668     32.1587    142.2515
  1110.6000      7.9441      2.1211      0.1743     32.0575    134.6538
  1110.7000      7.9441      2.0826      0.0971     34.3900    132.4811
  1110.8000      7.9386      2.0198      0.0151     38.1936    136.9092
  1110.9000      7.9386      1.9608     -0.0545     41.7669    143.7591
  1111.0000      7.9330      1.9181     -0.0159     44.3569    146.7990
  1111.1000      7.9330      1.8819      0.0214     46.5532    140.6289
  1111.2000      7.9330      1.8471      0.0598     48.6580    130.3445
  1111.3000      7.9474      1.8241      0.0261     50.0518    124.0208
  1111.4000      7.9474      1.8232      0.0230     50.1097    123.6002
  1111.5000      7.9520      1.8344      0.0837     49.4295    130.2270
  1111.6000      7.9520      1.8350      0.0448     49.3961    139.6129
  1111.7000      7.9520      1.8148      0.0688     50.6192    143.4777
  1111.8000      7.9642      1.7826      0.0693     52.5705    138.9840
  1111.9000      7.9642      1.7492      0.0580     54.5954    130.2769
  1112.0000      7.9366      1.7065      0.0518     57.1790    125.3425
  1112.1000      7.9366      1.6436     -0.0437     60.9918    127.0351
  1112.2000      7.9366      1.5704     -0.0930     65.4291    131.5549
  1112.3000      7.9272      1.4974     -0.0936     69.8565    134.4511
  1112.4000      7.9272      1.4296     -0.0764     73.9658    129.5626
  1112.5000      8.0482      1.3826     -0.0499     76.8095    116.9851
  1112.6000      8.0482      1.3655     -0.0297     77.8483    103.4934
  1112.7000      8.0482      1.3683      0.0018     77.6816     94.8669
  1112.8000      8.0634      1.3788     -0.0056     77.0439     93.1492
  1112.9000      8.0634      1.3960     -0.0125     76.0010     93.9243
  1113.0000      8.1226      1.4263     -0.0061     74.1626     91.4562
  1113.1000      8.1226      1.4701      0.0673     71.5072     86.4405
  1113.2000      8.1226      1.5233      0.0762     68.2847     82.3655
  1113.3000      8.0028      1.5867      0.1129     64.4405     78.7641
  1113.4000      8.0028      1.6492      0.1510     60.6572     75.6298
  1113.5000      7.9525      1.6844      0.1563     58.5231     73.5674
  1113.6000      7.9525      1.6881      0.0776     58.2975     69.8596
  1113.7000      7.9525      1.6818      0.0801     58.6770     64.8184
  1113.8000      7.8507      1.6804      0.0746     58.7652     62.2251
  1113.9000      7.8507      1.6833      0.1333     58.5877     62.2900
  1114.0000      7.8477      1.6795      0.1369     58.8174     62.9608
  1114.1000      7.8477      1.6561      0.1350     60.2334     62.9297
  1114.2000      7.8477      1.6050      0.1051     63.3331     61.8343
  1114.3000      7.9014      1.5300      0.0383     67.8816     62.6489
  1114.4000      7.9014      1.4521     -0.0113     72.6010     65.9919
  1114.5000      7.9272      1.3945     -0.0418     76.0898     65.6044
  1114.6000      7.9272      1.3619      0.0118     78.0677     57.8042
  1114.7000      7.9272      1.3416     -0.0019     79.2973     50.1649
  1114.8000      8.0536      1.3231      0.0035     80.4155     49.5493
  1114.9000      8.0536      1.3020     -0.0012     81.6958     50.9073
  1115.0000      8.1014      1.2811     -0.0400     82.9633     46.9030
  1115.1000      8.1014      1.2767     -0.0614     83.2306     40.0359
  1115.2000      8.1014      1.2985      0.0069     81.9102     36.1809
  1115.3000      8.0046      1.3319      0.0332     79.8838     35.1594
  1115.4000      8.0046      1.3599      0.0364     78.1899     35.0575
  1115.5000      7.9626      1.3790      0.0568     77.0299     35.5107
  1115.6000      7.9626      1.3900      0.0591     76.3635     35.9691
  1115.7000      7.9626      1.3995      0.0573     75.7879     37.3620
  1115.8000      8.0119      1.4284      0.0479     74.0364     41.0803
  1115.9000      8.0119      1.4991      0.0485     69.7488     45.3508
  1116.0000      8.0605      1.6164      0.0578     62.6415     48.2804
  1116.1000      8.0605      1.7617      0.1016     53.8335     50.8168
  1116.2000      8.0605      1.9077      0.1276     44.9904     52.7365
  1116.3000      8.0408      2.0427      0.2088     36.8061     54.8923
  1116.4000      8.0408      2.1737      0.2217     28.8646     59.1118
  1116.5000      7.9621      2.2961      0.2598     21.4459     64.5746
  1116.6000      7.9621      2.3843      0.2781     16.1016     72.2341
  1116.7000      7.9621      2.4318      0.1419     13.2258     83.2159
  1116.8000      7.9365      2.4535      0.1012     11.9086     91.9181
  1116.9000      7.9365      2.4541      0.0473     11.8717     93.3857
  1117.0000      7.9336      2.4434      0.0312     12.5213     92.2768
  1117.1000      7.9336      2.4460      0.0500     12.3635     97.4643
  1117.2000      7.9336      2.4805      0.0167     10.2718    109.2680
  1117.3000      7.8948      2.5390      0.1317      6.7282    118.2203
  1117.4000      7.8948      2.5919      0.1427      3.5203    122.9364
  1117.5000      7.8946      2.6191      0.2005      1.8705    126.5471
  1117.6000      7.8946      2.6160      0.1865      2.0580    126.7835
  1117.7000      7.8946      2.5930      0.1717      3.4565    125.5702
  1117.8000      7.8975      2.5719      0.1164      4.7355    124.5233
  1117.9000      7.8975      2.5619      0.1156      5.3393    124.5097
  1118.0000      7.8571      2.5470      0.1279      6.2445    127.4964
  1118.1000      7.8571      2.5254      0.0257      7.5510    128.7136
  1118.2000      7.8571      2.5213      0.0479      7.8007    126.8952
  1118.3000      7.8169      2.5354      0.0779      6.9425    128.3590
  1118.4000      7.8169      2.5439      0.0722      6.4311    132.4333
  1118.5000      7.8593      2.5313      0.0831      7.1915    133.3817
