~Version Information
VERS.                      2.0: CWLS Log ASCII Standard - VERSION 2.0
WRAP.                       NO: One line per depth step
~Well Information Block
STRT.FT               830.0000: 
STOP.FT              1792.5000: 
STEP.FT                 0.1000: 
NULL.                -999.2500: 
COMP.          Pioneer Natural Resources: COMPANY
WELL.           Rolls 14-14 Tr: WELL
FLD.           Purgatoire River: FIELD
LOC.           473' FSL & 817' FWL: LOCATION
PROV.                 Colorado: PROVINCE
CNTY.               Las Animas: COUNTRY
SRVC.                Patterson: SERVICE COMPANY
DATE.          Wed Aug 03 07:11:37 2005: LOG DATE
UWI.           05 071 08454 00: UNIQUE WELL ID
~Curve Information Block
DEPT.FT            0 000 00 00: Depth
DCAL.in                       : CDL Caliper
RHOB.g/cc                     : CDL Bulk Density
RHOC.g/cc                     : CDL Density Correction
DPOR.pu                       : CDL Density Porosity
GR.GAPI                       : Gamma Ray
NPOR.pu                       : Neutron Porosity
~Parameter Information Block
~A  Depth       DCAL        RHOB        RHOC        DPOR         GR         NPOR    
# ...
   954.8000      8.3192      1.5465     -0.0853     66.8803    109.6160     14.8175
   954.9000      8.3192      1.6063     -0.0169     63.2537    106.4506     15.9616
   955.0000      8.3094      1.7122      0.0850     56.8344    105.3695     17.0589
   955.1000      8.3094      1.8438      0.1570     48.8634    102.4350     17.6959
   955.2000      8.3094      1.9909      0.3393     39.9479     98.3792     17.7580
   955.3000      8.3453      2.1280      0.4016     31.6344     95.7643     17.6814
   955.4000      8.3453      2.2260      0.3931     25.6997     96.4406     17.9976
   955.5000      8.4734      2.2762      0.3431     22.6555    102.6822     18.9807
   955.6000      8.4734      2.2985      0.1759     21.3009    112.2055     20.5568
   955.7000      8.4734      2.3205      0.0630     19.9684    119.5905     22.2323
   955.8000      8.6667      2.3507      0.0233     18.1364    122.1930     23.4063
   955.9000      8.6667      2.3873      0.0120     15.9206    120.8083     23.7784
   956.0000      8.4162      2.4270      0.0415     13.5131    119.9676     23.6706
   956.1000      8.4162      2.4639      0.0559     11.2767    124.8865     23.6240
   956.2000      8.4162      2.4947      0.1370      9.4124    132.6236     23.5879
   956.3000      8.2374      2.5203      0.1705      7.8615    135.1294     23.4704
   956.4000      8.2374      2.5373      0.2947      6.8274    132.4959     23.6307
   956.5000      8.2917      2.5346      0.1905      6.9937    130.4464     24.1767
   956.6000      8.2917      2.5186      0.0230      7.9610    131.4421     24.9495
   956.7000      8.2917      2.5098     -0.0065      8.4975    133.1976     25.6324
   956.8000      8.1556      2.5110      0.0495      8.4238    132.9899     25.8220
   956.9000      8.1556      2.5168     -0.0016      8.0701    133.5821     25.7355
   957.0000      8.1340      2.5293      0.0510      7.3145    139.2804     25.6337
   957.1000      8.1340      2.5402      0.0490      6.6556    146.0569     25.2389
   957.2000      8.1340      2.5279      0.0864      7.4012    148.0785     24.7048
   957.3000      8.1343      2.4880      0.0159      9.8181    147.9090     24.5485
   957.4000      8.1343      2.4405     -0.0100     12.6940    150.3199     24.8106
   957.5000      8.1179      2.3962     -0.0308     15.3843    151.5590     25.2400
   957.6000      8.1179      2.3492     -0.0317     18.2327    147.1441     25.5429
   957.7000      8.1179      2.3046     -0.0441     20.9322    142.1730     25.3057
   957.8000      8.1185      2.2782     -0.0238     22.5321    142.8387     24.5488
   957.9000      8.1185      2.2753     -0.0433     22.7109    146.7583     23.9525
   958.0000      8.1601      2.2966      0.0061     21.4202    148.3936     24.0604
   958.1000      8.1601      2.3363      0.0403     19.0105    146.9722     24.7719
   958.2000      8.1601      2.3765      0.1077     16.5756    145.3153     25.7213
   958.3000      8.1392      2.4039      0.0741     14.9165    144.1676     26.4574
   958.4000      8.1392      2.4202      0.0772     13.9294    143.4806     26.6745
   958.5000      8.1234      2.4343      0.0889     13.0735    143.5214     26.6095
   958.6000      8.1234      2.4537      0.0706     11.8950    142.4745     26.7145
   958.7000      8.1234      2.4727      0.1173     10.7476    140.1468     27.0350
   958.8000      8.1251      2.4807      0.0272     10.2614    140.2829     27.3376
   958.9000      8.1251      2.4832      0.0527     10.1117    144.8926     27.4287
   959.0000      8.1072      2.4835      0.0407     10.0920    149.5311     27.3369
   959.1000      8.1072      2.4799      0.0598     10.3083    148.9285     27.2467
   959.2000      8.1072      2.4809      0.0006     10.2495    144.4227     27.2334
   959.3000      8.1113      2.4943      0.0602      9.4353    139.4326     27.0107
   959.4000      8.1113      2.5206     -0.0106      7.8414    132.7814     26.3574
   959.5000      8.1045      2.5611      0.0534      5.3889    122.6895     25.6183
   959.6000      8.1045      2.6026      0.0761      2.8729    113.0852     25.1246
   959.7000      8.1045      2.6290      0.1154      1.2729    108.1342     24.8049
   959.8000      8.0595      2.6358      0.1203      0.8605    103.9253     24.6516
   959.9000      8.0595      2.6246      0.1489      1.5405     97.5604     24.6886
   960.0000      8.0356      2.6010      0.1215      2.9710     94.4164     24.5852
   960.1000      8.0356      2.5788      0.0672      4.3131     96.4317     24.0581
   960.2000      8.0356      2.5784      0.0242      4.3383    100.2042     23.4182
   960.3000      7.9861      2.5996      0.0888      3.0565    103.5008     23.1830
   960.4000      7.9861      2.6198      0.0615      1.8325    102.9902     23.3252
   960.5000      7.9768      2.6310      0.0155      1.1525     96.5012     23.3548
   960.6000      7.9768      2.6368      0.0891      0.8020     87.7028     23.1993
   960.7000      7.9768      2.6379      0.0521      0.7342     81.9065     23.4239
   960.8000      8.0351      2.6436      0.0616      0.3904     81.6507     24.2714
   960.9000      8.0351      2.6511      0.1308     -0.0680     87.0899     25.1320
   961.0000      8.0555      2.6414      0.0838      0.5219     94.5580     25.3776
   961.1000      8.0555      2.6177      0.0606      1.9570     97.1856     25.3001
   961.2000      8.0555      2.6081      0.0240      2.5423     95.7279     25.3263
   961.3000      8.0398      2.6230      0.0647      1.6379     95.7285     25.1941
   961.4000      8.0398      2.6396      0.1054      0.6308     99.4664     24.6502
   961.5000      8.0431      2.6379      0.1177      0.7339    107.8345     23.9446
   961.6000      8.0431      2.6235      0.1238      1.6062    117.6009     23.4470
   961.7000      8.0431      2.6053      0.0979      2.7083    122.3200     23.2437
   961.8000      8.0550      2.5844      0.0812      3.9786    122.1432     23.3530
   961.9000      8.0550      2.5692      0.0800      4.8979    121.8723     23.6942
   962.0000      8.0531      2.5646      0.0935      5.1733    121.0117     23.7967
   962.1000      8.0531      2.5569      0.1470      5.6429    115.9319     23.3338
   962.2000      8.0531      2.5400      0.1279      6.6654    107.6201     22.7177
   962.3000      8.0474      2.5385      0.0584      6.7577    102.0925     22.6696
   962.4000      8.0474      2.5760      0.1294      4.4866    103.1753     23.3241
   962.5000      8.0446      2.6472      0.1403      0.1673    106.0138     24.0840
   962.6000      8.0446      2.7321      0.1508     -4.9747    106.3336     24.6546
   962.7000      8.0446      2.8139      0.1672     -9.9323    104.4170     25.3211
   962.8000      8.0388      2.8800      0.2869    -13.9400    101.0583     25.9125
   962.9000      8.0388      2.9153      0.2667    -16.0770     98.4545     25.9702
   963.0000      8.0361      2.9106      0.2276    -15.7953     96.0047     25.8143
   963.1000      8.0361      2.8704      0.1731    -13.3599     92.4117     25.9486
   963.2000      8.0361      2.8083      0.0753     -9.5954     91.9077     26.0632
   963.3000      8.0445      2.7344      0.0166     -5.1171     94.8491     25.8250
   963.4000      8.0445      2.6623     -0.0948     -0.7443     96.8409     25.3233
   963.5000      8.0366      2.6209     -0.0664      1.7666     96.3639     24.8220
   963.6000      8.0366      2.6195     -0.0225      1.8482     93.9379     24.4736
   963.7000      8.0366      2.6352      0.0119      0.8957     91.3495     24.1891
   963.8000      8.0279      2.6435      0.0537      0.3928     89.7340     23.9074
   963.9000      8.0279      2.6309      0.0247      1.1594     90.6360     23.3194
   964.0000      8.0592      2.5948      0.0297      3.3482     94.9565     22.3337
   964.1000      8.0592      2.5499     -0.0035      6.0694     98.9578     21.5773
   964.2000      8.0592      2.5187     -0.0017      7.9594    102.1333     21.5703
   964.3000      8.0383      2.5070     -0.0109      8.6672    107.0621     22.0345
