~Version Information
VERS.                      2.0: CWLS Log ASCII Standard - VERSION 2.0
WRAP.                       NO: One line per depth step
~Well Information Block
STRT.FT                65.0000: 
STOP.FT               998.0000: 
STEP.FT                 0.2500: 
NULL.                -999.2500: 
COMP.          Pioneer Natural Resources: COMPANY
WELL.              Gough 14-29: WELL
FLD.           Purgatorie River: FIELD
LOC.           1199' FSL & 676' FWL: LOCATION
PROV.                 Colorado: PROVINCE
CNTY.               Las Animas: COUNTRY
SRVC.                Patterson: SERVICE COMPANY
DATE.          Wed Dec 28 08:38:26 2005: LOG DATE
UWI.                          : UNIQUE WELL ID
~Curve Information Block
DEPT.FT            0 000 00 00: Depth
CCL.                          : Casing Collar Locator
TT3.usec                      : CBL 3' Travel Time
AMP3.mV                       : CBL 3' Amplitude
GR.GAPI                       : Gamma Ray
~Parameter Information Block
~A  Depth       CCL         TT3         AMP3         GR     
# ...
   199.0000      0.0000    259.4087     84.9251     35.9003
   199.2500      0.0000    259.4319     84.9439     36.9978
   199.5000      0.0000    259.4491     84.9575     39.0764
   199.7500      0.0000    259.4549     84.9836     41.7460
   200.0000      0.0000    259.4480     84.9877     44.5681
   200.2500      0.0000    259.4314     84.9461     47.3136
   200.5000      0.0000    259.4092     84.8718     50.0134
   200.7500      0.0000    259.3886     84.7788     52.7067
   201.0000      0.0000    259.3843     84.6920     55.1943
   201.2500      0.0000    259.4029     84.6474     57.2164
   201.5000      0.0000    259.4292     84.6489     58.8948
   201.7500      0.0000    259.4462     84.6730     60.7143
   202.0000      0.0000    259.4499     84.6852     62.8545
   202.2500      0.0000    259.4412     84.6643     64.8552
   202.5000      0.0000    259.4247     84.6483     66.3310
   202.7500      0.0000    259.4070     84.6802     67.7393
   203.0000      0.0000    259.3929     84.7394     69.9455
   203.2500      0.0000    259.3920     84.8148     73.2052
   203.5000      0.0000    259.4130     84.9244     77.1224
   203.7500      0.0000    259.4435     85.0258     81.3904
   204.0000      0.0000    259.4624     85.0618     85.7930
   204.2500      0.0000    259.4656     85.0516     89.4835
   204.5000      0.0000    259.4627     85.0252     91.2084
   204.7500      0.0000    259.4618     84.9735     90.7046
   205.0000      0.0000    259.4674     84.9208     89.3895
   205.2500      0.0000    259.4793     84.9247     89.2683
   205.5000      0.0000    259.4892     84.9805     91.3544
   205.7500      0.0000    259.4885     85.0192     95.3039
   206.0000      0.0000    259.4769     85.0018    100.2519
   206.2500      0.0000    259.4581     84.9523    105.6927
   206.5000      0.0000    259.4357     84.9035    111.5644
   206.7500      0.0000    259.4134     84.8759    117.6130
   207.0000      0.0000    259.3951     84.8828    122.9269
   207.2500      0.0000    259.3881     84.9079    126.3131
   207.5000      0.0000    259.4028     84.9293    127.1300
   207.7500      0.0000    259.4373     84.9554    125.8462
   208.0000      0.0000    259.4725     84.9787    123.9903
   208.2500      0.0000    259.4875     84.9589    123.2642
   208.5000      0.0000    259.4725     84.8928    124.2050
   208.7500      0.0000    259.4367     84.8381    125.7762
   209.0000      0.0000    259.4031     84.8384    126.5200
   209.2500      0.0000    259.3857     84.8648    125.7695
   209.5000      0.0000    259.3798     84.8646    123.5498
   209.7500      0.0000    259.3763     84.8321    120.0291
   210.0000      0.0000    259.3731     84.7932    115.6359
   210.2500      0.0000    259.3713     84.7610    111.1746
   210.5000      0.0000    259.3700     84.7321    107.2924
   210.7500      0.0000    259.3686     84.7076    104.0880
   211.0000      0.0000    259.3685     84.6931    101.3728
   211.2500      0.0000    259.3725     84.6937     98.8301
   211.5000      0.0000    259.3856     84.7310     95.6719
   211.7500      0.0000    259.4109     84.8266     90.6331
   212.0000      0.0000    259.4442     84.9744     82.8831
   212.2500      0.0000    259.4737     85.1392     72.9325
   212.5000      0.0000    259.4883     85.2562     62.3958
   212.7500      0.0000    259.4846     85.2755     52.9946
   213.0000      0.0000    259.4700     85.2239     46.0078
   213.2500      0.0000    259.4550     85.1635     42.3229
   213.5000      0.0000    259.4429     85.1089     42.4156
   213.7500      0.0000    259.4295     85.0433     46.1792
   214.0000      0.0000    259.4171     84.9785     53.0213
   214.2500      0.0000    259.4159     84.9434     62.0614
   214.5000      0.0000    259.4211     84.9293     72.1849
   214.7500      0.0000    259.4138     84.8923     82.2032
   215.0000      0.0000    259.3944     84.8333     91.1741
   215.2500      0.0000    259.3834     84.8126     98.5683
   215.5000      0.0000    259.3932     84.8356    104.3130
   215.7500      0.0000    259.4430     84.7994    108.7740
   216.0000      0.0000    259.6437     84.5053    112.3611
   216.2500      0.0000    260.2357     83.4546    114.9845
   216.5000      0.0000    261.4124     80.5787    116.1185
   216.7500      0.0000    263.0546     74.9410    115.2816
   217.0000      0.0000    264.7255     67.6483    112.1696
   217.2500      0.0000    265.9444     61.9226    106.7902
   217.5000      0.0000    266.5110     59.7531    100.0533
   217.7500      0.0000    266.6128     60.0234     93.8812
   218.0000      0.0000    266.5652     60.7332     90.1105
   218.2500      2.0000    266.5248     61.0838     89.3067
   218.5000     -2.0000    266.4785     61.2283     90.7175
   218.7500      0.0000    266.3422     61.6487     93.0800
   219.0000      0.0000    266.0126     63.1395     95.1883
   219.2500      0.0000    265.4046     66.4534     95.9286
   219.5000      0.0000    264.4834     71.2696     94.5485
   219.7500      0.0000    263.2833     76.0667     91.4726
   220.0000      0.0000    261.9421     79.6584     88.5668
   220.2500      0.0000    260.7292     82.0270     88.0351
   220.5000      0.0000    259.9144     83.4666     90.7816
   220.7500      0.0000    259.5321     84.1608     95.8641
   221.0000      0.0000    259.4006     84.3992    101.4323
   221.2500      0.0000    259.3478     84.4287    105.9239
   221.5000      0.0000    259.3040     84.3255    108.4267
   221.7500      0.0000    259.2617     84.1494    108.5395
   222.0000      0.0000    259.2397     84.0260    106.4006
   222.2500      0.0000    259.2537     84.0437    102.8400
   222.5000      0.0000    259.2947     84.1791     99.1232
   222.7500      0.0000    259.3396     84.3537     96.1630
   223.0000      0.0000    259.3716     84.4958     93.8846
   223.2500      0.0000    259.3830     84.5542     91.5742
   223.5000      0.0000    259.3738     84.5098     88.8221
   223.7500      0.0000    259.3549     84.3938     85.8180
   224.0000      0.0000    259.3425     84.2781     82.8625
   224.2500      0.0000    259.3447     84.2314     80.1848
   224.5000      0.0000    259.3587     84.2877     78.2043
   224.7500      0.0000    259.3776     84.4247     77.3894
   225.0000      0.0000    259.3918     84.5538     77.7112
   225.2500      0.0000    259.3914     84.5902     78.5611
   225.5000      0.0000    259.3738     84.5238     79.2406
   225.7500      0.0000    259.3459     84.3920     79.4106
   226.0000      0.0000    259.3196     84.2395     79.1057
   226.2500      0.0000    259.3053     84.1225     78.5556
   226.5000      0.0000    259.3056     84.0884     78.1024
   226.7500      0.0000    259.3069     84.1206     78.1222
   227.0000      0.0000    259.2905     84.1478     78.7959
   227.2500      0.0000    259.2572     84.1426     79.9508
   227.5000      0.0000    259.2226     84.1383     81.1286
   227.7500      0.0000    259.1943     84.1313     81.7168
   228.0000      0.0000    259.1790     84.0839     81.1148
   228.2500      0.0000    259.1879     84.0192     79.0746
   228.5000      0.0000    259.2198     84.0147     75.9822
   228.7500      0.0000    259.2610     84.1026     72.7277
   229.0000      0.0000    259.2967     84.2256     70.3115
   229.2500      0.0000    259.3186     84.3069     69.5107
   229.5000      0.0000    259.3270     84.3275     70.6546
   229.7500      0.0000    259.3284     84.3116     73.5722
   230.0000      0.0000    259.3258     84.2707     77.7831
   230.2500      0.0000    259.3120     84.1844     82.7437
   230.5000      0.0000    259.2863     84.0629     87.8853
   230.7500      0.0000    259.2682     83.9954     92.6768
   231.0000      0.0000    259.2716     84.0471     97.0175
   231.2500      0.0000    259.2861     84.1585    101.5284
   231.5000      0.0000    259.2959     84.2249    107.0712
   231.7500      0.0000    259.2974     84.2077    113.6205
   232.0000      0.0000    259.2917     84.1331    119.6090
   232.2500      0.0000    259.2847     84.0564    122.8255
