~Version Information
VERS.                      2.0: CWLS Log ASCII Standard - VERSION 2.0
WRAP.                       NO: One line per depth step
~Well Information Block
STRT.FT               245.0000: 
STOP.FT              1102.5000: 
STEP.FT                 0.1000: 
NULL.                -999.2500: 
COMP.          Pioneer Natural Resources: COMPANY
WELL.           Pavilion 44-25: WELL
FLD.           Purgatoire River: FIELD
LOC.           719' FSL & 650' FEL: LOCATION
PROV.                 Colorado: PROVINCE
CNTY.               Las Animas: COUNTRY
SRVC.                Patterson: SERVICE COMPANY
DATE.          Wed Dec 14 09:57:07 2005: LOG DATE
UWI.           05 071 08624 00: UNIQUE WELL ID
~Curve Information Block
DEPT.FT            0 000 00 00: Depth
DCAL.in                       : CDL Caliper
RHOB.g/cc                     : CDL Bulk Density
RHOC.g/cc                     : CDL Density Correction
DPOR.pu                       : CDL Density Porosity
GR.GAPI                       : Gamma Ray
NPOR.pu                       : Neutron Porosity
~Parameter Information Block
~A  Depth       DCAL        RHOB        RHOC        DPOR         GR         NPOR    
# ...
  1032.2000      7.8289      2.5402      0.0285      6.6569    115.8965     17.9943
  1032.3000      7.8276      2.5296      0.0079      7.2949    115.9172     17.1817
  1032.4000      7.8276      2.5264      0.0053      7.4886    116.2924     16.8805
  1032.5000      7.8280      2.5295      0.0320      7.3035    119.0541     16.8113
  1032.6000      7.8280      2.5330      0.0262      7.0906    128.7171     17.0195
  1032.7000      7.8280      2.5375      0.0051      6.8183    140.6810     17.6810
  1032.8000      7.8289      2.5406      0.0366      6.6316    148.0690     18.3563
  1032.9000      7.8289      2.5330      0.0412      7.0887    149.8738     18.7858
  1033.0000      7.8288      2.5205     -0.0141      7.8492    148.7324     19.1437
  1033.1000      7.8288      2.5166      0.0265      8.0855    148.8378     19.4352
  1033.2000      7.8288      2.5223     -0.0044      7.7397    148.4766     19.2932
  1033.3000      7.8291      2.5364      0.0402      6.8847    145.7337     18.8673
  1033.4000      7.8291      2.5604      0.0418      5.4307    143.4268     18.9680
  1033.5000      7.8293      2.5861      0.0232      3.8725    142.2072     19.5880
  1033.6000      7.8293      2.5977      0.0791      3.1676    140.9246     19.5895
  1033.7000      7.8293      2.5902      0.0478      3.6243    141.3723     18.6551
  1033.8000      7.8282      2.5732      0.0527      4.6545    144.2379     17.9270
  1033.9000      7.8282      2.5588      0.0231      5.5262    145.4520     18.4556
  1034.0000      7.8292      2.5543      0.0429      5.8001    144.4814     19.9100
  1034.1000      7.8292      2.5554      0.0561      5.7363    145.6640     20.9361
  1034.2000      7.8292      2.5567      0.0201      5.6546    149.4655     21.1837
  1034.3000      7.8289      2.5545      0.0599      5.7886    150.0136     21.4657
  1034.4000      7.8289      2.5392      0.0233      6.7130    145.6653     21.9673
  1034.5000      7.8300      2.5176      0.0015      8.0219    142.0474     21.9731
  1034.6000      7.8300      2.5113     -0.0018      8.4074    143.6842     21.3670
  1034.7000      7.8300      2.5241      0.0466      7.6274    147.0072     20.5927
  1034.8000      7.8297      2.5368      0.0433      6.8611    145.2951     19.7940
  1034.9000      7.8297      2.5398      0.0207      6.6766    140.6633     19.5625
  1035.0000      7.8306      2.5438      0.0557      6.4345    140.0460     20.3374
  1035.1000      7.8306      2.5543      0.0481      5.8025    143.4147     21.3843
  1035.2000      7.8306      2.5643      0.0812      5.1966    147.4144     21.9928
  1035.3000      7.8306      2.5654      0.0727      5.1258    152.2015     22.2553
  1035.4000      7.8306      2.5557      0.0932      5.7139    156.7630     22.7978
  1035.5000      7.8302      2.5402      0.0738      6.6575    158.2281     23.8486
  1035.6000      7.8302      2.5351      0.0411      6.9629    157.1616     24.4659
  1035.7000      7.8302      2.5529      0.0797      5.8838    153.8550     23.9437
  1035.8000      7.8290      2.5793      0.1428      4.2864    148.6659     23.1839
  1035.9000      7.8290      2.5950      0.1467      3.3331    145.8109     22.8450
  1036.0000      7.8277      2.5991      0.1326      3.0822    144.3443     22.3427
  1036.1000      7.8277      2.5996      0.1100      3.0567    141.1911     21.7031
  1036.2000      7.8277      2.6041      0.0893      2.7821    140.4621     21.6233
  1036.3000      7.8284      2.6126      0.1060      2.2689    148.6332     22.0005
  1036.4000      7.8284      2.6117      0.1327      2.3234    162.2286     22.3735
  1036.5000      7.8295      2.5939      0.0979      3.3988    166.9890     22.2584
  1036.6000      7.8295      2.5724      0.0493      4.7043    161.4039     21.5935
  1036.7000      7.8295      2.5588      0.0688      5.5295    159.1815     21.2851
  1036.8000      7.8283      2.5520      0.0548      5.9422    163.3233     22.1238
  1036.9000      7.8283      2.5524      0.0617      5.9124    163.6202     23.6005
  1037.0000      7.8298      2.5581      0.0631      5.5697    156.8322     24.5150
  1037.1000      7.8298      2.5593      0.0509      5.4971    150.8456     24.5341
  1037.2000      7.8298      2.5575      0.0157      5.6081    149.6259     24.2072
  1037.3000      7.8305      2.5642      0.0361      5.2020    149.9358     24.1703
  1037.4000      7.8305      2.5779      0.0325      4.3670    152.6243     24.4750
  1037.5000      7.8297      2.5873      0.0797      3.8013    159.2984     24.1007
  1037.6000      7.8297      2.5796      0.0900      4.2657    165.1359     22.8865
  1037.7000      7.8297      2.5570      0.0361      5.6350    166.3161     21.6833
  1037.8000      7.8299      2.5448      0.0478      6.3784    161.5499     21.0720
  1037.9000      7.8299      2.5562      0.0322      5.6840    152.3246     21.3086
  1038.0000      7.8304      2.5702      0.0954      4.8355    145.4370     21.7807
  1038.1000      7.8304      2.5662      0.0629      5.0814    146.7775     21.8093
  1038.2000      7.8304      2.5574      0.0480      5.6126    156.1118     21.6121
  1038.3000      7.8290      2.5596      0.0498      5.4799    166.0155     21.3940
  1038.4000      7.8290      2.5665      0.0944      5.0619    170.0275     21.2148
  1038.5000      7.8290      2.5719      0.0566      4.7309    172.1327     21.4147
  1038.6000      7.8290      2.5742      0.0939      4.5926    176.7150     22.1544
  1038.7000      7.8290      2.5676      0.0603      4.9912    180.2480     23.2936
  1038.8000      7.8245      2.5629      0.0384      5.2809    179.1149     24.1915
  1038.9000      7.8245      2.5690      0.1093      4.9067    174.7221     23.9412
  1039.0000      7.8278      2.5695      0.0784      4.8791    170.3327     22.5956
  1039.1000      7.8278      2.5591      0.0407      5.5083    166.3055     21.5369
  1039.2000      7.8278      2.5523      0.0485      5.9183    161.1404     21.3862
  1039.3000      7.8199      2.5522      0.0197      5.9299    152.9773     21.2535
  1039.4000      7.8199      2.5517      0.0171      5.9571    143.0557     20.7869
  1039.5000      7.8272      2.5509      0.0107      6.0031    136.7392     20.7794
  1039.6000      7.8272      2.5574      0.0427      5.6101    133.8370     21.4995
  1039.7000      7.8272      2.5719      0.0280      4.7357    133.5200     22.2438
  1039.8000      7.8290      2.5824      0.0479      4.0950    140.4221     22.5516
  1039.9000      7.8290      2.5800      0.0205      4.2400    151.4464     22.7208
  1040.0000      7.8309      2.5675      0.0139      5.0016    157.9086     22.9326
  1040.1000      7.8309      2.5520      0.0061      5.9380    160.4354     22.6365
  1040.2000      7.8309      2.5403      0.0107      6.6478    160.3215     21.5736
  1040.3000      7.8266      2.5294      0.0379      7.3084    154.6340     20.5882
  1040.4000      7.8266      2.5181     -0.0300      7.9960    149.0687     20.5805
  1040.5000      7.8263      2.5164     -0.0303      8.0962    150.1806     21.2288
  1040.6000      7.8263      2.5251      0.0296      7.5688    154.1328     21.7137
  1040.7000      7.8263      2.5330      0.0536      7.0921    154.0021     21.8796
  1040.8000      7.8266      2.5365      0.0174      6.8799    149.5710     21.7904
  1040.9000      7.8266      2.5436      0.0439      6.4491    148.9376     21.4318
  1041.0000      7.8266      2.5554      0.0337      5.7337    152.2613     21.1376
  1041.1000      7.8266      2.5640      0.0504      5.2148    150.6517     21.2090
  1041.2000      7.8266      2.5700      0.0460      4.8495    143.0200     21.3495
  1041.3000      7.8263      2.5793      0.0826      4.2832    135.7268     21.1316
  1041.4000      7.8263      2.5843      0.0688      3.9828    133.6441     21.0489
  1041.5000      7.8257      2.5723      0.0762      4.7119    138.5072     21.7602
  1041.6000      7.8257      2.5518      0.0304      5.9527    152.2180     22.6136
  1041.7000      7.8257      2.5488      0.0192      6.1332    168.5825     22.9476
