~Version Information
VERS.                      2.0: CWLS Log ASCII Standard - VERSION 2.0
WRAP.                       NO: One line per depth step
~Well Information Block
STRT.FT               245.0000: 
STOP.FT              1273.7000: 
STEP.FT                 0.1000: 
NULL.                -999.2500: 
COMP.          Pioneer Natural Resources: COMPANY
WELL.                 Ray 34-6: WELL
FLD.           Purgatoire River: FIELD
LOC.           684' FSL & 2254' FEL--: LOCATION
CNTY.               Las Animas: COUNTY
SRVC.                Patterson: SERVICE COMPANY
DATE.          Fri May 26 09:17:30 2006: LOG DATE
UWI.           05 071 08695 00: UNIQUE WELL ID
STAT.                 Colorado: STATE
~Curve Information Block
DEPT.FT            0 000 00 00: Depth
DCAL.in                       : CDL Caliper
RHOB.g/cc                     : CDL Bulk Density
RHOC.g/cc                     : CDL Density Correction
DPOR.pu                       : CDL Density Porosity
NPOR.pu                       : Neutron Porosity
GR.GAPI                       : Gamma Ray
~Parameter Information Block
~A  Depth       DCAL        RHOB        RHOC        DPOR        NPOR         GR     
# ...
   648.2000      8.0915      2.5672      0.0517      5.0198     29.3910    157.4985
   648.3000      8.0908      2.5838      0.0716      4.0140     29.3530    161.2302
   648.4000      8.0908      2.6067      0.1426      2.6251     29.1451    164.1290
   648.5000      8.0936      2.6002      0.0841      3.0201     28.7904    164.0131
   648.6000      8.0936      2.5594      0.0619      5.4938     28.2996    163.7761
   648.7000      8.0936      2.5093      0.0111      8.5291     27.9945    167.9616
   648.8000      8.0989      2.4663      0.0294     11.1306     28.1968    173.0125
   648.9000      8.0989      2.4377     -0.0201     12.8687     28.6916    172.7596
   649.0000      8.1059      2.4388     -0.0139     12.7983     28.9058    167.7069
   649.1000      8.1059      2.4689      0.0200     10.9762     28.4666    162.6767
   649.2000      8.1059      2.4946      0.1020      9.4156     27.7045    159.4341
   649.3000      8.1109      2.4928      0.0536      9.5253     27.2022    158.4033
   649.4000      8.1109      2.4820      0.0356     10.1826     26.7767    160.9195
   649.5000      8.1123      2.4854      0.0430      9.9738     26.0205    164.5330
   649.6000      8.1123      2.4953      0.1316      9.3735     25.0812    168.0480
   649.7000      8.1123      2.4984      0.1373      9.1903     24.2341    172.1678
   649.8000      8.1133      2.5050      0.0864      8.7865     23.5700    172.7240
   649.9000      8.1133      2.5207      0.1828      7.8380     23.0211    168.8733
   650.0000      8.1135      2.5334      0.1386      7.0652     22.4941    163.3510
   650.1000      8.1135      2.5465      0.1338      6.2700     22.1067    155.7364
   650.2000      8.1135      2.5639      0.1422      5.2181     22.0215    147.8140
   650.3000      8.1124      2.5722      0.1651      4.7153     22.0405    141.2359
   650.4000      8.1124      2.5658      0.1434      5.1046     22.0688    135.5060
   650.5000      8.1139      2.5595      0.1203      5.4818     22.4005    131.3952
   650.6000      8.1139      2.5638      0.1247      5.2220     22.9293    130.6702
   650.7000      8.1139      2.5707      0.1089      4.8049     23.3226    132.7279
   650.8000      8.1149      2.5720      0.0973      4.7265     23.6036    134.4767
   650.9000      8.1149      2.5644      0.0729      5.1861     23.8325    133.0939
   651.0000      8.1128      2.5481      0.0412      6.1737     24.0327    128.0853
   651.1000      8.1128      2.5328      0.0181      7.1002     24.3416    121.7419
   651.2000      8.1128      2.5289     -0.0087      7.3383     24.7695    119.1664
   651.3000      8.1106      2.5309      0.0335      7.2210     25.0780    125.3156
   651.4000      8.1106      2.5276      0.0040      7.4185     25.2033    138.3734
   651.5000      8.1101      2.5225      0.0209      7.7274     25.2365    147.6935
   651.6000      8.1101      2.5196      0.0418      7.9059     25.0305    147.8740
   651.7000      8.1101      2.5120      0.0149      8.3660     24.4399    145.9255
   651.8000      8.1099      2.5024      0.0032      8.9464     23.8010    145.5315
   651.9000      8.1099      2.5039      0.0001      8.8546     23.4478    143.5623
   652.0000      8.1104      2.5168      0.0478      8.0699     23.2886    140.2634
   652.1000      8.1104      2.5315      0.0227      7.1847     23.4273    137.9643
   652.2000      8.1104      2.5435      0.0706      6.4530     24.0092    134.6876
   652.3000      8.1123      2.5523      0.0585      5.9189     24.7344    128.0049
   652.4000      8.1123      2.5635      0.0443      5.2413     25.3471    120.7571
   652.5000      8.1122      2.5828      0.0554      4.0725     25.9335    115.3781
   652.6000      8.1122      2.6014      0.0982      2.9484     26.5985    113.4104
   652.7000      8.1122      2.6076      0.0673      2.5725     27.2727    115.7522
   652.8000      8.1115      2.6048      0.0715      2.7418     27.8012    118.1791
   652.9000      8.1115      2.6082      0.0466      2.5317     28.1511    118.6367
   653.0000      8.1131      2.6260      0.0830      1.4567     28.3948    120.6440
   653.1000      8.1131      2.6418      0.1186      0.4994     28.5240    123.5610
   653.2000      8.1131      2.6350      0.1233      0.9116     28.5308    123.4789
   653.3000      8.1143      2.6109      0.0657      2.3713     28.5445    122.1467
   653.4000      8.1143      2.5858      0.0786      3.8924     28.7260    121.4287
   653.5000      8.1126      2.5652      0.0280      5.1382     29.1130    118.5046
   653.6000      8.1126      2.5543      0.0295      5.8006     29.5959    112.8383
   653.7000      8.1126      2.5535      0.0516      5.8491     30.0371    106.7335
   653.8000      8.1095      2.5516      0.0870      5.9607     30.3494    104.8855
   653.9000      8.1095      2.5470      0.0404      6.2427     30.3555    111.0648
   654.0000      8.1064      2.5510      0.0447      5.9989     29.9869    122.2369
   654.1000      8.1064      2.5637      0.0420      5.2281     29.6224    130.8433
   654.2000      8.1064      2.5715      0.0337      4.7587     29.6848    131.7751
   654.3000      8.1065      2.5665      0.0622      5.0599     30.0421    129.2951
   654.4000      8.1065      2.5513      0.0185      5.9848     30.0357    131.8431
   654.5000      8.1082      2.5331      0.0312      7.0855     29.3977    137.2152
   654.6000      8.1082      2.5245     -0.0021      7.6071     28.6873    138.6792
   654.7000      8.1082      2.5371      0.0010      6.8442     28.4071    138.2113
   654.8000      8.1068      2.5642      0.0437      5.1976     28.4953    137.7109
   654.9000      8.1068      2.5791      0.1241      4.2997     28.5315    136.5174
   655.0000      8.1056      2.5669      0.0626      5.0344     28.0625    137.5076
   655.1000      8.1056      2.5545     -0.0025      5.7874     27.2443    141.4452
   655.2000      8.1056      2.5676      0.0450      4.9965     26.5984    145.3475
   655.3000      8.1069      2.5887      0.0588      3.7163     26.3201    147.4412
   655.4000      8.1069      2.5902      0.0831      3.6215     26.3108    147.4674
   655.5000      8.1095      2.5741      0.0523      4.5996     26.5883    146.6591
   655.6000      8.1095      2.5663      0.0017      5.0747     27.1671    145.8816
   655.7000      8.1095      2.5762      0.0514      4.4738     27.7945    140.8943
   655.8000      8.1111      2.5842      0.0487      3.9866     28.1227    132.9395
   655.9000      8.1111      2.5831      0.0661      4.0551     28.0475    130.2274
   656.0000      8.1113      2.5865      0.0433      3.8492     27.7170    132.7522
   656.1000      8.1113      2.5900      0.0922      3.6366     27.3440    132.5927
   656.2000      8.1113      2.5702      0.0604      4.8334     27.2126    127.8988
   656.3000      8.1115      2.5349     -0.0108      6.9786     27.2886    125.0264
   656.4000      8.1115      2.5158      0.0068      8.1312     27.0551    127.6863
   656.5000      8.1101      2.5246     -0.0125      7.6019     26.3379    131.3151
   656.6000      8.1101      2.5513      0.0194      5.9837     25.5908    127.7284
   656.7000      8.1101      2.5729      0.0781      4.6729     25.3333    118.5180
   656.8000      8.1092      2.5752      0.0442      4.5340     25.6722    112.4613
   656.9000      8.1092      2.5720      0.0182      4.7243     26.2939    111.4669
   657.0000      8.1115      2.5720      0.0365      4.7286     26.8209    110.2596
   657.1000      8.1115      2.5658      0.0187      5.1002     26.9250    106.6872
   657.2000      8.1115      2.5601     -0.0095      5.4497     26.5566    106.1471
   657.3000      8.1131      2.5708      0.0470      4.7991     26.2145    111.3729
   657.4000      8.1131      2.5959      0.0358      3.2815     26.3701    115.1919
   657.5000      8.1125      2.6183      0.0721      1.9224     26.6761    111.5029
   657.6000      8.1125      2.6218      0.0618      1.7071     26.4484    104.2406
   657.7000      8.1125      2.6107     -0.0009      2.3830     25.9096     99.2814
