~Version Information
VERS.                      2.0: CWLS Log ASCII Standard - VERSION 2.0
WRAP.                       NO: One line per depth step
~Well Information Block
STRT.FT               240.0000: 
STOP.FT               902.0000: 
STEP.FT                 0.1000: 
NULL.                -999.2500: 
COMP.          Pioneer Natural Resources: COMPANY
WELL.          Bienville 31-28: WELL
FLD.           Purgatoire River: FIELD
LOC.           1212' FNL & 2271' FEL: LOCATION
PROV.                 Colorado: PROVINCE
CNTY.               Las Animas: COUNTRY
SRVC.                Patterson: SERVICE COMPANY
DATE.          Mon Jan 16 13:39:21 2006: LOG DATE
UWI.           05 071 08666 00: UNIQUE WELL ID
~Curve Information Block
DEPT.FT            0 000 00 00: Depth
DCAL.in                       : CDL Caliper
RHOB.g/cc                     : CDL Bulk Density
RHOC.g/cc                     : CDL Density Correction
DPOR.pu                       : CDL Density Porosity
GR.GAPI                       : Gamma Ray
NPOR.pu                       : Neutron Porosity
~Parameter Information Block
~A  Depth       DCAL        RHOB        RHOC        DPOR         GR         NPOR    
# ...
   499.2000      8.2191      1.6659      0.1527     59.6432     39.7879     19.7374
   499.3000      8.2207      1.7610      0.1339     53.8791     45.8268     20.8158
   499.4000      8.2207      1.8594      0.1906     47.9150     54.3436     22.3567
   499.5000      8.2321      1.9511      0.1835     42.3557     62.5685     24.0538
   499.6000      8.2321      2.0358      0.1866     37.2218     70.0095     25.5109
   499.7000      8.2321      2.1198      0.1682     32.1351     74.6212     26.4201
   499.8000      8.2736      2.2019      0.1436     27.1549     75.4452     26.8450
   499.9000      8.2736      2.2752      0.1246     22.7176     77.1030     26.7914
   500.0000      8.1789      2.3324      0.0890     19.2496     84.1528     26.2322
   500.1000      8.1789      2.3757      0.0441     16.6265     94.0970     25.6207
   500.2000      8.1789      2.4093      0.0875     14.5863     99.2766     25.3165
   500.3000      8.0660      2.4260      0.0883     13.5768     98.1628     25.1786
   500.4000      8.0660      2.4204      0.0558     13.9132     98.8481     25.0795
   500.5000      8.0557      2.4062     -0.0380     14.7771    104.8736     24.8852
   500.6000      8.0557      2.4029     -0.0299     14.9761    110.4481     24.6341
   500.7000      8.0557      2.4141     -0.0108     14.2991    111.9362     24.4460
   500.8000      8.0608      2.4350     -0.0420     13.0277    111.0772     24.0655
   500.9000      8.0608      2.4711     -0.0038     10.8411    110.4092     23.3833
   501.0000      8.0459      2.5191      0.0727      7.9352    111.0896     22.6747
   501.1000      8.0459      2.5578      0.0544      5.5852    112.3743     22.2588
   501.2000      8.0459      2.5776      0.1036      4.3872    109.1869     22.4646
   501.3000      7.9500      2.5870      0.0844      3.8152     99.4801     23.2056
   501.4000      7.9500      2.5922      0.1275      3.5005     91.2536     23.8664
   501.5000      7.9171      2.5900      0.0617      3.6350     89.7849     23.9947
   501.6000      7.9171      2.5798      0.1117      4.2574     93.5084     23.7153
   501.7000      7.9171      2.5666      0.0610      5.0566     97.8727     23.4809
   501.8000      7.9028      2.5603      0.0420      5.4357     99.0092     23.5785
   501.9000      7.9028      2.5627      0.0047      5.2908     98.4367     23.9960
   502.0000      7.9090      2.5592      0.0572      5.5027     96.6354     24.5158
   502.1000      7.9090      2.5462     -0.0375      6.2912     91.6729     24.6402
   502.2000      7.9090      2.5425     -0.0175      6.5133     84.6464     24.3202
   502.3000      7.9134      2.5563      0.0392      5.6763     76.3274     24.2870
   502.4000      7.9134      2.5797      0.0279      4.2611     68.5881     24.6500
   502.5000      7.9390      2.6001      0.0564      3.0242     65.1393     24.6702
   502.6000      7.9390      2.6070      0.0590      2.6067     66.9438     24.0721
   502.7000      7.9390      2.6079     -0.0148      2.5517     70.4648     23.5149
   502.8000      7.9241      2.6110      0.0680      2.3621     73.3982     23.5968
   502.9000      7.9241      2.6053      0.0359      2.7061     76.5954     24.0861
   503.0000      7.9044      2.5882      0.0243      3.7471     79.0738     24.3653
   503.1000      7.9044      2.5677      0.0679      4.9855     78.1308     24.1451
   503.2000      7.9044      2.5489     -0.0113      6.1293     76.0651     23.5685
   503.3000      7.8965      2.5407      0.0136      6.6269     78.0093     23.2141
   503.4000      7.8965      2.5462      0.0304      6.2891     82.8895     23.4485
   503.5000      7.8929      2.5558      0.0453      5.7075     87.9741     23.8692
   503.6000      7.8929      2.5601      0.0460      5.4461     94.1791     24.3044
   503.7000      7.8929      2.5540      0.0502      5.8200     99.6893     24.8921
   503.8000      7.9141      2.5377      0.0497      6.8055    103.6555     25.5076
   503.9000      7.9141      2.5232     -0.0239      7.6851    110.4536     26.1021
   504.0000      7.9218      2.5208     -0.0300      7.8331    117.3358     26.5607
   504.1000      7.9218      2.5199      0.0266      7.8824    118.2792     26.7451
   504.2000      7.9218      2.5087     -0.0041      8.5623    113.0381     26.8641
   504.3000      7.9252      2.4917      0.0287      9.5942    105.2845     27.0521
   504.4000      7.9252      2.4856     -0.0468      9.9660    103.6856     27.0541
   504.5000      7.9703      2.5055      0.0178      8.7553    111.9225     26.9091
   504.6000      7.9703      2.5389      0.0505      6.7358    119.9457     26.7673
   504.7000      7.9703      2.5579      0.0484      5.5846    120.4455     26.4524
   504.8000      7.9695      2.5527      0.0582      5.8949    117.1325     26.1461
   504.9000      7.9695      2.5334      0.0281      7.0665    114.1596     26.3774
   505.0000      7.9404      2.5173      0.0183      8.0398    112.5061     27.0802
   505.1000      7.9404      2.5143      0.0135      8.2260    113.0262     27.7257
   505.2000      7.9404      2.5160      0.0539      8.1241    115.4921     28.0173
   505.3000      7.9222      2.5084      0.0302      8.5837    117.4662     28.0197
   505.4000      7.9222      2.4933      0.0139      9.4974    116.6272     27.9921
   505.5000      7.9438      2.4886     -0.0086      9.7800    114.6690     27.9664
   505.6000      7.9438      2.5040      0.0256      8.8455    115.2703     27.7954
   505.7000      7.9438      2.5333      0.0136      7.0713    116.4325     27.4267
   505.8000      7.9371      2.5552      0.0609      5.7458    117.6544     27.0741
   505.9000      7.9371      2.5441      0.0596      6.4203    120.5741     26.9142
   506.0000      7.9519      2.5101      0.0087      8.4783    120.6539     26.6771
   506.1000      7.9519      2.4832      0.0033     10.1065    116.6870     26.2224
   506.2000      7.9519      2.4674      0.0291     11.0664    114.3449     25.6585
   506.3000      7.9769      2.4525     -0.0105     11.9726    116.6655     24.9585
   506.4000      7.9769      2.4405      0.0028     12.6996    118.2009     24.2565
   506.5000      7.9546      2.4388     -0.0368     12.8008    113.5825     23.9260
   506.6000      7.9546      2.4400      0.0162     12.7299    107.9554     24.1251
   506.7000      7.9546      2.4292      0.0522     13.3845    105.9399     24.4369
   506.8000      7.9404      2.4082      0.0807     14.6545    104.9855     24.5036
   506.9000      7.9404      2.3972      0.0221     15.3210    105.5572     24.3910
   507.0000      7.9429      2.4050      0.0634     14.8508    108.7714     23.9662
   507.1000      7.9429      2.4169      0.0282     14.1262    110.5127     23.0568
   507.2000      7.9429      2.4319      0.0475     13.2181    108.3459     22.0408
   507.3000      7.9669      2.4538      0.1292     11.8883    106.4068     21.6060
   507.4000      7.9669      2.4625      0.1138     11.3648    106.3834     21.9612
   507.5000      7.9813      2.4431      0.1414     12.5389    103.8609     22.6602
   507.6000      7.9813      2.4080      0.1621     14.6687    100.9427     23.1230
   507.7000      7.9813      2.3772      0.1602     16.5348    103.5949     23.0652
   507.8000      8.0221      2.3512      0.1551     18.1073    109.6027     22.7752
   507.9000      8.0221      2.3164      0.1283     20.2174    112.7513     22.7942
   508.0000      8.0518      2.2812      0.0341     22.3545    112.2964     23.1824
   508.1000      8.0518      2.2758      0.0425     22.6811    113.1009     23.6745
   508.2000      8.0518      2.3128      0.1226     20.4390    113.9080     24.1913
   508.3000      8.1219      2.3743      0.1617     16.7120    111.7234     24.8690
   508.4000      8.1219      2.4389      0.1799     12.7959    111.6130     25.7034
   508.5000      8.2175      2.4951      0.1784      9.3883    114.5815     26.3637
   508.6000      8.2175      2.5227      0.2145      7.7143    115.7420     26.5568
   508.7000      8.2175      2.5167      0.1040      8.0760    113.8489     26.2606
