~Version Information
VERS.                      2.0: CWLS Log ASCII Standard - VERSION 2.0
WRAP.                       NO: One line per depth step
~Well Information Block
STRT.FT                -1.5000: 
STOP.FT              2143.7500: 
STEP.FT                 0.2500: 
NULL.                -999.2500: 
COMP.          Pioneer Natural Resources: COMPANY
WELL.              Kermit 32-7: WELL
FLD.           Purgatoire River: FIELD
LOC.           2002' FNL & 2103' FEL: LOCATION
PROV.                 Colorado: PROVINCE
CNTY.               Las Animas: COUNTRY
SRVC.                Patterson: SERVICE COMPANY
DATE.          Wed Jan 18 14:17:49 2006: LOG DATE
UWI.           05 071 08647 00: UNIQUE WELL ID
~Curve Information Block
DEPT.FT            0 000 00 00: Depth
GR.GAPI                       : Gamma Ray
CCL.                          : Casing Collar Locator
TT3.usec                      : CBL 3' Travel Time
AMP3.mV                       : CBL 3' Amplitude
~Parameter Information Block
~A  Depth        GR         CCL         TT3         AMP3    
# ...
  1673.5000     51.2353      0.0000    418.7068      9.2091
  1673.7500     54.6916      0.0000    422.7730      9.1940
  1674.0000     57.5744      0.0000    427.3488      9.1824
  1674.2500     58.4791      0.0000    435.7984      9.1741
  1674.5000     57.0449      0.0000    451.9529      9.1685
  1674.7500     53.8820      0.0000    477.8545      9.1617
  1675.0000     49.9380      0.0000    510.3976      9.1483
  1675.2500     46.1559      0.0000    540.2756      9.1270
  1675.5000     43.4497      0.0000    555.9086      9.1010
  1675.7500     42.4469      0.0000    549.9651      9.0723
  1676.0000     43.1348      0.0000    523.4626      9.0355
  1676.2500     44.9850      0.0000    484.9659      8.9828
  1676.5000     47.3959      0.0000    445.8721      8.9163
  1676.7500     49.8178      0.0000    414.8377      8.8509
  1677.0000     51.6941      0.0000    394.8924      8.8063
  1677.2500     52.7920      0.0000    384.4394      8.7968
  1677.5000     53.5829      0.0000    380.1635      8.8260
  1677.7500     54.8124      0.0000    379.3650      8.8875
  1678.0000     56.5144      0.0000    380.8431      8.9661
  1678.2500     57.7723      0.0000    384.8040      9.0411
  1678.5000     57.6131      0.0000    392.2677      9.0921
  1678.7500     56.0057      0.0000    404.2414      9.1077
  1679.0000     53.9302      0.0000    420.6975      9.0917
  1679.2500     52.4793      0.0000    439.3262      9.0599
  1679.5000     51.8969      0.0000    454.9938      9.0281
  1679.7500     51.5657      0.0000    461.8914      9.0026
  1680.0000     50.9182      0.0000    458.0580      8.9765
  1680.2500     50.1318      0.0000    447.6928      8.9340
  1680.5000     49.7833      0.0000    438.3026      8.8616
  1680.7500     50.0334      0.0000    436.5102      8.7585
  1681.0000     50.4664      0.0000    446.7522      8.6383
  1681.2500     50.6308      0.0000    470.9323      8.5213
  1681.5000     50.4319      0.0000    506.0773      8.4262
  1681.7500     50.0096      0.0000    542.7968      8.3644
  1682.0000     49.5807      0.0000    569.0837      8.3382
  1682.2500     49.4711      0.0000    577.4608      8.3415
  1682.5000     49.9216      0.0000    568.8840      8.3619
  1682.7500     50.6435      0.0000    550.7457      8.3848
  1683.0000     50.8088      0.0000    531.8114      8.3982
  1683.2500     49.7850      0.0000    517.9046      8.4005
  1683.5000     47.9100      0.0000    510.9303      8.4021
  1683.7500     46.4253      0.0000    511.3615      8.4182
  1684.0000     46.6610      0.0000    520.4078      8.4550
  1684.2500     49.2866      0.0000    537.3288      8.5058
  1684.5000     54.0360      0.0000    554.4597      8.5583
  1684.7500     59.7836      0.0000    559.4211      8.6073
  1685.0000     64.9808      0.0000    546.4443      8.6591
  1685.2500     68.4059      0.0000    524.4957      8.7231
  1685.5000     69.7119      0.0000    511.0414      8.8008
  1685.7500     69.3468      0.0000    517.2374      8.8840
  1686.0000     68.1518      0.0000    539.2360      8.9608
  1686.2500     67.0055      0.0000    561.8337      9.0207
  1686.5000     66.4266      0.0000    569.5577      9.0553
  1686.7500     66.1820      0.0000    556.6158      9.0583
  1687.0000     65.4519      0.0000    528.9832      9.0244
  1687.2500     63.5909      0.0000    498.1348      8.9385
  1687.5000     60.6591      0.0000    473.2580      8.7581
  1687.7500     57.2695      0.0000    458.5493      8.4120
  1688.0000     54.2947      0.0000    455.1677      7.8542
  1688.2500     52.6658      0.0000    463.0844      7.1543
  1688.5000     52.9129      0.0000    480.3486      6.5066
  1688.7500     54.6733      0.0000    501.7898      6.0842
  1689.0000     56.9183      0.0000    520.6365      5.8906
  1689.2500     58.7392      0.0000    532.9995      5.8085
  1689.5000     59.7326      0.0000    540.1393      5.7620
  1689.7500     59.7381      0.0000    545.3262      5.7577
  1690.0000     58.6841      0.0000    548.9172      5.8075
  1690.2500     56.9305     -3.0000    548.0690      5.8947
  1690.5000     55.5058      0.0000    541.8554      6.0136
  1690.7500     55.5848      0.0000    535.0251      6.2132
  1691.0000     57.6239      0.0000    534.4347      6.6015
  1691.2500     61.0479      0.0000    541.9937      7.2765
  1691.5000     64.6226      0.0000    552.8930      8.1964
  1691.7500     66.9420      0.0000    560.5301      9.1297
  1692.0000     66.8918      0.0000    561.6825      9.8061
  1692.2500     64.2598      0.0000    557.4773     10.1202
  1692.5000     60.0578      0.0000    550.9930     10.1561
  1692.7500     55.9311      0.0000    544.5007     10.0568
  1693.0000     53.1085      0.0000    538.5973      9.9218
  1693.2500     51.8469      0.0000    532.9252      9.7937
  1693.5000     51.6532      0.0000    526.3818      9.6823
  1693.7500     52.0587      0.0000    516.5880      9.5823
  1694.0000     53.4210      0.0000    500.4397      9.4828
  1694.2500     56.8344      0.0000    476.6337      9.3772
  1694.5000     63.0057      0.0000    447.9849      9.2724
  1694.7500     71.3126      0.0000    420.7699      9.1855
  1695.0000     80.0468      0.0000    401.4002      9.1231
  1695.2500     87.4914      0.0000    393.9516      9.0725
  1695.5000     92.8648      0.0000    400.1205      9.0159
  1695.7500     96.4842      0.0000    418.9654      8.9471
  1696.0000     99.1303      0.0000    444.7464      8.8702
  1696.2500    101.1626      0.0000    466.7146      8.7907
  1696.5000    102.0339      0.0000    474.9688      8.7115
  1696.7500    100.5221      0.0000    468.1598      8.6299
  1697.0000     95.6948      0.0000    453.9182      8.5384
  1697.2500     88.0431      0.0000    440.9557      8.4338
  1697.5000     79.5784      0.0000    432.1950      8.3269
  1697.7500     72.4666      0.0000    426.0893      8.2331
  1698.0000     67.4648      0.0000    421.7316      8.1517
  1698.2500     63.6993      0.0000    419.7492      8.0571
  1698.5000     59.7873      0.0000    419.4834      7.9055
  1698.7500     55.0923      0.0000    418.9651      7.6506
  1699.0000     50.1295      0.0000    419.2231      7.2622
  1699.2500     46.0006      0.0000    426.9504      6.7454
  1699.5000     43.3694      0.0000    450.1119      6.1455
  1699.7500     41.9422      0.0000    489.5396      5.5279
  1700.0000     41.0729      0.0000    535.6671      4.9425
  1700.2500     40.8648      0.0000    575.3391      4.4046
  1700.5000     42.3244      0.0000    602.2537      3.9083
  1700.7500     46.1404      0.0000    619.8321      3.4567
  1701.0000     51.5226      0.0000    634.4983      3.0767
  1701.2500     56.6874      0.0000    648.1151      2.8022
  1701.5000     60.4997      0.0000    657.1495      2.6440
  1701.7500     63.2144      0.0000    657.4012      2.5777
  1702.0000     65.5551      0.0000    648.4138      2.5590
  1702.2500     67.6178      0.0000    634.0541      2.5489
  1702.5000     68.9668      0.0000    619.8102      2.5274
  1702.7500     69.4096      0.0000    609.4906      2.4910
  1703.0000     69.2370      0.0000    603.8687      2.4398
  1703.2500     68.7172      0.0000    601.6537      2.3697
  1703.5000     67.5631      0.0000    601.2028      2.2789
  1703.7500     65.1142      0.0000    601.5034      2.1775
  1704.0000     61.1739      0.0000    602.2414      2.0810
  1704.2500     56.5472      0.0000    603.4711      1.9884
  1704.5000     52.5584      0.0000    605.2672      1.8766
  1704.7500     50.1402      0.0000    607.4893      1.7260
  1705.0000     49.4616      0.0000    609.7645      1.5483
  1705.2500     50.2087      0.0000    611.6966      1.3877
  1705.5000     51.9878      0.0000    613.2299      1.2972
  1705.7500     54.4639      0.0000    614.9592      1.3169
  1706.0000     57.3416      0.0000    618.0472      1.4656
  1706.2500     60.3693      0.0000    623.4672      1.7446
  1706.5000     63.2703      0.0000    631.1032      2.1429
  1706.7500     65.5162      0.0000    639.8588      2.6430
