~Version Information
VERS.                      2.0: CWLS Log ASCII Standard - VERSION 2.0
WRAP.                       NO: One line per depth step
~Well Information Block
STRT.FT               245.0000: 
STOP.FT              1006.0000: 
STEP.FT                 0.1000: 
NULL.                -999.2500: 
COMP.          Pioneer Natural Resources: COMPANY
WELL.              Atlas 32-18: WELL
FLD.           Purgatoire River: FIELD
LOC.           1892' FNL & 1456' FEL: LOCATION
PROV.                 Colorado: PROVINCE
CNTY.               Las Animas: COUNTRY
SRVC.                Patterson: SERVICE COMPANY
DATE.          Mon Nov 21 08:58:56 2005: LOG DATE
UWI.           05 071 08556 00: UNIQUE WELL ID
~Curve Information Block
DEPT.FT            0 000 00 00: Depth
DCAL.in                       : CDL Caliper
RHOB.g/cc                     : CDL Bulk Density
RHOC.g/cc                     : CDL Density Correction
DPOR.pu                       : CDL Density Porosity
GR.GAPI                       : Gamma Ray
NPOR.pu                       : Neutron Porosity
~Parameter Information Block
~A  Depth       DCAL        RHOB        RHOC        DPOR         GR         NPOR    
# ...
   590.6000      7.9523      2.5477      0.1832      6.1990     56.9404     15.1191
   590.7000      7.9523      2.5243      0.1292      7.6152     56.6220     15.3241
   590.8000      7.9415      2.4943      0.0725      9.4382     54.1357     15.6952
   590.9000      7.9415      2.4690      0.0505     10.9727     52.9478     15.8272
   591.0000      7.9348      2.4513      0.0077     12.0424     56.3203     15.6450
   591.1000      7.9348      2.4464      0.0053     12.3367     62.4109     15.4127
   591.2000      7.9348      2.4538      0.0431     11.8885     65.2519     15.3478
   591.3000      7.9407      2.4616      0.0333     11.4189     65.2051     15.4494
   591.4000      7.9407      2.4621      0.0155     11.3895     66.5711     15.7306
   591.5000      7.9774      2.4571      0.0266     11.6897     68.6953     16.1778
   591.6000      7.9774      2.4526     -0.0103     11.9663     68.5558     16.5010
   591.7000      7.9774      2.4522      0.0483     11.9902     67.3924     16.4903
   591.8000      8.0170      2.4459      0.0351     12.3675     67.7250     16.4249
   591.9000      8.0170      2.4278      0.0196     13.4660     68.2289     16.3624
   592.0000      8.0393      2.4123      0.0096     14.4034     67.7085     16.1882
   592.1000      8.0393      2.4121      0.0223     14.4190     67.0796     15.9516
   592.2000      8.0393      2.4229      0.0043     13.7645     66.5501     15.5999
   592.3000      8.0459      2.4353      0.0383     13.0093     64.3949     15.5237
   592.4000      8.0459      2.4451      0.0312     12.4192     60.6831     16.2628
   592.5000      8.0677      2.4506      0.0147     12.0877     59.6300     17.4218
   592.6000      8.0677      2.4541     -0.0232     11.8744     62.7407     18.2322
   592.7000      8.0677      2.4660      0.0296     11.1539     65.8328     18.4594
   592.8000      8.0734      2.4858      0.0489      9.9492     65.7179     18.2161
   592.9000      8.0734      2.5015      0.0216      9.0013     62.7654     17.7750
   593.0000      8.0600      2.5091      0.0762      8.5388     58.4782     17.4670
   593.1000      8.0600      2.5080      0.0774      8.6038     55.3067     17.4427
   593.2000      8.0600      2.5023      0.0280      8.9515     54.4044     17.5863
   593.3000      8.0276      2.5024      0.0315      8.9432     55.3512     17.8608
   593.4000      8.0276      2.5078      0.0491      8.6205     58.3839     18.2020
   593.5000      8.0132      2.5127      0.0163      8.3234     62.8891     18.4079
   593.6000      8.0132      2.5193      0.0132      7.9217     66.2815     18.6585
   593.7000      8.0132      2.5203      0.0518      7.8622     66.6659     19.0908
   593.8000      8.0168      2.5113     -0.0330      8.4046     65.4073     19.1890
   593.9000      8.0168      2.5131     -0.0150      8.2956     64.1257     18.5213
   594.0000      8.0232      2.5298      0.0477      7.2873     62.2056     17.5660
   594.1000      8.0232      2.5311      0.0670      7.2060     59.5709     17.1271
   594.2000      8.0232      2.5036      0.0086      8.8700     56.9272     17.1732
   594.3000      7.9958      2.4692     -0.0111     10.9580     56.3343     17.1305
   594.4000      7.9958      2.4503     -0.0108     12.1011     58.6877     16.9211
   594.5000      7.9804      2.4494      0.0194     12.1581     60.4817     16.8387
   594.6000      7.9804      2.4547      0.0226     11.8372     59.8086     16.7411
   594.7000      7.9804      2.4578      0.0053     11.6462     59.1728     16.4489
   594.8000      7.9750      2.4610      0.0265     11.4528     58.4749     16.0501
   594.9000      7.9750      2.4647      0.0675     11.2310     56.4277     15.6782
   595.0000      7.9865      2.4633      0.0320     11.3163     55.3970     15.4473
   595.1000      7.9865      2.4571      0.0612     11.6934     55.8457     15.4017
   595.2000      7.9865      2.4526      0.0301     11.9626     55.5231     15.7006
   595.3000      7.9805      2.4607      0.0377     11.4739     54.5768     16.2913
   595.4000      7.9805      2.4902      0.0394      9.6840     54.2966     16.9831
   595.5000      7.9781      2.5296      0.1549      7.2982     54.4229     17.5779
   595.6000      7.9781      2.5494      0.1434      6.0997     54.9401     17.8579
   595.7000      7.9781      2.5436      0.0867      6.4491     55.3128     18.0257
   595.8000      7.9790      2.5353      0.0900      6.9518     54.9321     18.2800
   595.9000      7.9790      2.5369      0.0876      6.8553     54.9697     18.4212
   596.0000      7.9876      2.5347      0.1008      6.9854     57.8826     18.4452
   596.1000      7.9876      2.5231      0.0507      7.6916     63.6131     18.4617
   596.2000      7.9876      2.5222      0.0286      7.7465     69.5672     18.4645
   596.3000      7.9928      2.5373      0.0816      6.8330     71.6897     18.4887
   596.4000      7.9928      2.5482      0.0586      6.1701     66.3449     18.4751
   596.5000      7.9962      2.5452      0.1144      6.3529     59.2946     18.2135
   596.6000      7.9962      2.5336      0.0929      7.0544     58.1462     17.7371
   596.7000      7.9962      2.5240      0.0836      7.6353     60.8829     17.3390
   596.8000      8.0011      2.5217      0.0773      7.7751     64.4099     17.2659
   596.9000      8.0011      2.5173      0.0990      8.0444     69.3613     17.5993
   597.0000      8.0100      2.4989      0.0560      9.1555     71.5250     18.1282
   597.1000      8.0100      2.4681      0.0760     11.0255     65.6744     18.4744
   597.2000      8.0100      2.4385      0.0260     12.8152     56.2695     18.4334
   597.3000      8.0036      2.4249      0.0316     13.6430     51.7022     18.2549
   597.4000      8.0036      2.4256      0.0467     13.6002     53.4875     18.2476
   597.5000      8.0039      2.4341      0.0421     13.0831     57.3977     18.3526
   597.6000      8.0039      2.4475      0.0639     12.2750     60.4938     18.2651
   597.7000      8.0039      2.4574      0.0781     11.6743     62.2629     18.0054
   597.8000      7.9922      2.4573      0.1109     11.6799     62.9529     17.9020
   597.9000      7.9922      2.4478      0.0685     12.2548     62.8344     17.9127
   598.0000      7.9837      2.4366      0.0420     12.9303     60.7879     17.7177
   598.1000      7.9837      2.4333      0.0520     13.1335     55.5792     17.3718
   598.2000      7.9837      2.4386      0.0887     12.8107     49.9482     17.1372
   598.3000      7.9858      2.4468      0.0341     12.3134     49.3234     17.1408
   598.4000      7.9858      2.4579      0.0436     11.6416     53.9972     17.3610
   598.5000      7.9777      2.4713      0.0550     10.8313     60.1803     17.6404
   598.6000      7.9777      2.4790      0.0759     10.3609     65.2091     17.8163
   598.7000      7.9777      2.4753      0.0928     10.5871     67.1664     17.9102
   598.8000      7.9748      2.4639      0.0678     11.2772     66.9336     18.0211
   598.9000      7.9748      2.4541      0.0656     11.8753     66.5880     18.0716
   599.0000      7.9688      2.4517      0.0718     12.0165     64.7452     17.8821
   599.1000      7.9688      2.4567      0.0633     11.7171     60.2975     17.4724
   599.2000      7.9688      2.4648      0.0697     11.2221     55.8794     17.0892
   599.3000      7.9666      2.4726      0.0575     10.7543     53.3935     17.1295
   599.4000      7.9666      2.4738      0.0420     10.6790     51.7452     17.5886
   599.5000      7.9680      2.4621      0.0380     11.3907     52.2377     17.8827
   599.6000      7.9680      2.4415     -0.0227     12.6352     57.3213     17.6627
   599.7000      7.9680      2.4249      0.0331     13.6406     63.7124     17.4098
   599.8000      7.9775      2.4187      0.0134     14.0153     67.8425     17.6018
   599.9000      7.9775      2.4265     -0.0124     13.5469     70.8099     17.7727
   600.0000      7.9894      2.4478      0.0190     12.2576     72.5523     17.6456
   600.1000      7.9894      2.4681      0.0344     11.0217     70.4132     17.4079
