~Version Information
VERS.                      2.0: CWLS Log ASCII Standard - VERSION 2.0
WRAP.                       NO: One line per depth step
~Well Information Block
STRT.FT                -5.5000: 
STOP.FT              2262.7500: 
STEP.FT                 0.2500: 
NULL.                -999.2500: 
COMP.          Pioneer Natural Resources: COMPANY
WELL.             Baa Baa 34-1: WELL
FLD.           Purgatorie River: FIELD
LOC.           617' FSL & 2289' FEL------: LOCATION
STAT.                       CO: State
CNTY.               Las Animas: COUNTY
CTRY. USA : Country
SECT. 1 : Section
TOWN. 33S : Township
RANG. 67W : Range
SRVC.          Patterson Wireline: SERVICE COMPANY
DATE.          Mon Sep 12 14:08:52 2005: LOG DATE
API.           05 071 08502 00: UNIQUE WELL ID
~Curve Information Block
DEPT.FT            0 000 00 00: Depth
LTEN.lb                       : Surface Line Tension
CCL.                          : Casing Collar Locator
TT3.usec                      : CBL 3' Travel Time
AMP3.mV                       : CBL 3' Amplitude
GR.GAPI                       : Gamma Ray
~Parameter Information Block
~A  Depth       LTEN        CCL         TT3         AMP3         GR     
# ...
  1478.5000  -4535.8604      0.0000    724.9441      4.3835    129.9993
  1478.7500  -4530.5317      0.0000    729.5563      4.3820    132.3639
  1479.0000  -4535.8604      0.0000    737.1935      4.3958    132.1295
  1479.2500  -4533.1958      0.0000    738.8284      4.4273    129.0143
  1479.5000  -4534.5283      0.0000    729.8530      4.4761    123.6857
  1479.7500  -4533.1958      0.0000    712.8751      4.5347    118.1705
  1480.0000  -4534.5283      0.0000    694.7479      4.5901    115.1943
  1480.2500  -4539.8569      0.0000    681.4391      4.6311    116.3035
  1480.5000  -4530.5317      0.0000    674.7652      4.6561    120.7509
  1480.7500  -4533.1958      0.0000    672.2763      4.6734    126.3363
  1481.0000  -4539.8569      0.0000    669.6046      4.6920    130.9669
  1481.2500  -4538.5244      0.0000    664.0212      4.7145    133.2845
  1481.5000  -4537.1924      0.0000    657.0118      4.7380    132.4973
  1481.7500  -4533.1958      0.0000    653.0188      4.7604    128.5430
  1482.0000  -4533.1958      0.0000    654.7864      4.7808    122.4160
  1482.2500  -4537.1924      0.0000    660.5992      4.7938    115.8010
  1482.5000  -4531.8638      0.0000    667.0807      4.7892    110.3256
  1482.7500  -4537.1924      0.0000    673.5932      4.7600    107.1809
  1483.0000  -4538.5244      0.0000    682.4500      4.7118    107.0186
  1483.2500  -4527.8677      0.0000    695.4138      4.6638    109.8422
  1483.5000  -4533.1958      0.0000    711.3316      4.6368    115.0647
  1483.7500  -4538.5244      0.0000    727.2639      4.6395    121.6130
  1484.0000  -4533.1958      0.0000    740.9938      4.6648    127.7944
  1484.2500  -4535.8604      0.0000    751.8723      4.6986    131.6565
  1484.5000  -4535.8604      0.0000    759.7103      4.7318    132.3353
  1484.7500  -4533.1958      0.0000    763.9207      4.7683    130.9634
  1485.0000  -4534.5283      0.0000    764.2629      4.8220    129.7643
  1485.2500  -4531.8638      0.0000    761.7814      4.8990    130.3674
  1485.5000  -4534.5283      0.0000    758.2137      4.9811    132.9479
  1485.7500  -4530.5317      0.0000    754.7335      5.0349    136.2739
  1486.0000  -4537.1924      0.0000    751.9863      5.0436    138.3713
  1486.2500  -4534.5283      0.0000    750.9475      5.0202    137.8026
  1486.5000  -4531.8638      0.0000    752.3352      4.9863    134.6537
  1486.7500  -4531.8638      0.0000    755.0253      4.9519    130.1591
  1487.0000  -4537.1924      0.0000    756.7380      4.9183    125.6741
  1487.2500  -4537.1924      0.0000    757.0087      4.8899    122.3228
  1487.5000  -4533.1958      0.0000    758.1930      4.8731    121.2168
  1487.7500  -4533.1958      0.0000    762.6650      4.8668    123.3496
  1488.0000  -4531.8638      0.0000    769.8671      4.8610    129.0807
  1488.2500  -4537.1924      0.0000    776.7863      4.8496    137.8015
  1488.5000  -4531.8638      0.0000    780.4476      4.8441    147.9899
  1488.7500  -4527.8677      0.0000    779.3705      4.8653    157.6294
  1489.0000  -4533.1958      0.0000    773.4952      4.9188    164.9305
  1489.2500  -4533.1958      0.0000    763.7639      4.9843    168.9470
  1489.5000  -4533.1958      0.0000    751.5941      5.0325    169.6416
  1489.7500  -4538.5244      0.0000    738.2339      5.0463    167.4947
  1490.0000  -4537.1924      0.0000    724.7988      5.0275    163.2351
  1490.2500  -4531.8638      0.0000    713.2551      4.9913    157.8329
  1490.5000  -4533.1958      0.0000    707.0068      4.9580    152.3685
  1490.7500  -4533.1958      0.0000    709.6630      4.9414    147.8744
  1491.0000  -4530.5317      0.0000    722.1110      4.9439    145.3479
  1491.2500  -4539.8569      0.0000    740.3625      4.9634    145.1974
  1491.5000  -4539.8569      0.0000    756.8985      5.0041    146.0789
  1491.7500  -4538.5244      0.0000    764.9406      5.0792    144.9574
  1492.0000  -4533.1958      0.0000    761.9724      5.2012    139.3856
  1492.2500  -4531.8638      0.0000    750.3320      5.3694    129.7850
  1492.5000  -4542.5210      0.0000    735.3061      5.5593    118.9076
  1492.7500  -4530.5317      0.0000    722.3730      5.7134    109.1340
  1493.0000  -4530.5317      0.0000    715.5397      5.7481    100.8693
  1493.2500  -4530.5317      0.0000    717.2590      5.6060     93.4098
  1493.5000  -4538.5244      0.0000    727.9286      5.3224     86.6570
  1493.7500  -4537.1924      0.0000    744.5345      5.0180     81.7894
  1494.0000  -4533.1958      0.0000    761.5691      4.8042     80.6196
  1494.2500  -4533.1958      0.0000    774.9291      4.7089     84.3373
  1494.5000  -4535.8604      0.0000    783.9250      4.6934     92.5941
  1494.7500  -4535.8604     -2.0000    788.7648      4.7115    103.5009
  1495.0000  -4533.1958      0.0000    787.9000      4.7520    114.3398
  1495.2500  -4535.8604      0.0000    779.4304      4.8486    122.6099
  1495.5000  -4538.5244      0.0000    764.5537      5.0431    127.1956
  1495.7500  -4535.8604      0.0000    748.3613      5.3132    128.9396
  1496.0000  -4530.5317      0.0000    736.3359      5.5509    129.8519
  1496.2500  -4534.5283      0.0000    730.0132      5.6507    131.5655
  1496.5000  -4529.1997      0.0000    726.5271      5.6056    134.6657
  1496.7500  -4534.5283      0.0000    722.3235      5.4889    139.3150
  1497.0000  -4530.5317      0.0000    716.3896      5.3662    145.7948
  1497.2500  -4534.5283      0.0000    709.8981      5.2571    153.9728
  1497.5000  -4530.5317      0.0000    704.2430      5.1569    162.4868
  1497.7500  -4537.1924      0.0000    700.3226      5.0591    168.9937
  1498.0000  -4533.1958      0.0000    698.7273      4.9599    171.5615
  1498.2500  -4530.5317      0.0000    699.4044      4.8575    169.8437
  1498.5000  -4535.8604      0.0000    701.2087      4.7570    165.0548
  1498.7500  -4533.1958      0.0000    702.3223      4.6676    159.1777
  1499.0000  -4533.1958      0.0000    701.1996      4.5958    154.1908
  1499.2500  -4533.1958      0.0000    697.2570      4.5420    151.5209
  1499.5000  -4535.8604      0.0000    691.3488      4.5052    151.7346
  1499.7500  -4537.1924      0.0000    685.8310      4.4873    154.4855
  1500.0000  -4537.1924      0.0000    683.4784      4.4914    158.5587
  1500.2500  -4527.8677      0.0000    685.5605      4.5180    161.9989
  1500.5000  -4530.5317      0.0000    690.8802      4.5639    162.8013
  1500.7500  -4533.1958      0.0000    696.9339      4.6202    160.0242
  1501.0000  -4534.5283      0.0000    702.0226      4.6741    154.3300
  1501.2500  -4535.8604      0.0000    706.3583      4.7141    147.4812
  1501.5000  -4535.8604      0.0000    711.3873      4.7370    141.3198
  1501.7500  -4533.1958      0.0000    717.9484      4.7486    137.0313
  1502.0000  -4534.5283      0.0000    724.5656      4.7573    135.0799
  1502.2500  -4539.8569      0.0000    727.6972      4.7687    135.4561
  1502.5000  -4537.1924      0.0000    724.5822      4.7814    137.6189
  1502.7500  -4534.5283      0.0000    716.0964      4.7869    140.3308
  1503.0000  -4534.5283      0.0000    706.0225      4.7756    142.0916
  1503.2500  -4537.1924      0.0000    697.2775      4.7458    142.0175
  1503.5000  -4538.5244      0.0000    689.9158      4.7058    140.2922
  1503.7500  -4529.1997      0.0000    683.3124      4.6662    137.8334
  1504.0000  -4531.8638      0.0000    678.8076      4.6298    135.5926
  1504.2500  -4530.5317      0.0000    678.5441      4.5914    134.2243
  1504.5000  -4534.5283      0.0000    682.0944      4.5437    134.3495
  1504.7500  -4530.5317      0.0000    685.8160      4.4864    136.5636
  1505.0000  -4539.8569      0.0000    686.0047      4.4299    140.6689
  1505.2500  -4533.1958      0.0000    682.2220      4.3912    145.2415
  1505.5000  -4538.5244      0.0000    677.4154      4.3821    148.7553
  1505.7500  -4533.1958      0.0000    675.1094      4.3980    151.2346
  1506.0000  -4534.5283      0.0000    676.5657      4.4160    154.1938
  1506.2500  -4538.5244      0.0000    680.3449      4.4084    158.7611
