~Version Information
VERS.                      2.0: CWLS Log ASCII Standard - VERSION 2.0
WRAP.                       NO: One line per depth step
~Well Information Block
STRT.FT               890.0000: 
STOP.FT              2097.0000: 
STEP.FT                 0.2500: 
NULL.                -999.2500: 
COMP.          Pioneer Natural Resources: COMPANY
WELL.          Greenwood 43-29 Tr: WELL
FLD.           Purgatoire River: FIELD
LOC.           1478' FSL & 744' FEL: LOCATION
STAT.                 Colorado: State
CNTY.               Las Animas: COUNTY
CTRY. USA : Country
SECT. 29 : Section
TOWN. 32S : Township
RANG. 67W : Range
SRVC.                Patterson: SERVICE COMPANY
DATE.          Wed Aug 31 08:07:28 2005: LOG DATE
API.           05 071 08478 00: UNIQUE WELL ID
~Curve Information Block
DEPT.FT            0 000 00 00: Depth
SN.Ohm-m                      : IEL Short Normal
SP.mV                         : IEL Spontaneous Potential
DIR.Ohm-m                     : IEL Induction Resistivity
GR.GAPI                       : Gamma Ray
~Parameter Information Block
~A  Depth        SN          SP         DIR          GR     
# ...
  1359.0000     20.5002   -146.3307     17.4677    133.4103
  1359.2500     20.0775   -146.0482     17.0077    133.2810
  1359.5000     19.5412   -145.7554     16.5913    132.8730
  1359.7500     19.0533   -145.4553     16.2373    133.1425
  1360.0000     18.6686   -145.1581     15.9396    135.5448
  1360.2500     18.3383   -144.8803     15.6757    138.8350
  1360.5000     18.0094   -144.6444     15.4236    145.5945
  1360.7500     17.6297   -144.4783     15.1765    150.1748
  1361.0000     17.1339   -144.4055     14.9432    154.9536
  1361.2500     16.5336   -144.4315     14.7385    155.9898
  1361.5000     15.9687   -144.5365     14.5733    154.4618
  1361.7500     15.6225   -144.6831     14.4540    152.0130
  1362.0000     15.5691   -144.8327     14.3871    147.3518
  1362.2500     15.7052   -144.9600     14.3847    144.1748
  1362.5000     15.9224   -145.0579     14.4653    140.1712
  1362.7500     16.2954   -145.1308     14.6516    138.2287
  1363.0000     16.9756   -145.1841     14.9650    136.0299
  1363.2500     18.0115   -145.2157     15.4196    134.5923
  1363.5000     19.3768   -145.2127     16.0179    131.8510
  1363.7500     21.0132   -145.1543     16.7508    129.4927
  1364.0000     22.7866   -145.0191     17.6033    125.2990
  1364.2500     24.5692   -144.7943     18.5638    122.1923
  1364.5000     26.4265   -144.4841     19.6286    116.8965
  1364.7500     28.5906   -144.1107     20.8007    112.6574
  1365.0000     31.2159   -143.7093     22.0828    105.1303
  1365.2500     34.3032   -143.3179     23.4757     99.6537
  1365.5000     37.8726   -142.9659     24.9845     91.3447
  1365.7500     41.9347   -142.6667     26.6292     85.8048
  1366.0000     46.2662   -142.4208     28.4478     77.2087
  1366.2500     50.5070   -142.2264     30.4854     71.0250
  1366.5000     54.4739   -142.0902     32.7733     60.5411
  1366.7500     58.2266   -142.0280     35.3019     52.6701
  1367.0000     61.9153   -142.0574     37.9868     40.5405
  1367.2500     65.6091   -142.1864     40.6444     33.3883
  1367.5000     69.1935   -142.4072     43.0335     25.8707
  1367.7500     72.4638   -142.6941     45.0043     23.4050
  1368.0000     75.2797   -143.0100     46.6590     22.9363
  1368.2500     77.5893   -143.3156     48.3225     23.9554
  1368.5000     79.4331   -143.5818     50.3017     25.9285
  1368.7500     80.9113   -143.7976     52.6420     26.7966
  1369.0000     82.0856   -143.9684     55.0688     26.7744
  1369.2500     82.9556   -144.1027     57.1526     26.0533
  1369.5000     83.5003   -144.2010     58.5629     25.0465
  1369.7500     83.6854   -144.2568     59.1794     24.9969
  1370.0000     83.4706   -144.2682     59.0020     25.6780
  1370.2500     82.8072   -144.2439     58.0377     26.0281
  1370.5000     81.5670   -144.1961     56.3069     25.7473
  1370.7500     79.5318   -144.1301     53.9071     25.2760
  1371.0000     76.4886   -144.0417     51.0305     25.4060
  1371.2500     72.3244   -143.9264     47.9187     26.9369
  1371.5000     67.1514   -143.7899     44.8143     32.7335
  1371.7500     61.3464   -143.6521     41.9273     39.3662
  1372.0000     55.3938   -143.5391     39.4038     53.1581
  1372.2500     49.7482   -143.4716     37.2985     64.0946
  1372.5000     44.7593   -143.4547     35.5638     81.1690
  1372.7500     40.5770   -143.4778     34.0688     91.9490
  1373.0000     37.1356   -143.5252     32.6513    105.9570
  1373.2500     34.2489   -143.5878     31.1908    113.4792
  1373.5000     31.7369   -143.6673     29.6684    121.9844
  1373.7500     29.5345   -143.7710     28.1620    126.0719
  1374.0000     27.7186   -143.9064     26.7772    130.5011
  1374.2500     26.3534   -144.0795     25.5754    132.6396
  1374.5000     25.3364   -144.2951     24.5477    135.0599
  1374.7500     24.4911   -144.5574     23.6386    136.4810
  1375.0000     23.7013   -144.8669     22.7910    138.8373
  1375.2500     22.9656   -145.2192     21.9800    140.5071
  1375.5000     22.4013   -145.6039     21.2194    142.3125
  1375.7500     22.0444   -146.0037     20.5430    142.4272
  1376.0000     21.7409   -146.3929     19.9799    140.3790
  1376.2500     21.3843   -146.7440     19.5378    137.6843
  1376.5000     21.0250   -147.0420     19.2014    132.7722
  1376.7500     20.7047   -147.2884     18.9427    129.8017
  1377.0000     20.3827   -147.4930     18.7324    126.9727
  1377.2500     19.9751   -147.6606     18.5479    126.5503
  1377.5000     19.4514   -147.7869     18.3730    128.5704
  1377.7500     18.9552   -147.8607     18.1953    131.6921
  1378.0000     18.6772   -147.8691     18.0061    137.6626
  1378.2500     18.5729   -147.8027     17.7990    140.8877
  1378.5000     18.4102   -147.6612     17.5678    142.1593
  1378.7500     18.0886   -147.4547     17.3024    140.5097
  1379.0000     17.7342   -147.2023     16.9897    136.5810
  1379.2500     17.4936   -146.9271     16.6228    134.7667
  1379.5000     17.3440   -146.6517     16.2156    134.7163
  1379.7500     17.1828   -146.3959     15.8090    135.9558
  1380.0000     17.0053   -146.1714     15.4583    137.7099
  1380.2500     16.8368   -145.9754     15.2080    138.0753
  1380.5000     16.6274   -145.7909     15.0708    137.9854
  1380.7500     16.3549   -145.6008     15.0277    138.4803
  1381.0000     16.0750   -145.4030     15.0447    141.0065
  1381.2500     15.8290   -145.2121     15.0932    143.3746
  1381.5000     15.6505   -145.0491     15.1574    145.8987
  1381.7500     15.5788   -144.9284     15.2253    146.0054
  1382.0000     15.5866   -144.8491     15.2797    144.0907
  1382.2500     15.6374   -144.7976     15.2992    142.3909
  1382.5000     15.7434   -144.7601     15.2709    140.5137
  1382.7500     15.8666   -144.7315     15.1980    139.6084
  1383.0000     15.9092   -144.7130     15.0942    137.6816
  1383.2500     15.8480   -144.7086     14.9717    135.8096
  1383.5000     15.7648   -144.7269     14.8400    133.3454
  1383.7500     15.7399   -144.7840     14.7147    132.8662
  1384.0000     15.7879   -144.8967     14.6244    134.0587
  1384.2500     15.8878   -145.0727     14.6023    135.3630
  1384.5000     16.0074   -145.3037     14.6679    136.9360
  1384.7500     16.0943   -145.5659     14.8133    137.7995
  1385.0000     16.1065   -145.8274     15.0060    139.7640
  1385.2500     16.0632   -146.0655     15.2052    141.8697
  1385.5000     16.0176   -146.2851     15.3820    145.6401
  1385.7500     16.0075   -146.5230     15.5332    147.5860
  1386.0000     16.0636   -146.8302     15.6830    147.9360
  1386.2500     16.2192   -147.2441     15.8733    146.2233
  1386.5000     16.5004   -147.7689     16.1505    142.2804
  1386.7500     16.9248   -148.3774     16.5516    140.1719
  1387.0000     17.5113   -149.0294     17.0964    139.2442
  1387.2500     18.2911   -149.6898     17.7828    139.8228
  1387.5000     19.3088   -150.3356     18.5884    140.4914
  1387.7500     20.5995   -150.9533     19.4770    139.5226
  1388.0000     22.1424   -151.5354     20.4153    135.0472
  1388.2500     23.8689   -152.0814     21.3922    130.6825
  1388.5000     25.7188   -152.6013     22.4237    124.4133
  1388.7500     27.6377   -153.1122     23.5344    121.5628
  1389.0000     29.6164   -153.6276     24.7251    119.4951
  1389.2500     31.7717   -154.1448     25.9572    118.7591
  1389.5000     34.1526   -154.6424     27.1723    116.7764
  1389.7500     36.5502   -155.0901     28.3371    114.1683
  1390.0000     38.7766   -155.4607     29.4657    108.1829
  1390.2500     40.8745   -155.7379     30.5841    103.3507
  1390.5000     42.8629   -155.9178     31.6565     96.6736
  1390.7500     44.5600   -156.0087     32.5342     93.8008
  1391.0000     45.7328   -156.0270     32.9852     92.9160
  1391.2500     46.2677   -155.9872     32.8090     94.3348
  1391.5000     46.1621   -155.8914     31.9600     98.0561
  1391.7500     45.3668   -155.7306     30.5678    100.7134
  1392.0000     43.7849   -155.4988     28.8496    103.8643
  1392.2500     41.4724   -155.2097     27.0037    105.2528
