~Version Information
VERS.                      2.0: CWLS Log ASCII Standard - VERSION 2.0
WRAP.                       NO: One line per depth step
~Well Information Block
STRT.FT                -5.2500: 
STOP.FT              1184.2500: 
STEP.FT                 0.2500: 
NULL.                -999.2500: 
COMP.          Pioneer Natural Resources: COMPANY
WELL.          Lucky Lady 42-29: WELL
FLD.           Purgatoire River: FIELD
LOC.           2482' FNL & 662' FEL: LOCATION
CNTY.               Las Animas: COUNTY
SRVC.                         : SERVICE COMPANY
DATE.          Tue Mar 14 14:47:22 2006: LOG DATE
UWI.           05 071 08659 00: UNIQUE WELL ID
STAT.                       CO: STATE
~Curve Information Block
DEPT.FT            0 000 00 00: Depth
GR.GAPI                       : Gamma Ray
CCL.                          : Casing Collar Locator
TT3.usec                      : CBL 3' Travel Time
AMP3.mV                       : CBL 3' Amplitude
~Parameter Information Block
~A  Depth        GR         CCL         TT3         AMP3    
# ...
    61.7500     70.0081      0.0000    775.2098     13.7487
    62.0000     68.9279      0.0000    775.4297     13.6472
    62.2500     69.0071      0.0000    775.4005     13.5799
    62.5000     69.0461      0.0000    774.6573     13.5508
    62.7500     68.5937      0.0000    772.6044     13.5540
    63.0000     67.9469      0.0000    768.9811     13.5901
    63.2500     67.6328      0.0000    764.6432     13.6708
    63.5000     68.0717      0.0000    761.8084     13.8079
    63.7500     69.5203      0.0000    762.8181     13.9923
    64.0000     71.8931      0.0000    768.1150     14.1863
    64.2500     74.4752      0.0000    775.6075     14.3402
    64.5000     75.9699      0.0000    782.2198     14.4144
    64.7500     75.0685      0.0000    785.5037     14.3973
    65.0000     71.3261      0.0000    783.6179     14.3160
    65.2500     65.7709      0.0000    774.4839     14.2326
    65.5000     60.5396      0.0000    756.3557     14.2163
    65.7500     57.5009      0.0000    730.9111     14.3059
    66.0000     57.0168      0.0000    706.3551     14.4902
    66.2500     57.9990      0.0000    694.6129     14.7209
    66.5000     59.1098      0.0000    701.9948     14.9398
    66.7500     59.8629      0.0000    723.3679     15.0936
    67.0000     60.7434      0.0000    747.4414     15.1404
    67.2500     62.6009      0.0000    766.2478     15.0631
    67.5000     66.0405      0.0000    778.2478     14.8834
    67.7500     71.0901      0.0000    784.9991     14.6540
    68.0000     77.0656      0.0000    787.8694     14.4370
    68.2500     82.7333      0.0000    787.7277     14.2942
    68.5000     86.9251      0.0000    785.7739     14.2839
    68.7500     89.2371      0.0000    783.4378     14.4418
    69.0000     89.9963      0.0000    781.6778     14.7420
    69.2500     89.4358      0.0000    780.6813     15.0804
    69.5000     87.2813      0.0000    780.2037     15.3202
    69.7500     83.4538      0.0000    779.9427     15.3728
    70.0000     78.7293      0.0000    779.6726     15.2434
    70.2500     74.2584      0.0000    779.1591     15.0082
    70.5000     70.6649      0.0000    777.9604     14.7583
    70.7500     67.8463      0.0000    775.3539     14.5565
    71.0000     65.4371      0.0000    770.7739     14.4242
    71.2500     63.1805      0.0000    764.7248     14.3510
    71.5000     60.9353      0.0000    759.2846     14.3151
    71.7500     58.7125      0.0000    757.1425     14.3084
    72.0000     56.9438      0.0000    759.8430     14.3499
    72.2500     56.6199      0.0000    767.2258     14.4541
    72.5000     58.8864      0.0000    778.9329     14.5769
    72.7500     64.3012      0.0000    795.5212     14.6219
    73.0000     72.3097      0.0000    816.1606     14.5288
    73.2500     81.3094      0.0000    834.9568     14.3435
    73.5000     89.2863      0.0000    842.6271     14.1815
    73.7500     94.7240      0.0000    834.6314     14.1333
    74.0000     97.2025      0.0000    816.3013     14.2070
    74.2500     97.2491      0.0000    797.9586     14.3356
    74.5000     95.7504      0.0000    786.4766     14.4098
    74.7500     93.5621      0.0000    782.7545     14.3237
    75.0000     91.3984      0.0000    784.9161     14.0257
    75.2500     89.7109      0.0000    791.6915     13.5486
    75.5000     88.5553      0.0000    803.2903     12.9952
    75.7500     87.5368      0.0000    819.6726     12.4884
    76.0000     85.8700      0.0000    837.3268     12.1024
    76.2500     82.7891      0.0000    848.5464     11.8099
    76.5000     78.1964      0.0000    846.7963     11.5255
    76.7500     72.8397      0.0000    833.3287     11.2255
    77.0000     67.6551      0.0000    816.1160     10.9783
    77.2500     63.1176      0.0000    801.9144     10.8393
    77.5000     59.4454      0.0000    792.0192     10.7726
    77.7500     57.0830      1.0468    785.9459     10.7032
    78.0000     56.4051      0.0000    785.5409     10.6092
    78.2500     57.0463      0.0000    792.9028     10.5717
    78.5000     58.0129      0.0000    805.6016     10.7577
    78.7500     58.4636      0.0000    816.4880     11.3056
    79.0000     58.0427      0.0000    819.0240     12.1557
    79.2500     56.5823      0.0000    812.2758     13.0229
    79.5000     54.0016      0.0000    800.6669     13.6140
    79.7500     50.6203      0.0000    789.7080     13.8494
    80.0000     47.2084      0.0000    782.3612     13.8375
    80.2500     44.5302      0.0000    778.6184     13.7099
    80.5000     43.0706      0.0000    777.1411     13.5419
    80.7500     43.3094      0.0000    776.7221     13.3731
    81.0000     45.7331      0.0000    776.7120     13.2301
    81.2500     50.0060      0.0000    776.8333     13.1244
    81.5000     54.4277      0.0000    776.9477     13.0488
    81.7500     57.0168      0.0000    776.9678     12.9814
    82.0000     57.2195      0.0000    776.8728     12.8967
    82.2500     56.0498      0.0000    776.7230     12.7861
    82.5000     54.7673      0.0000    776.6191     12.6667
    82.7500     54.0336      0.0000    776.6407     12.5620
    83.0000     54.0277      0.0000    776.8051     12.4756
    83.2500     54.5360      0.0000    777.0540     12.3911
    83.5000     54.8716      0.0000    777.2720     12.2963
    83.7500     54.3311      0.0000    777.3245     12.1975
    84.0000     52.9503      0.0000    777.0747     12.1116
    84.2500     51.5782      0.0000    776.3434     12.0566
    84.5000     51.1620      0.0000    774.9436     12.0524
    84.7500     52.0522      0.0000    772.9667     12.1227
    85.0000     53.8860      0.0000    771.1042     12.2800
    85.2500     55.9325      0.0000    770.3853     12.4982
    85.5000     57.5344      0.0000    771.2860     12.6995
    85.7500     58.3712      0.0000    773.2389     12.7907
    86.0000     58.5023      0.0000    775.2295     12.7350
    86.2500     58.3393      0.0000    776.6808     12.5875
    86.5000     58.5555      0.0000    777.6137     12.4536
    86.7500     59.7711      0.0000    778.2814     12.4128
    87.0000     62.2117      0.0000    778.9559     12.4728
    87.2500     65.7019      0.0000    780.1234     12.5803
    87.5000     69.8589      0.0000    782.9230     12.6759
    87.7500     74.2467      0.0000    789.6678     12.7379
    88.0000     78.5303      0.0000    803.5361     12.7689
    88.2500     82.4999      0.0000    826.0197     12.7585
    88.5000     85.7395      0.0000    853.1974     12.6838
    88.7500     87.4128      0.0000    875.7238     12.5437
    89.0000     86.8337      0.0000    884.9966     12.3664
    89.2500     84.3274      0.0000    879.4704     12.1882
    89.5000     81.2531      0.0000    863.9619     12.0404
    89.7500     79.1159      0.0000    844.3167     11.9432
    90.0000     78.7179      0.0000    824.5287     11.8868
    90.2500     79.9903      0.0000    807.3459     11.8337
    90.5000     82.3003      0.0000    794.7312     11.7627
    90.7500     84.7499      0.0000    787.1492     11.6950
    91.0000     86.2564      0.0000    783.3998     11.6572
    91.2500     85.7258      0.0000    781.6320     11.6442
    91.5000     82.6522      0.0000    780.3965     11.6419
    91.7500     77.6803      0.0000    778.9099     11.6559
    92.0000     72.2073      0.0000    776.6071     11.6886
    92.2500     67.2804      0.0000    772.8890     11.7195
    92.5000     63.1946      0.0000    767.7678     11.7381
    92.7500     60.1409      0.0000    762.7764     11.7691
    93.0000     58.6562      0.0000    760.4378     11.8377
    93.2500     59.1451      0.0000    762.0902     11.9354
    93.5000     61.1952      0.0000    766.5211     12.0411
    93.7500     63.4926      0.0000    771.1854     12.1627
    94.0000     64.3382      0.0000    774.3655     12.3350
    94.2500     62.5267      0.0000    775.8705     12.5779
    94.5000     58.2499      0.0000    776.2649     12.8597
    94.7500     53.1640      0.0000    776.0137     13.1081
    95.0000     49.2007      0.0000    775.2019     13.2690
