~Version Information
VERS.                      2.0: CWLS Log ASCII Standard - VERSION 2.0
WRAP.                       NO: One line per depth step
~Well Information Block
STRT.FT               673.2000: 
STOP.FT              1510.5000: 
STEP.FT                 0.1000: 
NULL.                -999.2500: 
COMP.          Pioneer Natural Resources: COMPANY
WELL.          Hammerhead 24-24 Tr: WELL
FLD.           Purgatoire River: FIELD
LOC.           953' FSL & 1922' FWL: LOCATION
PROV.                 Colorado: PROVINCE
CNTY.               Las Animas: COUNTRY
SRVC.                Patterson: SERVICE COMPANY
DATE.          Mon Jan 30 07:27:57 2006: LOG DATE
UWI.           05 071 08669 00: UNIQUE WELL ID
~Curve Information Block
DEPT.FT            0 000 00 00: Depth
DCAL.in                       : CDL Caliper
RHOB.g/cc                     : CDL Bulk Density
RHOC.g/cc                     : CDL Density Correction
DPOR.pu                       : CDL Density Porosity
GR.GAPI                       : Gamma Ray
~Parameter Information Block
~A  Depth       DCAL        RHOB        RHOC        DPOR         GR     
# ...
   740.4000     10.2425      2.1867      0.1544     28.0818    144.8443
   740.5000     10.4207      2.2144      0.1856     26.3970    145.0191
   740.6000     10.4207      2.2195      0.1922     26.0884    141.8950
   740.7000     10.4207      2.2105      0.1967     26.6366    139.5388
   740.8000     10.4559      2.1941      0.2022     27.6316    140.2321
   740.9000     10.4559      2.1617      0.1540     29.5951    139.0797
   741.0000     10.4578      2.1139      0.1199     32.4905    132.9739
   741.1000     10.4578      2.0649      0.0769     35.4581    127.3296
   741.2000     10.4578      2.0328      0.0393     37.4034    124.8727
   741.3000     10.4327      2.0357      0.0279     37.2313    121.6142
   741.4000     10.4327      2.0835      0.1120     34.3354    117.6775
   741.5000     10.3061      2.1608      0.2434     29.6513    116.0079
   741.6000     10.3061      2.2410      0.3012     24.7870    117.8417
   741.7000     10.3061      2.3220      0.3236     19.8780    122.6859
   741.8000     10.0516      2.4098      0.3816     14.5566    126.5006
   741.9000     10.0516      2.4910      0.4067      9.6378    124.9945
   742.0000      9.8165      2.5540      0.3845      5.8191    118.8360
   742.1000      9.8165      2.5973      0.3821      3.1931    111.1661
   742.2000      9.8165      2.6157      0.3715      2.0798    105.9531
   742.3000      9.7064      2.6098      0.3455      2.4356    105.1084
   742.4000      9.7064      2.5918      0.2864      3.5253    107.0319
   742.5000      9.6795      2.5737      0.2577      4.6222    109.9464
   742.6000      9.6795      2.5536      0.2553      5.8398    113.1765
   742.7000      9.6795      2.5243      0.1965      7.6196    117.5057
   742.8000      9.6763      2.4942      0.1575      9.4425    121.4390
   742.9000      9.6763      2.4747      0.2064     10.6234    121.8308
   743.0000      9.6757      2.4657      0.1712     11.1690    121.4352
   743.1000      9.6757      2.4640      0.1817     11.2748    125.2292
   743.2000      9.6757      2.4610      0.1801     11.4553    132.9183
   743.3000      9.6750      2.4522      0.1590     11.9873    142.5167
   743.4000      9.6750      2.4432      0.1454     12.5339    150.1415
   743.5000      9.6747      2.4335      0.1608     13.1231    148.1172
   743.6000      9.6747      2.4208      0.1312     13.8920    135.8563
   743.7000      9.6747      2.4159      0.1141     14.1854    124.8150
   743.8000      9.6747      2.4256      0.1391     13.5990    125.6317
   743.9000      9.6747      2.4419      0.1432     12.6102    135.3835
   744.0000      9.6750      2.4565      0.1781     11.7243    141.8335
   744.1000      9.6750      2.4616      0.1801     11.4173    138.3360
   744.2000      9.6750      2.4525      0.1647     11.9688    128.7094
   744.3000      9.6757      2.4328      0.1523     13.1618    121.0060
   744.4000      9.6757      2.4078      0.1437     14.6775    117.9968
   744.5000      9.6768      2.3840      0.1228     16.1215    115.8318
   744.6000      9.6768      2.3711      0.1269     16.9003    114.8633
   744.7000      9.6768      2.3740      0.1374     16.7284    119.2326
   744.8000      9.6769      2.3938      0.1351     15.5285    127.6707
   744.9000      9.6769      2.4383      0.1381     12.8290    134.3845
   745.0000      9.6772      2.5059      0.2380      8.7340    133.3347
   745.1000      9.6772      2.5710      0.2756      4.7909    126.4299
   745.2000      9.6772      2.6120      0.2885      2.3053    122.1884
   745.3000      9.6789      2.6285      0.3024      1.3057    124.2336
   745.4000      9.6789      2.6273      0.2958      1.3740    127.2433
   745.5000      9.6743      2.6129      0.2443      2.2509    125.6153
   745.6000      9.6743      2.5851      0.2086      3.9352    122.4067
   745.7000      9.6743      2.5445      0.1476      6.3946    122.2143
   745.8000      9.6519      2.4935      0.1415      9.4849    121.9242
   745.9000      9.6519      2.4355      0.1157     12.9979    117.7549
   746.0000      9.6191      2.3849      0.1085     16.0648    113.6264
   746.1000      9.6191      2.3593      0.0638     17.6200    112.4982
   746.2000      9.6191      2.3709      0.0875     16.9139    112.3423
   746.3000      9.5881      2.4254      0.1128     13.6126    113.6711
   746.4000      9.5881      2.5057      0.2443      8.7425    118.1816
   746.5000      9.5648      2.5750      0.3137      4.5425    123.4528
   746.6000      9.5648      2.6117      0.3743      2.3210    125.3958
   746.7000      9.5648      2.6176      0.3855      1.9630    122.8117
   746.8000      9.5451      2.5981      0.3683      3.1434    118.3603
   746.9000      9.5451      2.5630      0.2755      5.2706    116.4184
   747.0000      9.5252      2.5297      0.2341      7.2885    117.6367
   747.1000      9.5252      2.5013      0.2132      9.0114    118.3560
   747.2000      9.5252      2.4711      0.1940     10.8421    115.8529
   747.3000      9.5075      2.4457      0.1321     12.3791    111.0953
   747.4000      9.5075      2.4318      0.1696     13.2271    108.9916
   747.5000      9.4866      2.4225      0.1928     13.7883    110.9403
   747.6000      9.4866      2.4188      0.1442     14.0118    112.3189
   747.7000      9.4866      2.4271      0.1939     13.5066    114.4925
   747.8000      9.4606      2.4391      0.2197     12.7844    120.8902
   747.9000      9.4606      2.4461      0.1998     12.3599    126.6674
   748.0000      9.4365      2.4475      0.2334     12.2735    128.4660
   748.1000      9.4365      2.4388      0.1939     12.7972    128.0786
   748.2000      9.4365      2.4212      0.1972     13.8649    126.1440
   748.3000      9.4128      2.4042      0.1888     14.8941    122.2155
   748.4000      9.4128      2.3949      0.2008     15.4612    115.7845
   748.5000      9.3849      2.3936      0.1828     15.5367    108.3865
   748.6000      9.3849      2.4049      0.1665     14.8541    103.5304
   748.7000      9.3849      2.4376      0.1896     12.8745    102.9977
   748.8000      9.3599      2.4888      0.2311      9.7691    104.9912
   748.9000      9.3599      2.5423      0.2738      6.5244    106.0162
   749.0000      9.3448      2.5840      0.2887      4.0021    105.3685
   749.1000      9.3448      2.6135      0.2906      2.2129    103.7861
   749.2000      9.3448      2.6355      0.2701      0.8811     99.9735
   749.3000      9.3364      2.6459      0.3178      0.2475     95.5957
   749.4000      9.3364      2.6440      0.2448      0.3625     95.6295
   749.5000      9.3285      2.6367      0.2741      0.8078    101.1545
   749.6000      9.3285      2.6187      0.2734      1.8966    107.3203
   749.7000      9.3285      2.5809      0.2465      4.1887    108.0754
   749.8000      9.3186      2.5311      0.2354      7.2043    104.8603
   749.9000      9.3186      2.4849      0.2132     10.0057    104.1460
   750.0000      9.3108      2.4472      0.2210     12.2920    108.8544
   750.1000      9.3108      2.4143      0.2191     14.2823    116.9143
   750.2000      9.3108      2.3905      0.2012     15.7262    120.2579
   750.3000      9.3057      2.3863      0.2285     15.9815    114.1588
   750.4000      9.3057      2.4003      0.2455     15.1361    105.4733
   750.5000      9.3008      2.4231      0.2347     13.7539    104.8449
   750.6000      9.3008      2.4556      0.2479     11.7828    112.6019
   750.7000      9.3008      2.5020      0.2478      8.9700    116.8021
   750.8000      9.3039      2.5526      0.2855      5.9025    113.6244
   750.9000      9.3039      2.5932      0.3117      3.4405    110.0499
   751.0000      9.3276      2.6237      0.3012      1.5951    106.7304
   751.1000      9.3276      2.6502      0.3504     -0.0107    100.8822
   751.2000      9.3276      2.6677      0.3248     -1.0730     96.6630
   751.3000      9.3791      2.6683      0.2955     -1.1074    100.3664
   751.4000      9.3791      2.6518      0.2711     -0.1111    108.2852
   751.5000      9.4711      2.6213      0.2496      1.7380    110.8454
