~Version Information
VERS.                      2.0: CWLS Log ASCII Standard - VERSION 2.0
WRAP.                       NO: One line per depth step
~Well Information Block
STRT.FT               655.0000: 
STOP.FT              2623.7000: 
STEP.FT                 0.1000: 
NULL.                -999.2500: 
COMP.          Pioneer Natural Resources: COMPANY
WELL.             Aviator 12-4: WELL
FLD.           Purgatoire River: FIELD
LOC.           1969' FNL & 732' FWL--: LOCATION
CNTY.               Las Animas: COUNTY
SRVC.                Patterson: SERVICE COMPANY
DATE.          Mon Apr 10 07:35:20 2006: LOG DATE
UWI.           05 071 08714 00: UNIQUE WELL ID
STAT.                 Colorado: STATE
~Curve Information Block
DEPT.FT            0 000 00 00: Depth
DCAL.in                       : CDL Caliper
RHOB.g/cc                     : CDL Bulk Density
RHOC.g/cc                     : CDL Density Correction
DPOR.pu                       : CDL Density Porosity
NPOR.pu                       : Neutron Porosity
GR.GAPI                       : Gamma Ray
~Parameter Information Block
~A  Depth       DCAL        RHOB        RHOC        DPOR        NPOR         GR     
# ...
   914.2000      8.0787      2.5755      0.0168      4.5154     20.9477     89.6943
   914.3000      8.0805      2.5773      0.0446      4.4036     21.1693     75.5355
   914.4000      8.0805      2.5668      0.0318      5.0426     21.2875     71.0218
   914.5000      8.0801      2.5483      0.0055      6.1663     21.7726     77.9272
   914.6000      8.0801      2.5403      0.0289      6.6469     22.5041     88.3657
   914.7000      8.0801      2.5536      0.0390      5.8428     22.8513     94.9090
   914.8000      8.0784      2.5787      0.0912      4.3237     22.9826     96.0017
   914.9000      8.0784      2.5966      0.0618      3.2366     23.6676     95.9582
   915.0000      8.0786      2.6074      0.0785      2.5792     24.7874     97.2089
   915.1000      8.0786      2.6179      0.0948      1.9436     25.4069    100.2544
   915.2000      8.0786      2.6191      0.0897      1.8730     25.3511    103.1830
   915.3000      8.0788      2.6033      0.0266      2.8304     25.1376    102.1827
   915.4000      8.0788      2.5789      0.0481      4.3078     24.9270     98.8825
   915.5000      8.0775      2.5519      0.0768      5.9434     24.6705     97.2540
   915.6000      8.0775      2.5226      0.0627      7.7204     24.3929     96.7239
   915.7000      8.0775      2.5007      0.0380      9.0493     23.9224     95.8443
   915.8000      8.0764      2.5025      0.0239      8.9404     23.3486     94.5720
   915.9000      8.0764      2.5304      0.0847      7.2490     23.1345     88.3720
   916.0000      8.0758      2.5672      0.0956      5.0209     23.2022     76.2146
   916.1000      8.0758      2.5918      0.1055      3.5272     22.8838     65.9684
   916.2000      8.0758      2.5908      0.0908      3.5876     21.9744     61.0995
   916.3000      8.0760      2.5670      0.0548      5.0297     20.9210     57.6941
   916.4000      8.0760      2.5364      0.0787      6.8826     20.1205     55.3245
   916.5000      8.0765      2.5153      0.0407      8.1611     19.5794     54.7239
   916.6000      8.0765      2.5137      0.0366      8.2632     19.1733     53.2454
   916.7000      8.0765      2.5235      0.0625      7.6656     18.8794     51.7276
   916.8000      8.0758      2.5335      0.0201      7.0616     18.5018     52.0618
   916.9000      8.0758      2.5438      0.0305      6.4392     17.8293     52.3176
   917.0000      8.0742      2.5531      0.0675      5.8751     17.1204     52.5098
   917.1000      8.0742      2.5571      0.0433      5.6320     16.6127     53.8781
   917.2000      8.0742      2.5526      0.0765      5.9048     16.4155     53.3165
   917.3000      8.0738      2.5381      0.0611      6.7824     16.7512     50.8404
   917.4000      8.0738      2.5211      0.0397      7.8143     17.2044     50.3240
   917.5000      8.0740      2.5153      0.0272      8.1647     17.0303     51.2158
   917.6000      8.0740      2.5256      0.0358      7.5373     16.6799     52.3835
   917.7000      8.0740      2.5374      0.0678      6.8213     17.1420     53.1168
   917.8000      8.0738      2.5325      0.0758      7.1192     18.0906     50.6767
   917.9000      8.0738      2.5162      0.0255      8.1080     18.6084     46.7346
   918.0000      8.0751      2.5130      0.0234      8.3028     18.6210     47.1517
   918.1000      8.0751      2.5276      0.0655      7.4198     18.3364     51.9593
   918.2000      8.0751      2.5413      0.1067      6.5891     17.8372     58.0164
   918.3000      8.0764      2.5509      0.0817      6.0061     17.4188     63.0743
   918.4000      8.0764      2.5725      0.0566      4.6952     17.4557     63.0313
   918.5000      8.0787      2.6000      0.0770      3.0327     17.7754     58.0017
   918.6000      8.0787      2.5991      0.0904      3.0829     18.1951     55.5670
   918.7000      8.0787      2.5711     -0.0063      4.7818     19.0144     59.9286
   918.8000      8.0800      2.5626      0.0117      5.3000     20.0026     66.4727
   918.9000      8.0800      2.5882      0.0467      3.7443     20.3074     68.7795
   919.0000      8.0810      2.6231      0.0427      1.6286     20.0084     66.6713
   919.1000      8.0810      2.6604      0.0419     -0.6305     19.9944     64.1363
   919.2000      8.0810      2.7024      0.0674     -3.1779     20.5086     63.5752
   919.3000      8.0862      2.7247      0.1132     -4.5243     21.1798     65.7293
   919.4000      8.0862      2.7051      0.0571     -3.3399     21.7185     72.1345
   919.5000      8.0952      2.6692     -0.0023     -1.1638     22.1364     81.7945
   919.6000      8.0952      2.6491      0.0235      0.0522     22.9270     89.6724
   919.7000      8.0952      2.6461     -0.0263      0.2342     24.4288     94.4824
   919.8000      8.1014      2.6500      0.0074      0.0006     26.1826     99.1321
   919.9000      8.1014      2.6485      0.0343      0.0933     27.1486    102.4594
   920.0000      8.1054      2.6399      0.0270      0.6128     26.8992    105.4532
   920.1000      8.1054      2.6340      0.0424      0.9693     26.6313    112.3892
   920.2000      8.1054      2.6330      0.0938      1.0323     27.2430    118.8063
   920.3000      8.1095      2.6288      0.0854      1.2827     28.0683    118.0193
   920.4000      8.1095      2.6164      0.0871      2.0341     28.3291    117.4702
   920.5000      8.1117      2.5959      0.0620      3.2767     28.1728    127.3795
   920.6000      8.1117      2.5712      0.0696      4.7764     28.0776    145.2263
   920.7000      8.1117      2.5533      0.0362      5.8596     27.9897    159.0798
   920.8000      8.1122      2.5503      0.0651      6.0441     27.4233    159.0581
   920.9000      8.1122      2.5542      0.0582      5.8046     26.8050    146.2710
   921.0000      8.1116      2.5580      0.0335      5.5773     27.0117    133.6202
   921.1000      8.1116      2.5660      0.0609      5.0884     27.7895    133.5373
   921.2000      8.1116      2.5772      0.0656      4.4127     28.2619    144.0548
   921.3000      8.1101      2.5887      0.0554      3.7130     28.2026    150.7597
   921.4000      8.1101      2.6021      0.1065      2.9032     27.8341    148.2005
   921.5000      8.1086      2.6124      0.0672      2.2787     27.3283    143.7469
   921.6000      8.1086      2.6206      0.0617      1.7790     26.8549    141.3105
   921.7000      8.1086      2.6363      0.0955      0.8299     26.4469    142.6429
   921.8000      8.1073      2.6626      0.0811     -0.7664     26.0775    144.8172
   921.9000      8.1073      2.6842      0.1346     -2.0741     25.8366    139.6106
   922.0000      8.1061      2.6777      0.1181     -1.6767     25.4122    126.6521
   922.1000      8.1061      2.6479      0.0627      0.1296     24.6973    115.2573
   922.2000      8.1061      2.6243      0.0115      1.5592     24.1278    110.6850
   922.3000      8.1054      2.6136      0.0866      2.2064     23.4493    108.7788
   922.4000      8.1054      2.5997      0.0371      3.0478     22.2695    106.6300
   922.5000      8.1057      2.5818      0.0434      4.1357     20.8759    106.0893
   922.6000      8.1057      2.5639      0.0296      5.2191     19.7722    104.3705
   922.7000      8.1057      2.5452      0.0306      6.3542     19.2398     97.7313
   922.8000      8.1060      2.5265      0.0649      7.4869     19.2073     87.4544
   922.9000      8.1060      2.5083      0.0592      8.5897     19.3983     77.9359
   923.0000      8.1057      2.4969      0.0176      9.2803     19.5885     73.9625
   923.1000      8.1057      2.5025      0.0210      8.9419     19.8536     74.8122
   923.2000      8.1057      2.5219      0.0816      7.7665     20.2743     73.2307
   923.3000      8.1079      2.5326      0.0732      7.1137     20.8020     67.6331
   923.4000      8.1079      2.5195      0.0535      7.9113     21.0821     64.1965
   923.5000      8.1158      2.4965      0.0522      9.3015     20.8342     64.6196
   923.6000      8.1158      2.4804      0.0375     10.2799     20.6053     65.1602
   923.7000      8.1158      2.4679      0.0568     11.0392     21.0722     63.7513
