~Version Information
VERS.                      2.0: CWLS Log ASCII Standard - VERSION 2.0
WRAP.                       NO: One line per depth step
~Well Information Block
STRT.FT               520.0000: 
STOP.FT              2555.2000: 
STEP.FT                 0.1000: 
NULL.                -999.2500: 
COMP.          Pioneer Natural Resources: COMPANY
WELL.          Horsefeathers 24-34: WELL
FLD.           Purgatoire River: FIELD
LOC.           183' FSL & 1570' FWL--: LOCATION
CNTY.               Las Animas: COUNTY
SRVC.                Patterson: SERVICE COMPANY
DATE.          Mon Feb 06 08:03:40 2006: LOG DATE
UWI.           05 071 08675 00: UNIQUE WELL ID
STAT.                 Colorado: STATE
~Curve Information Block
DEPT.FT            0 000 00 00: Depth
DCAL.in                       : CDL Caliper
RHOB.g/cc                     : CDL Bulk Density
RHOC.g/cc                     : CDL Density Correction
DPOR.pu                       : CDL Density Porosity
NPOR.pu                       : Neutron Porosity
GR.GAPI                       : Gamma Ray
~Parameter Information Block
~A  Depth       DCAL        RHOB        RHOC        DPOR        NPOR         GR     
# ...
   654.4000      8.1393      2.5858      0.1275      3.8922     21.9614    142.2260
   654.5000      8.1575      2.6137      0.1650      2.2030     21.6386    130.2608
   654.6000      8.1575      2.6366      0.1653      0.8109     21.8091    117.6120
   654.7000      8.1575      2.6697      0.1888     -1.1912     22.3736    114.0747
   654.8000      8.1729      2.6970      0.1633     -2.8507     23.1795    118.5731
   654.9000      8.1729      2.6972      0.0874     -2.8599     24.2503    122.8430
   655.0000      8.1619      2.6791      0.0660     -1.7612     25.6976    124.1471
   655.1000      8.1619      2.6449      0.1142      0.3080     26.9421    124.2504
   655.2000      8.1619      2.5766     -0.0106      4.4515     27.2600    123.5004
   655.3000      8.1333      2.4896     -0.0857      9.7229     26.9188    123.8967
   655.4000      8.1333      2.4266     -0.1404     13.5393     26.6460    128.0022
   655.5000      8.1161      2.4082     -0.0504     14.6551     26.4457    133.8830
   655.6000      8.1161      2.4147      0.0201     14.2588     25.8682    137.7236
   655.7000      8.1161      2.4065      0.0520     14.7555     24.9195    139.5596
   655.8000      8.1127      2.3590      0.0145     17.6368     24.2225    141.2949
   655.9000      8.1127      2.2880     -0.0555     21.9409     23.9555    144.1255
   656.0000      8.1161      2.2383     -0.0695     24.9510     23.6525    146.0516
   656.1000      8.1161      2.2426      0.0650     24.6910     23.3419    143.6163
   656.2000      8.1161      2.2956      0.1710     21.4808     23.5363    136.7579
   656.3000      8.1233      2.3675      0.1995     17.1201     24.0937    130.4858
   656.4000      8.1233      2.4419      0.2030     12.6150     24.1458    129.1232
   656.5000      8.1152      2.5244      0.2609      7.6144     23.6170    132.3507
   656.6000      8.1152      2.6041      0.3452      2.7793     23.0555    137.4819
   656.7000      8.1152      2.6414      0.3795      0.5206     22.4952    141.2342
   656.8000      8.0898      2.6169      0.3235      2.0079     21.9473    140.6418
   656.9000      8.0898      2.5566      0.2891      5.6602     21.5217    136.0235
   657.0000      8.0910      2.4976      0.2629      9.2343     21.1301    133.1421
   657.1000      8.0910      2.4507      0.2868     12.0758     20.6136    136.5021
   657.2000      8.0910      2.4040      0.2030     14.9074     19.8932    141.1169
   657.3000      8.1700      2.3579      0.0959     17.7037     19.4166    139.0531
   657.4000      8.1700      2.3275      0.1102     19.5449     19.6597    131.3951
   657.5000      8.3302      2.3235      0.1479     19.7887     20.4451    125.4351
   657.6000      8.3302      2.3547      0.1538     17.8983     21.3739    125.6808
   657.7000      8.3302      2.4220      0.2071     13.8187     22.2728    131.0850
   657.8000      8.4303      2.4965      0.3621      9.3011     23.1530    136.6940
   657.9000      8.4303      2.5396      0.3714      6.6903     23.8421    138.6447
   658.0000      8.3427      2.5447      0.3338      6.3816     24.0537    138.2282
   658.1000      8.3427      2.5246      0.3743      7.5990     23.7660    141.7871
   658.2000      8.3427      2.4915      0.2646      9.6033     23.0349    149.2934
   658.3000      8.1915      2.4663      0.2336     11.1339     22.3290    150.3213
   658.4000      8.1915      2.4506      0.2944     12.0865     22.5442    141.5291
   658.5000      8.1341      2.4031      0.2839     14.9639     23.4377    132.8936
   658.6000      8.1341      2.2942      0.1597     21.5649     24.0160    129.5569
   658.7000      8.1341      2.1490      0.0964     30.3629     23.8478    131.1161
   658.8000      8.1831      1.9976      0.1013     39.5382     22.9915    136.6688
   658.9000      8.1831      1.8395     -0.0395     49.1194     21.7437    140.6355
   659.0000      8.2818      1.6729     -0.1328     59.2163     19.9863    143.8700
   659.1000      8.2818      1.5065     -0.1697     69.3046     17.3286    151.7592
   659.2000      8.2818      1.3542     -0.2158     78.5326     14.0893    159.2608
   659.3000      8.3190      1.2251     -0.1324     86.3553     11.0319    159.8568
   659.4000      8.3190      1.1309     -0.1790     92.0672      8.6364    153.4312
   659.5000      8.3074      1.1289     -0.1656     92.1852      7.1535    142.8992
   659.6000      8.3074      1.2814      0.0117     82.9476      6.4813    132.8385
   659.7000      8.3074      1.5540      0.3762     66.4225      6.2558    127.0878
   659.8000      8.4823      1.8367      0.5529     49.2882      6.3336    126.7996
   659.9000      8.4823      2.0567      0.6005     35.9602      6.9175    128.6750
   660.0000      8.9011      2.2130      0.6311     26.4845      8.1323    128.7414
   660.1000      8.9011      2.3352      0.5496     19.0818      9.9018    126.9263
   660.2000      8.9011      2.4395      0.5933     12.7564     12.2565    126.1022
   660.3000      9.3147      2.5224      0.5711      7.7338     15.3487    128.0950
   660.4000      9.3147      2.5884      0.5629      3.7344     18.7596    132.5652
   660.5000      9.2917      2.6446      0.5393      0.3259     21.4877    137.3104
   660.6000      9.2917      2.6828      0.5195     -1.9870     22.9641    136.8161
   660.7000      9.2917      2.6995      0.4457     -3.0010     23.6206    128.8557
   660.8000      8.7695      2.7136      0.3543     -3.8574     24.4629    119.4690
   660.9000      8.7695      2.7458      0.3076     -5.8077     25.6314    112.2136
   661.0000      8.2883      2.7856      0.3438     -8.2157     26.4445    107.1120
   661.1000      8.2883      2.8001      0.2436     -9.0970     26.8361    107.2451
   661.2000      8.2883      2.7701      0.2053     -7.2811     27.2216    113.2356
   661.3000      8.1094      2.7095      0.0348     -3.6051     27.2829    119.8250
   661.4000      8.1094      2.6605      0.0102     -0.6339     26.9081    121.2915
   661.5000      8.0815      2.6425      0.0115      0.4560     26.8028    118.6926
   661.6000      8.0815      2.6425     -0.0160      0.4539     27.2213    117.0488
   661.7000      8.0815      2.6499      0.0401      0.0084     27.4245    117.4007
   661.8000      8.0803      2.6627      0.0383     -0.7717     26.9448    118.3054
   661.9000      8.0803      2.6757      0.0908     -1.5549     26.2631    119.6235
   662.0000      8.0763      2.6750      0.0925     -1.5129     25.9086    120.3428
   662.1000      8.0763      2.6611      0.0107     -0.6725     25.9218    119.6621
   662.2000      8.0763      2.6458      0.0457      0.2562     25.9182    119.4196
   662.3000      8.0698      2.6346     -0.0114      0.9328     25.6607    121.4009
   662.4000      8.0698      2.6253      0.0295      1.4977     25.2818    124.7070
   662.5000      8.0649      2.6137      0.0021      2.1986     24.9180    126.2063
   662.6000      8.0649      2.5998      0.0134      3.0443     24.7215    122.6918
   662.7000      8.0649      2.5762      0.0068      4.4724     24.6350    118.1936
   662.8000      8.0641      2.5420     -0.0309      6.5458     24.1690    123.0774
   662.9000      8.0641      2.5182     -0.0704      7.9875     23.2609    136.9287
   663.0000      8.0665      2.5239     -0.0403      7.6453     22.3047    145.7637
   663.1000      8.0665      2.5556     -0.0169      5.7187     21.5560    142.3905
   663.2000      8.0665      2.5893      0.0660      3.6812     21.0813    135.7684
   663.3000      8.0685      2.6023      0.1000      2.8925     20.6553    133.9438
   663.4000      8.0685      2.5976      0.0369      3.1787     20.2707    133.2243
   663.5000      8.0681      2.5885      0.0596      3.7279     20.2678    130.6920
   663.6000      8.0681      2.5715      0.0636      4.7600     20.4080    129.3205
   663.7000      8.0681      2.5427      0.0181      6.5010     20.1018    128.3646
   663.8000      8.0664      2.5200      0.0133      7.8791     19.3499    128.8667
   663.9000      8.0664      2.5178      0.0205      8.0101     18.7730    134.1575
