~Version Information
 VERS.                                  2.0 : CWLS LAS VERSION
 WRAP.                                   NO : WRAPING MODE
 SWARE .                 MController 2.5.0J : SOFTWARE VERSION
~Well Information
 WELL.                    Greenwood 43-29Tr : WELL
 COMP.    Pioneer Natural Resources USA Inc : COMPANY
 FLD.                      Purgatoire River : FIELD
 LOC.                 NE/SE SEC29 T32S R67W : LOCATION
 DATE.                          08/30-31/05 : DATE(S) LOGGED
 SRVC.       Blanco Geological Services LLC : SERVICE COMPANY
 STAT.                             Colorado : STATE
 CNTY.                           Las Animas : COUNTY
 CTRY.                                  USA : COUNTRY
 API.                       05-071-08478-00 : API NUMBER
 STRT.FT                             941.00 : START DEPTH
 STOP.FT                            2097.00 : STOP DEPTH
 STEP.FT                               1.00 : DEPTH INCREMENT
 NULL.                                -9999 : NULL VALUE
~Curve information
 DEPTH.FT                                   :
 ROP.MIN/FT                                 :
 GAS.UNITS                                  :
~ASCII Log data
# ...
      1141.0         0.28         20.8 
      1142.0         0.27         21.1 
      1143.0         0.27         20.0 
      1144.0         0.27         19.4 
      1145.0         0.27         20.0 
      1146.0         0.27         19.7 
      1147.0         0.27         20.7 
      1148.0         0.27         25.5 
      1149.0         0.27         29.0 
      1150.0         0.27         29.9 
      1151.0         0.27         27.5 
      1152.0         0.27         25.9 
      1153.0         0.28         23.7 
      1154.0         0.27         22.7 
      1155.0         0.27         20.2 
      1156.0         0.27         18.8 
      1157.0         0.27         18.0 
      1158.0         0.43         18.5 
      1159.0         0.27         17.4 
      1160.0         0.27         18.4 
      1161.0         0.27         18.0 
      1162.0         0.27         16.8 
      1163.0         0.17         17.5 
      1164.0         0.30         18.3 
      1165.0         0.28         18.3 
      1166.0         0.17         18.3 
      1167.0         0.27         18.8 
      1168.0         0.27         17.2 
      1169.0         0.53         18.3 
      1170.0         0.27         18.2 
      1171.0         0.27         17.1 
      1172.0         0.27         17.8 
      1173.0         0.53         17.7 
      1174.0         0.27         17.5 
      1175.0         0.27         17.7 
      1176.0         0.28         16.9 
      1177.0         0.27         17.0 
      1178.0         0.27         17.5 
      1179.0         0.53         19.7 
      1180.0         0.27         19.8 
      1181.0         0.27         21.9 
      1182.0         0.27         24.0 
      1183.0         0.27         22.7 
      1184.0         0.27         22.2 
      1185.0         0.27         20.0 
      1186.0         0.27         19.3 
      1187.0         0.27         18.9 
      1188.0         0.28         17.7 
      1189.0         0.27         17.5 
      1190.0         0.27         18.4 
      1191.0         0.27         17.4 
      1192.0         0.33         23.1 
      1193.0         0.27         35.1 
      1194.0         0.27         42.8 
      1195.0         0.27         44.4 
      1196.0         0.17         43.7 
      1197.0         0.27         42.7 
      1198.0         0.27         40.7 
      1199.0         0.27         40.1 
      1200.0         0.28         38.2 
      1201.0         0.27         37.3 
      1202.0         0.27         36.7 
      1203.0         0.27         35.9 
      1204.0         0.20         35.9 
      1205.0         0.27         34.3 
      1206.0         0.27         31.8 
      1207.0         0.27         30.4 
      1208.0         0.27         27.5 
      1209.0         0.27         26.9 
      1210.0         0.27         24.0 
      1211.0         0.27         24.6 
      1212.0         0.23         31.1 
      1213.0         0.28         36.5 
      1214.0         0.27         44.8 
      1215.0         0.27         48.6 
      1216.0         0.23         48.6 
      1217.0         0.27         45.1 
      1218.0         0.27         40.1 
      1219.0         0.47         36.0 
      1220.0         0.43         28.4 
      1221.0         0.67         26.0 
      1222.0         0.82         29.5 
      1223.0         0.53        175.1 
      1224.0         0.53        441.4 
      1225.0         0.43       1334.1 
      1226.0         0.57       1267.8 
      1227.0         0.53       1198.9 
      1228.0         0.65       1121.8 
      1229.0         0.53       1002.8 
      1230.0         0.80       1551.8 
      1231.0         0.53       2019.0 
      1232.0         0.73       1929.2 
      1233.0         0.27       1346.8 
      1234.0         0.45       1219.2 
      1235.0         0.27       1204.9 
      1236.0         0.70       1081.5 
      1237.0         0.53        990.1 
      1238.0         0.63        954.8 
      1239.0         0.85        925.3 
      1240.0         0.43        905.6 
      1241.0         0.53        893.3 
      1242.0         0.40        882.2 
      1243.0         0.33        878.0 
      1244.0         0.23        874.2 
      1245.0         0.23        858.4 
      1246.0         0.20        811.1 
      1247.0         0.20        786.0 
      1248.0         0.17        770.4 
      1249.0         0.20        770.4 
      1250.0         0.13        801.2 
      1251.0         0.17        874.9 
      1252.0         0.22        981.2 
      1253.0         0.20        996.7 
      1254.0         0.20       1179.9 
      1255.0         0.10       1269.0 
      1256.0         2.10       1667.4 
      1257.0         0.48        950.1 
      1258.0         0.37        865.3 
      1259.0         0.33        852.6 
      1260.0         0.30        823.1 
      1261.0         0.30        820.6 
      1262.0         0.23        820.6 
      1263.0         0.30        820.6 
      1264.0         0.23        818.4 
      1265.0         0.23        813.0 
      1266.0         0.23        810.4 
      1267.0         0.10        809.5 
      1268.0         0.13        809.5 
      1269.0         0.23        808.2 
      1270.0         0.23        806.0 
      1271.0         0.25        800.9 
      1272.0         0.20        799.0 
      1273.0         0.23        794.9 
      1274.0         0.20        789.5 
      1275.0         0.23        768.9 
      1276.0         0.20        733.3 
      1277.0         0.20        733.3 
      1278.0         0.20        722.2 
      1279.0         0.20        740.0 
      1280.0         0.17        769.5 
      1281.0         0.20        850.4 
      1282.0         0.17        965.0 
      1283.0         0.17        965.0 
      1284.0         0.10       1085.3 
      1285.0         0.07       1085.3 
      1286.0         2.12       1443.0 
      1287.0         0.13        849.8 
      1288.0         0.30        818.7 
      1289.0         0.37        797.7 
      1290.0         0.33        773.0 
      1291.0         0.30        757.7 
      1292.0         0.27        756.8 
      1293.0         0.32        752.7 
      1294.0         0.23        741.6 
      1295.0         0.13        741.6 
      1296.0         0.13        740.6 
      1297.0         0.17        734.6 
      1298.0         0.20        732.4 
      1299.0         0.23        734.6 
      1300.0         0.23        732.4 
      1301.0         0.30        731.1 
      1302.0         0.33        728.9 
      1303.0         0.23        723.5 
      1304.0         0.20        722.5 
      1305.0         0.23        722.2 
      1306.0         0.20        720.9 
      1307.0         0.23        717.4 
      1308.0         0.32        702.5 
      1309.0         0.23        694.9 
      1310.0         0.20        694.9 
      1311.0         0.33        680.0 
      1312.0         0.33        726.3 
      1313.0         0.33        795.8 
      1314.0         0.13        878.7 
      1315.0         0.17       1049.4 
      1316.0         2.38       1290.3 
      1317.0         0.47        722.2 
      1318.0         0.40        708.2 
      1319.0         0.30        688.6 
      1320.0         0.20        709.5 
      1321.0         0.17        709.8 
      1322.0         0.17        709.8 
      1323.0         0.13        702.2 
      1324.0         0.20        702.2 
      1325.0         0.23        692.4 
      1326.0         0.22        685.7 
      1327.0         0.13        680.6 
      1328.0         0.20        677.4 
      1329.0         0.27        673.3 
      1330.0         0.27        666.7 
      1331.0         0.30        657.1 
      1332.0         0.20        646.0 
      1333.0         0.30        651.7 
      1334.0         0.27        671.4 
      1335.0         0.27        675.9 
      1336.0         0.27        669.2 
      1337.0         0.23        669.2 
      1338.0         0.20        634.0 
      1339.0         0.20        593.3 
      1340.0         0.13        593.3 
