~Version Information
VERS.                      2.0: CWLS Log ASCII Standard - VERSION 2.0
WRAP.                       NO: One line per depth step
~Well Information Block
STRT.FT               245.0000: 
STOP.FT              1208.2500: 
STEP.FT                 0.2500: 
NULL.                -999.2500: 
COMP.          Pioneer Natural Resources: COMPANY
WELL.              Davida 34-8: WELL
FLD.           Purgatoire River: FIELD
LOC.           418' FSL & 1923' FEL--: LOCATION
CNTY.               Las Animas: COUNTY
SRVC.                Patterson: SERVICE COMPANY
DATE.          Sat Mar 18 07:00:13 2006: LOG DATE
UWI.           05 071 08722 00: UNIQUE WELL ID
STAT.                 Colorado: STATE
~Curve Information Block
DEPT.FT            0 000 00 00: Depth
GR.GAPI                       : Gamma Ray
DIR.Ohm-m                     : IEL Induction Resistivity
~Parameter Information Block
~A  Depth        GR         DIR     
   245.0000     61.2499 100000.0000
   245.2500     59.4629 100000.0000
   245.5000     58.4574 100000.0000
   245.7500     58.2686 100000.0000
   246.0000     57.6930 100000.0000
   246.2500     56.8250 100000.0000
   246.5000     54.8299 100000.0000
   246.7500     53.2768 100000.0000
   247.0000     51.4427 100000.0000
   247.2500     34.1234 100000.0000
   247.5000     35.2767 100000.0000
   247.7500     36.8765 100000.0000
   248.0000     39.8871 100000.0000
   248.2500     41.9813 100000.0000
   248.5000     45.1599 100000.0000
   248.7500     47.4584 100000.0000
   249.0000     51.4398 100000.0000
   249.2500     54.4220 100000.0000
   249.5000     58.8500 100000.0000
   249.7500     61.2182 100000.0000
   250.0000     62.9123 100000.0000
   250.2500     62.4893 100000.0000
   250.5000     59.7628 100000.0000
   250.7500     57.1214 100000.0000
   251.0000     53.4172 100000.0000
   251.2500     52.1555 100000.0000
   251.5000     53.7067 100000.0000
   251.7500     57.5679 100000.0000
   252.0000     67.4183 100000.0000
   252.2500     76.0546 100000.0000
   252.5000     90.4536 100000.0000
   252.7500     99.7599 100000.0000
   253.0000    110.8422 100000.0000
   253.2500    115.1805 100000.0000
   253.5000    116.7731 100000.0000
   253.7500    115.4252 100000.0000
   254.0000    112.0869 100000.0000
   254.2500    110.0494 100000.0000
   254.5000    108.0949 100000.0000
   254.7500    107.6278 100000.0000
   255.0000    108.1396 100000.0000
   255.2500    109.1137     10.9149
   255.5000    110.9182      1.2813
   255.7500    112.0138      0.5106
   256.0000    113.2865      0.2655
   256.2500    113.8524      0.1744
   256.5000    113.8007      0.1588
   256.7500    112.5241      0.2072
   257.0000    107.5729      0.3624
   257.2500    102.0440      0.8057
   257.5000     91.2110      3.2239
   257.7500     83.0968 100000.0000
   258.0000     70.9061 100000.0000
   258.2500     63.5301 100000.0000
   258.5000     54.9201 100000.0000
   258.7500     51.2986 100000.0000
   259.0000     48.8326 100000.0000
   259.2500     48.6009 100000.0000
   259.5000     49.5658 100000.0000
   259.7500     51.0466 100000.0000
   260.0000     55.0039 100000.0000
   260.2500     59.0099 100000.0000
   260.5000     66.6741 100000.0000
   260.7500     72.0342 100000.0000
   261.0000     78.1688 100000.0000
   261.2500     79.7066 100000.0000
   261.5000     77.2704 100000.0000
   261.7500     72.9975 100000.0000
   262.0000     64.8831 100000.0000
   262.2500     59.9371      1.7441
   262.5000     55.3990      0.6311
   262.7500     54.9176      0.3458
   263.0000     58.1901      0.2550
   263.2500     62.9959      0.2639
   263.5000     73.9772      0.3775
   263.7500     83.2974      0.7095
   264.0000     98.1970      2.0147
   264.2500    107.2469 100000.0000
   264.5000    117.8583 100000.0000
   264.7500    122.8420 100000.0000
   265.0000    127.6838 100000.0000
   265.2500    129.4110 100000.0000
   265.5000    130.1640 100000.0000
   265.7500    129.8408 100000.0000
   266.0000    128.7222     19.5087
   266.2500    127.4710      7.1197
   266.5000    124.0905      5.4768
   266.7500    120.7550      5.3602
   267.0000    115.6565      5.8443
   267.2500    113.6663      6.5624
   267.5000    114.3474      7.2060
   267.7500    116.9018      7.6004
   268.0000    121.6698      7.8318
   268.2500    124.1350      8.1913
   268.5000    125.8380      9.0819
   268.7500    126.0184     11.0905
   269.0000    126.0642     15.2047
   269.2500    126.3007     22.2592
   269.5000    126.6235     27.4943
   269.7500    126.4462     22.0812
   270.0000    125.5679     14.0677
   270.2500    125.0114      9.3015
   270.5000    125.0932      6.8812
   270.7500    125.8942      5.6664
   271.0000    127.4761      5.0778
   271.2500    128.0273      4.8378
   271.5000    127.2848      4.8047
   271.7500    125.9654      4.8980
   272.0000    123.9756      5.0652
   272.2500    123.2740      5.2655
   272.5000    123.4448      5.4662
   272.7500    124.1251      5.6451
   273.0000    125.2556      5.7942
   273.2500    125.7480      5.9182
   273.5000    126.0638      6.0293
   273.7500    126.2292      6.1406
   274.0000    126.6220      6.2617
   274.2500    126.7156      6.3969
   274.5000    125.6502      6.5445
   274.7500    123.7086      6.6967
   275.0000    119.1586      6.8396
   275.2500    115.7308      6.9560
   275.5000    111.4699      7.0290
   275.7500    109.7722      7.0466
   276.0000    109.1702      7.0040
   276.2500    110.0243      6.9035
   276.5000    113.1842      6.7548
   276.7500    116.4003      6.5762
   277.0000    121.8573      6.3947
   277.2500    124.9101      6.2446
   277.5000    127.1857      6.1633
   277.7500    127.0464      6.1894
   278.0000    125.3003      6.3632
   278.2500    123.7359      6.7292
   278.5000    121.0376      7.3386
   278.7500    118.7464      8.2472
   279.0000    114.2802      9.5067
   279.2500    110.7961     11.1473
   279.5000    105.4840     13.1586
   279.7500    102.2657     15.4773
   280.0000     98.5940     17.9617
   280.2500     97.4498     20.2875
   280.5000     98.5907     21.7605
   280.7500    101.4098     21.4284
   281.0000    108.0119     18.9780
   281.2500    113.1327     15.3803
   281.5000    120.1565     11.9455
   281.7500    123.6441      9.3102
   282.0000    126.9270      7.5157
   282.2500    128.2871      6.4051
   282.5000    129.7011      5.8328
   282.7500    130.0809      5.7204
   283.0000    129.3036      6.0532
   283.2500    127.9436      6.8172
   283.5000    125.2975      7.7554
   283.7500    123.5066      7.9457
   284.0000    121.2088      6.5153
   284.2500    120.1332      4.3742
   284.5000    119.4013      2.7255
   284.7500    119.4425      1.7275
   285.0000    119.9252      1.1568
   285.2500    120.2023      0.8274
   285.5000    119.7862      0.6333
   285.7500    118.4359      0.5185
   286.0000    114.2626      0.4529
   286.2500    110.2608      0.4192
   286.5000    103.9145      0.4069
   286.7500    100.6947      0.4106
   287.0000     99.0836      0.4287
   287.2500    100.4569      0.4647
   287.5000    105.4542      0.5266
   287.7500    109.8461      0.6289
   288.0000    116.3404      0.7963
   288.2500    119.9143      1.0723
   288.5000    123.7526      1.5362
   288.7500    125.4150      2.3257
   289.0000    127.1144      3.6310
   289.2500    128.1557      5.4990
   289.5000    130.1310      7.2957
   289.7500    131.7187      7.9186
   290.0000    134.1042      7.4188
   290.2500    135.4763      6.6959
   290.5000    137.0014      6.2619
   290.7500    137.5656      6.2508
   291.0000    137.5122      6.7138
   291.2500    136.7247      7.7603
   291.5000    134.1401      9.6372
   291.7500    131.3311     12.8391
   292.0000    125.5530     18.3202
   292.2500    121.1346     27.9152
   292.5000    115.0511     45.1698
   292.7500    111.9035     77.0299
   293.0000    108.0801    137.0594
   293.2500    105.1995    243.4230
   293.5000     98.7932    345.0344
   293.7500     92.7212    274.8769
   294.0000     81.4936    152.8077
   294.2500     73.6347     85.4202
   294.5000     63.5908     53.2245
   294.7500     59.1427     37.0961
   295.0000     56.5539     28.5011
   295.2500     57.3107     23.7505
   295.5000     61.0789     21.1406
   295.7500     64.5803     19.8128
   296.0000     70.2645     19.2841
   296.2500     74.0648     19.2397
   296.5000     79.8362     19.4452
   296.7500     83.8418     19.7234
   297.0000     90.0624     19.9622
   297.2500     94.2308     20.1201
   297.5000    100.2545     20.2075
   297.7500    103.8370     20.2545
   298.0000    107.6022     20.2837
   298.2500    108.3821     20.3001
   298.5000    106.5249     20.2922
   298.7500    103.7275     20.2380
   299.0000     98.7921     20.1122
   299.2500     95.8720     19.8991
   299.5000     92.7172     19.6049
   299.7500     91.4776     19.2596
   300.0000     91.1370     18.9051
   300.2500     92.2362     18.5773
   300.5000     96.0592     18.2939
