~Version Information
VERS.                      2.0: CWLS Log ASCII Standard - VERSION 2.0
WRAP.                       NO: One line per depth step
~Well Information Block
STRT.FT                10.0000: 
STOP.FT               907.0000: 
STEP.FT                 0.1000: 
NULL.                -999.2500: 
COMP.          Pioneer Natural Resources: COMPANY
WELL.           Hartford 31-18: WELL
FLD.           Purgatorie River: FIELD
LOC.           375' FNL & 1660' FEL: LOCATION
PROV.                 Colorado: PROVINCE
CNTY.               Las Animas: COUNTRY
SRVC.                Patterson: SERVICE COMPANY
DATE.          Mon Nov 21 07:39:41 2005: LOG DATE
UWI.            05-071-08555              : UNIQUE WELL ID
~Curve Information Block
DEPT.FT            0 000 00 00: Depth
DCAL.in                       : CDL Caliper
RHOB.g/cc                     : CDL Bulk Density
RHOC.g/cc                     : CDL Density Correction
DPOR.pu                       : CDL Density Porosity
GR.GAPI                       : Gamma Ray
NPOR.pu                       : Neutron Porosity
~Parameter Information Block
~A  Depth       DCAL        RHOB        RHOC        DPOR         GR         NPOR    
# ...
   480.4000      7.9845      2.5497      0.1656      6.0817    158.4526     23.8547
   480.5000      7.9200      2.5270      0.1227      7.4556    156.3874     23.6923
   480.6000      7.9200      2.5229      0.1114      7.7060    156.9208     23.7072
   480.7000      7.9200      2.5484      0.1135      6.1588    161.3621     23.8459
   480.8000      7.9465      2.5870      0.2153      3.8160    165.2778     23.8486
   480.9000      7.9465      2.6097      0.1856      2.4450    165.3828     23.8555
   481.0000      7.9614      2.6091      0.1255      2.4771    162.1538     24.3653
   481.1000      7.9614      2.5887      0.1465      3.7127    157.8095     25.2055
   481.2000      7.9614      2.5426      0.1626      6.5088    154.8662     25.6785
   481.3000      7.9814      2.4856      0.1047      9.9642    154.5231     25.7709
   481.4000      7.9814      2.4619      0.0552     11.3973    155.5360     26.0038
   481.5000      7.9933      2.4867      0.0804      9.8945    156.5946     26.3262
   481.6000      7.9933      2.5272      0.0927      7.4428    156.6712     26.4859
   481.7000      7.9933      2.5537      0.0948      5.8356    153.7901     26.6389
   481.8000      7.9804      2.5657      0.1206      5.1111    148.0995     26.7333
   481.9000      7.9804      2.5675      0.1285      4.9989    142.4390     26.6941
   482.0000      8.0000      2.5598      0.1483      5.4645    139.6527     26.6699
   482.1000      8.0000      2.5499      0.1968      6.0693    142.4072     26.4972
   482.2000      8.0000      2.5364      0.2527      6.8843    151.2182     26.0447
   482.3000      8.0154      2.5104      0.1795      8.4604    161.4203     25.5679
   482.4000      8.0154      2.4823      0.1204     10.1615    165.9000     25.1920
   482.5000      8.0022      2.4808      0.1215     10.2543    162.6180     24.8504
   482.6000      8.0022      2.5205      0.1360      7.8466    157.5165     24.4726
   482.7000      8.0022      2.5831      0.2072      4.0547    157.5501     24.0683
   482.8000      7.9897      2.6354      0.2086      0.8826    161.3531     23.8186
   482.9000      7.9897      2.6638      0.2326     -0.8355    163.6871     23.9254
   483.0000      8.0172      2.6732      0.2435     -1.4033    165.2166     24.3616
   483.1000      8.0172      2.6658      0.2172     -0.9557    167.6536     24.8803
   483.2000      8.0172      2.6360      0.2086      0.8463    170.7757     25.2179
   483.3000      8.0237      2.5902      0.1308      3.6246    172.1127     25.5055
   483.4000      8.0237      2.5582      0.0593      5.5634    168.9345     26.0388
   483.5000      8.0256      2.5615      0.0665      5.3612    164.9800     26.7073
   483.6000      8.0256      2.5819      0.0735      4.1251    164.9603     27.1050
   483.7000      8.0256      2.5964      0.0027      3.2468    167.4427     27.1658
   483.8000      7.9691      2.6211     -0.0031      1.7528    167.1468     27.2147
   483.9000      7.9691      2.6724      0.1031     -1.3585    160.2336     27.5111
   484.0000      7.9428      2.7179      0.1928     -4.1124    150.1416     27.9598
   484.1000      7.9428      2.7142      0.2003     -3.8889    142.6483     28.3664
   484.2000      7.9428      2.6717      0.1015     -1.3158    136.8153     28.6295
   484.3000      7.9101      2.6409      0.0450      0.5537    131.1849     28.5937
   484.4000      7.9101      2.6407      0.0962      0.5664    130.4133     28.2514
   484.5000      7.9036      2.6500      0.0433     -0.0003    134.4782     27.8392
   484.6000      7.9036      2.6573      0.0747     -0.4441    136.2103     27.3745
   484.7000      7.9036      2.6597      0.0707     -0.5867    133.0626     26.9391
   484.8000      7.9035      2.6539      0.0225     -0.2341    127.7078     26.7213
   484.9000      7.9035      2.6507      0.0712     -0.0434    123.1752     26.5471
   485.0000      7.9615      2.6582      0.1079     -0.4980    121.0784     26.2527
   485.1000      7.9615      2.6590      0.1633     -0.5455    120.4067     25.9112
   485.2000      7.9615      2.6304      0.1107      1.1865    119.5817     25.5169
   485.3000      7.9587      2.5872      0.0286      3.8053    119.7826     25.0996
   485.4000      7.9587      2.5654      0.0453      5.1258    123.7167     24.7889
   485.5000      7.9155      2.5733      0.0390      4.6458    130.7009     24.6523
   485.6000      7.9155      2.5899      0.1026      3.6432    137.8176     24.6012
   485.7000      7.9155      2.5982      0.0527      3.1387    143.4904     24.3886
   485.8000      7.9030      2.6052      0.1047      2.7146    145.4116     24.0802
   485.9000      7.9030      2.6170      0.1293      1.9998    143.5859     24.0340
   486.0000      7.9206      2.6238      0.1360      1.5870    143.9821     24.2798
   486.1000      7.9206      2.6174      0.1376      1.9779    150.1226     24.5919
   486.2000      7.9206      2.6045      0.1112      2.7559    156.7192     24.9526
   486.3000      7.9376      2.5992      0.0711      3.0772    158.8587     25.4302
   486.4000      7.9376      2.6058      0.0685      2.6760    158.3006     26.1332
   486.5000      7.9646      2.6167      0.0798      2.0198    157.7180     27.0217
   486.6000      7.9646      2.6216      0.0522      1.7242    156.8411     27.6215
   486.7000      7.9646      2.6160      0.0551      2.0625    153.3968     27.6449
   486.8000      8.0094      2.6047     -0.0031      2.7440    148.3399     27.4728
   486.9000      8.0094      2.5936      0.0208      3.4198    145.3219     27.4453
   487.0000      8.0346      2.5797     -0.0040      4.2588    145.1160     27.3830
   487.1000      8.0346      2.5626     -0.0102      5.2968    147.0363     27.1025
   487.2000      8.0346      2.5454      0.0124      6.3396    149.1800     26.7522
   487.3000      8.0539      2.5314     -0.0468      7.1886    148.6330     26.5315
   487.4000      8.0539      2.5296     -0.0182      7.2971    147.3396     26.4939
   487.5000      8.0432      2.5421      0.0042      6.5424    149.2584     26.4885
   487.6000      8.0432      2.5531      0.0157      5.8744    152.5065     26.3248
   487.7000      8.0432      2.5441      0.0568      6.4170    153.7224     25.9555
   487.8000      8.0325      2.5157     -0.0019      8.1389    152.7592     25.2760
   487.9000      8.0325      2.4825     -0.0072     10.1540    152.4015     24.2621
   488.0000      8.0354      2.4416      0.0140     12.6310    156.0930     23.3021
   488.1000      8.0354      2.3801     -0.0387     16.3583    162.0818     22.6464
   488.2000      8.0354      2.3046     -0.0572     20.9360    165.9427     22.0766
   488.3000      8.0563      2.2348     -0.1119     25.1607    166.9741     21.4061
   488.4000      8.0563      2.1773     -0.0242     28.6464    166.7057     20.6227
   488.5000      8.0581      2.1158     -0.0296     32.3736    166.5441     19.8814
   488.6000      8.0581      2.0453     -0.0847     36.6459    165.7972     19.3858
   488.7000      8.0581      1.9856     -0.0771     40.2674    162.5834     19.0424
   488.8000      8.0763      1.9529     -0.0657     42.2502    159.6597     18.6221
   488.9000      8.0763      1.9451     -0.0199     42.7208    158.4878     18.1732
   489.0000      8.0613      1.9600     -0.0496     41.8156    154.1657     18.0831
   489.1000      8.0613      2.0068     -0.0075     38.9799    145.2546     18.6635
   489.2000      8.0613      2.0803      0.0917     34.5261    136.8484     19.6823
   489.3000      8.0682      2.1579      0.1029     29.8272    132.4822     20.6941
   489.4000      8.0682      2.2310      0.0846     25.3937    131.9020     21.7261
   489.5000      8.0945      2.3045      0.0818     20.9385    133.6885     23.0482
   489.6000      8.0945      2.3762      0.0973     16.5932    135.3540     24.5455
   489.7000      8.0945      2.4371      0.1050     12.9003    135.1225     25.8123
   489.8000      8.0679      2.4780      0.0747     10.4242    133.2124     26.7287
   489.9000      8.0679      2.4980      0.0231      9.2108    130.2252     27.4363
