~Version Information
VERS.                      2.0: CWLS Log ASCII Standard - VERSION 2.0
WRAP.                       NO: One line per depth step
~Well Information Block
STRT.FT                 0.0000: 
STOP.FT               878.7500: 
STEP.FT                 0.2500: 
NULL.                -999.2500: 
COMP.          Pioneer Natural Resources: COMPANY
WELL.          Screamin 12-29 Tr: WELL
FLD.           Purgatoire River: FIELD
LOC.           1979' FNL & 532' FWL--: LOCATION
CNTY.               Las Animas: COUNTY
SRVC.                Patterson: SERVICE COMPANY
DATE.          Thu Apr 13 22:21:38 2006: LOG DATE
UWI.           05 071 08660 00: UNIQUE WELL ID
STAT.                 Colorado: STATE
~Curve Information Block
DEPT.FT            0 000 00 00: Depth
GR.GAPI                       : Gamma Ray
CCL.                          : Casing Collar Locator
TT3.usec                      : CBL 3' Travel Time
AMP3.mV                       : CBL 3' Amplitude
~Parameter Information Block
~A  Depth        GR         CCL         TT3         AMP3    
# ...
   770.5000    145.4207      0.0000    484.2653      4.9769
   770.7500    145.8433      0.0000    491.2897      4.9658
   771.0000    147.1095      0.0000    509.8739      4.9285
   771.2500    147.9532      0.0000    522.7581      4.8986
   771.5000    147.1196      0.0000    535.8727      4.8668
   771.7500    144.1763      0.0000    539.3849      4.8608
   772.0000    136.4074      0.0000    541.6768      4.8731
   772.2500    130.0985      0.0000    546.0198      4.8926
   772.5000    121.0804      0.0000    561.8345      4.9360
   772.7500    116.0485      0.0000    577.5324      4.9718
   773.0000    109.7098      0.0000    601.8845      5.0257
   773.2500    105.6909      0.0000    614.6049      5.0539
   773.5000     99.5782      0.0000    625.8372      5.0767
   773.7500     95.8562      0.0000    629.0911      5.0795
   774.0000     91.5945      0.0000    630.7552      5.0693
   774.2500     89.5804      0.0000    631.1060      5.0518
   774.5000     87.3170      0.0000    631.5374      5.0043
   774.7500     86.5276      0.0000    631.8427      4.9600
   775.0000     87.5984      0.0000    632.1411      4.8899
   775.2500     90.0004      0.0000    632.2267      4.8494
   775.5000     94.4816      0.0000    632.5885      4.7996
   775.7500     96.6301      0.0000    633.4489      4.7685
   776.0000     97.3321      0.0000    636.4982      4.7178
   776.2500     96.2030      0.0000    639.8495      4.6818
   776.5000     92.6889      0.0000    645.8151      4.6303
   776.7500     89.4604      0.0000    649.0422      4.6012
   777.0000     83.8684      0.0000    650.3205      4.5683
   777.2500     79.9640      0.0000    648.3106      4.5530
   777.5000     74.5774      0.0000    642.4708      4.5390
   777.7500     72.0360      0.0000    638.2638      4.5350
   778.0000     71.1878      0.0000    633.5203      4.5319
   778.2500     72.8088      0.0000    631.7200      4.5262
   778.5000     77.1776      0.0000    630.5607      4.5048
   778.7500     80.1058      0.0000    630.3849      4.4839
   779.0000     83.3330      0.0000    630.5027      4.4550
   779.2500     85.0712      0.0000    630.6719      4.4443
   779.5000     88.4276      0.0000    630.9263      4.4415
   779.7500     91.3661      0.0000    631.0710      4.4414
   780.0000     95.5227      0.0000    631.2602      4.4331
   780.2500     97.0999      0.0000    631.3848      4.4236
   780.5000     96.9925      0.0000    631.6249      4.4164
   780.7500     95.5837      0.0000    631.8853      4.4220
   781.0000     92.4451      0.0000    632.6738      4.4430
   781.2500     90.2112      0.0000    633.7679      4.4598
   781.5000     87.2863      0.0000    637.1708      4.4805
   781.7500     85.6881      0.0000    641.1766      4.4876
   782.0000     83.5422      0.0000    649.5409      4.4865
   782.2500     82.2593      0.0000    655.1365      4.4820
   782.5000     81.2480      0.0000    659.3981      4.4826
   782.7500     81.7091      0.0000    658.0028      4.4918
   783.0000     84.0791      0.0000    650.9935      4.5122
   783.2500     85.9891      0.0000    645.4037      4.5242
   783.5000     87.5997      0.0000    638.9093      4.5368
   783.7500     87.2604      0.0000    636.3845      4.5426
   784.0000     84.8243      0.0000    634.6498      4.5472
   784.2500     82.5216      0.0000    634.3220      4.5468
   784.5000     79.3921      0.0000    634.6603      4.5442
   784.7500     78.1498      0.0000    635.5734      4.5435
   785.0000     77.6620      0.0000    638.5595      4.5420
   785.2500     77.6634      0.0000    641.8063      4.5377
   785.5000     76.8503      0.0000    647.7111      4.5291
   785.7500     75.4808      0.0000    651.0527      4.5294
   786.0000     73.0168      0.0000    652.8019      4.5500
   786.2500     72.0469      0.0000    651.3530      4.5769
   786.5000     72.7370      0.0000    647.0511      4.6281
   786.7500     74.4321      0.0000    644.7805      4.6645
   787.0000     77.1103      0.0000    645.4627      4.7142
   787.2500     77.8922      0.0000    649.6497      4.7354
   787.5000     77.0457      0.0000    661.7068      4.7340
   787.7500     75.8896      0.0000    672.8987      4.7097
   788.0000     75.3338      0.0000    691.1450      4.6529
   788.2500     76.5083      0.0000    700.8852      4.6137
   788.5000     80.2848      0.0000    706.1974      4.5663
   788.7500     83.2038      0.0000    703.1154      4.5468
   789.0000     86.0368      0.0000    694.4686      4.5387
   789.2500     85.8767      0.0000    690.8029      4.5462
   789.5000     82.5210      0.0000    693.0631      4.5678
   789.7500     79.5952      0.0000    699.6922      4.5825
   790.0000     77.8992      0.0000    714.7945      4.5965
   790.2500     80.1529      0.0000    726.4063      4.5975
   790.5000     88.7816      0.0000    742.9870      4.5838
   790.7500     97.0570      0.0000    752.0643      4.5644
   791.0000    111.1976      0.0000    760.2712      4.5257
   791.2500    120.4907      0.0000    759.7096      4.5004
   791.5000    131.8117      0.0000    745.1998      4.4764
   791.7500    136.6278      0.0000    726.6843      4.4742
   792.0000    139.6725      0.0000    695.4503      4.4909
   792.2500    139.4380      0.0000    681.3678      4.5101
   792.5000    136.4816      0.0000    682.3483      4.5372
   792.7500    133.0352      0.0000    699.1849      4.5478
   793.0000    125.6098      0.0000    741.2857      4.5565
   793.2500    118.8596      0.0000    772.7918      4.5665
   793.5000    106.1635      0.0000    812.0289      4.5981
   793.7500     97.0704      0.0000    827.9066      4.6252
   794.0000     85.3935      0.0000    833.8943      4.6503
   794.2500     80.2458      0.0000    827.2302      4.6410
   794.5000     77.3125      0.0000    805.3169      4.5742
   794.7500     78.4894      0.0000    785.3195      4.4991
   795.0000     84.5049      0.0000    752.1079      4.3672
   795.2500     90.8811      0.0000    731.7386      4.2840
   795.5000    102.8377      0.0000    712.1406      4.1864
   795.7500    111.6333      0.0000    710.2859      4.1457
   796.0000    124.3832      0.0000    725.1755      4.1263
   796.2500    131.2622      1.5442    743.3469      4.1378
   796.5000    137.3324     -2.0000    773.1286      4.1713
   796.7500    138.6761     -2.0000    789.2119      4.1896
   797.0000    138.8773      0.0000    800.5699      4.1981
   797.2500    139.0995      0.0000    796.4576      4.1980
   797.5000    139.8690      0.0000    770.8358      4.2228
   797.7500    139.8314      0.0000    743.8492      4.2759
   798.0000    137.6073      0.0000    700.1876      4.4192
   798.2500    134.7984      0.0000    675.5948      4.5420
   798.5000    130.0627      0.0000    650.2489      4.7271
   798.7500    127.3412      0.0000    640.1898      4.8341
   799.0000    124.2621      0.0000    632.0041      4.9612
   799.2500    122.5547      0.0000    629.7614      5.0249
   799.5000    119.2092      0.0000    630.3479      5.0938
   799.7500    115.6920      0.0000    633.3224      5.1266
   800.0000    109.2351      0.0000    641.3846      5.1674
   800.2500    106.2921      0.0000    648.4521      5.1940
   800.5000    107.7883      0.0000    659.3527      5.2323
   800.7500    112.9908      0.0000    665.0765      5.2520
   801.0000    123.7095      0.0000    668.1699      5.2674
   801.2500    130.2864      0.0000    665.4636      5.2684
   801.5000    136.8083      0.0000    655.8746      5.2578
   801.7500    138.7959      0.0000    648.9537      5.2426
   802.0000    139.4526      0.0000    643.8649      5.2103
   802.2500    139.1700      0.0000    645.6502      5.1888
   802.5000    138.0773      0.0000    653.7606      5.1723
   802.7500    136.7214      0.0000    659.3583      5.1760
   803.0000    134.3541      0.0000    662.6772      5.1924
   803.2500    133.7000      0.0000    660.4445      5.1987
   803.5000    135.6173      0.0000    652.2793      5.1910
   803.7500    138.5078      0.0000    645.6931      5.1803
