~Version Information
VERS.                      2.0: CWLS Log ASCII Standard - VERSION 2.0
WRAP.                       NO: One line per depth step
~Well Information Block
STRT.FT               -10.7500: 
STOP.FT              1466.2500: 
STEP.FT                 0.2500: 
NULL.                -999.2500: 
COMP.          Pioneer Natural Resources: COMPANY
WELL.             Andrew 23-15: WELL
FLD.           Purgatorie River: FIELD
LOC.           2137' FSL & 2292' FWL--: LOCATION
PROV.                       CO: PROVINCE
CNTY.               Las Animas: COUNTRY
SRVC.          Patterson Wireline: SERVICE COMPANY
DATE.          Thu Aug 18 11:51:45 2005: LOG DATE
UWI.           05 071 08460 00: UNIQUE WELL ID
~Curve Information Block
DEPT.FT            0 000 00 00: Depth
CCL.                          : Casing Collar Locator
TT3.usec                      : CBL 3' Travel Time
AMP3.mV                       : CBL 3' Amplitude
GR.GAPI                       : Gamma Ray
~Parameter Information Block
~A  Depth       CCL         TT3         AMP3         GR     
# ...
  1228.7500      0.0000    683.0382      6.3050     69.6809
  1229.0000      0.0000    680.7465      6.3931     67.1343
  1229.2500      0.0000    682.0842      6.4784     64.6509
  1229.5000      0.0000    686.4761      6.5698     63.7629
  1229.7500      0.0000    691.3373      6.6637     64.5774
  1230.0000      0.0000    693.6022      6.7464     65.9231
  1230.2500      0.0000    691.7693      6.8074     66.8804
  1230.5000      0.0000    686.7781      6.8459     67.7425
  1230.7500      0.0000    680.9616      6.8639     69.4297
  1231.0000      0.0000    676.2172      6.8575     72.5010
  1231.2500      0.0000    673.1156      6.8195     76.9264
  1231.5000      0.0000    671.3177      6.7516     82.3226
  1231.7500      0.0000    670.3522      6.6739     87.9501
  1232.0000      0.0000    669.9681      6.6181     92.4820
  1232.2500      0.0000    670.1011      6.6084     94.1333
  1232.5000      0.0000    670.7832      6.6469     91.6591
  1232.7500      0.0000    672.1123      6.7155     85.5077
  1233.0000      0.0000    674.1361      6.7896     77.5667
  1233.2500      0.0000    676.4592      6.8479     69.5731
  1233.5000      0.0000    677.8166      6.8745     62.2802
  1233.7500      0.0000    676.2780      6.8597     56.1537
  1234.0000      0.0000    670.4790      6.8020     51.9776
  1234.2500      0.0000    661.2041      6.7105     50.3053
  1234.5000      0.0000    651.8217      6.6033     50.7262
  1234.7500      0.0000    646.5079      6.5009     52.0563
  1235.0000      0.0000    647.2700      6.4177     53.1295
  1235.2500      0.0000    652.7820      6.3554     53.3226
  1235.5000      0.0000    660.3697      6.3036     52.5327
  1235.7500      0.0000    668.4499      6.2453     50.8891
  1236.0000      0.0000    676.5620      6.1673     48.6651
  1236.2500      0.0000    683.9166      6.0677     46.4318
  1236.5000      0.0000    689.0869      5.9555     44.8820
  1236.7500      0.0000    691.2658      5.8422     44.1848
  1237.0000      0.0000    691.2816      5.7354     43.7363
  1237.2500      0.0000    691.0001      5.6373     42.7884
  1237.5000      0.0000    691.7430      5.5492     41.1975
  1237.7500      0.0000    693.4147      5.4721     39.3717
  1238.0000      0.0000    695.1107      5.4044     37.6535
  1238.2500      0.0000    696.1895      5.3416     36.0995
  1238.5000      0.0000    696.6312      5.2801     34.8525
  1238.7500      0.0000    696.7119      5.2212     34.2980
  1239.0000      0.0000    696.6557      5.1705     34.5634
  1239.2500      0.0000    696.5508      5.1325     35.1057
  1239.5000      0.0000    696.4071      5.1067     35.2254
  1239.7500      0.0000    696.2191      5.0906     34.9386
  1240.0000      0.0000    696.0031      5.0839     34.8793
  1240.2500      0.0000    695.7954      5.0900     35.2416
  1240.5000      0.0000    695.6281      5.1097     35.2811
  1240.7500      0.0000    695.4766      5.1367     34.1556
  1241.0000      0.0000    695.1724      5.1598     32.0105
  1241.2500      0.0000    694.2888      5.1711     29.9860
  1241.5000      0.0000    692.1321      5.1709     29.2974
  1241.7500      0.0000    688.0610      5.1668     30.4601
  1242.0000      0.0000    682.1030      5.1657     33.1583
  1242.2500      0.0000    675.3005      5.1701     36.5135
  1242.5000      0.0000    669.2183      5.1806     39.5148
  1242.7500      0.0000    664.9557      5.2018     41.5075
  1243.0000      0.0000    662.6330      5.2402     42.5820
  1243.2500      0.0000    661.6969      5.2990     43.5933
  1243.5000      0.0000    661.5002      5.3765     45.5542
  1243.7500      0.0000    661.6191      5.4678     48.6240
  1244.0000      0.0000    661.9079      5.5676     51.7087
  1244.2500      0.0000    662.5341      5.6701     53.3956
  1244.5000      0.0000    664.1188      5.7698     53.3326
  1244.7500      0.0000    667.8581      5.8622     52.5386
  1245.0000      0.0000    675.2249      5.9459     52.5980
  1245.2500      0.0000    686.9479      6.0232     54.7125
  1245.5000      0.0000    701.8611      6.0952     59.0299
  1245.7500      0.0000    716.9695      6.1574     64.3129
  1246.0000      0.0000    729.1362      6.2034     68.3374
  1246.2500      0.0000    736.8671      6.2324     69.2452
  1246.5000      0.0000    740.5034      6.2520     66.9745
  1246.7500      0.0000    740.9976      6.2727     63.4049
  1247.0000      0.0000    738.7485      6.2996     61.0254
  1247.2500      0.0000    733.4954      6.3306     61.3080
  1247.5000      0.0000    724.9572      6.3643     64.0249
  1247.7500      0.0000    713.2599      6.4087     67.8004
  1248.0000      0.0000    698.6418      6.4771     71.2823
  1248.2500      0.0000    681.3824      6.5730     73.9168
  1248.5000      0.0000    663.0423      6.6822     75.8079
  1248.7500      0.0000    647.7505      6.7822     77.0256
  1249.0000      0.0000    640.6044      6.8568     77.1955
  1249.2500      0.0000    643.2537      6.9007     75.9420
  1249.5000      0.0000    651.3788      6.9152     73.8715
  1249.7500      0.0000    657.3240      6.9060     72.7689
  1250.0000      0.0000    655.0844      6.8829     74.2505
  1250.2500      0.0000    643.2814      6.8589     78.1613
  1250.5000      0.0000    625.5967      6.8442     82.6354
  1250.7500      0.0000    609.6051      6.8399     85.8476
  1251.0000      0.0000    603.4136      6.8355     87.2996
  1251.2500      0.0000    610.9101      6.8168     87.2726
  1251.5000      0.0000    629.6412      6.7762     85.7286
  1251.7500      0.0000    653.6287      6.7176     82.4852
  1252.0000      0.0000    677.7388      6.6524     78.2253
  1252.2500      0.0000    699.1895      6.5905     74.5334
  1252.5000      0.0000    716.4005      6.5327     72.5307
  1252.7500      0.0000    728.2274      6.4703     71.7010
  1253.0000      0.0000    734.3422      6.3913     70.2716
  1253.2500      0.0000    735.3968      6.2889     66.7477
  1253.5000      0.0000    732.6449      6.1674     61.1739
  1253.7500      0.0000    727.7191      6.0414     55.1448
  1254.0000      0.0000    722.4457      5.9288     50.6676
  1254.2500      0.0000    718.0930      5.8421     48.9191
  1254.5000      0.0000    714.7057      5.7841     49.8260
  1254.7500      0.0000    711.6029      5.7515     52.5001
  1255.0000      0.0000    708.4435      5.7413     55.8902
  1255.2500      0.0000    705.4080      5.7497     59.2158
  1255.5000      0.0000    702.4775      5.7660     62.1409
  1255.7500      0.0000    698.9876      5.7740     64.6614
  1256.0000      0.0000    694.0634      5.7630     66.6347
  1256.2500      0.0000    687.5165      5.7369     67.4940
  1256.5000      0.0000    680.3369      5.7113     66.7692
  1256.7500      0.0000    674.2028      5.6996     64.8062
  1257.0000      0.0000    670.4384      5.7021     62.5186
  1257.2500      0.0000    669.3947      5.7065     60.4729
  1257.5000      0.0000    670.5482      5.6995     58.5688
  1257.7500      0.0000    672.9282      5.6779     56.5889
  1258.0000      0.0000    675.6921      5.6482     54.7095
  1258.2500      0.0000    678.5984      5.6182     53.3455
  1258.5000      0.0000    681.7020      5.5890     52.7504
  1258.7500      0.0000    684.4592      5.5558     52.8969
  1259.0000      0.0000    685.7419      5.5130     53.4613
  1259.2500      0.0000    685.2173      5.4597     53.7726
  1259.5000      0.0000    684.2368      5.4037     53.1538
  1259.7500      0.0000    684.6892      5.3585     51.5628
  1260.0000      0.0000    687.0282      5.3358     49.5816
  1260.2500      0.0000    689.7734      5.3386     47.6194
  1260.5000      0.0000    690.7933      5.3608     45.6069
  1260.7500      0.0000    688.8401      5.3910     43.7066
  1261.0000      0.0000    684.3149      5.4180     42.7162
  1261.2500      0.0000    679.2283      5.4325     43.2679
  1261.5000      0.0000    676.4186      5.4229     44.9653
  1261.7500      0.0000    678.0494      5.3717     46.7862
  1262.0000      0.0000    684.0002      5.2621     48.1908
