~Version Information
VERS.                      2.0: CWLS Log ASCII Standard - VERSION 2.0
WRAP.                       NO: One line per depth step
~Well Information Block
STRT.FT               645.0000: 
STOP.FT              2133.5000: 
STEP.FT                 0.2500: 
NULL.                -999.2500: 
COMP.          Pioneer Natural Resources: COMPANY
WELL.          Gunslinger 13-24: WELL
FLD.           Purgatoire River: FIELD
LOC.           1968' FSL & 633' FWL: LOCATION
PROV.                 Colorado: PROVINCE
CNTY.               Las Animas: COUNTRY
SRVC.                Patterson: SERVICE COMPANY
DATE.          Fri Jul 29 15:04:35 2005: LOG DATE
UWI.           05 071 08442 00: UNIQUE WELL ID
~Curve Information Block
DEPT.FT            0 000 00 00: Depth
SN.Ohm-m                      : IEL Short Normal
SP.mV                         : IEL Spontaneous Potential
DIR.Ohm-m                     : IEL Induction Resistivity
GR.GAPI                       : Gamma Ray
~Parameter Information Block
~A  Depth        SN          SP         DIR          GR     
# ...
  1013.5000   2000.0000   2000.0000     21.6492    107.9149
  1013.7500   2000.0000   2000.0000     21.5256    104.3252
  1014.0000   2000.0000   2000.0000     21.4125     99.7230
  1014.2500   2000.0000   2000.0000     21.2876     97.1195
  1014.5000   2000.0000   2000.0000     21.1393     93.6629
  1014.7500   2000.0000   2000.0000     20.9689     91.6796
  1015.0000   2000.0000   2000.0000     20.7848     89.3750
  1015.2500   2000.0000   2000.0000     20.5981     88.1876
  1015.5000   2000.0000   2000.0000     20.4204     86.2236
  1015.7500   2000.0000   2000.0000     20.2649     84.3736
  1016.0000   2000.0000   2000.0000     20.1448     80.7923
  1016.2500   2000.0000   2000.0000     20.0699     78.2980
  1016.5000   2000.0000   2000.0000     20.0387     75.1410
  1016.7500   2000.0000   2000.0000     20.0338     73.5180
  1017.0000   2000.0000   2000.0000     20.0208     71.3001
  1017.2500   2000.0000   2000.0000     19.9615     69.5321
  1017.5000   2000.0000   2000.0000     19.8357     66.1847
  1017.7500   2000.0000   2000.0000     19.6549     63.8407
  1018.0000   2000.0000   2000.0000     19.4566     61.2267
  1018.2500   2000.0000   2000.0000     19.2810     60.5124
  1018.5000   2000.0000   2000.0000     19.1515     60.8837
  1018.7500   2000.0000   2000.0000     19.0706     61.6526
  1019.0000   2000.0000   2000.0000     19.0254     62.7894
  1019.2500   2000.0000   2000.0000     18.9944     63.3760
  1019.5000   2000.0000   2000.0000     18.9517     64.2710
  1019.7500   2000.0000   2000.0000     18.8736     64.9820
  1020.0000   2000.0000   2000.0000     18.7485     65.7523
  1020.2500   2000.0000   2000.0000     18.5855     65.6313
  1020.5000   2000.0000   2000.0000     18.4103     64.3445
  1020.7500   2000.0000   2000.0000     18.2536     63.1119
  1021.0000   2000.0000   2000.0000     18.1384     61.4964
  1021.2500   2000.0000   2000.0000     18.0739     60.8649
  1021.5000   2000.0000   2000.0000     18.0538     60.7723
  1021.7500   2000.0000   2000.0000     18.0587     61.2877
  1022.0000   2000.0000   2000.0000     18.0626     62.8431
  1022.2500   2000.0000   2000.0000     18.0472     64.3091
  1022.5000   2000.0000   2000.0000     18.0115     66.8070
  1022.7500   2000.0000   2000.0000     17.9710     68.2542
  1023.0000   2000.0000   2000.0000     17.9455     69.1913
  1023.2500   2000.0000   2000.0000     17.9464     68.7142
  1023.5000   2000.0000   2000.0000     17.9712     66.8582
  1023.7500   2000.0000   2000.0000     18.0068     65.5789
  1024.0000   2000.0000   2000.0000     18.0384     64.5378
  1024.2500   2000.0000   2000.0000     18.0572     64.4357
  1024.5000   2000.0000   2000.0000     18.0665     64.6177
  1024.7500   2000.0000   2000.0000     18.0800     64.7414
  1025.0000   2000.0000   2000.0000     18.1140     64.9329
  1025.2500   2000.0000   2000.0000     18.1751     65.0695
  1025.5000   2000.0000   2000.0000     18.2529     64.9956
  1025.7500   2000.0000   2000.0000     18.3247     64.5382
  1026.0000   2000.0000   2000.0000     18.3692     63.3406
  1026.2500   2000.0000   2000.0000     18.3779     62.6349
  1026.5000   2000.0000   2000.0000     18.3579     62.3640
  1026.7500   2000.0000   2000.0000     18.3268     62.5558
  1027.0000   2000.0000   2000.0000     18.3083     62.5333
  1027.2500   2000.0000   2000.0000     18.3279     62.0506
  1027.5000   2000.0000   2000.0000     18.4066     60.9725
  1027.7500   2000.0000   2000.0000     18.5514     60.3859
  1028.0000   2000.0000   2000.0000     18.7482     60.1755
  1028.2500   2000.0000   2000.0000     18.9631     60.6605
  1028.5000   2000.0000   2000.0000     19.1532     62.3565
  1028.7500   2000.0000   2000.0000     19.2835     63.8340
  1029.0000   2000.0000   2000.0000     19.3405     65.5852
  1029.2500   2000.0000   2000.0000     19.3361     65.9521
  1029.5000   2000.0000   2000.0000     19.3004     65.4581
  1029.7500   2000.0000   2000.0000     19.2671     65.1922
  1030.0000   2000.0000   2000.0000     19.2577     66.3551
  1030.2500   2000.0000   2000.0000     19.2720     68.3509
  1030.5000   2000.0000   2000.0000     19.2893     71.9074
  1030.7500   2000.0000   2000.0000     19.2814     73.5841
  1031.0000   2000.0000   2000.0000     19.2284     74.0809
  1031.2500   2000.0000   2000.0000     19.1253     73.2343
  1031.5000   2000.0000   2000.0000     18.9802     71.1528
  1031.7500   2000.0000   2000.0000     18.8079     69.7203
  1032.0000   2000.0000   2000.0000     18.6255     67.8497
  1032.2500   2000.0000   2000.0000     18.4453     66.7393
  1032.5000   2000.0000   2000.0000     18.2701     65.1139
  1032.7500   2000.0000   2000.0000     18.0921     64.0529
  1033.0000   2000.0000   2000.0000     17.8994     62.6388
  1033.2500   2000.0000   2000.0000     17.6832     61.8707
  1033.5000   2000.0000   2000.0000     17.4435     60.8724
  1033.7500   2000.0000   2000.0000     17.1901     60.1970
  1034.0000   2000.0000   2000.0000     16.9451     59.1635
  1034.2500   2000.0000   2000.0000     16.7453     58.6085
  1034.5000   2000.0000   2000.0000     16.6394     58.2636
  1034.7500   2000.0000   2000.0000     16.6736     58.4521
  1035.0000   2000.0000   2000.0000     16.8698     59.3634
  1035.2500   2000.0000   2000.0000     17.2120     60.2412
  1035.5000   2000.0000   2000.0000     17.6535     61.3610
  1035.7500   2000.0000   2000.0000     18.1398     61.5714
  1036.0000   2000.0000   2000.0000     18.6277     60.7747
  1036.2500   2000.0000   2000.0000     19.0824     59.6753
  1036.5000   2000.0000   2000.0000     19.4611     57.9301
  1036.7500   2000.0000   2000.0000     19.7052     57.1850
  1037.0000   2000.0000   2000.0000     19.7507     57.1649
  1037.2500   2000.0000   2000.0000     19.5441     57.8214
  1037.5000   2000.0000   2000.0000     19.0534     59.1882
  1037.7500   2000.0000   2000.0000     18.2731     59.9069
  1038.0000   2000.0000   2000.0000     17.2263     60.3454
  1038.2500   2000.0000   2000.0000     15.9624     60.3484
  1038.5000   2000.0000   2000.0000     14.5490     60.3042
  1038.7500   2000.0000   2000.0000     13.0622     60.3063
  1039.0000   2000.0000   2000.0000     11.5761     60.2874
  1039.2500   2000.0000   2000.0000     10.1537     60.3031
  1039.5000   2000.0000   2000.0000      8.8411     60.6011
  1039.7500   2000.0000   2000.0000      7.6643     61.0812
  1040.0000   2000.0000   2000.0000      6.6299     62.3544
  1040.2500   2000.0000   2000.0000      5.7291     63.7139
  1040.5000   2000.0000   2000.0000      4.9444     66.4948
  1040.7500   2000.0000   2000.0000      4.2576     68.3263
  1041.0000   2000.0000   2000.0000      3.6545     69.6201
  1041.2500   2000.0000   2000.0000      3.1269     69.1241
  1041.5000   2000.0000   2000.0000      2.6703     67.1678
  1041.7500   2000.0000   2000.0000      2.2816     65.9812
  1042.0000   2000.0000   2000.0000      1.9564     65.4928
  1042.2500   2000.0000   2000.0000      1.6885     66.2119
  1042.5000   2000.0000   2000.0000      1.4703     68.8071
  1042.7500   2000.0000   2000.0000      1.2941     71.5174
  1043.0000   2000.0000   2000.0000      1.1524     77.1106
  1043.2500   2000.0000   2000.0000      1.0390     81.9313
  1043.5000   2000.0000   2000.0000      0.9490     90.7244
  1043.7500   2000.0000   2000.0000      0.8791     97.2363
  1044.0000   2000.0000   2000.0000      0.8273    106.5526
  1044.2500   2000.0000   2000.0000      0.7920    111.3216
  1044.5000   2000.0000   2000.0000      0.7714    114.4500
  1044.7500   2000.0000   2000.0000      0.7636    113.3905
  1045.0000   2000.0000   2000.0000      0.7677    108.2584
  1045.2500   2000.0000   2000.0000      0.7843    104.1074
  1045.5000   2000.0000   2000.0000      0.8168     99.5473
  1045.7500   2000.0000   2000.0000      0.8717     98.3343
  1046.0000   2000.0000   2000.0000      0.9588     98.6377
  1046.2500   2000.0000   2000.0000      1.0926     99.3314
  1046.5000   2000.0000   2000.0000      1.2969     99.7630
  1046.7500   2000.0000   2000.0000      1.6173     99.2981
