~Version Information
VERS.                      2.0: CWLS Log ASCII Standard - VERSION 2.0
WRAP.                       NO: One line per depth step
~Well Information Block
STRT.FT               570.0000: 
STOP.FT              1954.5000: 
STEP.FT                 0.1000: 
NULL.                -999.2500: 
COMP.          Petrogulf Corporation: COMPANY
WELL.            Montoya 7-14R: WELL
FLD.           Purgatorie River: FIELD
LOC.           628' FSL & 454' FWL: LOCATION
PROV.                 Colorado: PROVINCE
CNTY.               Las Animas: COUNTRY
SRVC.                Patterson: SERVICE COMPANY
DATE.          Mon Oct 10 07:31:15 2005: LOG DATE
UWI.                          : UNIQUE WELL ID
~Curve Information Block
DEPT.FT            0 000 00 00: Depth
DCAL.in                       : CDL Caliper
RHOB.g/cc                     : CDL Bulk Density
RHOC.g/cc                     : CDL Density Correction
DPOR.pu                       : CDL Density Porosity
GR.GAPI                       : Gamma Ray
NPOR.pu                       : Neutron Porosity
~Parameter Information Block
~A  Depth       DCAL        RHOB        RHOC        DPOR         GR         NPOR    
# ...
  1482.0000      7.9095      2.4829      0.0019     10.1245    138.9480     22.9989
  1482.1000      7.9095      2.4888      0.0686      9.7688    142.3033     23.1232
  1482.2000      7.9095      2.4979      0.0619      9.2203    144.7411     23.7407
  1482.3000      7.9152      2.5052      0.0810      8.7788    147.2733     24.7026
  1482.4000      7.9152      2.5116      0.0949      8.3891    152.1040     25.7651
  1482.5000      7.9188      2.5198      0.0980      7.8915    158.1191     26.4983
  1482.6000      7.9188      2.5334      0.1193      7.0666    158.2278     26.7176
  1482.7000      7.9188      2.5511      0.1192      5.9954    152.7729     26.7603
  1482.8000      7.9267      2.5663      0.1061      5.0715    150.6021     26.7932
  1482.9000      7.9267      2.5689      0.1374      4.9134    153.4924     26.8333
  1483.0000      7.9308      2.5604      0.0443      5.4294    157.4617     26.9034
  1483.1000      7.9308      2.5520      0.0977      5.9423    158.7867     26.9579
  1483.2000      7.9308      2.5399      0.0760      6.6751    157.0271     26.9416
  1483.3000      7.9328      2.5194      0.0746      7.9156    155.8211     26.8200
  1483.4000      7.9328      2.5033      0.0205      8.8907    156.8148     26.7304
  1483.5000      7.9445      2.5024      0.0422      8.9472    159.0259     26.7536
  1483.6000      7.9445      2.5083      0.0495      8.5874    163.4576     26.8218
  1483.7000      7.9445      2.5175      0.0337      8.0310    170.1414     27.0891
  1483.8000      7.9475      2.5280      0.0498      7.3916    174.6032     27.6166
  1483.9000      7.9475      2.5281      0.0662      7.3858    173.2028     28.1078
  1484.0000      7.9427      2.5217      0.0408      7.7756    168.9308     28.3655
  1484.1000      7.9427      2.5202      0.0849      7.8647    166.7981     28.4191
  1484.2000      7.9427      2.5208      0.0984      7.8277    165.4858     28.4019
  1484.3000      7.9370      2.5232      0.0940      7.6873    160.2238     28.2707
  1484.4000      7.9370      2.5354      0.0879      6.9436    155.7443     27.9689
  1484.5000      7.9512      2.5539      0.1303      5.8251    158.2212     27.8371
  1484.6000      7.9512      2.5572      0.1486      5.6238    163.2260     28.0586
  1484.7000      7.9512      2.5297      0.1758      7.2918    166.4180     28.3397
  1484.8000      7.9501      2.4860      0.0937      9.9392    168.7601     28.4676
  1484.9000      7.9501      2.4565      0.1062     11.7281    169.5446     28.5287
  1485.0000      7.9436      2.4475      0.1095     12.2739    167.9812     28.6059
  1485.1000      7.9436      2.4456      0.1025     12.3879    166.1098     28.7659
  1485.2000      7.9436      2.4421      0.0572     12.5978    163.3486     29.0580
  1485.3000      7.9632      2.4287      0.0658     13.4122    156.9775     29.2356
  1485.4000      7.9632      2.3892      0.0553     15.8064    148.8539     29.2459
  1485.5000      8.0091      2.3194      0.0781     20.0382    143.9720     29.2204
  1485.6000      8.0091      2.2325      0.0692     25.3039    142.6094     29.1300
  1485.7000      8.0091      2.1225      0.0853     31.9672    140.0674     28.9137
  1485.8000      7.9917      1.9657      0.0499     41.4726    131.5394     28.7685
  1485.9000      7.9917      1.7755     -0.0195     52.9977    118.5729     29.0520
  1486.0000      7.9659      1.6069     -0.1130     63.2160    108.0919     29.6971
  1486.1000      7.9659      1.4918     -0.0944     70.1969     99.8374     30.2244
  1486.2000      7.9659      1.4286     -0.1039     74.0269     90.8379     30.4238
  1486.3000      8.0289      1.4340     -0.1125     73.6978     85.0253     30.6300
  1486.4000      8.0289      1.5203      0.0343     68.4691     85.0505     31.1089
  1486.5000      8.1380      1.6546      0.1310     60.3255     86.2420     31.7931
  1486.6000      8.1380      1.8090      0.1565     50.9726     84.0180     32.3710
  1486.7000      8.1380      1.9822      0.1786     40.4702     80.8042     32.5341
  1486.8000      8.0186      2.1495      0.2847     30.3339     81.6932     32.2989
  1486.9000      8.0186      2.2738      0.2172     22.7989     85.8848     31.8811
  1487.0000      8.0128      2.3676      0.2399     17.1164     90.1507     31.4865
  1487.1000      8.0128      2.4622      0.2758     11.3801     95.6388     31.0556
  1487.2000      8.0128      2.5469      0.2792      6.2473    102.6910     30.3717
  1487.3000      7.9567      2.5930      0.1502      3.4550    109.2624     29.4755
  1487.4000      7.9567      2.6074      0.0360      2.5839    114.5127     28.5427
  1487.5000      7.9346      2.6038      0.0948      2.8003    118.2085     27.4914
  1487.6000      7.9346      2.5782      0.0601      4.3533    120.9940     26.3044
  1487.7000      7.9346      2.5446      0.0373      6.3901    124.5520     25.2375
  1487.8000      7.9329      2.5273      0.0036      7.4348    127.2430     24.3519
  1487.9000      7.9329      2.5332     -0.0130      7.0774    125.4058     23.5764
  1488.0000      7.9344      2.5573      0.0209      5.6154    121.0428     22.8762
  1488.1000      7.9344      2.5892      0.0212      3.6822    118.8062     22.1162
  1488.2000      7.9344      2.6115      0.0732      2.3313    119.2326     21.3050
  1488.3000      7.9298      2.6155      0.0395      2.0889    121.3296     20.6437
  1488.4000      7.9298      2.6101      0.0646      2.4195    124.3683     20.1095
  1488.5000      7.9235      2.6057      0.0225      2.6864    127.0062     19.7140
  1488.6000      7.9235      2.6094     -0.0043      2.4635    129.7456     19.7713
  1488.7000      7.9235      2.6179      0.0493      1.9435    133.5750     20.2588
  1488.8000      7.9199      2.6197      0.0386      1.8346    136.6616     20.7338
  1488.9000      7.9199      2.6127      0.0222      2.2632    137.3217     21.0846
  1489.0000      7.9277      2.5998      0.0128      3.0408    137.0462     21.6133
  1489.1000      7.9277      2.5807      0.0211      4.2015    139.8543     22.2109
  1489.2000      7.9277      2.5556      0.0215      5.7191    144.7356     22.4670
  1489.3000      7.9231      2.5304      0.0391      7.2501    145.2183     22.4006
  1489.4000      7.9231      2.5143     -0.0069      8.2272    141.0096     22.3978
  1489.5000      7.9321      2.5100      0.0037      8.4861    140.4423     22.6420
  1489.6000      7.9321      2.5101      0.0071      8.4780    148.0426     23.0959
  1489.7000      7.9321      2.5087      0.0239      8.5650    158.1139     23.7990
  1489.8000      7.9305      2.5033      0.0629      8.8902    161.8798     24.7540
  1489.9000      7.9305      2.4994     -0.0112      9.1243    158.4957     25.6294
  1490.0000      7.9313      2.5108      0.0134      8.4346    156.7462     25.9938
  1490.1000      7.9313      2.5375      0.0527      6.8180    158.8652     25.8858
  1490.2000      7.9313      2.5607      0.0927      5.4133    157.1968     25.6688
  1490.3000      7.9328      2.5671      0.0734      5.0239    150.0598     25.5450
  1490.4000      7.9328      2.5594      0.0542      5.4900    143.5301     25.4358
  1490.5000      7.9326      2.5451      0.0229      6.3600    142.1792     25.0259
  1490.6000      7.9326      2.5333      0.0307      7.0705    143.9313     24.2838
  1490.7000      7.9326      2.5304      0.0166      7.2460    143.6869     23.4763
  1490.8000      7.9018      2.5400      0.0011      6.6666    137.9014     22.7505
  1490.9000      7.9018      2.5609      0.0095      5.4020    126.8318     22.1980
  1491.0000      7.8589      2.5802      0.0474      4.2294    117.3047     21.9664
  1491.1000      7.8589      2.5914      0.0418      3.5528    114.0289     21.9345
  1491.2000      7.8589      2.5947      0.0724      3.3498    114.5227     21.8238
  1491.3000      7.8519      2.5872      0.0693      3.8069    117.1515     21.6926
  1491.4000      7.8519      2.5690      0.0302      4.9070    120.4708     21.6113
  1491.5000      7.8485      2.5497      0.0007      6.0804    121.8263     21.3741
