~Version Information
VERS.                      2.0: CWLS Log ASCII Standard - VERSION 2.0
WRAP.                       NO: One line per depth step
~Well Information Block
STRT.FT               660.0000: 
STOP.FT              2491.0000: 
STEP.FT                 0.2500: 
NULL.                -999.2500: 
COMP.          Petrogulf Corporation: COMPANY
WELL.          Montoya 18-11V-B: WELL
FLD.           Purgatorie River: FIELD
LOC.           848' FNL & 619' FWL: LOCATION
PROV.                 Colorado: PROVINCE
CNTY.               Las Animas: COUNTRY
SRVC.                Patterson: SERVICE COMPANY
DATE.          Wed Oct 05 04:34:17 2005: LOG DATE
UWI.                          : UNIQUE WELL ID
~Curve Information Block
DEPT.FT            0 000 00 00: Depth
SP.mV                         : DIL Spontaneous Potential
RILD.Ohm-m                    : DIL Deep Resistivity
RILM.Ohm-m                    : DIL Medium Resistivity
RLL3.Ohm-m                    : DIL Shallow Resistivity
GR.GAPI                       : Gamma Ray
~Parameter Information Block
~A  Depth        SP         RILD        RILM        RLL3         GR     
# ...
  2452.0000    252.1531      7.4330      7.0024      7.6643     92.6467
  2452.2500    252.5527      7.2917      6.8965      7.5548     93.6163
  2452.5000    252.9628      7.1764      6.8452      7.7062     94.0671
  2452.7500    253.4097      7.0861      6.8392      8.0142     93.9199
  2453.0000    253.8942      7.0199      6.8675      8.4417     93.6284
  2453.2500    254.4146      6.9781      6.9186      9.0449     93.5109
  2453.5000    254.9606      6.9632      6.9810      9.8229     92.9539
  2453.7500    255.4911      6.9799      7.0453     10.5899     91.8978
  2454.0000    255.9372      7.0343      7.1063     11.0454     89.1956
  2454.2500    256.2338      7.1331      7.1643     10.9990     87.1840
  2454.5000    256.3461      7.2826      7.2254     10.5345     85.2475
  2454.7500    256.2695      7.4879      7.3011      9.9301     85.2842
  2455.0000    256.0088      7.7507      7.4062      9.4089     87.6017
  2455.2500    255.5601      8.0664      7.5579      9.0089     90.3709
  2455.5000    254.9083      8.4237      7.7738      8.7462     95.2442
  2455.7500    254.0419      8.8060      8.0713      8.8870     98.2232
  2456.0000    252.9742      9.1967      8.4657      9.9860    101.4601
  2456.2500    251.7552      9.5850      8.9690     12.5672    102.4651
  2456.5000    250.4596      9.9684      9.5881     16.6556    101.2762
  2456.7500    249.1491     10.3540     10.3230     21.5324     98.0835
  2457.0000    247.8423     10.7570     11.1652     25.9859     89.8574
  2457.2500    246.5246     11.1995     12.0985     28.9621     83.0948
  2457.5000    245.1877     11.7081     13.1022     30.1234     73.1929
  2457.7500    243.8475     12.3096     14.1549     29.8777     67.5672
  2458.0000    242.5234     13.0223     15.2393     28.9463     61.1719
  2458.2500    241.2136     13.8467     16.3420     27.9168     58.4647
  2458.5000    239.9036     14.7579     17.4517     27.0890     56.8158
  2458.7500    238.5934     15.7049     18.5534     26.5543     56.9663
  2459.0000    237.3072     16.6200     19.6239     26.2952     57.9992
  2459.2500    236.0730     17.4360     20.6311     26.2133     58.8493
  2459.5000    234.8967     18.0996     21.5357     26.1528     60.5679
  2459.7500    233.7566     18.5774     22.2972     25.9898     62.2508
  2460.0000    232.6245     18.8546     22.8789     25.7445     65.3178
  2460.2500    231.4916     18.9350     23.2528     25.5934     67.1885
  2460.5000    230.3770     18.8428     23.4012     25.7223     68.9225
  2460.7500    229.3164     18.6200     23.3199     26.1101     69.2077
  2461.0000    228.3517     18.3150     23.0192     26.4352     68.4834
  2461.2500    227.5346     17.9685     22.5251     26.2375     67.4461
  2461.5000    226.9303     17.6084     21.8774     25.2556     65.5644
  2461.7500    226.6009     17.2544     21.1248     23.6717     64.4619
  2462.0000    226.5708     16.9266     20.3185     22.0319     63.6763
  2462.2500    226.8036     16.6467     19.5079     20.8596     63.8838
  2462.5000    227.2093     16.4313     18.7374     20.2587     64.8318
  2462.7500    227.6815     16.2822     18.0461     19.8446     65.3848
  2463.0000    228.1387     16.1845     17.4672     19.0739     65.7160
  2463.2500    228.5441     16.1129     17.0263     17.7169     65.9134
  2463.5000    228.8982     16.0436     16.7396     16.1075     67.0712
  2463.7500    229.2213     15.9633     16.6117     14.9823     68.5981
  2464.0000    229.5411     15.8696     16.6326     15.0130     71.1191
  2464.2500    229.8906     15.7673     16.7771     16.3617     71.7402
  2464.5000    230.3084     15.6637     17.0043     18.5793     68.3875
  2464.7500    230.8287     15.5702     17.2627     20.9147     62.0563
  2465.0000    231.4595     15.5049     17.4990     22.7634     46.6383
  2465.2500    232.1713     15.4922     17.6707     23.8922     34.3476
  2465.5000    232.9191     15.5542     17.7569     24.3157     17.6830
  2465.7500    233.6823     15.6979     17.7624     24.0502      9.7627
  2466.0000    234.4823     15.9044     17.7121     23.0491      3.1299
  2466.2500    235.3596     16.1268     17.6393     21.3598      1.2333
  2466.5000    236.3321     16.2994     17.5719     19.2782      0.2320
  2466.7500    237.3711     16.3558     17.5224     17.3297      0.0625
  2467.0000    238.4097     16.2489     17.4810     16.1212      0.0054
  2467.2500    239.3797     15.9659     17.4153     16.1777      0.0000
  2467.5000    240.2584     15.5331     17.2757     17.8098   -999.2500
  2467.7500    241.0894     15.0086     17.0106     20.9909   -999.2500
  2468.0000    241.9568     14.4648     16.5878     25.1990   -999.2500
  2468.2500    242.9271     13.9682     16.0130     29.3142   -999.2500
  2468.5000    244.0098     13.5622     15.3349     31.8373   -999.2500
  2468.7500    245.1626     13.2585     14.6303     31.5496   -999.2500
  2469.0000    246.3240     13.0387     13.9805     28.2597   -999.2500
  2469.2500    247.4370     12.8646     13.4506     23.0569   -999.2500
  2469.5000    248.4590     12.6943     13.0788     17.8203   -999.2500
  2469.7500    249.3767     12.4970     12.8755     14.3067   -999.2500
  2470.0000    250.2288     12.2568     12.8250     13.4118   -999.2500
  2470.2500    251.1122     11.9685     12.8870     14.9794   -999.2500
  2470.5000    252.1420     11.6330     13.0001     18.0923   -999.2500
  2470.7500    253.3742     11.2593     13.0893     21.5496   -999.2500
  2471.0000    254.7459     10.8692     13.0823     24.2945   -999.2500
  2471.2500    256.0947     10.4945     12.9300     25.6681   -999.2500
  2471.5000    257.2570     10.1674     12.6225     25.4381   -999.2500
  2471.7500    258.1609      9.9089     12.1884     23.6960   -999.2500
  2472.0000    258.8261      9.7249     11.6801     20.8018   -999.2500
  2472.2500    259.2909      9.5816     11.1536     17.3894   -999.2500
  2472.5000    259.5602      9.4956     10.6549     14.2303   -999.2500
  2472.7500    259.6250      9.4824     10.2151     11.9018   -999.2500
  2473.0000    259.5041      9.5071      9.8531     10.5256   -999.2500
  2473.2500    259.2428      9.5619      9.5797      9.8291   -999.2500
  2473.5000    258.8748      9.6365      9.4014      9.4495   -999.2500
  2473.7500    258.4004      9.7187      9.3241      9.2073   -999.2500
  2474.0000    257.8093      9.8001      9.3534      9.2010   -999.2500
  2474.2500    257.1179      9.8818      9.4952      9.7587   -999.2500
  2474.5000    256.3511      9.9775      9.7542     11.2913   -999.2500
  2474.7500    255.4608     10.1151     10.1330     14.0285   -999.2500
  2475.0000    254.0858     10.3410     10.6306     17.7165   -999.2500
  2475.2500    251.0213     10.7321     11.2418     21.5604   -999.2500
  2475.5000    243.3764     11.4160     11.9572     24.5892   -999.2500
  2475.7500    226.3404     12.6001     12.7654     26.1994   -999.2500
  2476.0000    195.3697     14.6898     13.6548     26.4211   -999.2500
  2476.2500    150.7982     18.1016     14.6157     25.7480   -999.2500
  2476.5000    100.5336     23.7197     15.6399     24.7670   -999.2500
  2476.7500     56.2777     32.6443     16.7162     23.8933   -999.2500
  2477.0000     25.8985     45.6862     17.8220     23.3226   -999.2500
  2477.2500      9.6494     61.8263     18.9136     23.1250   -999.2500
  2477.5000      2.8789     77.2344     19.9211     23.3391   -999.2500
  2477.7500      0.6816     88.1266     20.7538     23.9865   -999.2500
  2478.0000      0.1261     94.3450     21.3262     25.0283   -999.2500
  2478.2500      0.0168     98.2110     21.5989     26.3344   -999.2500
  2478.5000   -999.2500    101.9890     21.6153     27.6717   -999.2500
  2478.7500   -999.2500    107.1973     21.5093     28.6720   -999.2500
  2479.0000   -999.2500    278.1454     21.4783     28.8144   -999.2500
  2479.2500   -999.2500    347.5101     21.7464     27.5612   -999.2500
  2479.5000   -999.2500    467.8466     22.5469     24.6913   -999.2500
  2479.7500   -999.2500    676.7642     24.1326     20.5985   -999.2500
