~Version Information
VERS.                      2.0: CWLS Log ASCII Standard - VERSION 2.0
WRAP.                       NO: One line per depth step
~Well Information Block
STRT.FT                -8.5000: 
STOP.FT              2591.0000: 
STEP.FT                 0.2500: 
NULL.                -999.2500: 
COMP.          Pioneer Natural Resources: COMPANY
WELL.             Aviator 12-4: WELL
FLD.           Purgatorie River: FIELD
LOC.           1969' FNL & 732' FWL--: LOCATION
CNTY.               Las Animas: COUNTY
SRVC.          Patterson Wireline: SERVICE COMPANY
DATE.          Wed Apr 19 09:09:26 2006: LOG DATE
UWI.           05 071 08714 00: UNIQUE WELL ID
STAT.                       CO: STATE
~Curve Information Block
DEPT.FT            0 000 00 00: Depth
CCL.                          : Casing Collar Locator
TT3.usec                      : CBL 3' Travel Time
AMP3.mV                       : CBL 3' Amplitude
GR.GAPI                       : Gamma Ray
~Parameter Information Block
~A  Depth       CCL         TT3         AMP3         GR     
# ...
  2403.5000      0.0000    622.0091      4.3924     73.8200
  2403.7500      0.0000    592.9648      4.4451     76.3395
  2404.0000      0.0000    576.1617      4.4551     77.4601
  2404.2500      0.0000    573.0838      4.4311     76.5204
  2404.5000      0.0000    574.9614      4.3512     73.7419
  2404.7500      0.0000    568.0870      4.1848     69.8986
  2405.0000      0.0000    542.1743      3.9264     65.8082
  2405.2500      0.0000    498.9947      3.6132     62.2335
  2405.5000      0.0000    452.3053      3.3105     59.8350
  2405.7500      0.0000    418.2402      3.0763     58.8004
  2406.0000      0.0000    406.6817      2.9358     58.6997
  2406.2500      0.0000    419.3620      2.8788     59.0960
  2406.5000      0.0000    450.8229      2.8729     60.1571
  2406.7500      0.0000    490.7107      2.8766     62.2494
  2407.0000      0.0000    529.3899      2.8509     65.0063
  2407.2500      0.0000    563.3645      2.7728     67.2777
  2407.5000      0.0000    593.7424      2.6455     68.0463
  2407.7500      0.0000    620.4794      2.4929     67.2109
  2408.0000      0.0000    640.9665      2.3421     65.5643
  2408.2500      0.0000    653.3965      2.2119     64.2722
  2408.5000      0.0000    658.6669      2.1136     64.3009
  2408.7500      0.0000    658.8468      2.0518     65.9571
  2409.0000      0.0000    655.5063      2.0194     68.7092
  2409.2500      0.0000    650.1589      1.9984     71.4343
  2409.5000      0.0000    645.6484      1.9729     72.9492
  2409.7500      0.0000    645.8490      1.9407     72.6170
  2410.0000      0.0000    652.9418      1.9116     70.8281
  2410.2500      0.0000    664.8955      1.8958     69.0257
  2410.5000      0.0000    676.4301      1.8959     69.0336
  2410.7500      0.0000    682.9140      1.9084     71.8865
  2411.0000      0.0000    683.4573      1.9313     77.0451
  2411.2500      0.0000    680.5016      1.9678     82.7635
  2411.5000      0.0000    677.0317      2.0224     87.1794
  2411.7500      0.0000    674.5743      2.0954     89.1373
  2412.0000      0.0000    673.2379      2.1825     88.4599
  2412.2500      0.0000    672.7720      2.2774     85.8615
  2412.5000      0.0000    673.5406      2.3760     82.4220
  2412.7500      0.0000    676.4871      2.4794     78.7750
  2413.0000      0.0000    681.7084      2.5962     74.9662
  2413.2500      0.0000    687.1297      2.7395     71.4343
  2413.5000      0.0000    689.4482      2.9187     69.8040
  2413.7500      0.0000    686.8979      3.1326     71.9726
  2414.0000      0.0000    680.8387      3.3696     78.2439
  2414.2500      0.0000    674.4795      3.6160     86.6953
  2414.5000      0.0000    670.4001      3.8668     94.3304
  2414.7500      0.0000    669.5297      4.1309     98.5243
  2415.0000      0.0000    671.9498      4.4227     97.9076
  2415.2500      0.0000    677.7712      4.7436     92.9572
  2415.5000      0.0000    686.8059      5.0718     86.0074
  2415.7500      0.0000    697.6722      5.3708     79.9661
  2416.0000      0.0000    707.8228      5.6066     76.4793
  2416.2500      0.0000    714.8868      5.7577     75.2372
  2416.5000      0.0000    718.0083      5.8264     74.8941
  2416.7500      0.0000    717.9717      5.8590     74.4188
  2417.0000      0.0000    716.7454      5.9455     73.7219
  2417.2500      0.0000    717.3179      6.1510     73.5279
  2417.5000      0.0000    722.4898      6.4155     74.7670
  2417.7500      0.0000    731.8320      6.5616     77.5168
  2418.0000      0.0000    740.1263      6.4548     80.3263
  2418.2500      0.0000    740.6730      6.1396     81.1270
  2418.5000      0.0000    730.3408      5.7843     78.9845
  2418.7500      0.0000    711.1480      5.5144     74.6390
  2419.0000      2.0000    689.0043      5.3290     69.6133
  2419.2500      0.0000    672.7682      5.1477     65.3537
  2419.5000      0.0000    671.3906      4.9026     62.9873
  2419.7500      0.0000    686.9006      4.5946     63.1646
  2420.0000      0.0000    710.1100      4.2755     65.8919
  2420.2500      0.0000    726.6956      3.9785     70.5259
  2420.5000      0.0000    728.3548      3.6859     75.8884
  2420.7500      0.0000    717.0208      3.3838     80.6870
  2421.0000      0.0000    699.5331      3.1188     84.1824
  2421.2500      0.0000    680.7115      2.9611     86.3705
  2421.5000      0.0000    661.5186      2.9275     87.4961
  2421.7500      0.0000    641.8193      2.9624     87.8498
  2422.0000      0.0000    623.3199      2.9804     88.1515
  2422.2500      0.0000    609.4639      2.9185     89.5151
  2422.5000      0.0000    602.4766      2.7641     92.5529
  2422.7500      0.0000    600.9190      2.5493     96.5986
  2423.0000      0.0000    600.5380      2.3249     99.8281
  2423.2500      0.0000    597.7706      2.1371    100.1584
  2423.5000      0.0000    592.6504      2.0131     96.5492
  2423.7500      0.0000    588.7130      1.9555     89.8737
  2424.0000      0.0000    590.1071      1.9472     82.3122
  2424.2500      0.0000    598.1143      1.9670     75.7182
  2424.5000      0.0000    609.5590      2.0007     70.6502
  2424.7500      0.0000    618.8054      2.0418     66.7772
  2425.0000      0.0000    622.8045      2.0889     63.7197
  2425.2500      0.0000    624.7956      2.1409     61.4277
  2425.5000      0.0000    631.4705      2.1883     60.0379
  2425.7500      0.0000    645.6976      2.2081     59.4945
  2426.0000      0.0000    663.5157      2.1771     59.2304
  2426.2500      0.0000    678.7497      2.0928     58.3764
  2426.5000      0.0000    688.7681      1.9774     56.6111
  2426.7500      0.0000    695.4169      1.8587     54.7765
  2427.0000      0.0000    702.2809      1.7514     54.2248
  2427.2500      0.0000    711.6824      1.6546     55.3668
  2427.5000      0.0000    722.8754      1.5612     57.1433
  2427.7500      0.0000    732.5632      1.4663     58.0054
  2428.0000      0.0000    738.3106      1.3693     57.0638
  2428.2500      0.0000    741.6827      1.2730     54.3338
  2428.5000      0.0000    747.0712      1.1850     50.4170
  2428.7500      0.0000    757.7971      1.1168     46.2597
  2429.0000      0.0000    774.3481      1.0769     42.9048
  2429.2500      0.0000    794.7997      1.0614     40.9313
  2429.5000      0.0000    814.8788      1.0553     39.9758
  2429.7500      0.0000    829.0775      1.0445     39.1843
  2430.0000      0.0000    834.4514      1.0274     38.2506
  2430.2500      0.0000    833.0844      1.0114     37.5886
  2430.5000      0.0000    829.8092      1.0016     37.4313
  2430.7500      0.0000    828.7364      0.9999     37.3438
  2431.0000      0.0000    833.1132      1.0138     36.9029
  2431.2500      0.0000    845.7789      1.0615     36.4082
  2431.5000      0.0000    865.1251      1.1654     36.6706
  2431.7500      0.0000    880.6404      1.3408     38.5151
  2432.0000      0.0000    878.1948      1.5914     42.6644
  2432.2500      0.0000    852.9220      1.9225     49.5717
  2432.5000      0.0000    813.9759      2.3573     58.9791
  2432.7500      0.0000    775.4366      2.9308     69.8045
  2433.0000      0.0000    745.9174      3.6538     80.4841
  2433.2500      0.0000    726.9080      4.4808     89.3417
  2433.5000      0.0000    716.3456      5.3223     94.9992
  2433.7500      0.0000    711.3083      6.0886     97.1024
  2434.0000      0.0000    709.1548      6.7123     96.7684
  2434.2500      0.0000    708.0992      7.1411     95.8707
  2434.5000      0.0000    707.3060      7.3395     95.5475
  2434.7500      0.0000    706.5233      7.3162     95.3063
  2435.0000      0.0000    705.7114      7.1339     93.4556
  2435.2500      0.0000    704.8671      6.8788     88.5314
  2435.5000      0.0000    704.0422      6.6191     80.8395
  2435.7500      0.0000    703.3706      6.3878     72.8140
  2436.0000      0.0000    702.9702      6.1927     67.4657
  2436.2500      0.0000    702.8146      6.0321     66.1489
  2436.5000      0.0000    702.7228      5.9037     67.9606
  2436.7500      0.0000    702.5147      5.8041     71.3271
