~Version Information
VERS.                      2.0: CWLS Log ASCII Standard - VERSION 2.0
WRAP.                       NO: One line per depth step
~Well Information Block
STRT.FT               645.0000: 
STOP.FT              2133.5000: 
STEP.FT                 0.2500: 
NULL.                -999.2500: 
COMP.          Pioneer Natural Resources: COMPANY
WELL.          Gunslinger 13-24: WELL
FLD.           Purgatoire River: FIELD
LOC.           1968' FSL & 633' FWL: LOCATION
PROV.                 Colorado: PROVINCE
CNTY.               Las Animas: COUNTRY
SRVC.                Patterson: SERVICE COMPANY
DATE.          Fri Jul 29 15:04:35 2005: LOG DATE
UWI.           05 071 08442 00: UNIQUE WELL ID
~Curve Information Block
DEPT.FT            0 000 00 00: Depth
SN.Ohm-m                      : IEL Short Normal
SP.mV                         : IEL Spontaneous Potential
DIR.Ohm-m                     : IEL Induction Resistivity
GR.GAPI                       : Gamma Ray
~Parameter Information Block
~A  Depth        SN          SP         DIR          GR     
# ...
   946.5000   2000.0000   2000.0000      0.7900    159.8227
   946.7500   2000.0000   2000.0000      0.4070    160.4881
   947.0000   2000.0000   2000.0000      0.2437    158.3654
   947.2500   2000.0000   2000.0000      0.1749    154.3737
   947.5000   2000.0000   2000.0000      0.1593    144.0379
   947.7500   2000.0000   2000.0000      0.1865    134.7187
   948.0000   2000.0000   2000.0000      0.2694    119.3030
   948.2500   2000.0000   2000.0000      0.4494    109.4753
   948.5000   2000.0000   2000.0000      0.8527     96.6188
   948.7500   2000.0000   2000.0000      2.0752     89.2611
   949.0000   2000.0000   2000.0000     15.1693     79.7765
   949.2500   2000.0000   2000.0000 100000.0000     74.7471
   949.5000   2000.0000   2000.0000 100000.0000     70.2640
   949.7500   2000.0000   2000.0000 100000.0000     69.9740
   950.0000   2000.0000   2000.0000 100000.0000     74.1633
   950.2500   2000.0000   2000.0000 100000.0000     79.9658
   950.5000   2000.0000   2000.0000 100000.0000     92.0245
   950.7500   2000.0000   2000.0000 100000.0000    100.7475
   951.0000   2000.0000   2000.0000 100000.0000    110.9650
   951.2500   2000.0000   2000.0000 100000.0000    113.7073
   951.5000   2000.0000   2000.0000 100000.0000    110.0949
   951.7500   2000.0000   2000.0000 100000.0000    103.2536
   952.0000   2000.0000   2000.0000 100000.0000     89.7038
   952.2500   2000.0000   2000.0000 100000.0000     80.7650
   952.5000   2000.0000   2000.0000 100000.0000     70.2615
   952.7500   2000.0000   2000.0000 100000.0000     65.7176
   953.0000   2000.0000   2000.0000 100000.0000     62.2185
   953.2500   2000.0000   2000.0000 100000.0000     61.7689
   953.5000   2000.0000   2000.0000 100000.0000     63.4854
   953.7500   2000.0000   2000.0000 100000.0000     65.6888
   954.0000   2000.0000   2000.0000 100000.0000     68.9327
   954.2500   2000.0000   2000.0000 100000.0000     70.1275
   954.5000   2000.0000   2000.0000 100000.0000     69.9771
   954.7500   2000.0000   2000.0000 100000.0000     68.9433
   955.0000   2000.0000   2000.0000 100000.0000     66.8719
   955.2500   2000.0000   2000.0000 100000.0000     65.5408
   955.5000   2000.0000   2000.0000 100000.0000     64.4357
   955.7500   2000.0000   2000.0000 100000.0000     65.0519
   956.0000   2000.0000   2000.0000 100000.0000     69.1964
   956.2500   2000.0000   2000.0000 100000.0000     74.0411
   956.5000   2000.0000   2000.0000 100000.0000     82.4281
   956.7500   2000.0000   2000.0000 100000.0000     87.0305
   957.0000   2000.0000   2000.0000      3.6089     90.5358
   957.2500   2000.0000   2000.0000      1.0273     90.9190
   957.5000   2000.0000   2000.0000      0.4519     91.3433
   957.7500   2000.0000   2000.0000      0.2271     93.4527
   958.0000   2000.0000   2000.0000      0.1291    100.9035
   958.2500   2000.0000   2000.0000      0.0912    108.0618
   958.5000   2000.0000   2000.0000      0.0857    119.3802
   958.7500   2000.0000   2000.0000      0.1076    125.9746
   959.0000   2000.0000   2000.0000      0.1714    133.7342
   959.2500   2000.0000   2000.0000      0.3148    137.7757
   959.5000   2000.0000   2000.0000      0.6275    142.8104
   959.7500   2000.0000   2000.0000      1.4676    145.5852
   960.0000   2000.0000   2000.0000      5.9689    148.5180
   960.2500   2000.0000   2000.0000 100000.0000    149.3866
   960.5000   2000.0000   2000.0000 100000.0000    148.9581
   960.7500   2000.0000   2000.0000 100000.0000    147.6439
   961.0000   2000.0000   2000.0000 100000.0000    144.2257
   961.2500   2000.0000   2000.0000 100000.0000    140.8875
   961.5000   2000.0000   2000.0000 100000.0000    134.1555
   961.7500   2000.0000   2000.0000 100000.0000    128.6015
   962.0000   2000.0000   2000.0000 100000.0000    118.9904
   962.2500   2000.0000   2000.0000 100000.0000    112.0069
   962.5000   2000.0000   2000.0000 100000.0000    101.6404
   962.7500   2000.0000   2000.0000 100000.0000     95.6846
   963.0000   2000.0000   2000.0000 100000.0000     89.3160
   963.2500   2000.0000   2000.0000 100000.0000     86.6503
   963.5000   2000.0000   2000.0000 100000.0000     83.7508
   963.7500   2000.0000   2000.0000 100000.0000     81.9983
   964.0000   2000.0000   2000.0000 100000.0000     79.8271
   964.2500   2000.0000   2000.0000 100000.0000     79.0236
   964.5000   2000.0000   2000.0000 100000.0000     78.6063
   964.7500   2000.0000   2000.0000 100000.0000     78.3525
   965.0000   2000.0000   2000.0000 100000.0000     77.4798
   965.2500   2000.0000   2000.0000 100000.0000     76.6965
   965.5000   2000.0000   2000.0000 100000.0000     75.7051
   965.7500   2000.0000   2000.0000 100000.0000     75.3290
   966.0000   2000.0000   2000.0000 100000.0000     75.2022
   966.2500   2000.0000   2000.0000 100000.0000     75.2451
   966.5000   2000.0000   2000.0000 100000.0000     74.9027
   966.7500   2000.0000   2000.0000 100000.0000     74.0418
   967.0000   2000.0000   2000.0000 100000.0000     71.6953
   967.2500   2000.0000   2000.0000 100000.0000     69.7617
   967.5000   2000.0000   2000.0000 100000.0000     67.2596
   967.7500   2000.0000   2000.0000 100000.0000     66.3569
   968.0000   2000.0000   2000.0000     57.3949     66.4908
   968.2500   2000.0000   2000.0000      2.4947     67.4361
   968.5000   2000.0000   2000.0000      0.9792     69.7129
   968.7500   2000.0000   2000.0000      0.5346     71.5930
   969.0000   2000.0000   2000.0000      0.3539     74.4419
   969.2500   2000.0000   2000.0000      0.2859     75.8398
   969.5000   2000.0000   2000.0000      0.2912     76.1932
   969.7500   2000.0000   2000.0000      0.3727     74.9442
   970.0000   2000.0000   2000.0000      0.5811     71.0853
   970.2500   2000.0000   2000.0000      1.1142     67.7510
   970.5000   2000.0000   2000.0000      3.2217     62.8532
   970.7500   2000.0000   2000.0000 100000.0000     60.3008
   971.0000   2000.0000   2000.0000 100000.0000     58.2108
   971.2500   2000.0000   2000.0000 100000.0000     57.9715
   971.5000   2000.0000   2000.0000 100000.0000     58.5581
   971.7500   2000.0000   2000.0000 100000.0000     58.9104
   972.0000   2000.0000   2000.0000 100000.0000     58.7404
   972.2500   2000.0000   2000.0000 100000.0000     58.4359
   972.5000   2000.0000   2000.0000 100000.0000     59.2376
   972.7500   2000.0000   2000.0000 100000.0000     61.7248
   973.0000   2000.0000   2000.0000 100000.0000     69.5772
   973.2500   2000.0000   2000.0000 100000.0000     77.4915
   973.5000   2000.0000   2000.0000 100000.0000     92.1012
   973.7500   2000.0000   2000.0000 100000.0000    102.4874
   974.0000   2000.0000   2000.0000 100000.0000    116.6952
   974.2500   2000.0000   2000.0000      5.9741    124.0280
   974.5000   2000.0000   2000.0000      1.8018    130.8832
   974.7500   2000.0000   2000.0000      1.0260    133.0688
   975.0000   2000.0000   2000.0000      0.7913    134.2885
   975.2500   2000.0000   2000.0000      0.7888    134.4617
   975.5000   2000.0000   2000.0000      1.0194    134.3827
   975.7500   2000.0000   2000.0000      1.8054    134.3515
   976.0000   2000.0000   2000.0000      6.4901    134.7392
   976.2500   2000.0000   2000.0000 100000.0000    135.3422
   976.5000   2000.0000   2000.0000 100000.0000    136.6698
   976.7500   2000.0000   2000.0000 100000.0000    137.9225
   977.0000   2000.0000   2000.0000 100000.0000    140.6305
   977.2500   2000.0000   2000.0000 100000.0000    142.9224
   977.5000   2000.0000   2000.0000 100000.0000    146.5438
   977.7500   2000.0000   2000.0000 100000.0000    148.8373
   978.0000   2000.0000   2000.0000 100000.0000    152.1808
   978.2500   2000.0000   2000.0000 100000.0000    154.5118
   978.5000   2000.0000   2000.0000 100000.0000    157.9130
   978.7500   2000.0000   2000.0000 100000.0000    159.4224
   979.0000   2000.0000   2000.0000 100000.0000    158.8353
   979.2500   2000.0000   2000.0000 100000.0000    155.8718
   979.5000   2000.0000   2000.0000     61.6717    147.9121
   979.7500   2000.0000   2000.0000     33.6295    141.2090
