~Version Information
VERS.                      2.0: CWLS Log ASCII Standard - VERSION 2.0
WRAP.                       NO: One line per depth step
~Well Information Block
STRT.FT                 0.0000: 
STOP.FT              2062.2500: 
STEP.FT                 0.2500: 
NULL.                -999.2500: 
COMP.          Petrogulf Corporation: COMPANY
WELL.           Montoya 12-44R: WELL
FLD.           Purgatorie River: FIELD
LOC.           713' FSL & 798' FEL: LOCATION
PROV.                 Colorado: PROVINCE
CNTY.               Las Animas: COUNTRY
SRVC.                Patterson: SERVICE COMPANY
DATE.          Wed Nov 09 13:30:24 2005: LOG DATE
UWI.           05-071-08538               : UNIQUE WELL ID
~Curve Information Block
DEPT.FT            0 000 00 00: Depth
CCL.                          : Casing Collar Locator
TT3.usec                      : CBL 3' Travel Time
AMP3.mV                       : CBL 3' Amplitude
GR.GAPI                       : Gamma Ray
~Parameter Information Block
~A  Depth       CCL         TT3         AMP3         GR     
# ...
  1641.5000      0.0000    674.4924      1.8101    107.9627
  1641.7500      0.0000    667.2277      1.9616    108.7984
  1642.0000      0.0000    671.7864      2.0470    108.8393
  1642.2500      0.0000    684.8832      2.0562    107.8778
  1642.5000      0.0000    696.4044      2.0164    106.8444
  1642.7500      0.0000    691.7380      1.9464    106.9727
  1643.0000      0.0000    670.8726      1.8902    108.7013
  1643.2500      0.0000    651.1126      1.8910    111.3230
  1643.5000      0.0000    640.8307      1.9167    113.9101
  1643.7500      0.0000    633.7974      1.9195    116.5205
  1644.0000      0.0000    628.3458      1.8878    120.2110
  1644.2500      0.0000    630.5737      1.8047    125.8578
  1644.5000      0.0000    642.1823      1.6612    133.0740
  1644.7500      0.0000    654.3599      1.4902    140.1701
  1645.0000      0.0000    656.6280      1.3368    145.2437
  1645.2500      0.0000    652.1087      1.2357    147.4641
  1645.5000      0.0000    653.2615      1.2232    147.1066
  1645.7500      0.0000    661.7775      1.3095    144.4226
  1646.0000      0.0000    668.9865      1.4606    139.2036
  1646.2500      0.0000    674.0068      1.6608    131.6862
  1646.5000      0.0000    683.1275      1.9330    123.1126
  1646.7500      0.0000    695.7659      2.2880    114.8489
  1647.0000      0.0000    704.0865      2.7081    107.2487
  1647.2500      0.0000    700.5258      3.1559     99.7681
  1647.5000      0.0000    684.3394      3.5988     92.1185
  1647.7500      0.0000    665.1172      4.0382     85.0203
  1648.0000      0.0000    654.2690      4.4662     79.5633
  1648.2500      0.0000    654.4719      4.8132     75.9460
  1648.5000      0.0000    661.7658      5.0283     73.4054
  1648.7500      0.0000    670.9316      5.1474     71.4585
  1649.0000      0.0000    677.6489      5.1842     70.6919
  1649.2500      0.0000    681.3386      5.0700     72.1360
  1649.5000      0.0000    685.3115      4.7603     76.3306
  1649.7500      0.0000    691.8523      4.2912     83.2183
  1650.0000      0.0000    697.6910      3.7363     92.4179
  1650.2500      0.0000    697.2191      3.1787    102.9695
  1650.5000      0.0000    690.7371      2.6914    112.8677
  1650.7500      0.0000    684.0070      2.3120    119.7252
  1651.0000      0.0000    679.4284      2.0462    122.6599
  1651.2500      0.0000    674.3990      1.8714    123.2475
  1651.5000      0.0000    667.9739      1.7384    124.0823
  1651.7500      0.0000    661.3245      1.6215    126.6143
  1652.0000      0.0000    652.5427      1.5313    130.4760
  1652.2500      0.0000    640.7894      1.4654    134.1125
  1652.5000      0.0000    631.7638      1.4206    135.6484
  1652.7500      0.0000    629.7252      1.4420    134.0246
  1653.0000      0.0000    630.6292      1.5827    129.9926
  1653.2500      0.0000    629.3716      1.8097    125.4484
  1653.5000      0.0000    627.7393      2.0266    121.3589
  1653.7500      0.0000    631.2524      2.1972    116.9134
  1654.0000      0.0000    641.4942      2.3638    111.1731
  1654.2500      0.0000    653.3804      2.5811    105.1153
  1654.5000      0.0000    661.4962      2.8850    101.4148
  1654.7500      2.0000    667.5703      3.2834    102.1203
  1655.0000      0.0000    674.7556      3.7670    106.6077
  1655.2500      0.0000    679.6381      4.3618    111.8483
  1655.5000      0.0000    679.0079      5.1616    114.7486
  1655.7500      0.0000    675.0691      6.1323    114.3162
  1656.0000      0.0000    668.2098      6.9385    111.7720
  1656.2500      0.0000    652.4757      7.4556    108.9424
  1656.5000      0.0000    616.6711      8.1970    106.7505
  1656.7500      0.0000    552.9758      9.6222    105.2125
  1657.0000      0.0000    474.3416     11.5259    104.3744
  1657.2500      0.0000    411.6393     13.3950    104.5441
  1657.5000      0.0000    386.9220     14.8611    105.4723
  1657.7500      0.0000    401.9665     15.7562    105.9208
  1658.0000      0.0000    443.2111     16.0471    104.6494
  1658.2500      0.0000    488.5852     15.8349    101.8815
  1658.5000      0.0000    522.7606     15.3996     99.5220
  1658.7500      0.0000    537.2318     15.1641     99.7614
  1659.0000      0.0000    519.5298     15.4521    103.3809
  1659.2500      0.0000    476.7719     16.1843    109.1890
  1659.5000      0.0000    445.1981     16.8739    114.7650
  1659.7500      0.0000    443.5528     17.0251    117.8748
  1660.0000      0.0000    448.9547     16.5383    117.9019
  1660.2500      0.0000    440.5871     15.6364    116.4009
  1660.5000      0.0000    436.1706     14.5157    116.0543
  1660.7500      0.0000    461.5832     13.2617    118.8201
  1661.0000      0.0000    511.3968     11.9589    124.7382
  1661.2500      0.0000    561.0688     10.7499    132.0262
  1661.5000      0.0000    598.0221      9.7893    138.1594
  1661.7500      0.0000    622.8044      9.0910    141.2663
  1662.0000      0.0000    636.5249      8.4926    140.8334
  1662.2500      0.0000    640.8187      7.8450    137.3903
  1662.5000      0.0000    638.3679      7.1829    132.1792
  1662.7500      0.0000    631.5055      6.6539    127.2409
  1663.0000      0.0000    626.4634      6.2962    124.7772
  1663.2500      0.0000    630.5510      6.0008    125.5264
  1663.5000      0.0000    642.9628      5.7219    128.0530
  1663.7500      0.0000    657.1925      5.5898    130.0337
  1664.0000      0.0000    669.2953      5.7671    129.7747
  1664.2500      0.0000    678.8859      6.3024    126.3972
  1664.5000      0.0000    686.0992      7.1247    119.6911
  1664.7500      0.0000    689.2996      8.0708    110.5621
  1665.0000      0.0000    685.2230      8.9402    101.1116
  1665.2500      0.0000    671.1858      9.6029     93.7192
  1665.5000      0.0000    645.9325     10.0508     89.9148
  1665.7500      0.0000    606.6017     10.3658     89.8750
  1666.0000      0.0000    553.2296     10.6599     92.6322
  1666.2500      0.0000    508.8947     11.0182     96.7318
  1666.5000      0.0000    511.0924     11.4504    100.9937
  1666.7500      0.0000    559.0912     11.8904    104.9325
  1667.0000      0.0000    602.0150     12.2717    108.5209
  1667.2500      0.0000    591.9673     12.6209    111.5677
  1667.5000      0.0000    525.6469     13.0190    113.4587
  1667.7500      0.0000    440.0563     13.4173    113.5434
  1668.0000      0.0000    376.7247     13.6539    111.5769
  1668.2500      0.0000    348.6976     13.6915    107.7135
  1668.5000      0.0000    343.2537     13.6199    102.3249
  1668.7500      0.0000    344.0862     13.4319     96.0952
  1669.0000      0.0000    344.4497     12.9633     90.1987
  1669.2500      0.0000    347.3545     12.0737     85.9881
  1669.5000      0.0000    360.8412     10.8069     84.1641
  1669.7500      0.0000    397.2163      9.3513     84.2173
  1670.0000      0.0000    464.1453      7.9177     84.9493
  1670.2500      0.0000    545.7070      6.6672     85.7933
  1670.5000      0.0000    611.9079      5.6849     87.6125
  1670.7500      0.0000    651.8071      4.9836     92.0867
  1671.0000      0.0000    674.9201      4.5159    100.3254
  1671.2500      0.0000    687.5676      4.1743    111.8634
  1671.5000      0.0000    689.8561      3.8522    124.5055
  1671.7500      0.0000    686.1855      3.5517    135.0930
  1672.0000      0.0000    682.9836      3.3773    141.0585
  1672.2500      0.0000    683.0794      3.4057    141.9017
  1672.5000      0.0000    686.1622      3.6192    139.4686
  1672.7500      0.0000    687.9135      3.9419    136.8661
  1673.0000      0.0000    682.7941      4.2850    136.8378
  1673.2500      0.0000    672.2270      4.5715    140.4520
  1673.5000      0.0000    663.4937      4.7440    146.5072
  1673.7500      0.0000    661.5518      4.7587    152.0149
  1674.0000      0.0000    666.8365      4.6015    153.8031
  1674.2500      0.0000    677.0078      4.3350    150.2834
  1674.5000      0.0000    688.1156      4.0742    142.0718
  1674.7500      0.0000    696.8107      3.8877    131.2697
