~Version Information
VERS.                      2.0: CWLS Log ASCII Standard - VERSION 2.0
WRAP.                       NO: One line per depth step
~Well Information Block
STRT.FT               240.0000: 
STOP.FT              1252.5000: 
STEP.FT                 0.2500: 
NULL.                -999.2500: 
COMP.          Pioneer Natural Resources: COMPANY
WELL.             Margaux 11-1: WELL
FLD.           Purgatoire River: FIELD
LOC.           1154' FNL & 472' FWL: LOCATION
PROV.                 Colorado: PROVINCE
CNTY.               Las Animas: COUNTRY
SRVC.                Patterson: SERVICE COMPANY
DATE.          Mon Dec 19 04:21:59 2005: LOG DATE
UWI.           05 071 08639 00: UNIQUE WELL ID
~Curve Information Block
DEPT.FT            0 000 00 00: Depth
SN.Ohm-m                      : IEL Short Normal
SP.mV                         : IEL Spontaneous Potential
DIR.Ohm-m                     : IEL Induction Resistivity
GR.GAPI                       : Gamma Ray
~Parameter Information Block
~A  Depth        SN          SP         DIR          GR     
# ...
  1010.5000     26.0403     16.3106     24.5621     63.4747
  1010.7500     26.2913     16.3591     24.4385     62.8117
  1011.0000     26.5875     16.4298     24.3012     62.9901
  1011.2500     26.9657     16.5403     24.0784     63.1538
  1011.5000     27.2622     16.6873     23.6737     62.1459
  1011.7500     27.3253     16.8569     23.0057     60.3523
  1012.0000     27.1755     17.0390     22.0496     56.7978
  1012.2500     26.8935     17.2353     20.8534     54.8018
  1012.5000     26.4307     17.4565     19.5175     53.6497
  1012.7500     25.5582     17.7149     18.1554     54.2901
  1013.0000     24.0450     18.0184     16.8611     56.9899
  1013.2500     21.9400     18.3674     15.6982     59.6903
  1013.5000     19.6310     18.7524     14.7009     64.8465
  1013.7500     17.5317     19.1543     13.8801     68.9395
  1014.0000     15.8180     19.5460     13.2276     76.0589
  1014.2500     14.5172     19.8977     12.7214     81.5337
  1014.5000     13.6561     20.1862     12.3305     90.6008
  1014.7500     13.2411     20.4022     12.0196     96.5206
  1015.0000     13.1764     20.5514     11.7549    103.3794
  1015.2500     13.2785     20.6489     11.5111    105.8170
  1015.5000     13.4188     20.7125     11.2802    106.3323
  1015.7500     13.5722     20.7599     11.0767    105.4202
  1016.0000     13.7141     20.8045     10.9328    104.3415
  1016.2500     13.8128     20.8523     10.8845    104.9720
  1016.5000     13.9061     20.9002     10.9577    108.4865
  1016.7500     14.0897     20.9408     11.1626    111.6079
  1017.0000     14.4426     20.9683     11.4962    114.4220
  1017.2500     14.9716     20.9826     11.9498    113.4811
  1017.5000     15.6196     20.9933     12.5151    107.1939
  1017.7500     16.3382     21.0207     13.1844    100.7485
  1018.0000     17.1152     21.0864     13.9463     90.5506
  1018.2500     17.9168     21.1928     14.7809     84.7787
  1018.5000     18.6877     21.3141     15.6597     78.5801
  1018.7500     19.4137     21.4121     16.5512     75.8960
  1019.0000     20.1337     21.4598     17.4306     73.1681
  1019.2500     20.8551     21.4556     18.2865     71.7208
  1019.5000     21.5077     21.4202     19.1174     69.6367
  1019.7500     22.0418     21.3837     19.9162     68.2586
  1020.0000     22.4881     21.3701     20.6568     66.2928
  1020.2500     22.9013     21.3872     21.2999     65.1514
  1020.5000     23.2986     21.4278     21.8178     64.0270
  1020.7500     23.6173     21.4770     22.2159     63.8965
  1021.0000     23.7942     21.5205     22.5272     64.7251
  1021.2500     23.8941     21.5489     22.7858     65.7687
  1021.5000     24.0298     21.5598     23.0058     67.6309
  1021.7500     24.1599     21.5565     23.1827     68.9286
  1022.0000     24.0874     21.5444     23.3126     70.8645
  1022.2500     23.7293     21.5261     23.4113     72.0567
  1022.5000     23.2738     21.4996     23.5157     73.4778
  1022.7500     22.9864     21.4615     23.6673     74.0029
  1023.0000     22.9853     21.4122     23.8890     73.5499
  1023.2500     23.2288     21.3608     24.1699     71.9710
  1023.5000     23.6300     21.3229     24.4640     67.5768
  1023.7500     24.1344     21.3122     24.7034     63.8949
  1024.0000     24.7003     21.3326     24.8253     58.7321
  1024.2500     25.3146     21.3751     24.8049     56.0754
  1024.5000     25.9854     21.4203     24.6726     53.5320
  1024.7500     26.6377     21.4447     24.4975     52.9236
  1025.0000     27.1489     21.4274     24.3508     53.9717
  1025.2500     27.4870     21.3588     24.2754     55.8890
  1025.5000     27.6883     21.2483     24.2796     59.5824
  1025.7500     27.7471     21.1224     24.3476     61.7696
  1026.0000     27.6096     21.0120     24.4543     63.6343
  1026.2500     27.2662     20.9361     24.5723     63.7988
  1026.5000     26.8003     20.8924     24.6697     62.9283
  1026.7500     26.3623     20.8558     24.7049     62.1527
  1027.0000     26.1203     20.7859     24.6259     61.4312
  1027.2500     26.1535     20.6383     24.3925     61.1786
  1027.5000     26.3744     20.3785     24.0165     60.2378
  1027.7500     26.6119     19.9953     23.5879     58.8268
  1028.0000     26.7410     19.5076     23.2469     56.0584
  1028.2500     26.7163     18.9597     23.1112     54.7147
  1028.5000     26.5974     18.4059     23.2109     54.8122
  1028.7500     26.5032     17.8961     23.4738     56.2835
  1029.0000     26.4383     17.4658     23.7744     59.2646
  1029.2500     26.3156     17.1353     24.0199     60.8255
  1029.5000     26.1524     16.9119     24.2063     61.6375
  1029.7500     26.0387     16.7929     24.3933     61.1566
  1030.0000     25.9594     16.7657     24.6351     59.4147
  1030.2500     25.8309     16.8056     24.9368     57.9985
  1030.5000     25.6619     16.8754     25.2662     56.2069
  1030.7500     25.5342     16.9306     25.5933     55.4805
  1031.0000     25.4995     16.9318     25.9148     55.0044
  1031.2500     25.6008     16.8590     26.2439     54.8531
  1031.5000     25.8716     16.7208     26.5886     54.6332
  1031.7500     26.2484     16.5509     26.9409     54.5480
  1032.0000     26.6313     16.3916     27.2824     54.5674
  1032.2500     26.9877     16.2754     27.5924     54.4742
  1032.5000     27.3230     16.2144     27.8519     53.7082
  1032.7500     27.6582     16.2007     28.0434     52.7812
  1033.0000     27.9833     16.2158     28.1508     51.2889
  1033.2500     28.1897     16.2408     28.1527     50.5682
  1033.5000     28.1790     16.2622     28.0136     50.3266
  1033.7500     28.0054     16.2732     27.6824     50.9375
  1034.0000     27.7863     16.2749     27.1057     53.1126
  1034.2500     27.5419     16.2772     26.2552     55.1402
  1034.5000     27.2427     16.2976     25.1507     58.2461
  1034.7500     26.8898     16.3548     23.8660     59.9776
  1035.0000     26.4656     16.4615     22.5097     61.9071
  1035.2500     25.8958     16.6197     21.1929     63.0049
  1035.5000     25.0847     16.8199     20.0003     65.2832
  1035.7500     24.0013     17.0430     18.9783     67.7560
  1036.0000     22.7189     17.2642     18.1379     73.1243
  1036.2500     21.3598     17.4587     17.4636     77.3926
  1036.5000     20.0331     17.6102     16.9188     83.4746
  1036.7500     18.8464     17.7209     16.4486     86.4455
  1037.0000     17.9020     17.8168     15.9858     88.0600
  1037.2500     17.2125     17.9400     15.4680     86.8098
  1037.5000     16.7128     18.1331     14.8623     81.3002
  1037.7500     16.3770     18.4246     14.1821     75.5667
  1038.0000     16.2367     18.8248     13.4804     65.5635
  1038.2500     16.2659     19.3283     12.8241     59.5631
  1038.5000     16.3057     19.9187     12.2680     54.4942
  1038.7500     16.1812     20.5702     11.8418     54.8046
  1039.0000     15.8787     21.2497     11.5515     60.7159
  1039.2500     15.5029     21.9185     11.3865     67.2370
  1039.5000     15.1019     22.5338     11.3260     78.3440
  1039.7500     14.6685     23.0533     11.3437     85.3365
  1040.0000     14.2546     23.4454     11.4101     93.9276
  1040.2500     13.9446     23.7033     11.4951     98.1132
  1040.5000     13.7695     23.8487     11.5716    102.0997
  1040.7500     13.7336     23.9231     11.6225    103.4987
  1041.0000     13.8566     23.9716     11.6477    104.3973
  1041.2500     14.1140     24.0298     11.6674    104.4502
  1041.5000     14.4184     24.1148     11.7162    103.7421
  1041.7500     14.7265     24.2221     11.8307    102.7175
  1042.0000     15.0852     24.3303     12.0390    100.4620
  1042.2500     15.5383     24.4146     12.3536     98.5189
  1042.5000     16.0519     24.4608     12.7723     94.7897
  1042.7500     16.5783     24.4725     13.2829     91.6542
  1043.0000     17.1685     24.4673     13.8713     86.1632
  1043.2500     17.9108     24.4696     14.5273     82.4365
  1043.5000     18.7561     24.5015     15.2443     78.0860
  1043.7500     19.5382     24.5776     16.0090     76.8338
