~Version Information
VERS.                      2.0: CWLS Log ASCII Standard - VERSION 2.0
WRAP.                       NO: One line per depth step
~Well Information Block
STRT.FT               625.0000: 
STOP.FT              2053.7500: 
STEP.FT                 0.2500: 
NULL.                -999.2500: 
COMP.          Pioneer Natural Resources: COMPANY
WELL.            Zink 44-10 Tr: WELL
FLD.           Purgatoire River: FIELD
LOC.           486' FSL & 554' FEL--: LOCATION
PROV.                 Colorado: PROVINCE
CNTY.               Las Animas: COUNTRY
SRVC.                Patterson: SERVICE COMPANY
DATE.          Sun Jul 24 06:18:01 2005: LOG DATE
UWI.           05 071 08446 00: UNIQUE WELL ID
~Curve Information Block
DEPT.FT            0 000 00 00: Depth
SN.Ohm-m                      : IEL Short Normal
SP.mV                         : IEL Spontaneous Potential
DIR.Ohm-m                     : IEL Induction Resistivity
GR.GAPI                       : Gamma Ray
~Parameter Information Block
~A  Depth        SN          SP         DIR          GR     
# ...
  1194.5000   2000.0000   1979.0000      8.6384    122.8815
  1194.7500   2000.0000   1979.0000      8.6074    122.8210
  1195.0000   2000.0000   1979.0000      8.6239    123.5688
  1195.2500   2000.0000   1979.0000      8.6833    124.0452
  1195.5000   2000.0000   1979.0000      8.7757    123.2633
  1195.7500   2000.0000   1979.0000      8.8897    121.3693
  1196.0000   2000.0000   1979.0000      9.0166    117.4128
  1196.2500   2000.0000   1979.0000      9.1533    115.0475
  1196.5000   2000.0000   1979.0000      9.3042    113.0303
  1196.7500   2000.0000   1979.0000      9.4799    112.7648
  1197.0000   2000.0000   1979.0000      9.6942    113.4621
  1197.2500   2000.0000   1979.0000      9.9595    114.1619
  1197.5000   2000.0000   1979.0000     10.2825    114.5989
  1197.7500   2000.0000   1979.0000     10.6632    114.1924
  1198.0000   2000.0000   1979.0000     11.0946    113.0124
  1198.2500   2000.0000   1979.0000     11.5642    112.3592
  1198.5000   2000.0000   1979.0000     12.0555    111.6036
  1198.7500   2000.0000   1979.0000     12.5471    110.6699
  1199.0000   2000.0000   1979.0000     13.0116    107.8546
  1199.2500   2000.0000   1979.0000     13.4165    105.2061
  1199.5000   2000.0000   1979.0000     13.7278    100.9326
  1199.7500   2000.0000   1979.0000     13.9193     98.3420
  1200.0000   2000.0000   1979.0000     13.9813     95.7851
  1200.2500   2000.0000   1979.0000     13.9262     95.7154
  1200.5000   2000.0000   1979.0000     13.7818     98.8502
  1200.7500   2000.0000   1979.0000     13.5785    102.7446
  1201.0000   2000.0000   1979.0000     13.3342    109.5897
  1201.2500   2000.0000   1979.0000     13.0490    113.8170
  1201.5000   2000.0000   1979.0000     12.7088    118.5968
  1201.7500   2000.0000   1979.0000     12.2981    120.4278
  1202.0000   2000.0000   1979.0000     11.8143    120.8769
  1202.2500   2000.0000   1979.0000     11.2782    119.7564
  1202.5000   2000.0000   1979.0000     10.7325    116.9725
  1202.7500   2000.0000   1979.0000     10.2298    115.4168
  1203.0000   2000.0000   1979.0000      9.8158    115.1667
  1203.2500   2000.0000   1979.0000      9.5181    116.6748
  1203.5000   2000.0000   1979.0000      9.3417    120.4922
  1203.7500   2000.0000   1979.0000      9.2722    122.9824
  1204.0000   2000.0000   1979.0000      9.2797    124.6701
  1204.2500   2000.0000   1979.0000      9.3262    123.5698
  1204.5000   2000.0000   1979.0000      9.3750    118.2068
  1204.7500   2000.0000   1979.0000      9.4004    112.8215
  1205.0000   2000.0000   1979.0000      9.3959    104.4798
  1205.2500   2000.0000   1979.0000      9.3734    100.3484
  1205.5000   2000.0000   1979.0000      9.3556     98.0578
  1205.7500   2000.0000   1979.0000      9.3654     99.2999
  1206.0000   2000.0000   1979.0000      9.4180    104.3972
  1206.2500   2000.0000   1979.0000      9.5170    108.9690
  1206.5000   2000.0000   1979.0000      9.6548    115.6753
  1206.7500   2000.0000   1979.0000      9.8166    119.1877
  1207.0000   2000.0000   1979.0000      9.9869    122.3977
  1207.2500   2000.0000   1979.0000     10.1590    123.1363
  1207.5000   2000.0000   1979.0000     10.3415    122.3492
  1207.7500   2000.0000   1979.0000     10.5583    120.9602
  1208.0000   2000.0000   1979.0000     10.8414    118.7237
  1208.2500   2000.0000   1979.0000     11.2206    117.5730
  1208.5000   2000.0000   1979.0000     11.7155    116.0814
  1208.7500   2000.0000   1979.0000     12.3301    114.8876
  1209.0000   2000.0000   1979.0000     13.0496    113.0452
  1209.2500   2000.0000   1979.0000     13.8390    112.4417
  1209.5000   2000.0000   1979.0000     14.6467    113.5242
  1209.7500   2000.0000   1979.0000     15.4163    115.6869
  1210.0000   2000.0000   1979.0000     16.1069    120.1397
  1210.2500   2000.0000   1979.0000     16.7081    122.7525
  1210.5000   2000.0000   1979.0000     17.2400    123.9207
  1210.7500   2000.0000   1979.0000     17.7367    122.1911
  1211.0000   2000.0000   1979.0000     18.2301    116.4854
  1211.2500   2000.0000   1979.0000     18.7437    111.6689
  1211.5000   2000.0000   1979.0000     19.2941    104.6094
  1211.7500   2000.0000   1979.0000     19.8913    100.5906
  1212.0000   2000.0000   1979.0000     20.5335     96.1781
  1212.2500   2000.0000   1979.0000     21.1993     94.6844
  1212.5000   2000.0000   1979.0000     21.8499     95.1536
  1212.7500   2000.0000   1979.0000     22.4392     97.0461
  1213.0000   2000.0000   1979.0000     22.9274    100.2580
  1213.2500   2000.0000   1979.0000     23.2856    100.9820
  1213.5000   2000.0000   1979.0000     23.4926     98.3222
  1213.7500   2000.0000   1979.0000     23.5346     94.6420
  1214.0000   2000.0000   1979.0000     23.4134     89.2394
  1214.2500   2000.0000   1979.0000     23.1537     87.4258
  1214.5000   2000.0000   1979.0000     22.7989     88.5796
  1214.7500   2000.0000   1979.0000     22.3952     91.5208
  1215.0000   2000.0000   1979.0000     21.9772     97.5505
  1215.2500   2000.0000   1979.0000     21.5648    101.7773
  1215.5000   2000.0000   1979.0000     21.1728    107.6620
  1215.7500   2000.0000   1979.0000     20.8221    111.0530
  1216.0000   2000.0000   1979.0000     20.5446    114.6037
  1216.2500   2000.0000   1979.0000     20.3778    115.2900
  1216.5000   2000.0000   1979.0000     20.3516    112.9722
  1216.7500   2000.0000   1979.0000     20.4762    109.1346
  1217.0000   2000.0000   1979.0000     20.7395    100.4296
  1217.2500   2000.0000   1979.0000     21.1141     93.1754
  1217.5000   2000.0000   1979.0000     21.5692     81.3273
  1217.7500   2000.0000   1979.0000     22.0813     73.6274
  1218.0000   2000.0000   1979.0000     22.6392     63.8515
  1218.2500   2000.0000   1979.0000     23.2411     59.2525
  1218.5000   2000.0000   1979.0000     23.8879     55.9186
  1218.7500   2000.0000   1979.0000     24.5742     55.9854
  1219.0000   2000.0000   1979.0000     25.2813     58.4886
  1219.2500   2000.0000   1979.0000     25.9750     60.7844
  1219.5000   2000.0000   1979.0000     26.6058     63.4513
  1219.7500   2000.0000   1979.0000     27.1137     64.1066
  1220.0000   2000.0000   1979.0000     27.4369     63.5566
  1220.2500   2000.0000   1979.0000     27.5260     62.7968
  1220.5000   2000.0000   1979.0000     27.3519     62.1440
  1220.7500   2000.0000   1979.0000     26.9039     62.2777
  1221.0000   2000.0000   1979.0000     26.1863     63.3808
  1221.2500   2000.0000   1979.0000     25.2251     64.9672
  1221.5000   2000.0000   1979.0000     24.0780     69.5179
  1221.7500   2000.0000   1979.0000     22.8310     74.3544
  1222.0000   2000.0000   1979.0000     21.5757     83.9419
  1222.2500   2000.0000   1979.0000     20.3838     91.2208
  1222.5000   2000.0000   1979.0000     19.2965    102.2906
  1222.7500   2000.0000   1979.0000     18.3315    109.1869
  1223.0000   2000.0000   1979.0000     17.4969    117.5739
  1223.2500   2000.0000   1979.0000     16.8005    121.0368
  1223.5000   2000.0000   1979.0000     16.2512    122.4080
  1223.7500   2000.0000   1979.0000     15.8546    121.2071
  1224.0000   2000.0000   1979.0000     15.6115    117.7076
  1224.2500   2000.0000   1979.0000     15.5190    114.9893
  1224.5000   2000.0000   1979.0000     15.5740    111.1190
  1224.7500   2000.0000   1979.0000     15.7745    108.9684
  1225.0000   2000.0000   1979.0000     16.1187    106.6530
  1225.2500   2000.0000   1979.0000     16.6004    105.6402
  1225.5000   2000.0000   1979.0000     17.2047    104.4250
  1225.7500   2000.0000   1979.0000     17.9034    103.5560
  1226.0000   2000.0000   1979.0000     18.6511    102.0523
  1226.2500   2000.0000   1979.0000     19.3834    100.8127
  1226.5000   2000.0000   1979.0000     20.0201     98.0399
  1226.7500   2000.0000   1979.0000     20.4790     95.4774
  1227.0000   2000.0000   1979.0000     20.6978     91.7695
  1227.2500   2000.0000   1979.0000     20.6564     90.6007
  1227.5000   2000.0000   1979.0000     20.3857     92.0498
  1227.7500   2000.0000   1979.0000     19.9576     94.9197
