~Version Information
VERS.                      2.0: CWLS Log ASCII Standard - VERSION 2.0
WRAP.                       NO: One line per depth step
~Well Information Block
STRT.FT               670.0000: 
STOP.FT              2108.5000: 
STEP.FT                 0.1000: 
NULL.                -999.2500: 
COMP.          Petrogulf Corporation: COMPANY
WELL.           Montoya 12-44R: WELL
FLD.           Purgatorie River: FIELD
LOC.           713' FSL & 798' FEL: LOCATION
PROV.                 Colorado: PROVINCE
CNTY.               Las Animas: COUNTRY
SRVC.                Patterson: SERVICE COMPANY
DATE.          Mon Oct 03 07:50:59 2005: LOG DATE
UWI.           05-071-08538               : UNIQUE WELL ID
~Curve Information Block
DEPT.FT            0 000 00 00: Depth
DCAL.in                       : CDL Caliper
RHOB.g/cc                     : CDL Bulk Density
RHOC.g/cc                     : CDL Density Correction
DPOR.pu                       : CDL Density Porosity
GR.GAPI                       : Gamma Ray
NPOR.pu                       : Neutron Porosity
~Parameter Information Block
~A  Depth       DCAL        RHOB        RHOC        DPOR         GR         NPOR    
# ...
  1236.4000      8.1957      1.8005      0.1024     51.4871    114.5412     33.0116
  1236.5000      8.2091      1.8967      0.1779     45.6556    116.0135     33.5113
  1236.6000      8.2091      1.9826      0.1613     40.4479    116.2174     33.7734
  1236.7000      8.2091      2.0586      0.1763     35.8416    116.4798     33.6561
  1236.8000      8.2806      2.1317      0.1677     31.4093    118.8905     33.4426
  1236.9000      8.2806      2.1920      0.1315     27.7549    124.6216     33.3254
  1237.0000      8.3076      2.2307      0.0610     25.4124    132.3528     33.3315
  1237.1000      8.3076      2.2561      0.0236     23.8748    138.8750     33.3495
  1237.2000      8.3076      2.2788      0.0345     22.4990    140.9879     33.1815
  1237.3000      8.3196      2.3020      0.0221     21.0890    139.5670     32.8846
  1237.4000      8.3196      2.3273      0.0786     19.5546    137.1552     32.6775
  1237.5000      8.3300      2.3547      0.0775     17.9000    136.5270     32.5183
  1237.6000      8.3300      2.3822      0.0768     16.2330    139.4430     32.3392
  1237.7000      8.3300      2.3991      0.1114     15.2056    142.4652     32.3020
  1237.8000      8.3161      2.3994      0.0314     15.1866    143.9840     32.3271
  1237.9000      8.3161      2.3936      0.0181     15.5418    145.0822     32.2138
  1238.0000      8.3193      2.3874      0.0378     15.9148    144.0535     32.1079
  1238.1000      8.3193      2.3854      0.0156     16.0376    140.1656     32.2348
  1238.2000      8.3193      2.3966      0.0407     15.3562    135.4708     32.4684
  1238.3000      8.3583      2.4194      0.0539     13.9756    132.9852     32.6121
  1238.4000      8.3583      2.4444      0.0710     12.4584    135.1467     32.5469
  1238.5000      8.3544      2.4594      0.1178     11.5519    141.5145     32.1782
  1238.6000      8.3544      2.4553      0.0906     11.7973    147.6797     31.8216
  1238.7000      8.3544      2.4356      0.0950     12.9920    149.7524     31.6905
  1238.8000      8.3068      2.4039      0.1062     14.9148    148.4729     31.5190
  1238.9000      8.3068      2.3657      0.0663     17.2277    146.7074     31.3774
  1239.0000      8.3346      2.3413      0.0688     18.7121    145.0795     31.5627
  1239.1000      8.3346      2.3372      0.1186     18.9595    144.1800     32.0648
  1239.2000      8.3346      2.3343      0.1247     19.1315    144.8076     32.7008
  1239.3000      8.3042      2.3240      0.0762     19.7551    145.9873     33.2099
  1239.4000      8.3042      2.3109      0.1032     20.5504    146.5866     33.4618
  1239.5000      8.3423      2.2930      0.0660     21.6344    146.6074     33.5760
  1239.6000      8.3423      2.2736      0.0445     22.8137    148.9521     33.5497
  1239.7000      8.3423      2.2596      0.0359     23.6619    154.7833     33.3286
  1239.8000      8.4084      2.2399      0.0497     24.8547    159.5573     33.2562
  1239.9000      8.4084      2.1931      0.0477     27.6908    157.6740     33.4111
  1240.0000      8.3009      2.1210      0.0009     32.0597    148.4577     33.3099
  1240.1000      8.3009      2.0464      0.0060     36.5826    135.0037     32.9583
  1240.2000      8.3009      1.9768      0.0026     40.7979    121.4216     32.7259
  1240.3000      8.2835      1.8995     -0.0390     45.4875    111.1438     32.6608
  1240.4000      8.2835      1.8025     -0.0537     51.3665    105.2742     32.6595
  1240.5000      8.2800      1.6990     -0.0949     57.6362    102.5659     32.6813
  1240.6000      8.2800      1.6251     -0.1098     62.1135    102.5807     32.8559
  1240.7000      8.2800      1.5917     -0.0372     64.1393    103.2709     33.2406
  1240.8000      8.2784      1.5629      0.0485     65.8830     99.4934     33.6142
  1240.9000      8.2784      1.5146     -0.0209     68.8148     90.7908     33.7717
  1241.0000      8.2766      1.4647     -0.0598     71.8335     83.0781     33.8175
  1241.1000      8.2766      1.4248     -0.0399     74.2552     79.8993     33.9129
  1241.2000      8.2766      1.3852     -0.0474     76.6534     80.1791     34.0144
  1241.3000      8.2713      1.3539     -0.0658     78.5537     81.5068     34.1279
  1241.4000      8.2713      1.3543     -0.0360     78.5243     80.5098     34.3200
  1241.5000      8.2705      1.3956      0.0165     76.0220     75.2161     34.6559
  1241.6000      8.2705      1.4695      0.0935     71.5451     68.8334     35.0521
  1241.7000      8.2705      1.5611      0.1287     65.9963     67.4724     35.3604
  1241.8000      8.2846      1.6566      0.1499     60.2072     71.7398     35.5335
  1241.9000      8.2846      1.7578      0.1832     54.0708     76.8841     35.3699
  1242.0000      8.4161      1.8760      0.2109     46.9079     81.4855     34.7919
  1242.1000      8.4161      2.0035      0.2346     39.1815     86.5991     34.3217
  1242.2000      8.4161      2.1198      0.2420     32.1316     91.6911     34.3630
  1242.3000      8.5907      2.2211      0.2530     25.9919     97.2079     34.6045
  1242.4000      8.5907      2.3147      0.2320     20.3234    104.9096     34.4386
  1242.5000      8.6709      2.3882      0.2436     15.8661    113.1187     33.7625
  1242.6000      8.6709      2.4210      0.1693     13.8762    116.3872     32.9081
  1242.7000      8.6709      2.4267      0.0355     13.5355    115.6926     32.0333
  1242.8000      8.4223      2.4398      0.0380     12.7399    117.7216     31.2289
  1242.9000      8.4223      2.4698      0.0511     10.9211    122.7163     30.7302
  1243.0000      8.3036      2.4973      0.0546      9.2525    127.0508     30.5170
  1243.1000      8.3036      2.5026      0.0656      8.9343    130.0731     30.1767
  1243.2000      8.3036      2.4835      0.0483     10.0926    132.6760     29.4650
  1243.3000      8.2668      2.4524      0.0322     11.9784    133.2048     28.6887
  1243.4000      8.2668      2.4243     -0.0040     13.6794    132.5458     28.1866
  1243.5000      8.2391      2.4098      0.0464     14.5602    135.2491     28.0003
  1243.6000      8.2391      2.4121      0.0357     14.4192    140.9613     27.9431
  1243.7000      8.2391      2.4318      0.0659     13.2253    146.2873     27.8814
  1243.8000      8.2112      2.4650      0.0715     11.2093    148.5522     27.9489
  1243.9000      8.2112      2.5104      0.0374      8.4626    146.4287     28.1647
  1244.0000      8.1753      2.5662      0.0987      5.0791    142.9561     28.4042
  1244.1000      8.1753      2.6126      0.2096      2.2638    142.3043     28.6562
  1244.2000      8.1753      2.6268      0.2417      1.4073    143.2441     28.7844
  1244.3000      8.1623      2.6088      0.2464      2.4992    143.5373     28.5461
  1244.4000      8.1623      2.5722      0.1913      4.7181    143.4108     28.0175
  1244.5000      8.1507      2.5333      0.1215      7.0748    141.9612     27.5536
  1244.6000      8.1507      2.5070      0.0639      8.6674    139.4815     27.4487
  1244.7000      8.1507      2.4977      0.0295      9.2321    138.2124     27.7437
  1244.8000      8.1467      2.4985      0.0416      9.1798    139.7315     28.2209
  1244.9000      8.1467      2.5031      0.0690      8.9058    142.5784     28.6763
  1245.0000      8.1421      2.5153      0.0481      8.1618    144.4948     28.9125
  1245.1000      8.1421      2.5383      0.0793      6.7668    146.2525     28.8106
  1245.2000      8.1421      2.5538      0.1075      5.8328    146.5186     28.5245
  1245.3000      8.1391      2.5454      0.0908      6.3421    144.3464     28.2657
  1245.4000      8.1391      2.5291      0.0455      7.3254    144.8381     28.1538
  1245.5000      8.1271      2.5277      0.0443      7.4101    146.5601     28.1318
  1245.6000      8.1271      2.5416      0.0619      6.5682    142.7419     28.0646
  1245.7000      8.1271      2.5610      0.0708      5.3969    134.0146     27.9564
  1245.8000      8.1140      2.5786      0.1017      4.3287    125.5781     27.8678
  1245.9000      8.1140      2.5869      0.0834      3.8253    120.3734     27.7140
