~Version Information
VERS.                      2.0: CWLS Log ASCII Standard - VERSION 2.0
WRAP.                       NO: One line per depth step
~Well Information Block
STRT.FT                -7.5000: 
STOP.FT              1572.0000: 
STEP.FT                 0.2500: 
NULL.                -999.2500: 
COMP.          Pioneer Natural Resources: COMPANY
WELL.          Galloway 32-13 Tr: WELL
FLD.           Purgatoire River: FIELD
LOC.           --1910' FNL & 2002' FEL----: LOCATION
PROV.                       CO: PROVINCE
CNTY.               Las Animas: COUNTRY
SRVC.          Patterson Wireline: SERVICE COMPANY
DATE.          Thu Nov 17 12:46:45 2005: LOG DATE
UWI.           05 071 08608 00: UNIQUE WELL ID
~Curve Information Block
DEPT.FT            0 000 00 00: Depth
CCL.                          : Casing Collar Locator
TT3.usec                      : CBL 3' Travel Time
AMP3.mV                       : CBL 3' Amplitude
GR.GAPI                       : Gamma Ray
~Parameter Information Block
~A  Depth       CCL         TT3         AMP3         GR     
# ...
   595.5000      0.0000    283.6929     43.6649     79.0346
   595.7500      0.0000    283.5471     44.1521     79.9882
   596.0000      0.0000    283.4299     44.5941     82.6252
   596.2500      0.0000    283.3567     44.9442     86.0625
   596.5000      0.0000    283.3374     45.1726     87.8532
   596.7500      0.0000    283.3750     45.2694     86.5080
   597.0000      0.0000    283.4630     45.2396     83.1483
   597.2500      0.0000    283.5840     45.1041     80.4113
   597.5000      0.0000    283.7136     44.9007     80.0002
   597.7500      0.0000    283.8289     44.6744     81.5034
   598.0000      0.0000    283.9195     44.4620     83.3188
   598.2500      0.0000    283.9952     44.2790     84.4002
   598.5000      0.0000    284.1122     44.1086     85.0800
   598.7500      0.0000    284.4491     43.8793     86.2348
   599.0000      0.0000    285.4199     43.4282     87.9632
   599.2500      0.0000    287.6798     42.4807     89.6008
   599.5000      0.0000    291.7742     40.7661     90.8802
   599.7500      0.0000    297.5421     38.2948     92.1572
   600.0000      0.0000    304.0015     35.5176     93.2348
   600.2500      0.0000    310.1225     33.0553     92.8125
   600.5000      0.0000    315.5704     31.2531     89.7316
   600.7500      0.0000    320.4104     30.1027     84.5229
   601.0000      0.0000    324.4272     29.4816     79.3933
   601.2500      0.0000    327.2101     29.2711     76.7088
   601.5000      0.0000    328.6953     29.3104     77.4846
   601.7500      2.0000    329.2247     29.4242     81.1437
   602.0000     -2.0000    329.1288     29.5030     86.4140
   602.2500      0.0000    328.3928     29.5430     92.1334
   602.5000      0.0000    326.6765     29.6744     97.1488
   602.7500      0.0000    323.6671     30.1485    100.0747
   603.0000      0.0000    319.4759     31.1847    100.0450
   603.2500      0.0000    314.5521     32.8178     97.7838
   603.5000      0.0000    309.1226     34.9691     95.4001
   603.7500      0.0000    303.0910     37.5298     94.8996
   604.0000      0.0000    296.7219     40.2119     96.9593
   604.2500      0.0000    290.9896     42.5039    100.8651
   604.5000      0.0000    286.8798     44.0064    105.1801
   604.7500      0.0000    284.5977     44.7275    108.6247
   605.0000      0.0000    283.6356     44.9618    110.7064
   605.2500      0.0000    283.3498     44.9984    111.5621
   605.5000      0.0000    283.3211     44.9972    111.2191
   605.7500      0.0000    283.3607     45.0299    109.2845
   606.0000      0.0000    283.4040     45.1266    105.5961
   606.2500      0.0000    283.4330     45.2905    100.9598
   606.5000      0.0000    283.4432     45.5051     96.6673
   606.7500      0.0000    283.4319     45.7559     93.2865
   607.0000      0.0000    283.3973     46.0482     90.5106
   607.2500      0.0000    283.3425     46.4041     88.0567
   607.5000      0.0000    283.2778     46.8377     86.0242
   607.7500      0.0000    283.2158     47.3306     84.7175
   608.0000      0.0000    283.1664     47.8323     84.8036
   608.2500      0.0000    283.1359     48.2866     87.1063
   608.5000      0.0000    283.1276     48.6523     91.3857
   608.7500      0.0000    283.1431     48.9002     95.5380
   609.0000      0.0000    283.1821     49.0052     96.5943
   609.2500      0.0000    283.2410     48.9564     92.8807
   609.5000      0.0000    283.3132     48.7721     85.4791
   609.7500      0.0000    283.3911     48.4923     77.6940
   610.0000      0.0000    283.4713     48.1453     72.9049
   610.2500      0.0000    283.5578     47.7237     72.5736
   610.5000      0.0000    283.6587     47.2008     75.8912
   610.7500      0.0000    283.7780     46.5714     80.8453
   611.0000      0.0000    283.9113     45.8734     85.4116
   611.2500      0.0000    284.0488     45.1679     88.0431
   611.5000      0.0000    284.1814     44.5050     87.7036
   611.7500      0.0000    284.3021     43.9108     84.1014
   612.0000      0.0000    284.4046     43.3979     78.0144
   612.2500      0.0000    284.4831     42.9781     71.1120
   612.5000      0.0000    284.5324     42.6698     65.2197
   612.7500      0.0000    284.5490     42.4959     61.5395
   613.0000      0.0000    284.5313     42.4711     60.3351
   613.2500      0.0000    284.4813     42.5898     61.2635
   613.5000      0.0000    284.4054     42.8291     63.8439
   613.7500      0.0000    284.3117     43.1613     67.3013
   614.0000      0.0000    284.2074     43.5590     70.3272
   614.2500      0.0000    284.0986     43.9904     71.8928
   614.5000      0.0000    283.9897     44.4159     72.3165
   614.7500      0.0000    283.8836     44.7960     72.6627
   615.0000      0.0000    283.7819     45.1076     72.9777
   615.2500      0.0000    283.6850     45.3566     71.8815
   615.5000      0.0000    283.5925     45.5742     68.1916
   615.7500      0.0000    283.5047     45.7959     62.5009
   616.0000      0.0000    283.4256     46.0321     56.8676
   616.2500      0.0000    283.3648     46.2503     53.1620
   616.5000      0.0000    283.3355     46.3830     51.8166
   616.7500      0.0000    283.3495     46.3603     51.8981
   617.0000      0.0000    283.4112     46.1452     52.0626
   617.2500      0.0000    283.5140     45.7528     51.5541
   617.5000      0.0000    283.6432     45.2405     50.7694
   617.7500      0.0000    283.7819     44.6774     51.0128
   618.0000      0.0000    283.9180     44.1182     53.4747
   618.2500      0.0000    284.0446     43.5982     58.2224
   618.5000      0.0000    284.1564     43.1448     64.0592
   618.7500      0.0000    284.2450     42.7938     69.2250
   619.0000      0.0000    284.2995     42.5916     72.2550
   619.2500      0.0000    284.3137     42.5679     72.4565
   619.5000      0.0000    284.2946     42.6934     69.8798
   619.7500      0.0000    284.2611     42.8827     65.1024
   620.0000      0.0000    284.2322     43.0539     59.1731
   620.2500      0.0000    284.2139     43.1838     53.4880
   620.5000      0.0000    284.1994     43.2979     49.2026
   620.7500      0.0000    284.1790     43.4243     46.6551
   621.0000      0.0000    284.1467     43.5737     45.5878
   621.2500      0.0000    284.0985     43.7606     45.8409
   621.5000      0.0000    284.0287     44.0281     47.5213
   621.7500      0.0000    283.9327     44.4344     50.6922
   622.0000      0.0000    283.8130     45.0057     55.4187
   622.2500      0.0000    283.6808     45.6959     62.0377
   622.5000      0.0000    283.5508     46.4027     70.7008
   622.7500      0.0000    283.4323     47.0314     80.3110
   623.0000      0.0000    283.3267     47.5433     88.3053
   623.2500      0.0000    283.2310     47.9512     92.1800
   623.5000      0.0000    283.1423     48.2873     91.4101
   623.7500      0.0000    283.0598     48.5802     87.5243
   624.0000      0.0000    282.9840     48.8446     82.3189
   624.2500      0.0000    282.9156     49.0735     76.5982
   624.5000      0.0000    282.8564     49.2360     70.7089
   624.7500      0.0000    282.8101     49.2928     65.5097
   625.0000      0.0000    282.7822     49.2187     62.3133
   625.2500      0.0000    282.7764     49.0166     62.0989
   625.5000      0.0000    282.7914     48.7169     64.9324
   625.7500      0.0000    282.8217     48.3675     69.9712
   626.0000      0.0000    282.8600     48.0125     75.9128
   626.2500      0.0000    282.8990     47.6718     81.5086
   626.5000      0.0000    282.9309     47.3447     85.8355
   626.7500      0.0000    282.9465     47.0414     88.4575
   627.0000      0.0000    282.9394     46.7964     89.5709
   627.2500      0.0000    282.9125     46.6350     89.8547
   627.5000      0.0000    282.8817     46.5259     89.9022
   627.7500      0.0000    282.8707     46.3844     89.9101
   628.0000      0.0000    282.9008     46.1281     89.9792
   628.2500      0.0000    282.9810     45.7312     90.2950
   628.5000      0.0000    283.1065     45.2308     90.7456
   628.7500      0.0000    283.2641     44.6908     90.7211
