~Version Information
 VERS.                                  2.0 : CWLS LAS VERSION
 WRAP.                                   NO : WRAPING MODE
 SWARE .                  MController 2.5.1 : SOFTWARE VERSION
~Well Information
 WELL.                        Loews41-32 Tr : WELL
 COMP.  Pioneer Natural Resources USA, Inc. : COMPANY
 FLD.                      Purgatoire River : FIELD
 LOC.             NW/NE Sec. 32, T32S, R67W : LOCATION
 DATE.                           02/20/2006 : DATE(S) LOGGED
 SRVC.                  Entrada GeoSciences : SERVICE COMPANY
 STAT.                             Colorado : STATE
 CNTY.                           Las Animas : COUNTY
 CTRY.                        United States : COUNTRY
 API.                          05-071-08690 : API NUMBER
 STRT.FT                             638.00 : START DEPTH
 STOP.FT                            1825.00 : STOP DEPTH
 STEP.FT                               1.00 : DEPTH INCREMENT
 NULL.                                -9999 : NULL VALUE
~Curve information
 DEPTH.FT                                   :
 ROP.MIN/FT                                 :
 GAS.UNITS                                  :
~ASCII Log data
      638.00     -9999.00          7.7 
      639.00         0.27          7.7 
      640.00         0.40          8.2 
      641.00         0.27          8.2 
      642.00         0.27          7.7 
      643.00         0.27          6.8 
      644.00         0.33          8.5 
      645.00         0.27          8.5 
      646.00         0.33          7.3 
      647.00         0.28          8.9 
      648.00         0.27          7.7 
      649.00         0.27          8.3 
      650.00         0.27          8.0 
      651.00         0.27          7.3 
      652.00         0.27          8.2 
      653.00         0.27          7.8 
      654.00         0.27          7.1 
      655.00         0.27          8.0 
      656.00         0.27          8.0 
      657.00         0.13          8.0 
      658.00         0.30          7.5 
      659.00         0.27          7.2 
      660.00         0.22          7.5 
      661.00         0.27          7.5 
      662.00         0.40          7.4 
      663.00         0.20          8.5 
      664.00         0.23          8.4 
      665.00         0.23          8.2 
      666.00         0.27          8.7 
      667.00         0.23          8.3 
      668.00         0.23          8.9 
      669.00         0.23          7.1 
      670.00         0.23          8.5 
      671.00         0.23          8.1 
      672.00         0.23          8.0 
      673.00         0.20          7.2 
      674.00         0.28          7.9 
      675.00         0.30          8.2 
      676.00         0.40          8.1 
      677.00         0.37          8.0 
      678.00         0.43          8.2 
      679.00         0.40          8.2 
      680.00         0.20          7.3 
      681.00         0.17          7.9 
      682.00         0.20          7.2 
      683.00         0.23          8.3 
      684.00         0.20          8.7 
      685.00         0.28          8.1 
      686.00         0.40          7.4 
      687.00         0.18          8.3 
      688.00         0.23          8.4 
      689.00         0.20          8.6 
      690.00         0.20          8.8 
      691.00         0.23          8.8 
      692.00         0.33          8.8 
      693.00         0.43          8.4 
      694.00         0.33          9.0 
      695.00         0.37          8.3 
      696.00         0.37          7.7 
      697.00         0.27          9.1 
      698.00         0.32          8.8 
      699.00         0.27          8.2 
      700.00         0.27          7.4 
      701.00         0.23          8.7 
      702.00         0.27          7.2 
      703.00         0.27          8.2 
      704.00         0.33          7.8 
      705.00         0.40          8.1 
      706.00         0.23          7.9 
      707.00         0.20          7.1 
      708.00         0.17          8.4 
      709.00         0.20          7.6 
      710.00         0.30          8.1 
      711.00         0.22          8.2 
      712.00         0.20          8.7 
      713.00         0.30          7.3 
      714.00         0.37          8.5 
      715.00         0.33          8.8 
      716.00         0.73          8.1 
      717.00         0.30          8.1 
      718.00         0.27          8.2 
      719.00         0.30          8.0 
      720.00         0.30          6.7 
      721.00         0.33          8.0 
      722.00         0.30          8.5 
      723.00         0.30          8.4 
      724.00         0.30          9.8 
      725.00         0.48          9.6 
      726.00         0.47          9.1 
      727.00         0.33          7.5 
      728.00         0.30          7.2 
      729.00         0.23          7.4 
      730.00         0.27          7.3 
      731.00         0.27          7.5 
      732.00         0.27          6.9 
      733.00         0.23          7.4 
      734.00         0.23          6.8 
      735.00         0.27          7.5 
      736.00         0.28          7.0 
      737.00         0.27          7.5 
      738.00         0.20          8.8 
      739.00         0.23          8.8 
      740.00         0.20          8.8 
      741.00         0.23          8.5 
      742.00         0.23          8.5 
      743.00         0.23          8.8 
      744.00         0.20          9.1 
      745.00         0.17          8.5 
      746.00         0.53          9.1 
      747.00         0.27         73.0 
      748.00         0.30        108.9 
      749.00         0.20         78.7 
      750.00         0.23         37.5 
      751.00         0.23         20.6 
      752.00         0.13         12.2 
      753.00         0.18         11.3 
      754.00         0.13          8.2 
      755.00         0.17          8.3 
      756.00         0.13          7.2 
      757.00         0.13          6.2 
      758.00         0.17          5.9 
      759.00         0.17          5.8 
      760.00         0.13          8.4 
      761.00         0.20          8.3 
      762.00         0.20          9.0 
      763.00         0.17          8.3 
      764.00         0.17          9.7 
      765.00         0.23          9.7 
      766.00         0.23          9.3 
      767.00         0.17         10.7 
      768.00         0.20         10.4 
      769.00         0.20         10.4 
      770.00         0.20          9.8 
      771.00         0.25         10.4 
      772.00         0.20         10.4 
      773.00         0.20         10.4 
      774.00         0.20         10.3 
      775.00         0.33         10.4 
      776.00         0.27         10.4 
      777.00         0.23         10.6 
      778.00         0.30         11.0 
      779.00         0.30         10.9 
      780.00         0.23         10.3 
      781.00         0.27         11.3 
      782.00         0.30         11.1 
      783.00         0.37         11.3 
      784.00         0.33         10.7 
      785.00         0.23         10.5 
      786.00         0.33         11.3 
      787.00         0.35         11.2 
      788.00         0.30         11.3 
      789.00         0.40         10.5 
      790.00         0.27         10.4 
      791.00         0.20         11.2 
      792.00         0.20         11.2 
      793.00         0.20         11.1 
      794.00         0.27         11.4 
      795.00         0.30         11.0 
      796.00         0.23         11.1 
      797.00         0.20         11.7 
      798.00         0.20         11.2 
      799.00         0.23         11.4 
      800.00         0.23         10.7 
      801.00         0.25         11.0 
      802.00         0.23         11.2 
      803.00         0.23         10.2 
      804.00         0.23         11.3 
      805.00         0.20         11.1 
      806.00         0.27         11.2 
      807.00         0.40         11.3 
      808.00         0.33         11.3 
      809.00         0.33         12.0 
      810.00         0.27         11.5 
      811.00         0.22         11.9 
      812.00         0.30         11.6 
      813.00         0.20         11.1 
      814.00         0.17         11.4 
      815.00         0.37         11.2 
      816.00         0.13         11.8 
      817.00         0.20         11.8 
      818.00         0.13         11.5 
      819.00         0.13         11.5 
      820.00         0.33         11.8 
      821.00         0.27         10.7 
      822.00         0.23         10.6 
      823.00         0.27         11.9 
      824.00         0.27         11.6 
      825.00         0.23         11.9 
      826.00         0.32         12.6 
      827.00         0.47         13.4 
      828.00         0.27         13.6 
      829.00         0.23         12.3 
      830.00         0.27         12.0 
      831.00         0.20         12.0 
      832.00         0.20         12.4 
      833.00         0.20         11.7 
      834.00         0.13         11.7 
      835.00         0.30         11.7 
      836.00         0.23         11.4 
      837.00         0.13         10.9 
