~Version Information
VERS.                      2.0: CWLS Log ASCII Standard - VERSION 2.0
WRAP.                       NO: One line per depth step
~Well Information Block
STRT.FT               480.0000: 
STOP.FT              1946.0000: 
STEP.FT                 0.2500: 
NULL.                -999.2500: 
COMP.          XTO Energy Inc.: COMPANY
WELL.          Golden Eagle 19-15: WELL
FLD.           Purgatoire River: FIELD
LOC.           1121' FSL & 2332' FEL--: LOCATION
CNTY.               Las Animas: COUNTY
SRVC.                Patterson: SERVICE COMPANY
DATE.          Sun Mar 12 15:00:51 2006: LOG DATE
UWI.           05 071 08717 00: UNIQUE WELL ID
STAT.                 Colorado: STATE
~Curve Information Block
DEPT.FT            0 000 00 00: Depth
SP.mV                         : DIL Spontaneous Potential
RILD.Ohm-m                    : DIL Deep Resistivity
RILM.Ohm-m                    : DIL Medium Resistivity
RLL3.Ohm-m                    : DIL Shallow Resistivity
GR.GAPI                       : Gamma Ray
~Parameter Information Block
~A  Depth        SP         RILD        RILM        RLL3         GR     
# ...
  1235.0000     -5.1498     18.0176     17.9363     19.4953     64.0836
  1235.2500     -5.0314     17.7331     17.8033     19.5297     61.4712
  1235.5000     -4.9324     17.4909     17.6099     19.3882     60.4642
  1235.7500     -4.8505     17.3002     17.3752     19.1082     60.0552
  1236.0000     -4.7833     17.1553     17.1212     18.7327     58.0943
  1236.2500     -4.7311     17.0404     16.8674     18.3094     55.7815
  1236.5000     -4.6973     16.9391     16.6273     17.8927     51.6888
  1236.7500     -4.6836     16.8419     16.4095     17.5378     49.2337
  1237.0000     -4.6881     16.7491     16.2196     17.2859     46.6944
  1237.2500     -4.7084     16.6667     16.0614     17.1495     45.7317
  1237.5000     -4.7425     16.5987     15.9368     17.1077     44.8089
  1237.7500     -4.7863     16.5413     15.8460     17.1186     44.3255
  1238.0000     -4.8342     16.4867     15.7885     17.1440     44.1687
  1238.2500     -4.8840     16.4330     15.7648     17.1722     44.9219
  1238.5000     -4.9419     16.3906     15.7767     17.2275     47.7694
  1238.7500     -5.0195     16.3780     15.8277     17.3598     50.4834
  1239.0000     -5.1253     16.4095     15.9226     17.6193     54.2892
  1239.2500     -5.2574     16.4860     16.0655     18.0317     55.7653
  1239.5000     -5.4024     16.5951     16.2563     18.5832     56.1119
  1239.7500     -5.5400     16.7200     16.4881     19.2234     55.8154
  1240.0000     -5.6505     16.8503     16.7464     19.8810     56.0352
  1240.2500     -5.7234     16.9870     17.0128     20.4853     56.8085
  1240.5000     -5.7619     17.1378     17.2697     20.9832     58.0495
  1240.7500     -5.7768     17.3076     17.5059     21.3480     58.3105
  1241.0000     -5.7771     17.4933     17.7196     21.5787     57.3174
  1241.2500     -5.7662     17.6861     17.9143     21.6951     55.8004
  1241.5000     -5.7494     17.8804     18.0962     21.7322     53.1049
  1241.7500     -5.7420     18.0797     18.2730     21.7356     51.9046
  1242.0000     -5.7660     18.2943     18.4574     21.7581     52.3072
  1242.2500     -5.8355     18.5328     18.6666     21.8536     54.0953
  1242.5000     -5.9465     18.7938     18.9170     22.0687     57.7051
  1242.7500     -6.0785     19.0656     19.2165     22.4362     59.6278
  1243.0000     -6.2081     19.3321     19.5610     22.9716     60.4894
  1243.2500     -6.3203     19.5808     19.9357     23.6738     59.5360
  1243.5000     -6.4100     19.8045     20.3217     24.5262     56.3833
  1243.7500     -6.4722     19.9977     20.7036     25.4951     53.7992
  1244.0000     -6.4941     20.1521     21.0730     26.5270     50.2477
  1244.2500     -6.4594     20.2589     21.4244     27.5469     48.3218
  1244.5000     -6.3583     20.3142     21.7459     28.4623     46.0929
  1244.7500     -6.1941     20.3210     22.0148     29.1741     45.2088
  1245.0000     -5.9845     20.2868     22.1995     29.5939     45.2286
  1245.2500     -5.7625     20.2220     22.2706     29.6634     46.0520
  1245.5000     -5.5742     20.1409     22.2126     29.3689     47.7259
  1245.7500     -5.4647     20.0596     22.0304     28.7445     48.8344
  1246.0000     -5.4559     19.9889     21.7482     27.8609     50.7818
  1246.2500     -5.5303     19.9267     21.4004     26.8060     52.5939
  1246.5000     -5.6381     19.8582     21.0204     25.6682     56.0573
  1246.7500     -5.7224     19.7644     20.6352     24.5281     58.3867
  1247.0000     -5.7470     19.6332     20.2634     23.4578     60.6400
  1247.2500     -5.7134     19.4625     19.9165     22.5211     60.6444
  1247.5000     -5.6527     19.2585     19.6012     21.7677     58.1030
  1247.7500     -5.5970     19.0319     19.3217     21.2245     55.2183
  1248.0000     -5.5556     18.7988     19.0824     20.8896     50.6125
  1248.2500     -5.5220     18.5804     18.8869     20.7351     48.0227
  1248.5000     -5.4955     18.3995     18.7357     20.7198     45.0484
  1248.7500     -5.4820     18.2727     18.6259     20.8040     43.4787
  1249.0000     -5.4725     18.2041     18.5540     20.9611     41.7930
  1249.2500     -5.4386     18.1864     18.5201     21.1778     41.4550
  1249.5000     -5.3594     18.2082     18.5261     21.4450     42.4459
  1249.7500     -5.2459     18.2598     18.5712     21.7446     43.7682
  1250.0000     -5.1321     18.3365     18.6486     22.0424     45.6772
  1250.2500     -5.0442     18.4358     18.7490     22.2946     46.5527
  1250.5000     -4.9840     18.5563     18.8667     22.4688     47.5795
  1250.7500     -4.9379     18.6964     19.0032     22.5699     48.5084
  1251.0000     -4.8924     18.8545     19.1638     22.6533     50.6938
  1251.2500     -4.8406     19.0269     19.3520     22.8134     52.5380
  1251.5000     -4.7805     19.2069     19.5649     23.1443     54.9910
  1251.7500     -4.7150     19.3855     19.7933     23.6923     55.7814
  1252.0000     -4.6548     19.5518     20.0229     24.4233     55.5179
  1252.2500     -4.6170     19.6940     20.2355     25.2259     55.2823
  1252.5000     -4.6116     19.8023     20.4120     25.9486     57.5178
  1252.7500     -4.6265     19.8759     20.5382     26.4523     61.9483
  1253.0000     -4.6334     19.9280     20.6133     26.6538     73.0023
  1253.2500     -4.6092     19.9841     20.6519     26.5437     82.0124
  1253.5000     -4.5503     20.0703     20.6773     26.1814     94.4226
  1253.7500     -4.4665     20.1992     20.7094     25.6760     99.8432
  1254.0000     -4.3705     20.3620     20.7579     25.1616    101.3937
  1254.2500     -4.2709     20.5328     20.8253     24.7695     97.9430
  1254.5000     -4.1665     20.6801     20.9118     24.5985     87.9751
  1254.7500     -4.0453     20.7790     21.0181     24.6894     80.0277
  1255.0000     -3.8936     20.8195     21.1430     25.0154     69.5139
  1255.2500     -3.7126     20.8069     21.2807     25.4950     64.9160
  1255.5000     -3.5234     20.7579     21.4189     26.0225     62.6618
  1255.7500     -3.3537     20.6916     21.5391     26.5031     63.8281
  1256.0000     -3.2213     20.6205     21.6186     26.8732     67.3438
  1256.2500     -3.1284     20.5480     21.6352     27.1008     69.1311
  1256.5000     -3.0684     20.4730     21.5771     27.1710     68.6140
  1256.7500     -3.0302     20.3987     21.4512     27.0731     65.7981
  1257.0000     -2.9936     20.3365     21.2843     26.8000     59.1693
  1257.2500     -2.9305     20.3000     21.1123     26.3627     54.3417
  1257.5000     -2.8221     20.2951     20.9653     25.8066     47.9451
  1257.7500     -2.6767     20.3134     20.8567     25.2138     44.5370
  1258.0000     -2.5257     20.3356     20.7829     24.6834     40.6046
  1258.2500     -2.4024     20.3426     20.7303     24.2975     38.6739
  1258.5000     -2.3235     20.3256     20.6848     24.0927     36.9904
  1258.7500     -2.2839     20.2883     20.6390     24.0527     36.8778
  1259.0000     -2.2626     20.2406     20.5959     24.1248     38.1308
  1259.2500     -2.2368     20.1907     20.5669     24.2477     39.4651
  1259.5000     -2.1934     20.1416     20.5650     24.3752     41.1987
  1259.7500     -2.1301     20.0916     20.5951     24.4865     41.8086
  1260.0000     -2.0448     20.0385     20.6476     24.5825     42.0160
  1260.2500     -1.9240     19.9842     20.7022     24.6734     42.0623
  1260.5000     -1.7431     19.9357     20.7388     24.7654     42.6586
  1260.7500     -1.4883     19.9022     20.7498     24.8507     43.6316
  1261.0000     -1.1866     19.8888     20.7426     24.9061     46.0720
  1261.2500     -0.9117     19.8941     20.7334     24.9016     48.2711
  1261.5000     -0.7505     19.9100     20.7362     24.8152     52.0764
  1261.7500     -0.7528     19.9243     20.7572     24.6462     54.7669
  1262.0000     -0.9007     19.9224     20.7958     24.4198     58.9447
  1262.2500     -1.1191     19.8915     20.8496     24.1804     61.8106
  1262.5000     -1.3195     19.8261     20.9164     23.9784     65.9788
  1262.7500     -1.4513     19.7326     20.9920     23.8561     68.2986
