~Version Information
 VERS.                                  2.0 : CWLS LAS VERSION
 WRAP.                                   NO : WRAPING MODE
 SWARE .                 MController 2.5.0J : SOFTWARE VERSION
~Well Information
 WELL.                Lorencito 15-36-33-67 : WELL
 COMP.    Pioneer Natural Resources USA Inc : COMPANY
 FLD.                      Purgatoire River : FIELD
 LOC.                 SW/SE Sec36 T33S R67W : LOCATION
 DATE.                             10/12/05 : DATE(S) LOGGED
 SRVC.       Blanco Geological Services LLC : SERVICE COMPANY
 STAT.                             Colorado : STATE
 CNTY.                            Las Animas : COUNTY
 CTRY.                                  USA : COUNTRY
 API.                       05-071-08515-00 : API NUMBER
 STRT.FT                             723.00 : START DEPTH
 STOP.FT                            1975.00 : STOP DEPTH
 STEP.FT                               1.00 : DEPTH INCREMENT
 NULL.                                -9999 : NULL VALUE
~Curve information
 DEPTH.FT                                   :
 ROP.MIN/FT                                 :
 GAS.UNITS                                  :
~ASCII Log data
# ...
      1523.0         0.17         15.5 
      1524.0         0.13         18.7 
      1525.0         0.17         25.1 
      1526.0         1.53         26.5 
      1527.0         0.23         25.4 
      1528.0         0.25         25.1 
      1529.0         0.23         24.6 
      1530.0         0.17         23.4 
      1531.0         0.20         23.0 
      1532.0         0.20         23.0 
      1533.0         0.17         22.3 
      1534.0         0.20         22.0 
      1535.0         0.17         21.2 
      1536.0         0.17         20.5 
      1537.0         0.13         20.6 
      1538.0         0.13         19.3 
      1539.0         0.10         19.3 
      1540.0         0.17         19.8 
      1541.0         0.17         18.8 
      1542.0         0.17         19.4 
      1543.0         0.13         18.6 
      1544.0         0.10         19.5 
      1545.0         0.13         19.6 
      1546.0         0.13         20.2 
      1547.0         0.17         20.5 
      1548.0         0.18         21.0 
      1549.0         0.17         21.8 
      1550.0         0.17         23.0 
      1551.0         0.20         22.7 
      1552.0         0.20         23.2 
      1553.0         0.20         23.4 
      1554.0         0.40         22.8 
      1555.0         0.20         22.2 
      1556.0         8.27         13.7 
      1557.0         0.28         14.3 
      1558.0         0.27         13.1 
      1559.0         0.13         12.9 
      1560.0         0.17         12.7 
      1561.0         0.30         12.5 
      1562.0         0.33         11.8 
      1563.0         0.33         11.5 
      1564.0         0.37         10.9 
      1565.0         0.33         11.0 
      1566.0         0.10         11.7 
      1567.0         0.93         10.9 
      1568.0         0.12         11.1 
      1569.0         0.17         11.4 
      1570.0         0.37         11.0 
      1571.0         0.33         11.5 
      1572.0         0.30         11.7 
      1573.0         0.30         11.5 
      1574.0         0.30         11.8 
      1575.0         0.30         12.1 
      1576.0         0.30         12.3 
      1577.0         0.30         12.9 
      1578.0         0.30         12.6 
      1579.0         0.32         12.3 
      1580.0         0.40         11.7 
      1581.0         0.27         11.5 
      1582.0         0.30         11.7 
      1583.0         0.27         11.5 
      1584.0         0.30         11.7 
      1585.0         0.23         11.3 
      1586.0         3.85         11.2 
      1587.0         0.27         10.7 
      1588.0         0.17         10.8 
      1589.0         0.20         10.9 
      1590.0         0.20         10.3 
      1591.0         0.32         10.3 
      1592.0         0.27         10.3 
      1593.0         0.27         10.1 
      1594.0         0.30         10.4 
      1595.0         0.23         10.2 
      1596.0         0.43          9.8 
      1597.0         0.33         11.0 
      1598.0         0.40         11.3 
      1599.0         0.27         11.5 
      1600.0         0.20         11.3 
      1601.0         0.20         11.5 
      1602.0         0.25         12.4 
      1603.0         0.27         12.9 
      1604.0         0.23         12.6 
      1605.0         0.23         13.4 
      1606.0         0.27         14.1 
      1607.0         0.20         14.4 
      1608.0         0.23         13.9 
      1609.0         0.20         13.8 
      1610.0         0.20         14.6 
      1611.0         0.17         15.1 
      1612.0         0.30         14.5 
      1613.0         0.23         14.3 
      1614.0         0.30         14.0 
      1615.0         0.17         14.6 
      1616.0         3.55         10.1 
      1617.0         0.58         10.5 
      1618.0         0.30         10.2 
      1619.0         0.30          9.6 
      1620.0         0.30          9.5 
      1621.0         0.30          9.5 
      1622.0         0.27         10.0 
      1623.0         0.17          9.5 
      1624.0         0.27          9.8 
      1625.0         0.30          9.5 
      1626.0         0.37          9.0 
      1627.0         0.30          9.5 
      1628.0         0.28          9.3 
      1629.0         0.13          9.2 
      1630.0         0.13         10.1 
      1631.0         0.27          9.1 
      1632.0         0.27          9.2 
      1633.0         0.27         10.0 
      1634.0         0.27          9.5 
      1635.0         0.30          9.3 
      1636.0         0.30          9.3 
      1637.0         0.33         10.3 
      1638.0         0.30          9.5 
      1639.0         0.33         10.3 
      1640.0         0.32          9.8 
      1641.0         0.37         10.1 
      1642.0         0.33         10.5 
      1643.0         0.30         10.7 
      1644.0         0.33         10.7 
      1645.0         0.40         10.5 
      1646.0         2.58         11.0 
      1647.0         0.70         10.9 
      1648.0         0.47         10.3 
      1649.0         0.33         10.4 
      1650.0         0.37         10.7 
      1651.0         0.45         10.1 
      1652.0         0.40          9.8 
      1653.0         0.50         10.1 
      1654.0         0.60          9.5 
      1655.0         0.33          9.2 
      1656.0         0.30          9.0 
      1657.0         0.33          8.6 
      1658.0         0.30          9.5 
      1659.0         0.23         14.3 
      1660.0         0.20         18.6 
      1661.0         0.18         34.2 
      1662.0         0.23         29.0 
      1663.0         0.20         14.7 
      1664.0         0.27          6.7 
      1665.0         0.23          5.1 
      1666.0         0.13          3.7 
      1667.0         0.27          3.2 
      1668.0         0.27          2.3 
      1669.0         0.27          2.5 
      1670.0         0.30          2.0 
      1671.0         0.30          2.1 
      1672.0         0.27          2.0 
      1673.0         0.33          2.7 
      1674.0         0.35          2.5 
      1675.0         0.30          2.6 
      1676.0         2.10         12.5 
      1677.0         0.30         13.2 
      1678.0         0.20         13.0 
      1679.0         0.35         12.5 
      1680.0         0.27         11.4 
      1681.0         0.27         10.4 
      1682.0         0.27          9.9 
      1683.0         0.23          9.3 
      1684.0         0.20          9.1 
      1685.0         0.17          8.8 
      1686.0         0.23          8.6 
      1687.0         0.30          7.8 
      1688.0         0.33          7.6 
      1689.0         0.30          7.0 
      1690.0         0.33          6.9 
      1691.0         0.33          6.6 
      1692.0         0.42          7.1 
      1693.0         0.57          6.4 
      1694.0         0.37          7.2 
      1695.0         0.33          7.1 
      1696.0         0.37          7.8 
      1697.0         0.33          8.3 
      1698.0         0.30          8.0 
      1699.0         0.27          8.4 
      1700.0         0.30          8.8 
      1701.0         0.32          9.5 
      1702.0         0.30          9.2 
      1703.0         0.23          9.5 
      1704.0         0.27         10.0 
      1705.0         1.90          9.9 
      1706.0         0.47          9.6 
      1707.0         0.28          9.5 
      1708.0         0.57          9.4 
      1709.0         0.27          9.2 
      1710.0         0.40          8.9 
      1711.0         0.43          9.1 
      1712.0         0.40          9.2 
      1713.0         0.47          8.8 
      1714.0         0.33          8.5 
      1715.0         0.25          8.8 
      1716.0         0.20          8.1 
      1717.0         0.23          8.3 
      1718.0         0.23          8.1 
      1719.0         0.23          8.2 
      1720.0         0.20          8.1 
      1721.0         0.20          8.2 
      1722.0         0.27          8.3 
