~Version Information
VERS.                      2.0: CWLS Log ASCII Standard - VERSION 2.0
WRAP.                       NO: One line per depth step
~Well Information Block
STRT.FT               410.0000: 
STOP.FT              1252.0000: 
STEP.FT                 0.2500: 
NULL.                -999.2500: 
COMP.          Petrogulf Corporation: COMPANY
WELL.           Parsons 15-23R: WELL
FLD.           Purgatorie River: FIELD
LOC.           2244' FSL & 1932' FWL: LOCATION
PROV.                 Colorado: PROVINCE
CNTY.               Las Animas: COUNTRY
SRVC.                Patterson: SERVICE COMPANY
DATE.          Mon Sep 12 10:30:11 2005: LOG DATE
UWI.                          : UNIQUE WELL ID
~Curve Information Block
DEPT.FT            0 000 00 00: Depth
SP.mV                         : DIL Spontaneous Potential
RILD.Ohm-m                    : DIL Deep Resistivity
RILM.Ohm-m                    : DIL Medium Resistivity
RLL3.Ohm-m                    : DIL Shallow Resistivity
GR.GAPI                       : Gamma Ray
~Parameter Information Block
~A  Depth        SP         RILD        RILM        RLL3         GR     
# ...
   690.0000    204.9565     15.1119     16.5350     14.2763    111.7320
   690.2500    204.7020     15.1425     16.1807     13.8679    119.4896
   690.5000    204.0228     14.7919     15.9686     14.6378    114.0662
   690.7500    203.4306     14.3909     15.8494     16.0986    121.4028
   691.0000    203.8812     14.1355     15.5278     17.5395    119.7722
   691.2500    203.3390     13.6642     14.7474     16.8040    119.0482
   691.5000    203.3594     13.2585     14.2926     14.6860    114.4642
   691.7500    202.8913     12.7155     14.0528     14.3882    114.2764
   692.0000    202.2742     12.2673     13.9093     15.2047    126.6710
   692.2500    201.5950     12.6501     13.8443     17.0535    147.3933
   692.5000    201.1611     12.3751     13.5047     18.1628    140.7957
   692.7500    200.8704     12.4047     13.0275     16.7589    130.6926
   693.0000    200.4178     12.4203     12.8362     15.4160    125.4593
   693.2500    200.4469     12.6282     12.3336     14.7632    135.6224
   693.5000    200.8275     12.6111     12.2336     14.8781    128.0453
   693.7500    200.8486     12.9415     12.3666     14.3123    129.3143
   694.0000    200.9180     13.1363     12.3751     13.2236    116.5973
   694.2500    200.7782     13.2489     12.6058     12.8619    118.5906
   694.5000    200.6434     13.3616     13.2183     14.2033    130.9647
   694.7500    200.5883     13.4643     13.6554     15.8541    121.6097
   695.0000    200.3144     13.5274     14.1790     18.0079    113.7525
   695.2500    199.9605     14.0781     14.7670     20.6930    107.9765
   695.5000    199.4157     14.0697     15.3656     21.1167    122.0410
   695.7500    198.9647     14.1998     16.0105     19.0959    131.9167
   696.0000    198.6416     13.9693     16.1409     18.2054    131.2465
   696.2500    198.0995     14.2772     17.0891     21.0348    119.6648
   696.5000    197.7531     14.5057     17.9884     26.9060    118.7536
   696.7500    197.3968     14.5121     18.0032     31.3257    114.3876
   697.0000    197.6412     14.3179     17.6641     32.6296    125.6245
   697.2500    197.1372     14.1846     17.1682     31.0822    143.4513
   697.5000    196.8495     13.9260     15.8479     26.3600    136.7597
   697.7500    196.2805     13.8314     15.1218     20.6133    159.8950
   698.0000    195.7052     13.8530     13.9042     18.0374    154.9253
   698.2500    195.8198     13.9302     13.0934     15.0731    153.2102
   698.5000    195.6538     13.6004     12.8795     11.3338    154.1985
   698.7500    195.7941     13.0492     13.2685     10.0734    162.4866
   699.0000    196.4843     12.2554     13.1458     13.2278    125.5893
   699.2500    198.0193     11.8671     13.4576     23.3047    116.1912
   699.5000    199.4114     11.4009     13.2452     35.6912    124.0758
   699.7500    200.9064     11.2141     12.5692     31.6289    127.6065
   700.0000    202.4100     11.0628     11.5537     21.1546    123.4883
   700.2500    203.6187     10.8868     10.7707     14.5763    142.4154
   700.5000    204.1880     10.8661     10.2652     12.4352    163.7806
   700.7500    203.7795     11.1463     10.2184     11.7768    174.6083
   701.0000    202.6331     11.5381     10.4089     12.3681    161.9926
   701.2500    201.6292     12.3825     10.7192     13.6050    151.0603
   701.5000    200.4308     12.7461     11.2700     13.6868    139.7701
   701.7500    199.4491     13.0707     12.3314     14.7340    128.5825
   702.0000    199.4808     12.8785     13.3787     20.6805    108.3456
   702.2500    202.0471     12.7956     14.5871     35.8872     97.7157
   702.5000    205.7463     12.7789     15.7143     68.9834     89.9856
   702.7500    209.1022     12.9447     16.4124    104.2848     88.5624
   703.0000    211.5312     12.7221     16.4001     85.3313     97.0190
   703.2500    213.9442     12.6469     16.2705     41.0654     89.5073
   703.5000    215.7845     12.8762     15.7781     29.7215    103.0666
   703.7500    217.8130     13.1731     14.6478     37.0108    115.7251
   704.0000    219.2587     13.6794     13.7087     36.3475    119.5876
   704.2500    220.8621     14.5521     13.3298     20.7449    113.1334
   704.5000    221.8644     15.4789     12.9457     13.5745    126.5783
   704.7500    222.5069     16.0483     13.1101     13.1407    110.1817
   705.0000    223.2900     16.2326     13.3130     15.1342    125.6585
   705.2500    224.0523     16.8944     14.5096     15.6401    118.9344
   705.5000    224.3499     17.6628     15.6486     17.8591    103.5987
   705.7500    224.3319     18.1379     17.6061     31.4874     90.0910
   706.0000    223.8968     18.0406     20.5300     72.2602     58.5141
   706.2500    223.5256     16.9819     24.0868    150.3882     48.7502
   706.5000    223.3169     17.5038     26.3480    249.4441     37.1531
   706.7500    223.2631     17.6878     29.5486    337.2730     32.1476
   707.0000    223.2076     17.7451     31.0464    383.0490     20.0553
   707.2500    223.3673     18.2095     29.5672    369.0151     16.9478
   707.5000    223.5859     18.0453     28.2035    313.9358     21.7462
   707.7500    223.7729     17.8222     28.5635    245.5512     30.9055
   708.0000    224.3979     17.0726     26.5738    184.8541     33.5023
   708.2500    225.0154     16.6450     23.5599    123.9226     56.4847
   708.5000    225.9953     16.0790     20.7915     58.5818     78.0269
   708.7500    227.0138     15.9961     18.7647     25.1846     89.6321
   709.0000    228.0302     15.5425     15.8757     15.7217    119.0310
   709.2500    228.6334     14.8556     14.1484     11.9685    123.0959
   709.5000    229.5009     14.5437     13.1254     11.1724    135.3232
   709.7500    229.7983     14.0093     12.8149     11.7294    120.9187
   710.0000    229.1245     13.5526     13.0072     12.8081    128.6119
   710.2500    228.5273     13.4937     12.8675     14.1077    129.8294
   710.5000    227.6884     13.1239     12.8027     14.9956    123.7475
   710.7500    226.6104     12.7551     12.8881     14.9567    116.7678
   711.0000    225.2421     12.3818     13.0632     14.9166    108.3407
   711.2500    224.3668     12.2901     13.4858     17.4100    107.0754
   711.5000    223.3710     11.9997     14.0466     25.6113     92.4982
   711.7500    222.5930     11.7553     14.7825     39.6026     93.3681
   712.0000    222.5967     12.0622     14.8823     51.2045     89.8025
   712.2500    222.3643     12.1489     14.7906     39.6570    111.2086
   712.5000    222.2970     12.4089     14.1531     25.2690    110.4035
   712.7500    222.2457     12.6821     13.7323     17.6832    112.1959
   713.0000    221.6938     13.1423     13.2851     15.1312    131.2322
   713.2500    220.7552     13.3669     13.2721     14.0800    130.7123
   713.5000    219.9330     13.3416     13.7183     14.2753    129.9741
   713.7500    219.1164     13.5426     13.9318     14.6500    126.9797
   714.0000    217.9433     13.5278     13.8616     15.8365    135.6608
   714.2500    216.7792     14.1296     14.2172     16.0937    119.0303
   714.5000    214.9510     13.8944     14.5709     16.2856    124.7585
   714.7500    212.8871     14.1136     15.0728     16.0144    118.8716
   715.0000    210.5161     13.9980     15.7412     15.7373    104.0616
   715.2500    207.9586     14.3144     17.0348     16.5637     98.9005
   715.5000    205.2999     13.9323     18.7806     17.3001    108.7779
   715.7500    202.8490     13.6672     19.5202     22.0609    117.9647
   716.0000    201.4345     13.2704     20.3148     28.5882     78.6893
   716.2500    200.0332     13.0326     20.2396     34.9973     69.1152
   716.5000    198.6123     12.9130     18.7021     40.4494     66.6485
   716.7500    196.7865     12.5146     17.0325     41.6970     86.6808
   717.0000    195.4396     11.9984     15.5974     32.9328    102.0382
   717.2500    194.0422     11.7937     14.0877     22.2950    110.3366
   717.5000    192.5898     11.5856     12.6382     14.6839    120.8805
   717.7500    191.0486     11.4330     11.8367     13.4213    131.7372
