~Version Information
VERS.                      2.0: CWLS Log ASCII Standard - VERSION 2.0
WRAP.                       NO: One line per depth step
~Well Information Block
STRT.FT                -8.2500: 
STOP.FT              2119.7500: 
STEP.FT                 0.2500: 
NULL.                -999.2500: 
COMP.          Pioneer Natural Resources: COMPANY
WELL.          Hemisphere 32-24: WELL
FLD.           Purgatorie River: FIELD
LOC.           1850' FNL & 2284' FEL--: LOCATION
PROV.                       CO: PROVINCE
CNTY.               Las Animas: COUNTRY
SRVC.          Patterson Wireline: SERVICE COMPANY
DATE.          Sat Aug 27 08:06:42 2005: LOG DATE
UWI.           05 071 08440 00: UNIQUE WELL ID
~Curve Information Block
DEPT.FT            0 000 00 00: Depth
CCL.                          : Casing Collar Locator
TT3.usec                      : CBL 3' Travel Time
AMP3.mV                       : CBL 3' Amplitude
GR.GAPI                       : Gamma Ray
~Parameter Information Block
~A  Depth       CCL         TT3         AMP3         GR     
# ...
  1666.7500      0.0000    682.9512      3.3287     52.8078
  1667.0000      0.0000    680.2092      3.2230     55.7959
  1667.2500      0.0000    679.8265      3.1236     60.3030
  1667.5000      0.0000    682.8756      3.0310     64.0976
  1667.7500      0.0000    688.5161      2.9445     65.6610
  1668.0000      0.0000    694.4807      2.8681     64.7846
  1668.2500      0.0000    698.7258      2.8136     62.2337
  1668.5000      0.0000    700.6841      2.7986     59.1242
  1668.7500      0.0000    701.0518      2.8358     56.1642
  1669.0000      0.0000    700.7584      2.9259     53.1460
  1669.2500      0.0000    700.2795      3.0599     49.3638
  1669.5000      0.0000    699.6612      3.2273     44.8014
  1669.7500      0.0000    698.8766      3.4184     40.7764
  1670.0000      0.0000    698.0717      3.6237     39.0249
  1670.2500      0.0000    697.5118      3.8336     40.1188
  1670.5000      0.0000    697.3702      4.0389     43.0432
  1670.7500      0.0000    697.6078      4.2263     46.2856
  1671.0000      0.0000    698.0427      4.3788     48.9760
  1671.2500      0.0000    698.5059      4.4834     50.9360
  1671.5000      0.0000    698.9479      4.5388     52.1592
  1671.7500      0.0000    699.4352      4.5523     52.6924
  1672.0000      0.0000    700.0566      4.5322     52.8317
  1672.2500      0.0000    700.8202      4.4875     53.0087
  1672.5000      0.0000    701.6727      4.4308     53.5193
  1672.7500      0.0000    702.6710      4.3765     54.5861
  1673.0000      0.0000    704.2181      4.3324     56.3382
  1673.2500      0.0000    707.1917      4.2986     58.2852
  1673.5000      0.0000    712.7240      4.2736     59.2628
  1673.7500      0.0000    721.4888      4.2592     58.7387
  1674.0000      0.0000    732.7730      4.2566     58.1331
  1674.2500      0.0000    744.1506      4.2607     60.1703
  1674.5000      0.0000    752.5289      4.2631     66.8543
  1674.7500      0.0000    756.3162      4.2602     78.2474
  1675.0000      0.0000    756.9465      4.2585     92.6565
  1675.2500      0.0000    757.8510      4.2690    107.3563
  1675.5000      0.0000    761.4318      4.2972    119.4820
  1675.7500      0.0000    766.9692      4.3403    127.0367
  1676.0000      0.0000    771.4731      4.3896    129.4441
  1676.2500      0.0000    772.3008      4.4335    127.2646
  1676.5000      0.0000    768.9197      4.4598    121.6318
  1676.7500      0.0000    762.5178      4.4621    114.0838
  1677.0000      0.0000    754.2678      4.4463    106.4984
  1677.2500      0.0000    743.6596      4.4266    100.4168
  1677.5000      0.0000    728.0137      4.4112     96.0681
  1677.7500      0.0000    704.5165      4.3959     92.3158
  1678.0000      0.0000    674.7261      4.3720     87.9168
  1678.2500      0.0000    646.9246      4.3401     82.9345
  1678.5000      0.0000    631.3101      4.3123     78.8060
  1678.7500      0.0000    631.8690      4.3013     76.8578
  1679.0000      0.0000    644.5021      4.3096     76.8512
  1679.2500      0.0000    662.5807      4.3304     77.2780
  1679.5000      0.0000    681.7803      4.3560     77.0542
  1679.7500      0.0000    699.9232      4.3865     76.5954
  1680.0000      0.0000    715.5605      4.4261     77.3265
  1680.2500      0.0000    728.0456      4.4721     80.5082
  1680.5000      0.0000    737.4499      4.5100     86.4877
  1680.7500      0.0000    743.6881      4.5276     94.5113
  1681.0000      0.0000    746.3919      4.5326    103.0270
  1681.2500      0.0000    745.4026      4.5511    110.6310
  1681.5000      0.0000    741.0671      4.6047    116.9698
  1681.7500      0.0000    734.8193      4.6871    122.3829
  1682.0000      0.0000    729.3129      4.7623    126.7043
  1682.2500      0.0000    726.5273      4.7880    128.9227
  1682.5000      0.0000    725.7326      4.7469    127.9778
  1682.7500      0.0000    724.9966      4.6570    123.6445
  1683.0000      0.0000    724.9437      4.5547    116.9337
  1683.2500      0.0000    729.0206      4.4701    109.7559
  1683.5000      0.0000    738.9976      4.4167    103.6737
  1683.7500      0.0000    751.5007      4.3942     98.8414
  1684.0000      0.0000    759.8842      4.3953     94.6138
  1684.2500      0.0000    758.4987      4.4100     91.0686
  1684.5000      0.0000    744.5396      4.4284     89.3060
  1684.7500      0.0000    717.3643      4.4426     90.1935
  1685.0000      0.0000    678.3062      4.4486     93.4049
  1685.2500      0.0000    631.7786      4.4461     97.9385
  1685.5000      0.0000    585.2112      4.4366    103.1075
  1685.7500      0.0000    546.4064      4.4227    108.5365
  1686.0000      0.0000    520.7103      4.4100    113.4560
  1686.2500      0.0000    510.7390      4.4079    116.6599
  1686.5000      0.0000    517.4698      4.4264    117.2074
  1686.7500      0.0000    539.9865      4.4680    114.7974
  1687.0000      0.0000    574.4736      4.5214    109.7346
  1687.2500      0.0000    615.0469      4.5672    103.2787
  1687.5000      0.0000    656.2386      4.5926     97.7902
  1687.7500      0.0000    694.0333      4.6002     95.4975
  1688.0000      0.0000    724.4839      4.5981     96.7603
  1688.2500      0.0000    742.9218      4.5881     99.8881
  1688.5000      0.0000    745.9406      4.5678    102.7816
  1688.7500      0.0000    734.5436      4.5419    104.5657
  1689.0000      0.0000    715.6116      4.5265    105.5909
  1689.2500      0.0000    699.7888      4.5411    106.2842
  1689.5000      0.0000    695.8085      4.5946    106.7133
  1689.7500      0.0000    705.1711      4.6804    107.3775
  1690.0000      0.0000    722.1935      4.7847    109.6567
  1690.2500      0.0000    738.8578      4.8988    114.7087
  1690.5000      0.0000    749.2592      5.0199    121.8502
  1690.7500      0.0000    751.0668      5.1391    128.4807
  1691.0000      0.0000    745.0886      5.2360    132.1153
  1691.2500      0.0000    733.8751      5.2894    132.4832
  1691.5000      0.0000    720.0300      5.2923    131.3120
  1691.7500      0.0000    705.4271      5.2545    130.1945
  1692.0000      0.0000    691.5529      5.1936    129.1561
  1692.2500      0.0000    679.8381      5.1256    127.2957
  1692.5000      0.0000    671.3237      5.0589    124.1304
  1692.7500      0.0000    666.1732      4.9921    119.9713
  1693.0000      0.0000    663.7532      4.9187    115.5549
  1693.2500      0.0000    663.3406      4.8344    111.8426
  1693.5000      0.0000    664.9359      4.7428    109.7355
  1693.7500      0.0000    669.5706      4.6551    109.4200
  1694.0000      0.0000    678.6443      4.5865    110.1651
  1694.2500      0.0000    692.4818      4.5525    110.9367
  1694.5000      0.0000    709.3243      4.5659    110.8586
  1694.7500      0.0000    725.9661      4.6342    109.1835
  1695.0000      0.0000    739.6310      4.7559    105.7022
  1695.2500      0.0000    749.4946      4.9178    101.4891
  1695.5000      0.0000    756.7845      5.0987     98.6522
  1695.7500      0.0000    763.4232      5.2791     99.0137
  1696.0000      0.0000    770.2731      5.4506    103.1085
  1696.2500      0.0000    776.6677      5.6152    110.1324
  1696.5000      0.0000    781.5237      5.7780    118.3092
  1696.7500      0.0000    784.3668      5.9399    125.4724
  1697.0000      0.0000    785.0418      6.0943    130.0323
  1697.2500      0.0000    782.6437      6.2266    131.8342
  1697.5000      0.0000    775.0398      6.3169    132.0056
  1697.7500      0.0000    760.0076      6.3466    131.9774
  1698.0000      0.0000    737.6851      6.3065    132.6162
  1698.2500      0.0000    711.9390      6.2006    133.9286
  1698.5000      0.0000    688.2819      6.0411    135.2201
  1698.7500      0.0000    669.7335      5.8413    135.6288
  1699.0000      0.0000    654.9183      5.6105    134.6955
  1699.2500      0.0000    640.4910      5.3507    132.4421
  1699.5000      0.0000    625.5360      5.0594    129.0459
  1699.7500      0.0000    613.7420      4.7522    124.8446
  1700.0000      0.0000    611.1366      4.4890    120.7579
