~Version Information
VERS.                      2.0: CWLS Log ASCII Standard - VERSION 2.0
WRAP.                       NO: One line per depth step
~Well Information Block
STRT.FT               550.0000: 
STOP.FT              1498.5000: 
STEP.FT                 0.1000: 
NULL.                -999.2500: 
COMP.          Pioneer Natural Resources: COMPANY
WELL.          Surtees 23-34 Tr: WELL
FLD.           Purgatoire River: FIELD
LOC.           1559' FSL & 1997' FWL: LOCATION
PROV.                 Colorado: PROVINCE
CNTY.               Las Animas: COUNTRY
SRVC.                Patterson: SERVICE COMPANY
DATE.          Wed Jul 27 09:35:51 2005: LOG DATE
UWI.           05 071 08449 00: UNIQUE WELL ID
~Curve Information Block
DEPT.FT            0 000 00 00: Depth
DCAL.in                       : CDL Caliper
RHOB.g/cc                     : CDL Bulk Density
RHOC.g/cc                     : CDL Density Correction
DPOR.pu                       : CDL Density Porosity
GR.GAPI                       : Gamma Ray
NPOR.pu                       : Neutron Porosity
~Parameter Information Block
~A  Depth       DCAL        RHOB        RHOC        DPOR         GR         NPOR    
# ...
   607.6000      8.1367      2.5478      0.1009      6.1952    126.2121     23.3604
   607.7000      8.1367      2.5215      0.0122      7.7879    125.3595     23.4128
   607.8000      8.1391      2.4876      0.0216      9.8425    126.4489     23.5290
   607.9000      8.1391      2.4552      0.0395     11.8043    126.0269     23.7011
   608.0000      8.1397      2.4382     -0.0380     12.8351    122.0966     23.8716
   608.1000      8.1397      2.4477     -0.0229     12.2628    118.6018     24.0404
   608.2000      8.1397      2.4693      0.0446     10.9505    121.1046     24.2030
   608.3000      8.1536      2.4944     -0.0224      9.4285    128.0748     24.4159
   608.4000      8.1536      2.5288      0.0582      7.3426    132.3607     24.7223
   608.5000      8.1512      2.5586      0.0903      5.5392    131.3366     24.9947
   608.6000      8.1512      2.5721      0.0693      4.7195    128.5726     25.1052
   608.7000      8.1512      2.5817      0.1050      4.1371    126.2230     25.0562
   608.8000      8.1411      2.5975      0.1180      3.1829    123.0603     25.0097
   608.9000      8.1411      2.6091      0.0831      2.4789    120.6726     25.1241
   609.0000      8.1283      2.6021      0.0778      2.9052    121.1917     25.1975
   609.1000      8.1283      2.5882      0.0490      3.7434    123.1789     25.0927
   609.2000      8.1283      2.5914      0.0958      3.5498    124.9296     24.8128
   609.3000      8.1309      2.6105      0.0641      2.3927    124.2259     24.4289
   609.4000      8.1309      2.6247      0.1018      1.5350    117.7048     24.4588
   609.5000      8.1370      2.6139      0.0601      2.1896    110.8586     24.9568
   609.6000      8.1370      2.5801      0.0628      4.2351    111.8036     25.2784
   609.7000      8.1370      2.5495      0.0095      6.0883    118.7053     25.2193
   609.8000      8.1265      2.5356      0.0127      6.9348    126.4209     25.2876
   609.9000      8.1265      2.5290      0.0745      7.3352    132.5536     25.6412
   610.0000      8.1175      2.5338      0.0484      7.0434    135.2300     25.7627
   610.1000      8.1175      2.5585      0.0945      5.5463    132.8835     25.5033
   610.2000      8.1175      2.5827      0.1154      4.0776    129.1272     25.2266
   610.3000      8.1132      2.5795      0.1171      4.2713    129.7672     25.0814
   610.4000      8.1132      2.5487      0.0465      6.1384    133.7702     25.2513
   610.5000      8.0694      2.5223      0.0204      7.7402    133.7041     25.8682
   610.6000      8.0694      2.5334      0.0571      7.0645    127.5129     26.3511
   610.7000      8.0694      2.5743      0.0924      4.5881    121.1657     26.3357
   610.8000      8.0705      2.6006      0.1367      2.9932    118.8931     25.9879
   610.9000      8.0705      2.5853      0.1206      3.9204    119.9657     25.3896
   611.0000      8.0712      2.5470      0.0841      6.2422    122.3038     24.7221
   611.1000      8.0712      2.5144      0.0351      8.2195    120.2879     24.4865
   611.2000      8.0712      2.4988      0.0269      9.1636    112.6314     24.8283
   611.3000      8.0604      2.5046      0.0095      8.8124    108.0039     25.2362
   611.4000      8.0604      2.5283      0.0778      7.3759    109.5360     25.3605
   611.5000      8.0479      2.5491      0.1297      6.1167    111.9497     25.3814
   611.6000      8.0479      2.5442      0.1676      6.4129    113.5716     25.4177
   611.7000      8.0479      2.5154      0.1035      8.1583    116.8888     25.4388
   611.8000      8.0635      2.4842      0.1012     10.0501    121.6700     25.4338
   611.9000      8.0635      2.4635      0.0924     11.3041    125.2637     25.3788
   612.0000      8.0196      2.4585      0.0835     11.6033    125.9098     25.3963
   612.1000      8.0196      2.4868      0.0058      9.8938    121.8867     25.2583
   612.2000      8.0196      2.5535      0.1480      5.8499    112.7377     24.5967
   612.3000      8.0103      2.6186      0.2313      1.9026    101.2362     23.9260
   612.4000      8.0103      2.6459      0.2273      0.2462     91.1193     23.7405
   612.5000      8.0005      2.6392      0.2239      0.6518     85.6110     24.0334
   612.6000      8.0005      2.6070      0.2301      2.6056     84.9157     24.5409
   612.7000      8.0005      2.5627      0.1675      5.2905     86.7969     24.5919
   612.8000      7.9844      2.5406      0.1585      6.6304     90.4405     24.0309
   612.9000      7.9844      2.5573      0.1278      5.6194     92.3781     23.6164
   613.0000      7.9788      2.5976      0.1182      3.1773     89.6097     23.8394
   613.1000      7.9788      2.6454      0.1419      0.2768     85.9581     24.3037
   613.2000      7.9788      2.6885      0.2213     -2.3319     83.6522     24.2759
   613.3000      7.9599      2.7012      0.2740     -3.1023     78.6157     23.6914
   613.4000      7.9599      2.6656      0.2629     -0.9431     68.9812     23.0874
   613.5000      7.9600      2.5978      0.2472      3.1615     61.6297     22.6862
   613.6000      7.9600      2.5353      0.1357      6.9542     59.1693     22.3724
   613.7000      7.9600      2.5033      0.1217      8.8917     57.0545     21.9917
   613.8000      7.9709      2.4984      0.0578      9.1888     53.2903     21.4754
   613.9000      7.9709      2.5105      0.0192      8.4536     47.2888     20.9888
   614.0000      7.9259      2.5438      0.0994      6.4368     39.8397     20.5098
   614.1000      7.9259      2.5971      0.2460      3.2048     35.4114     19.7448
   614.2000      7.9259      2.6517      0.3368     -0.1052     36.2632     18.7253
   614.3000      8.0065      2.6891      0.3460     -2.3705     39.6363     17.9127
   614.4000      8.0065      2.7109      0.2909     -3.6932     42.8315     17.5473
   614.5000      7.8947      2.7241      0.3060     -4.4938     44.1582     17.3332
   614.6000      7.8947      2.7245      0.2985     -4.5142     42.0539     16.9854
   614.7000      7.8947      2.7150      0.2211     -3.9419     37.0727     16.5506
   614.8000      7.8850      2.7035      0.2067     -3.2397     32.1228     16.1613
   614.9000      7.8850      2.6908      0.1672     -2.4756     28.8816     15.8830
   615.0000      7.9611      2.6798      0.1906     -1.8089     26.7885     15.4989
   615.1000      7.9611      2.6748      0.1455     -1.5033     26.5869     14.8864
   615.2000      7.9611      2.6853      0.1010     -2.1393     29.2487     14.3045
   615.3000      7.9828      2.7048      0.1368     -3.3229     33.6174     14.1247
   615.4000      7.9828      2.7000      0.1772     -3.0273     39.1122     14.4818
   615.5000      7.9730      2.6617      0.0588     -0.7104     44.5750     15.0095
   615.6000      7.9730      2.6229      0.0395      1.6420     47.1027     15.3372
   615.7000      7.9730      2.5957      0.0786      3.2904     47.4924     15.5206
   615.8000      8.0229      2.5615      0.0441      5.3632     48.6770     15.6978
   615.9000      8.0229      2.5223      0.0285      7.7421     50.3939     16.0929
   616.0000      8.0303      2.5044     -0.0001      8.8224     51.8082     16.9382
   616.1000      8.0303      2.5223      0.0128      7.7407     54.3712     18.0023
   616.2000      8.0303      2.5580      0.0379      5.5768     57.6665     18.7459
   616.3000      8.0147      2.5835      0.0913      4.0292     59.5597     19.0990
   616.4000      8.0147      2.5949      0.0748      3.3419     62.5666     19.1782
   616.5000      8.0380      2.6122      0.0782      2.2932     70.6298     18.8408
   616.6000      8.0380      2.6376      0.1602      0.7507     80.1509     18.2104
   616.7000      8.0380      2.6497      0.1201      0.0169     87.0856     17.7182
   616.8000      8.1179      2.6485      0.1405      0.0900     96.0395     17.6089
   616.9000      8.1179      2.6528      0.1795     -0.1724    109.5366     17.7769
   617.0000      8.0130      2.6576      0.2171     -0.4618    123.0297     18.1085
   617.1000      8.0130      2.6380      0.2134      0.7245    133.7410     18.4656
