~Version Information
VERS.                      2.0: CWLS Log ASCII Standard - VERSION 2.0
WRAP.                       NO: One line per depth step
~Well Information Block
STRT.FT                -9.5000: 
STOP.FT              1304.7500: 
STEP.FT                 0.2500: 
NULL.                -999.2500: 
COMP.          Pioneer Natural Resources: COMPANY
WELL.            Hamburg 43-35: WELL
FLD.           Purgatorie River: FIELD
LOC.           2444' FSL & 950' FEL--: LOCATION
PROV.                       CO: PROVINCE
CNTY.               Las Animas: COUNTRY
SRVC.          Patterson Wireline: SERVICE COMPANY
DATE.          Thu Dec 08 14:29:45 2005: LOG DATE
UWI.           08 071 08607 00: UNIQUE WELL ID
~Curve Information Block
DEPT.FT            0 000 00 00: Depth
CCL.                          : Casing Collar Locator
TT3.usec                      : CBL 3' Travel Time
AMP3.mV                       : CBL 3' Amplitude
GR.GAPI                       : Gamma Ray
~Parameter Information Block
~A  Depth       CCL         TT3         AMP3         GR     
# ...
  1096.0000      0.0000    759.8408     12.1668     72.4902
  1096.2500      0.0000    773.8531     12.2994     74.3487
  1096.5000      0.0000    781.7019     12.3903     76.0045
  1096.7500      0.0000    779.6511     12.4047     77.0425
  1097.0000      0.0000    769.6445     12.3286     77.0617
  1097.2500      0.0000    757.6040     12.1653     75.6447
  1097.5000      0.0000    748.4281     11.9245     72.8800
  1097.7500      0.0000    743.3874     11.6233     69.5903
  1098.0000      0.0000    741.2892     11.2938     66.7120
  1098.2500      0.0000    740.5432     10.9857     64.4946
  1098.5000      0.0000    740.0247     10.7574     62.3628
  1098.7500      0.0000    738.8683     10.6569     59.4855
  1099.0000      0.0000    736.1539     10.6993     55.7076
  1099.2500      0.0000    731.0810     10.8565     52.1833
  1099.5000      0.0000    723.6942     11.0704     50.8229
  1099.7500      0.0000    715.3542     11.2796     52.6242
  1100.0000      0.0000    708.2107     11.4419     56.5447
  1100.2500      0.0000    704.0943     11.5385     60.2645
  1100.5000      0.0000    703.8792     11.5641     61.9986
  1100.7500      0.0000    707.4568     11.5143     61.5191
  1101.0000      0.0000    713.6569     11.3865     59.8091
  1101.2500      0.0000    720.2698     11.1967     58.1796
  1101.5000      0.0000    724.9843     10.9931     57.7215
  1101.7500      0.0000    726.7515     10.8410     59.1409
  1102.0000      0.0000    725.9253     10.7869     62.7569
  1102.2500      0.0000    723.0705     10.8285     68.5516
  1102.5000      0.0000    718.4083     10.9175     76.1326
  1102.7500      0.0000    712.6550     10.9904     84.4089
  1103.0000      0.0000    707.5809     11.0080     91.4862
  1103.2500      0.0000    705.1100     10.9775     95.5558
  1103.5000      0.0000    706.0349     10.9419     96.3060
  1103.7500      0.0000    709.6900     10.9454     95.1641
  1104.0000      0.0000    714.5341     11.0000     93.7667
  1104.2500      0.0000    718.9114     11.0809     92.2252
  1104.5000      0.0000    721.5112     11.1498     89.1104
  1104.7500      0.0000    721.6289     11.1769     83.1494
  1105.0000      0.0000    719.4026     11.1455     74.8088
  1105.2500      0.0000    715.9430     11.0572     66.2043
  1105.5000      0.0000    713.2227     10.9401     59.5208
  1105.7500      0.0000    713.5320     10.8446     55.4844
  1106.0000      0.0000    718.3810     10.8216     53.2370
  1106.2500      0.0000    727.5926     10.9012     51.5853
  1106.5000      0.0000    739.4130     11.0814     50.2621
  1106.7500      0.0000    751.3566     11.3226     49.9661
  1107.0000      0.0000    761.3083     11.5387     51.6069
  1107.2500      0.0000    768.8683     11.6072     55.9301
  1107.5000      0.0000    775.6675     11.4371     63.5494
  1107.7500      0.0000    783.3858     11.0655     74.4691
  1108.0000      0.0000    791.5887     10.6544     87.1755
  1108.2500      0.0000    798.3384     10.3629     98.5878
  1108.5000      0.0000    802.2247     10.2430    105.5078
  1108.7500      0.0000    803.0560     10.2563    106.4140
  1109.0000      2.0000    801.7188     10.3419    101.9913
  1109.2500      0.0000    800.1346     10.4579     94.1912
  1109.5000      0.0000    800.0068     10.6070     85.0578
  1109.7500      0.0000    800.9933     10.8401     76.2487
  1110.0000      0.0000    801.1769     11.2025     68.8822
  1110.2500      0.0000    799.4904     11.6588     63.2480
  1110.5000      0.0000    796.1976     12.0970     58.8880
  1110.7500      0.0000    791.1152     12.4133     55.3826
  1111.0000      0.0000    783.6052     12.5729     52.9472
  1111.2500      0.0000    774.9267     12.5965     52.0713
  1111.5000      0.0000    768.7407     12.5194     52.7549
  1111.7500      0.0000    768.6103     12.3688     54.2228
  1112.0000      0.0000    775.6967     12.1684     55.2546
  1112.2500      0.0000    788.2656     11.9483     54.8806
  1112.5000      0.0000    801.9213     11.7400     53.1175
  1112.7500      0.0000    810.9031     11.5640     51.1300
  1113.0000      0.0000    811.6846     11.4316     50.4552
  1113.2500      0.0000    805.9463     11.3498     51.8763
  1113.5000      0.0000    798.5908     11.3144     54.9048
  1113.7500      0.0000    793.1467     11.3014     58.1987
  1114.0000      0.0000    790.1983     11.2740     60.4472
  1114.2500      0.0000    789.1907     11.2013     61.0040
  1114.5000      0.0000    789.8209     11.0762     60.0442
  1114.7500      0.0000    791.5739     10.9185     58.4319
  1115.0000      0.0000    792.8187     10.7613     57.2407
  1115.2500      0.0000    791.1277     10.6314     56.9374
  1115.5000      0.0000    785.0430     10.5351     57.0136
  1115.7500      0.0000    775.7987     10.4605     56.8110
  1116.0000      0.0000    767.1107     10.3911     56.6863
  1116.2500      0.0000    762.8345     10.3201     57.8442
  1116.5000      0.0000    764.3762     10.2516     60.7902
  1116.7500      0.0000    769.9912     10.1915     64.3727
  1117.0000      0.0000    776.4639     10.1443     66.7063
  1117.2500      0.0000    781.4532     10.1166     66.8815
  1117.5000      0.0000    784.5593     10.1170     65.5024
  1117.7500      0.0000    786.8861     10.1499     63.7110
  1118.0000      0.0000    790.1942     10.2118     62.0060
  1118.2500      0.0000    796.1292     10.2959     60.0069
  1118.5000      0.0000    805.0850     10.3990     57.2043
  1118.7500      0.0000    815.2805     10.5220     53.8464
  1119.0000      0.0000    823.6328     10.6627     50.8819
  1119.2500      0.0000    827.9924     10.8104     49.0430
  1119.5000      0.0000    827.8414     10.9473     48.3581
  1119.7500      0.0000    823.1860     11.0579     48.6745
  1120.0000      0.0000    814.6417     11.1382     50.2006
  1120.2500      0.0000    804.6980     11.2000     53.3348
  1120.5000      0.0000    797.1233     11.2640     58.0992
  1120.7500      0.0000    794.7203     11.3482     63.6916
  1121.0000      0.0000    798.2057     11.4581     68.5625
  1121.2500      0.0000    806.6657     11.5907     71.3540
  1121.5000      0.0000    818.2597     11.7448     71.9980
  1121.7500      0.0000    830.6349     11.9257     71.6281
  1122.0000      0.0000    841.2753     12.1340     71.3068
  1122.2500      0.0000    848.0677     12.3501     71.1147
  1122.5000      0.0000    850.3807     12.5368     70.5078
  1122.7500      0.0000    849.6922     12.6620     69.2694
  1123.0000      0.0000    848.0509     12.7167     67.9096
  1123.2500      0.0000    845.3618     12.7069     67.1912
  1123.5000      0.0000    839.1467     12.6361     67.3527
  1123.7500      0.0000    827.8128     12.5019     67.7716
  1124.0000      0.0000    813.3856     12.3124     67.2924
  1124.2500      0.0000    800.1083     12.0966     64.9418
  1124.5000      0.0000    790.9155     11.8949     60.5306
  1124.7500      0.0000    785.9382     11.7371     54.8283
  1125.0000      0.0000    783.6998     11.6285     49.2960
  1125.2500      0.0000    782.7143     11.5534     45.5372
  1125.5000      0.0000    782.0283     11.4890     44.6387
  1125.7500      0.0000    781.0144     11.4224     46.6104
  1126.0000      0.0000    779.2411     11.3628     50.2533
  1126.2500      0.0000    776.8015     11.3420     53.7104
  1126.5000      0.0000    774.7580     11.3921     55.5024
  1126.7500      0.0000    774.8270     11.5096     55.4083
  1127.0000      0.0000    778.1174     11.6417     54.4923
  1127.2500      0.0000    784.0431     11.7143     54.2398
  1127.5000      0.0000    790.5845     11.6819     55.5373
  1127.7500      0.0000    795.6461     11.5480     58.3357
  1128.0000      0.0000    798.2197     11.3420     62.1495
  1128.2500      0.0000    798.4130     11.0908     66.7672
  1128.5000      0.0000    796.7771     10.8191     72.4842
  1128.7500      0.0000    794.0502     10.5631     79.5971
  1129.0000      0.0000    791.5811     10.3621     87.6662
  1129.2500      0.0000    791.8488     10.2362     95.4143
