~Version Information
VERS.                      2.0: CWLS Log ASCII Standard - VERSION 2.0
WRAP.                       NO: One line per depth step
~Well Information Block
STRT.FT                -7.0000: 
STOP.FT              2517.5000: 
STEP.FT                 0.2500: 
NULL.                -999.2500: 
COMP.          Pioneer Natural Resources: COMPANY
WELL.          Horsefeathers 24-34: WELL
FLD.           Purgatoire River: FIELD
LOC.           183' FSL & 1570' FWL: LOCATION
CNTY.               Las Animas: COUNTY
SRVC.                         : SERVICE COMPANY
DATE.          Fri Mar 17 10:06:37 2006: LOG DATE
UWI.           05 071 08675 00: UNIQUE WELL ID
STAT.                       CO: STATE
~Curve Information Block
DEPT.FT            0 000 00 00: Depth
GR.GAPI                       : Gamma Ray
CCL.                          : Casing Collar Locator
TT3.usec                      : CBL 3' Travel Time
AMP3.mV                       : CBL 3' Amplitude
~Parameter Information Block
~A  Depth        GR         CCL         TT3         AMP3    
# ...
  2304.5000     90.9629      0.0000    759.2191     16.7344
  2304.7500     88.8873      0.0000    743.2991     18.0099
  2305.0000     88.8814      0.0000    721.4916     19.2201
  2305.2500     91.1426      0.0000    696.9980     20.2056
  2305.5000     94.7121      0.0000    673.8795     20.7481
  2305.7500     97.8642      0.0000    652.3945     20.6929
  2306.0000     99.1619      0.0000    629.4580     20.0574
  2306.2500     98.2448      0.0000    607.1888     19.0217
  2306.5000     95.5385      0.0000    597.8353     17.7874
  2306.7500     91.4614      0.0000    614.0585     16.4402
  2307.0000     86.3070      0.0000    653.8641     14.9616
  2307.2500     80.7499      0.0000    699.0841     13.3535
  2307.5000     76.0639      0.0000    729.6038     11.7142
  2307.7500     73.6942      0.0000    737.5085     10.1973
  2308.0000     74.4694      0.0000    729.3087      8.9289
  2308.2500     77.9026      0.0000    718.1667      7.9697
  2308.5000     82.1253      0.0000    713.9122      7.3252
  2308.7500     84.8636      0.0000    717.9587      6.9699
  2309.0000     84.8490      0.0000    725.4662      6.8670
  2309.2500     82.3055      0.0000    730.8226      6.9822
  2309.5000     78.2371      0.0000    731.1477      7.2934
  2309.7500     73.6958      0.0000    726.7007      7.7823
  2310.0000     69.6923      0.0000    719.8344      8.4080
  2310.2500     67.1157      0.0000    713.5096      9.0987
  2310.5000     66.2391      0.0000    710.0017      9.7973
  2310.7500     66.4688      0.0000    710.4216     10.5214
  2311.0000     66.9716      0.0000    714.9109     11.3562
  2311.2500     67.5196      0.0000    722.6354     12.3612
  2311.5000     68.3727      0.0000    731.6868     13.4873
  2311.7500     69.5600      0.0000    739.6634     14.5934
  2312.0000     70.9367      0.0000    744.8572     15.5330
  2312.2500     72.8909      0.0000    746.8647     16.2138
  2312.5000     76.2242      0.0000    746.2137     16.5892
  2312.7500     80.9371      0.0000    743.8780     16.6272
  2313.0000     85.3924      0.0000    741.2211     16.3083
  2313.2500     87.1333      0.0000    739.6754     15.6589
  2313.5000     84.8864      0.0000    739.7366     14.7849
  2313.7500     79.8263      0.0000    740.2423     13.8508
  2314.0000     74.5978      0.0000    739.0434     13.0021
  2314.2500     71.0106      0.0000    734.3608     12.2981
  2314.5000     68.8815      0.0000    725.0260     11.7225
  2314.7500     66.9886      0.0000    708.7570     11.2505
  2315.0000     64.6486      0.0000    680.6039     10.8958
  2315.2500     62.1742      0.0000    635.4701     10.6958
  2315.5000     60.0946      0.0000    574.7587     10.6658
  2315.7500     58.3316      0.0000    510.2941     10.7709
  2316.0000     56.2635      0.0000    459.6807     10.9358
  2316.2500     53.4407      0.0000    436.8306     11.0787
  2316.5000     50.1232      0.0000    445.8188     11.1416
  2316.7500     47.2573      0.0000    480.4358     11.0932
  2317.0000     46.0350      0.0000    527.5397     10.9142
  2317.2500     47.2792      0.0000    573.3798     10.5858
  2317.5000     50.9249      0.0000    610.2310     10.0983
  2317.7500     55.9310      0.0000    638.0848      9.4771
  2318.0000     60.8272      0.0000    660.8560      8.8134
  2318.2500     64.6224      0.0000    682.2320      8.2593
  2318.5000     67.3525      0.0000    704.1420      7.9427
  2318.7500     69.7040      0.0000    726.3004      7.8534
  2319.0000     72.0472      0.0000    746.2623      7.8552
  2319.2500     73.9023      0.0000    761.0855      7.8606
  2319.5000     74.4207      0.0000    769.5004      7.9488
  2319.7500     73.4171      0.0000    772.0836      8.2656
  2320.0000     71.8741      0.0000    769.6738      8.8696
  2320.2500     71.1724     -2.0000    761.8575      9.7456
  2320.5000     71.5510      0.0000    745.6019     10.9322
  2320.7500     71.6178      0.0000    714.2615     12.6016
  2321.0000     69.8727      0.0000    660.1744     15.0051
  2321.2500     66.4457      0.0000    582.4576     18.2529
  2321.5000     62.8045      0.0000    493.1259     22.0307
  2321.7500     60.0373      0.0000    412.1755     25.5959
  2322.0000     57.9313      0.0000    354.4949     28.2572
  2322.2500     55.6266      0.0000    322.0785     29.8920
  2322.5000     52.8520      0.0000    307.6044     30.8980
  2322.7500     50.3895      0.0000    302.4068     31.6911
  2323.0000     49.4284      0.0000    300.8924     32.3691
  2323.2500     50.7106      0.0000    300.5625     32.7857
  2323.5000     54.3604      0.0000    300.5715     32.7941
  2323.7500     60.1721      0.0000    300.6710     32.4078
  2324.0000     67.6389      0.0000    300.7678     31.8167
  2324.2500     75.6325      0.0000    300.8158     31.2731
  2324.5000     82.4562      0.0000    300.7902     30.9319
  2324.7500     86.7767      0.0000    300.6966     30.8118
  2325.0000     88.5644      0.0000    300.5648     30.9063
  2325.2500     88.7437      0.0000    300.4249     31.2641
  2325.5000     88.0257      0.0000    300.2879     31.8979
  2325.7500     86.6435      0.0000    300.1529     32.6675
  2326.0000     85.0824      0.0000    300.0301     33.3413
  2326.2500     84.1793      0.0000    299.9484     33.7753
  2326.5000     84.2081      0.0000    299.9346     33.9780
  2326.7500     84.4145      0.0000    299.9870     34.0086
  2327.0000     83.9097      0.0000    300.0703     33.8869
  2327.2500     82.8448      0.0000    300.1421     33.6271
  2327.5000     82.2880      0.0000    300.1884     33.2853
  2327.7500     82.9054      0.0000    300.2344     32.9021
  2328.0000     84.1850      0.0000    300.3221     32.4239
  2328.2500     85.2175      0.0000    300.4772     31.7343
  2328.5000     85.8841      0.0000    300.6946     30.7720
  2328.7500     86.7470      0.0000    300.9504     29.6055
  2329.0000     87.9379      0.0000    301.2247     28.3949
  2329.2500     88.8700      0.0000    301.5082     27.2869
  2329.5000     89.2174      0.0000    301.7842     26.3524
  2329.7500     89.4239      0.0000    302.0095     25.6351
  2330.0000     89.8437      0.0000    302.1265     25.2069
  2330.2500     90.0179      0.0000    302.1044     25.1094
  2330.5000     89.2657      0.0000    301.9703     25.2705
  2330.7500     87.5082      0.0000    301.7952     25.5509
  2331.0000     85.2692      0.0000    301.6482     25.8486
  2331.2500     83.3778      0.0000    301.5673     26.0993
  2331.5000     82.7877      0.0000    301.5745     26.2140
  2331.7500     84.0385      0.0000    301.7361     26.0830
  2332.0000     86.6166      0.0000    302.2596     25.6388
  2332.2500     89.1960      0.0000    303.5985     24.8844
  2332.5000     90.6652      0.0000    306.4677     23.8675
  2332.7500     90.8133      0.0000    311.6012     22.6494
  2333.0000     90.1677      0.0000    319.3001     21.2986
  2333.2500     89.3251      0.0000    329.1755     19.8893
  2333.5000     88.3009      0.0000    340.3403     18.4947
  2333.7500     86.5963      0.0000    351.6748     17.1897
  2334.0000     84.1839      0.0000    361.8729     16.0581
  2334.2500     82.1205      0.0000    369.6866     15.1720
  2334.5000     81.6698      0.0000    374.5228     14.5606
  2334.7500     82.9925      0.0000    376.6674     14.2065
  2335.0000     85.0417      0.0000    376.6959     14.0573
  2335.2500     86.5015      0.0000    374.7707     14.0276
  2335.5000     86.7657      0.0000    370.7684     14.0198
  2335.7500     86.4435      0.0000    365.2294     13.9758
  2336.0000     86.8311      0.0000    359.9490     13.9047
  2336.2500     88.4253      0.0000    357.0245     13.8469
  2336.5000     90.2830      0.0000    356.9140     13.8303
  2336.7500     91.2968      0.0000    357.7696     13.8784
  2337.0000     91.5945      0.0000    357.2236     14.0212
  2337.2500     92.0791      0.0000    354.7859     14.2555
  2337.5000     92.9987      0.0000    352.0844     14.5095
  2337.7500     93.5870      0.0000    350.8227     14.6886
