~Version Information
 VERS.                                  2.0 : CWLS LAS VERSION
 WRAP.                                   NO : WRAPING MODE
 SWARE .                 MController 2.5.0N : SOFTWARE VERSION
~Well Information
 WELL.                        Hamburg 43-35 : WELL
 COMP.    Pioneer Natural Resouces USA Inc. : COMPANY
 FLD.                      Purgatoire River : FIELD
 LOC.            NE/SE Sec 35 , T34S, R65W  : LOCATION
 DATE.                             12/02/05 : DATE(S) LOGGED
 SRVC.       BLANCO Geological Services LLC : SERVICE COMPANY
 STAT.                                   CO : STATE
 CNTY.                           Las Animas : COUNTY
 CTRY.                                  USA : COUNTRY
 API.                       05-071-08607-00 : API NUMBER
 STRT.FT                             188.00 : START DEPTH
 STOP.FT                            1330.00 : STOP DEPTH
 STEP.FT                               1.00 : DEPTH INCREMENT
 NULL.                                -9999 : NULL VALUE
~Curve information
 DEPTH.FT                                   :
 ROP.MIN/FT                                 :
 GAS.UNITS                                  :
~ASCII Log data
# ...
       788.0         0.30        158.6 
       789.0         0.30        163.1 
       790.0         0.30        170.2 
       791.0         0.30        174.1 
       792.0         0.30        178.9 
       793.0         0.30        180.2 
       794.0         0.33        187.8 
       795.0         0.30        159.0 
       796.0         0.28         82.8 
       797.0         0.27         85.6 
       798.0         0.27         99.0 
       799.0         0.30        102.6 
       800.0         0.23        116.6 
       801.0         5.22       2020.8 
       802.0         0.42        474.5 
       803.0         0.60        461.3 
       804.0         0.37        490.3 
       805.0         0.43        489.7 
       806.0         0.33        465.2 
       807.0         0.33        452.6 
       808.0         0.30        440.0 
       809.0         0.33        172.7 
       810.0         0.33        148.0 
       811.0         0.32        140.0 
       812.0         0.23        137.4 
       813.0         0.30        136.7 
       814.0         0.30        123.8 
       815.0         0.33        124.9 
       816.0         0.37        128.7 
       817.0         0.33        139.0 
       818.0         0.33        144.0 
       819.0         0.33        144.9 
       820.0         0.30        150.1 
       821.0         0.33        153.3 
       822.0         0.32        154.1 
       823.0         0.27        158.8 
       824.0         0.30        157.7 
       825.0         0.30        138.7 
       826.0         0.30         94.9 
       827.0         0.33        119.6 
       828.0         0.27        120.6 
       829.0         0.33        121.4 
       830.0         0.80         89.0 
       831.0         3.97       1818.1 
       832.0         0.40        495.5 
       833.0         0.60        497.7 
       834.0         0.73        483.6 
       835.0         0.53        172.5 
       836.0         0.40        183.8 
       837.0         0.32        169.0 
       838.0         0.27        178.0 
       839.0         0.27        174.2 
       840.0         0.27        181.5 
       841.0         0.27        174.5 
       842.0         0.27        152.0 
       843.0         0.23        168.7 
       844.0         0.23        237.0 
       845.0         0.27        242.5 
       846.0         0.23        241.9 
       847.0         0.23        228.6 
       848.0         0.20        227.1 
       849.0         0.17        212.9 
       850.0         0.17        196.2 
       851.0         0.20        191.4 
       852.0         0.25        179.0 
       853.0         0.33        186.7 
       854.0         0.30        211.3 
       855.0         0.33        221.9 
       856.0         0.30        106.9 
       857.0         0.27        101.6 
       858.0         0.27        146.7 
       859.0         0.37        113.4 
       860.0         0.37         57.4 
       861.0         5.33       1590.5 
       862.0         0.43        440.0 
       863.0         0.37        176.1 
       864.0         0.30        185.2 
       865.0         0.37        192.4 
       866.0         0.33        154.4 
       867.0         0.32        158.5 
       868.0         0.33        158.0 
       869.0         0.30        149.0 
       870.0         0.30        145.5 
       871.0         0.27        138.6 
       872.0         0.30        136.6 
       873.0         0.30        121.5 
       874.0         0.37        119.7 
       875.0         0.30        128.7 
       876.0         0.37        130.4 
       877.0         0.30        128.9 
       878.0         0.38        120.8 
       879.0         0.33        197.6 
       880.0         0.33        181.4 
       881.0         0.33        220.9 
       882.0         0.27        219.3 
       883.0         0.23        197.6 
       884.0         0.13        133.9 
       885.0         0.20        125.8 
       886.0         0.20        148.4 
       887.0         0.20        119.5 
       888.0         0.17         68.0 
       889.0         0.50         48.9 
       890.0         0.35         44.3 
       891.0         3.25       2017.2 
       892.0         1.03        583.5 
       893.0         0.70        511.6 
       894.0         0.60        459.7 
       895.0         0.37        166.7 
       896.0         0.40        187.9 
       897.0         0.35        204.6 
       898.0         0.33        204.7 
       899.0         0.27        165.6 
       900.0         0.27        182.5 
       901.0         0.37        232.0 
       902.0         0.33        240.1 
       903.0         0.27        238.5 
       904.0         0.17        223.6 
       905.0         0.20        214.2 
       906.0         0.20        214.1 
       907.0         0.23        214.1 
       908.0         0.30        184.9 
       909.0         0.35        182.2 
       910.0         0.30        182.4 
       911.0         0.33        191.0 
       912.0         0.30        192.9 
       913.0         0.27        173.1 
       914.0         0.33        173.3 
       915.0         0.30        163.8 
       916.0         0.33        175.5 
       917.0         0.30        169.1 
       918.0         0.40        154.5 
       919.0         0.30         82.2 
       920.0         0.32         72.7 
       921.0         5.15       1158.4 
       922.0         0.33        449.1 
       923.0         0.23        440.0 
       924.0         0.23        168.4 
       925.0         0.27        174.8 
       926.0         0.35        181.8 
       927.0         0.30        178.8 
       928.0         0.23        178.7 
       929.0         0.23        159.9 
       930.0         0.27        159.0 
       931.0         0.30        151.1 
       932.0         0.33        167.9 
       933.0         0.30        173.9 
       934.0         0.27        200.3 
       935.0         0.30        210.2 
       936.0         0.17        202.7 
       937.0         0.30        201.2 
       938.0         0.25        182.8 
       939.0         0.30        197.7 
       940.0         0.30        198.6 
       941.0         0.33        189.7 
       942.0         0.23        187.7 
       943.0         0.33        202.2 
       944.0         0.30        199.9 
       945.0         0.40        204.2 
       946.0         0.27        105.4 
       947.0         0.33        132.4 
       948.0         0.33        172.5 
       949.0         0.28        191.6 
       950.0         0.60        209.1 
       951.0         3.12       1040.4 
       952.0         0.87        490.3 
       953.0         0.57        455.2 
       954.0         0.67        440.0 
       955.0         0.50        179.7 
       956.0         0.52        163.6 
       957.0         0.40        152.2 
       958.0         0.30        144.4 
       959.0         0.33        143.8 
       960.0         0.30        139.9 
       961.0         0.37        147.3 
       962.0         0.33        137.8 
       963.0         0.37        178.1 
       964.0         0.30        189.9 
       965.0         0.30        173.8 
       966.0         0.35        175.2 
       967.0         0.27        149.6 
       968.0         0.33        165.2 
       969.0         0.33        185.6 
       970.0         0.37        190.7 
       971.0         0.33        182.2 
       972.0         0.30        178.8 
       973.0         0.33        154.6 
       974.0         0.47        170.9 
       975.0         0.33        165.1 
       976.0         0.32        144.5 
       977.0         0.27         82.3 
       978.0         0.30         92.6 
       979.0         0.33        150.9 
       980.0         0.33        163.1 
       981.0         5.77       1322.1 
       982.0         1.00        301.9 
       983.0         0.50        208.5 
       984.0         0.47        195.6 
       985.0         0.40        177.9 
       986.0         0.42        173.4 
       987.0         0.40        174.1 
