~Version Information
VERS.                      2.0: CWLS Log ASCII Standard - VERSION 2.0
WRAP.                       NO: One line per depth step
~Well Information Block
STRT.FT                -1.5000: 
STOP.FT              2898.5000: 
STEP.FT                 0.2500: 
NULL.                -999.2500: 
COMP.          Pioneer Natural Resources: COMPANY
WELL.          Hanginstone 21-27: WELL
FLD.           Purgatoire River: FIELD
LOC.           1186' FNL & 1606' FWL--: LOCATION
PROV.                 Colorado: PROVINCE
CNTY.               Las Animas: COUNTRY
SRVC.                Patterson: SERVICE COMPANY
DATE.          Mon Jan 23 11:03:53 2006: LOG DATE
UWI.           05 071 08632 00: UNIQUE WELL ID
~Curve Information Block
DEPT.FT            0 000 00 00: Depth
CCL.                          : Casing Collar Locator
TT3.usec                      : CBL 3' Travel Time
AMP3.mV                       : CBL 3' Amplitude
GR.GAPI                       : Gamma Ray
~Parameter Information Block
~A  Depth       CCL         TT3         AMP3         GR     
# ...
  1539.5000      0.0000    698.8644      2.9545    108.3706
  1539.7500      0.0000    681.7585      2.9617    110.0329
  1540.0000      0.0000    673.5469      3.0264    113.1523
  1540.2500      0.0000    671.8438      3.1557    116.3118
  1540.5000      0.0000    672.4349      3.3489    118.9433
  1540.7500      0.0000    672.5340      3.5881    121.5310
  1541.0000      0.0000    672.1703      3.8349    124.8554
  1541.2500      0.0000    672.9466      4.0525    129.0374
  1541.5000      0.0000    676.0560      4.2291    133.2566
  1541.7500      0.0000    681.2139      4.3728    136.2816
  1542.0000      0.0000    686.7852      4.4911    137.2362
  1542.2500      0.0000    690.8748      4.5856    136.0337
  1542.5000      0.0000    692.5890      4.6535    133.2121
  1542.7500      0.0000    692.2715      4.6911    129.5574
  1543.0000      0.0000    690.7120      4.7025    126.2307
  1543.2500      0.0000    688.6583      4.7031    124.9330
  1543.5000      0.0000    686.9602      4.7078    126.8415
  1543.7500      0.0000    686.2125      4.7205    130.9209
  1544.0000      0.0000    686.0359      4.7343    134.0021
  1544.2500      0.0000    685.5226      4.7395    133.1804
  1544.5000      0.0000    684.6139      4.7286    127.9123
  1544.7500      0.0000    684.3564      4.6983    119.5660
  1545.0000      0.0000    685.6818      4.6483    109.4651
  1545.2500      0.0000    688.4207      4.5749     98.0796
  1545.5000      0.0000    691.4426      4.4729     85.9735
  1545.7500      0.0000    693.4125      4.3478     74.5712
  1546.0000      0.0000    693.7359      4.2225     65.3449
  1546.2500      0.0000    693.2708      4.1236     58.6512
  1546.5000      0.0000    694.0714      4.0601     53.9032
  1546.7500      0.0000    698.0009      4.0174     50.5708
  1547.0000      0.0000    705.1718      3.9715     48.5502
  1547.2500      0.0000    713.8399      3.9085     47.9898
  1547.5000      0.0000    722.3998      3.8393     49.3556
  1547.7500      0.0000    731.3024      3.8023     53.3553
  1548.0000      0.0000    741.5621      3.8473     60.3257
  1548.2500      0.0000    751.1376      3.9955     69.8316
  1548.5000      0.0000    755.0486      4.2063     81.0142
  1548.7500      0.0000    750.3412      4.3926     93.3560
  1549.0000      0.0000    739.7043      4.4854    107.1763
  1549.2500      0.0000    729.5558      4.4926    123.1457
  1549.5000      0.0000    725.0678      4.4957    140.6503
  1549.7500      0.0000    726.4371      4.5830    156.5906
  1550.0000      0.0000    728.8956      4.7744    166.5969
  1550.2500      0.0000    726.7953      5.0116    168.0393
  1550.5000      0.0000    718.7673      5.2172    161.8542
  1550.7500      0.0000    708.8607      5.3579    151.4723
  1551.0000      0.0000    702.3365      5.4507    140.2641
  1551.2500      0.0000    700.9418      5.5236    130.0424
  1551.5000      0.0000    702.4219      5.5804    121.4862
  1551.7500      0.0000    703.5469      5.6039    115.0722
  1552.0000      0.0000    702.8438      5.5849    111.1429
  1552.2500      0.0000    701.0558      5.5389    109.4796
  1552.5000      0.0000    699.8616      5.4899    109.3709
  1552.7500      0.0000    700.2239      5.4407    110.1797
  1553.0000      0.0000    701.7333      5.3691    111.7871
  1553.2500      0.0000    703.3436      5.2559    114.6327
  1553.5000      0.0000    704.3994      5.1108    119.2963
  1553.7500      0.0000    704.8672      4.9617    125.7092
  1554.0000      0.0000    704.9462      4.8274    132.4482
  1554.2500      0.0000    704.7399      4.7100    136.9366
  1554.5000      0.0000    704.2244      4.6120    136.8653
  1554.7500      0.0000    703.5460      4.5452    132.0165
  1555.0000      0.0000    703.6683      4.5157    125.0243
  1555.2500      0.0000    706.7368      4.5080    120.0580
  1555.5000      0.0000    714.8177      4.4930    120.2107
  1555.7500      0.0000    727.3137      4.4518    125.6177
  1556.0000      0.0000    740.2453      4.3900    133.5514
  1556.2500      0.0000    749.5071      4.3287    140.0621
  1556.5000      0.0000    754.5929      4.2845    141.9081
  1556.7500      0.0000    757.8710      4.2565    137.6909
  1557.0000      0.0000    760.7576      4.2363    127.9046
  1557.2500      0.0000    762.1906      4.2283    114.3715
  1557.5000      0.0000    760.7213      4.2514     99.5094
  1557.7500      0.0000    756.7717      4.3196     85.5215
  1558.0000      0.0000    752.5563      4.4271     73.8814
  1558.2500      0.0000    750.3655      4.5501     65.5434
  1558.5000      0.0000    751.0245      4.6614     61.3651
  1558.7500      0.0000    753.6630      4.7419     61.8419
  1559.0000      0.0000    756.7749      4.7808     66.4349
  1559.2500      0.0000    759.2761      4.7752     73.3938
  1559.5000      0.0000    760.6043      4.7391     80.4283
  1559.7500      0.0000    760.4468      4.7014     85.8657
  1560.0000      0.0000    759.1038      4.6830     89.4909
  1560.2500      0.0000    758.1140      4.6790     92.2431
  1560.5000      0.0000    759.8001      4.6747     94.9104
  1560.7500      0.0000    765.5710      4.6705     97.2522
  1561.0000      0.0000    774.4907      4.6817     98.6755
  1561.2500      0.0000    783.6624      4.7137     99.5694
  1561.5000      0.0000    790.2164      4.7471    101.2660
  1561.7500      0.0000    793.0224      4.7574    104.3580
  1562.0000      0.0000    792.8663      4.7455    107.5322
  1562.2500      0.0000    791.6024      4.7387    108.5435
  1562.5000      0.0000    791.0675      4.7591    106.2689
  1562.7500      0.0000    791.9924      4.8025    101.8589
  1563.0000      0.0000    793.5347      4.8476     98.1632
  1563.2500      0.0000    793.8945      4.8770     97.8236
  1563.5000      0.0000    791.5439      4.8869    101.4118
  1563.7500      0.0000    786.2811      4.8829    107.1222
  1564.0000      0.0000    779.5790      4.8707    112.2275
  1564.2500      0.0000    773.6458      4.8514    114.9509
  1564.5000      0.0000    769.7136      4.8251    115.1571
  1564.7500      0.0000    767.5122      4.7948    113.5768
  1565.0000      0.0000    766.2703      4.7633    110.8056
  1565.2500      0.0000    765.1910      4.7251    107.3443
  1565.5000      0.0000    762.7999      4.6593    104.3304
  1565.7500      0.0000    756.7921      4.5361    103.4112
  1566.0000      0.0000    745.3245      4.3460    105.3455
  1566.2500      0.0000    729.2664      4.1327    108.8893
  1566.5000      0.0000    713.7632      3.9816    111.4910
  1566.7500      0.0000    706.6319      3.9557    111.4386
  1567.0000      0.0000    713.2717      4.0442    109.2093
  1567.2500      0.0000    732.3743      4.1872    106.4473
  1567.5000      0.0000    757.0900      4.3387    103.9826
  1567.7500      0.0000    780.4518      4.4821    101.4135
  1568.0000     -2.0000    798.8810      4.6061     98.2199
  1568.2500      2.0000    810.5059      4.7007     94.5495
  1568.5000      2.0000    812.2681      4.7749     91.0475
  1568.7500     -2.0000    801.0112      4.8655     88.5925
  1569.0000      0.0000    777.5555      5.0233     88.2546
  1569.2500      0.0000    748.5906      5.2796     91.0095
  1569.5000      0.0000    723.7132      5.6071     97.1678
  1569.7500      0.0000    709.9028      5.9171    105.9974
  1570.0000      0.0000    708.0162      6.1146    115.8406
  1570.2500      0.0000    713.6550      6.1610    124.7195
  1570.5000      0.0000    721.5129      6.0781    131.1259
  1570.7500      0.0000    730.0110      5.9087    134.2930
  1571.0000      0.0000    741.6413      5.6936    133.7178
  1571.2500      0.0000    757.8279      5.4721    128.8844
  1571.5000      0.0000    773.6056      5.2791    119.9915
  1571.7500      0.0000    779.0763      5.1398    108.8716
  1572.0000      0.0000    767.7761      5.0673     98.4813
  1572.2500      0.0000    744.1982      5.0557     91.0623
  1572.5000      0.0000    722.0837      5.0803     86.9541
  1572.7500      0.0000    713.8492      5.1219     85.3350
