~Version Information
VERS.                      2.0: CWLS Log ASCII Standard - VERSION 2.0
WRAP.                       NO: One line per depth step
~Well Information Block
STRT.FT                15.0000: 
STOP.FT              1532.0000: 
STEP.FT                 0.2500: 
NULL.                -999.2500: 
COMP.          Pioneer Natural Resources: COMPANY
WELL.           Bobsy 34-11 Tr: WELL
FLD.           Purgatoire River: FIELD
LOC.           514' FSL & 1784' FEL: LOCATION
PROV.                 Colorado: PROVINCE
CNTY.               Las Animas: COUNTRY
SRVC.                Patterson: SERVICE COMPANY
DATE.          Fri Jul 22 12:22:14 2005: LOG DATE
UWI.           05 071 08438 00: UNIQUE WELL ID
~Curve Information Block
DEPT.FT            0 000 00 00: Depth
GR.GAPI                       : Gamma Ray
CCL.                          : Casing Collar Locator
TT3.usec                      : CBL 3' Travel Time
AMP3.mV                       : CBL 3' Amplitude
~Parameter Information Block
~A  Depth        GR         CCL         TT3         AMP3    
# ...
   718.5000    161.9336      0.0000    754.5933     11.9011
   718.7500    157.3657      0.0000    757.7614     11.8230
   719.0000    150.0089      0.0000    760.3367     11.7591
   719.2500    140.9704      0.0000    761.7768     11.7056
   719.5000    131.4555      0.0000    761.9229     11.6536
   719.7500    122.5884      0.0000    760.7600     11.5981
   720.0000    116.0958      0.0000    758.5213     11.5451
   720.2500    113.8015      0.0000    756.0815     11.5063
   720.5000    115.7493      0.0000    754.8574     11.4868
   720.7500    119.6149      0.0000    756.2271     11.4795
   721.0000    122.6536      0.0000    760.9010     11.4703
   721.2500    123.8070      0.0000    768.3398     11.4472
   721.5000    123.7084      0.0000    776.5886     11.4072
   721.7500    123.5125      0.0000    783.0697     11.3584
   722.0000    124.2641      0.0000    785.6376     11.3125
   722.2500    126.7437      0.0000    782.5779     11.2742
   722.5000    131.1897      0.0000    772.2396     11.2408
   722.7500    137.0054      0.0000    754.1912     11.2201
   723.0000    142.6801      0.0000    731.5309     11.2456
   723.2500    146.1524      0.0000    711.3205     11.3595
   723.5000    145.9588      0.0000    701.1150     11.5674
   723.7500    142.4652      0.0000    703.8091     11.8151
   724.0000    137.6614      0.0000    715.6482     12.0194
   724.2500    133.4756      0.0000    729.4092     12.1230
   724.5000    130.4097      0.0000    739.3116     12.1176
   724.7500    127.8785      0.0000    743.0891     12.0154
   725.0000    125.6807      0.0000    740.7061     11.7974
   725.2500    124.7316      0.0000    732.9866     11.3923
   725.5000    125.9728      0.0000    722.1020     10.7322
   725.7500    128.7571      0.0000    712.1039      9.8578
   726.0000    130.9854      0.0000    707.0389      8.9600
   726.2500    131.0558      0.0000    708.2766      8.2801
   726.5000    129.2596      0.0000    714.7207      7.9487
   726.7500    126.9748      0.0000    724.8865      7.9209
   727.0000    124.9239      0.0000    736.7955      8.0507
   727.2500    122.8401      1.6232    746.4838      8.2114
   727.5000    120.7411      0.0000    749.4220      8.3566
   727.7500    119.7183      0.0000    744.2709      8.5212
   728.0000    120.9913      0.0000    734.2926      8.8129
   728.2500    124.4755      0.0000    725.0070      9.3735
   728.5000    128.8169      0.0000    720.7382     10.2516
   728.7500    132.6789      0.0000    722.5339     11.2698
   729.0000    135.4659      0.0000    728.2979     12.0936
   729.2500    136.9817      0.0000    734.7715     12.4947
   729.5000    137.2195      0.0000    739.6942     12.5122
   729.7500    136.6929      0.0000    742.5458     12.3471
   730.0000    136.4573      0.0000    743.8642     12.1642
   730.2500    137.3305      0.0000    744.3328     12.0159
   730.5000    138.9943      0.0000    744.3825     11.8915
   730.7500    139.9840      0.0000    744.2205     11.7834
   731.0000    138.7837      0.0000    743.9592     11.7096
   731.2500    135.0228      0.0000    743.6835     11.6931
   731.5000    129.6929      0.0000    743.4619     11.7340
   731.7500    124.4971      0.0000    743.3369     11.8062
   732.0000    121.0216      0.0000    743.3270     11.8798
   732.2500    120.1449      0.0000    743.4389     11.9410
   732.5000    121.9100      0.0000    743.6747     11.9918
   732.7500    125.6746      0.0000    744.0342     12.0402
   733.0000    130.2642      0.0000    744.5300     12.0943
   733.2500    134.3818      0.0000    745.1893     12.1624
   733.5000    137.2993      0.0000    745.9965     12.2495
   733.7500    138.9618      0.0000    746.8207     12.3478
   734.0000    139.2666      0.0000    747.4584     12.4300
   734.2500    137.6457      0.0000    747.7933     12.4605
   734.5000    133.8019      0.0000    747.8991     12.4202
   734.7500    128.6173      0.0000    747.9579     12.3212
   735.0000    123.7909      0.0000    748.0937     12.1947
   735.2500    120.4958      0.0000    748.3011     12.0671
   735.5000    118.6712      0.0000    748.5060     11.9491
   735.7500    117.6168      0.0000    748.6445     11.8437
   736.0000    117.0000      0.0000    748.6849     11.7584
   736.2500    117.2034      0.0000    748.6259     11.7052
   736.5000    118.7188      0.0000    748.5162     11.6888
   736.7500    121.2749      0.0000    748.4572     11.7002
   737.0000    123.7653      0.0000    748.5372     11.7206
   737.2500    125.0583      0.0000    748.7115     11.7335
   737.5000    124.7128      0.0000    748.6671     11.7347
   737.7500    123.0463      0.0000    747.6895     11.7345
   738.0000    120.9511      0.0000    744.7386     11.7461
   738.2500    119.5843      0.0000    739.1393     11.7695
   738.5000    119.5444      0.0000    731.8688     11.7931
   738.7500    120.0482      0.0000    726.1294     11.8178
   739.0000    119.3873      0.0000    725.5726     11.8682
   739.2500    116.4344      0.0000    730.8856     11.9710
   739.5000    111.4577      0.0000    738.3425     12.1218
   739.7500    105.6110      0.0000    742.7278     12.2816
   740.0000    100.1207      0.0000    741.8168     12.4078
   740.2500     95.9492      0.0000    737.3741     12.4888
   740.5000     93.7492      0.0000    732.1281     12.5452
   740.7500     93.8259      0.0000    727.0338     12.5988
   741.0000     95.9703      0.0000    721.5218     12.6481
   741.2500     99.2819      0.0000    715.1171     12.6732
   741.5000    102.4325      0.0000    708.2593     12.6570
   741.7500    104.3788      0.0000    702.0357     12.6019
   742.0000    104.8744      0.0000    697.4241     12.5294
   742.2500    104.3574      0.0000    694.7999     12.4622
   742.5000    103.5279      0.0000    694.1964     12.4070
   742.7500    103.0594      0.0000    695.9428     12.3579
   743.0000    103.3632      0.0000    700.6249     12.3150
   743.2500    104.2277      0.0000    707.8293     12.2892
   743.5000    104.8771      0.0000    714.8714     12.2907
   743.7500    104.9982      0.0000    717.8037     12.3249
   744.0000    105.7406      0.0000    714.7104     12.4010
   744.2500    108.9726      0.0000    707.6078     12.5273
   744.5000    115.1500      0.0000    700.4178     12.6867
   744.7500    122.3869      0.0000    695.6395     12.8370
   745.0000    127.9392      0.0000    693.3727     12.9553
   745.2500    130.1843      0.0000    692.5767     13.0737
   745.5000    129.1489      0.0000    692.3326     13.2496
   745.7500    126.0977      0.0000    692.1624     13.5026
   746.0000    123.0991      0.0000    691.8668     13.7867
   746.2500    122.1719      0.0000    691.4097     14.0179
   746.5000    123.9573      0.0000    690.8893     14.1227
   746.7500    127.2930      0.0000    690.4965     14.0761
   747.0000    130.4416      0.0000    690.3778     13.9119
   747.2500    132.6165      0.0000    690.5247     13.7016
   747.5000    134.1381      0.0000    690.7888     13.5124
   747.7500    135.5039      0.0000    691.0007     13.3763
   748.0000    136.8990      0.0000    691.0803     13.2860
   748.2500    138.5414      0.0000    691.0598     13.2111
   748.5000    140.6991      0.0000    691.0272     13.1266
   748.7500    142.8900      0.0000    691.0438     13.0366
   749.0000    143.4801      0.0000    691.1026     12.9707
   749.2500    140.7569      0.0000    691.1530     12.9509
   749.5000    134.5868      0.0000    691.1595     12.9639
   749.7500    126.8156      0.0000    691.1345     12.9716
   750.0000    119.9642      0.0000    691.1244     12.9498
   750.2500    115.6283      0.0000    691.1691     12.9083
   750.5000    114.0587      0.0000    691.2659     12.8740
   750.7500    114.9630      0.0000    691.3612     12.8647
   751.0000    118.3154      0.0000    691.3860     12.8851
   751.2500    124.2480      0.0000    691.3144     12.9361
   751.5000    132.2490      0.0000    691.1954     13.0141
   751.7500    140.6136      0.0000    691.1216     13.1024
