~Version Information
VERS.                      2.0: CWLS Log ASCII Standard - VERSION 2.0
WRAP.                       NO: One line per depth step
~Well Information Block
STRT.FT                -7.5000: 
STOP.FT              1336.0000: 
STEP.FT                 0.2500: 
NULL.                -999.2500: 
COMP.          Pioneer Natural Resources: COMPANY
WELL.               LPGC 32-32: WELL
FLD.           Purgatorie River: FIELD
LOC.           1937' FNL & 1661' FEL--: LOCATION
CNTY.               Las Animas: COUNTY
SRVC.          Patterson Wireline: SERVICE COMPANY
DATE.          Fri Feb 03 09:39:42 2006: LOG DATE
UWI.           05 071 08641 00: UNIQUE WELL ID
STAT.                       CO: STATE
~Curve Information Block
DEPT.FT            0 000 00 00: Depth
CCL.                          : Casing Collar Locator
TT3.usec                      : CBL 3' Travel Time
AMP3.mV                       : CBL 3' Amplitude
GR.GAPI                       : Gamma Ray
~Parameter Information Block
~A  Depth       CCL         TT3         AMP3         GR     
# ...
   160.0000      0.0000    748.8950      9.1688     80.6231
   160.2500     -1.6934    752.1201      9.2459     76.9781
   160.5000      2.0000    749.8952      9.4264     73.7844
   160.7500      2.0000    747.9368      9.6532     71.9587
   161.0000      0.0000    745.6104      9.8846     71.8512
   161.2500      0.0000    738.4899     10.1360     72.9511
   161.5000      0.0000    724.7348     10.4668     74.0802
   161.7500      0.0000    708.4641     10.9138     74.0768
   162.0000      0.0000    696.9987     11.4394     72.4249
   162.2500      0.0000    694.9629     11.9622     69.4245
   162.5000      0.0000    701.7435     12.4108     65.9845
   162.7500      0.0000    714.2043     12.7314     63.2928
   163.0000      0.0000    729.9547     12.8924     62.4780
   163.2500      0.0000    747.4091     12.9190     64.1242
   163.5000      0.0000    764.6167     12.8954     67.6884
   163.7500      0.0000    779.7913     12.9135     71.4542
   164.0000      0.0000    793.0862     13.0257     73.5329
   164.2500      0.0000    806.5997     13.2359     73.1796
   164.5000      0.0000    821.5007     13.5120     71.1154
   164.7500      0.0000    835.6290     13.8014     68.6521
   165.0000      0.0000    844.6701     14.0510     66.6389
   165.2500      0.0000    845.5295     14.2255     65.1387
   165.5000      0.0000    838.3558     14.3194     63.8351
   165.7500      0.0000    825.6500     14.3620     62.6429
   166.0000      0.0000    807.9276     14.4139     61.9296
   166.2500      0.0000    778.9576     14.5468     62.1393
   166.5000      0.0000    728.8975     14.8041     63.1919
   166.7500      0.0000    657.8508     15.1579     64.3834
   167.0000      0.0000    585.6113     15.5034     65.0625
   167.2500      0.0000    540.3869     15.7167     65.4405
   167.5000      0.0000    533.2722     15.7357     66.7298
   167.7500      0.0000    547.5436     15.5932     70.3334
   168.0000      0.0000    557.3802     15.3806     76.5185
   168.2500      0.0000    553.9871     15.1874     83.7705
   168.5000      0.0000    548.3361     15.0633     89.7634
   168.7500      0.0000    551.5672     15.0132     93.0420
   169.0000      0.0000    559.5094     15.0116     93.6044
   169.2500      0.0000    556.5811     15.0159     92.2901
   169.5000      0.0000    532.2748     14.9715     90.2784
   169.7500      0.0000    494.8340     14.8271     88.9712
   170.0000      0.0000    468.8033     14.5717     89.4324
   170.2500      0.0000    476.8977     14.2609     91.4678
   170.5000      0.0000    522.4393     13.9922     93.5480
   170.7500      0.0000    587.7417     13.8490     94.0270
   171.0000      0.0000    648.0032     13.8649     92.4909
   171.2500      0.0000    687.1194     14.0249     90.0370
   171.5000      0.0000    702.6175     14.2813     88.5252
   171.7500      0.0000    698.7372     14.5762     89.3304
   172.0000      0.0000    677.1573     14.8646     92.1718
   172.2500      0.0000    635.8250     15.1140     95.1631
   172.5000      0.0000    577.0959     15.2830     96.6390
   172.7500      0.0000    515.0005     15.3270     96.8190
   173.0000      0.0000    470.1423     15.2410     96.9863
   173.2500      0.0000    454.9809     15.0788     97.3018
   173.5000      0.0000    465.4489     14.9158     96.3788
   173.7500      0.0000    488.3555     14.7989     93.1165
   174.0000      0.0000    514.2438     14.7311     88.1649
   174.2500      0.0000    539.4467     14.6876     83.1761
   174.5000      0.0000    558.2194     14.6376     79.1254
   174.7500      0.0000    560.8155     14.5577     75.9693
   175.0000      0.0000    541.7317     14.4350     73.6967
   175.2500      0.0000    505.8664     14.2666     72.9279
   175.5000      0.0000    466.1158     14.0673     74.1893
   175.7500      0.0000    437.8188     13.8763     77.0120
   176.0000      0.0000    434.2295     13.7406     80.0040
   176.2500      0.0000    461.7408     13.6753     81.7569
   176.5000      0.0000    514.5533     13.6420     81.8039
   176.7500      0.0000    573.5410     13.5832     80.9645
   177.0000      0.0000    614.6205     13.4752     80.7891
   177.2500      0.0000    623.8996     13.3394     82.4563
   177.5000      0.0000    607.7490     13.2070     85.9159
   177.7500      0.0000    587.6002     13.0935     89.9016
   178.0000      0.0000    581.0726     13.0078     92.8357
   178.2500      0.0000    585.5702     12.9700     94.0376
   178.5000      0.0000    581.6815     13.0064     94.1989
   178.7500      0.0000    553.7539     13.1246     94.5541
   179.0000      0.0000    505.4966     13.2919     95.6720
   179.2500      0.0000    456.0869     13.4402     97.2880
   179.5000      0.0000    425.6448     13.4993     98.9970
   179.7500      0.0000    426.0627     13.4359    100.5019
   180.0000      0.0000    459.7264     13.2636    101.1776
   180.2500      0.0000    519.1058     13.0251    100.0044
   180.5000      0.0000    586.5483     12.7731     96.3283
   180.7500      0.0000    639.3289     12.5658     90.5950
   181.0000      0.0000    659.2838     12.4601     84.2960
   181.2500      0.0000    640.8640     12.4938     79.3472
   181.5000      0.0000    594.8987     12.6686     77.2908
   181.7500      0.0000    546.9849     12.9415     78.4630
   182.0000      0.0000    526.3845     13.2360     81.6948
   182.2500      0.0000    547.9117     13.4775     85.1342
   182.5000      0.0000    601.1667     13.6350     87.5142
   182.7500      0.0000    657.1953     13.7316     88.5379
   183.0000      0.0000    685.9726     13.8173     88.2984
   183.2500      0.0000    672.1570     13.9311     86.8184
   183.5000      0.0000    623.8544     14.0808     84.2115
   183.7500      0.0000    569.4474     14.2435     81.0019
   184.0000      0.0000    538.1749     14.3824     78.1485
   184.2500      0.0000    537.9066     14.4679     76.6900
   184.5000      0.0000    555.4268     14.4869     77.1580
   184.7500      0.0000    578.6375     14.4392     79.1155
   185.0000      0.0000    608.5628     14.3406     81.3812
   185.2500      0.0000    645.2087     14.2319     82.9507
   185.5000      0.0000    672.5256     14.1712     83.7295
   185.7500      0.0000    667.4486     14.2016     84.3437
   186.0000      0.0000    623.0672     14.3230     85.4557
   186.2500      0.0000    560.2131     14.4895     87.2412
   186.5000      0.0000    515.6588     14.6274     89.1652
   186.7500      0.0000    516.7151     14.6620     90.2299
   187.0000      0.0000    563.6387     14.5492     89.8624
   187.2500      0.0000    633.2059     14.2966     88.5787
   187.5000      0.0000    697.6146     13.9551     87.4403
   187.7500      0.0000    741.0928     13.5885     87.0996
   188.0000      0.0000    762.9313     13.2508     87.7348
   188.2500      0.0000    770.1753     12.9794     89.4212
   188.5000      0.0000    770.0510     12.7891     91.9379
   188.7500      0.0000    767.1664     12.6645     94.3909
   189.0000      0.0000    763.7103     12.5679     95.5837
   189.2500      0.0000    759.9754     12.4622     94.9087
   189.5000      0.0000    755.3420     12.3292     92.7637
   189.7500      0.0000    749.8642     12.1686     90.0453
   190.0000      0.0000    744.9593     11.9885     87.3166
   190.2500      0.0000    742.3734     11.8035     84.5914
   190.5000      0.0000    742.7062     11.6367     81.9586
   190.7500      0.0000    745.1217     11.5144     80.1432
   191.0000      0.0000    748.3722     11.4480     80.1936
   191.2500      0.0000    751.9290     11.4210     82.5979
   191.5000      0.0000    755.8020     11.3974     86.6944
   191.7500      0.0000    759.3442     11.3433     90.7828
   192.0000      0.0000    761.1513     11.2419     92.8603
   192.2500      0.0000    760.7766     11.0974     91.8049
   192.5000      0.0000    759.8831     10.9324     88.5257
   192.7500      0.0000    760.7834     10.7839     85.8416
   193.0000      0.0000    763.9866     10.6946     86.2875
   193.2500      0.0000    767.7053     10.6998     89.6813
