~Version Information
VERS.                      2.0: CWLS Log ASCII Standard - VERSION 2.0
WRAP.                       NO: One line per depth step
~Well Information Block
STRT.FT               330.0000: 
STOP.FT              1972.5000: 
STEP.FT                 0.1000: 
NULL.                -999.2500: 
COMP.          Pioneer Natural Resources: COMPANY
WELL.           Willys 32-8 Tr: WELL
FLD.           Purgatoire River: FIELD
LOC.           1843' FNL & 2355' FEL: LOCATION
CNTY.               Las Animas: COUNTY
SRVC.                Patterson: SERVICE COMPANY
DATE.          Thu Feb 09 10:31:59 2006: LOG DATE
UWI.           05 071 08688 00: UNIQUE WELL ID
STAT.                 Colorado: STATE
~Curve Information Block
DEPT.FT            0 000 00 00: Depth
DCAL.in                       : CDL Caliper
RHOB.g/cc                     : CDL Bulk Density
RHOC.g/cc                     : CDL Density Correction
DPOR.pu                       : CDL Density Porosity
GR.GAPI                       : Gamma Ray
~Parameter Information Block
~A  Depth       DCAL        RHOB        RHOC        DPOR         GR     
# ...
  1416.4000      7.8600      2.5953      0.0836      3.3154    139.8897
  1416.5000      7.8915      2.6258      0.1430      1.4649    140.0324
  1416.6000      7.8915      2.6291      0.1274      1.2653    141.0036
  1416.7000      7.8915      2.6153      0.0767      2.1027    141.0909
  1416.8000      7.8917      2.6055      0.0559      2.6975    142.3170
  1416.9000      7.8917      2.5968      0.1176      3.2235    144.3495
  1417.0000      7.8966      2.5743      0.0886      4.5865    143.9447
  1417.1000      7.8966      2.5441      0.0348      6.4163    141.6216
  1417.2000      7.8966      2.5315      0.0075      7.1817    138.1948
  1417.3000      7.9018      2.5464      0.0714      6.2806    131.9939
  1417.4000      7.9018      2.5648      0.0693      5.1614    127.0867
  1417.5000      7.9009      2.5644      0.0528      5.1863    131.0801
  1417.6000      7.9009      2.5472      0.0651      6.2280    139.9257
  1417.7000      7.9009      2.5240      0.0558      7.6355    145.3674
  1417.8000      7.9053      2.5078      0.0370      8.6186    147.2423
  1417.9000      7.9053      2.5118      0.0094      8.3777    148.1921
  1418.0000      7.9016      2.5347      0.0992      6.9892    149.3810
  1418.1000      7.9016      2.5655      0.0495      5.1230    149.5010
  1418.2000      7.9016      2.6032      0.0586      2.8355    146.8064
  1418.3000      7.8538      2.6441      0.0718      0.3603    141.8729
  1418.4000      7.8538      2.6770      0.0874     -1.6373    134.1081
  1418.5000      7.8448      2.7078      0.0954     -3.5023    126.8013
  1418.6000      7.8448      2.7454      0.1073     -5.7806    125.7452
  1418.7000      7.8448      2.7717      0.1297     -7.3731    126.3085
  1418.8000      7.8420      2.7567      0.1177     -6.4678    124.0063
  1418.9000      7.8420      2.7034      0.0011     -3.2375    122.5585
  1419.0000      7.8447      2.6467      0.0165      0.2001    123.9053
  1419.1000      7.8447      2.6046     -0.0041      2.7539    126.9683
  1419.2000      7.8447      2.5683     -0.0011      4.9502    130.4487
  1419.3000      7.8841      2.5317     -0.0063      7.1675    132.2563
  1419.4000      7.8841      2.5065     -0.0168      8.6947    132.3042
  1419.5000      7.9018      2.5131     -0.0452      8.2952    132.0108
  1419.6000      7.9018      2.5498      0.0642      6.0757    130.3340
  1419.7000      7.9018      2.5816      0.1011      4.1467    128.6723
  1419.8000      7.9047      2.5856      0.1098      3.9003    131.3993
  1419.9000      7.9047      2.5740      0.0831      4.6070    136.7480
  1420.0000      7.9086      2.5604      0.1123      5.4283    139.9029
  1420.1000      7.9086      2.5495      0.0375      6.0880    141.5533
  1420.2000      7.9086      2.5517      0.0284      5.9601    143.1873
  1420.3000      7.9275      2.5620      0.0995      5.3319    142.0965
  1420.4000      7.9275      2.5563      0.0742      5.6760    137.8698
  1420.5000      7.9943      2.5339      0.0128      7.0370    134.9700
  1420.6000      7.9943      2.5179      0.0462      8.0033    135.8393
  1420.7000      7.9943      2.5146      0.0597      8.2044    140.0681
  1420.8000      7.9433      2.5147      0.0234      8.2001    144.9246
  1420.9000      7.9433      2.5144      0.0530      8.2171    145.5862
  1421.0000      7.9735      2.5115      0.0199      8.3963    141.4277
  1421.1000      7.9735      2.5092      0.0200      8.5355    136.8314
  1421.2000      7.9735      2.5204     -0.0062      7.8576    135.6782
  1421.3000      7.9108      2.5451      0.0840      6.3603    138.8820
  1421.4000      7.9108      2.5643      0.0632      5.1910    141.6367
  1421.5000      7.9012      2.5743      0.0199      4.5868    140.2747
  1421.6000      7.9012      2.5831      0.0561      4.0517    138.9096
  1421.7000      7.9012      2.5823      0.0845      4.1028    139.4708
  1421.8000      7.9096      2.5670      0.0207      5.0333    139.5656
  1421.9000      7.9096      2.5585     -0.0011      5.5484    140.3018
  1422.0000      7.9190      2.5731      0.0338      4.6612    141.7892
  1422.1000      7.9190      2.5959      0.0442      3.2812    142.0465
  1422.2000      7.9190      2.6082      0.0092      2.5338    143.3353
  1422.3000      7.9193      2.6115      0.0201      2.3363    145.1120
  1422.4000      7.9193      2.6141     -0.0057      2.1740    144.3525
  1422.5000      7.9153      2.6187      0.0417      1.8960    142.1920
  1422.6000      7.9153      2.6206      0.0287      1.7845    139.9169
  1422.7000      7.9153      2.6225     -0.0050      1.6670    138.1043
  1422.8000      7.9100      2.6328     -0.0085      1.0428    138.2289
  1422.9000      7.9100      2.6534      0.0205     -0.2051    141.6740
  1423.0000      7.9211      2.6872     -0.0338     -2.2567    145.3767
  1423.1000      7.9211      2.7275      0.0159     -4.6983    145.4285
  1423.2000      7.9211      2.7468      0.0362     -5.8687    143.1867
  1423.3000      7.9366      2.7294      0.0711     -4.8123    141.1873
  1423.4000      7.9366      2.6886      0.0217     -2.3413    142.7354
  1423.5000      7.9264      2.6511     -0.0512     -0.0640    148.6720
  1423.6000      7.9264      2.6263     -0.0017      1.4334    151.6014
  1423.7000      7.9264      2.6056     -0.0184      2.6901    145.0899
  1423.8000      7.9238      2.5857     -0.0060      3.8973    133.4754
  1423.9000      7.9238      2.5636     -0.0124      5.2353    127.1347
  1424.0000      7.9157      2.5309     -0.0235      7.2154    130.0611
  1424.1000      7.9157      2.4905     -0.0265      9.6687    138.8049
  1424.2000      7.9157      2.4653     -0.0845     11.1921    147.3933
  1424.3000      7.9325      2.4742     -0.0102     10.6575    147.9598
  1424.4000      7.9325      2.4954      0.0675      9.3717    141.1470
  1424.5000      7.9377      2.4971      0.0714      9.2683    136.2591
  1424.6000      7.9377      2.4855      0.0394      9.9706    135.3970
  1424.7000      7.9377      2.4860      0.0575      9.9409    134.8889
  1424.8000      7.9540      2.5027      0.0703      8.9302    135.0910
  1424.9000      7.9540      2.5247      0.0616      7.5923    136.3867
  1425.0000      7.9497      2.5483      0.0569      6.1624    137.1821
  1425.1000      7.9497      2.5655      0.1142      5.1216    137.6236
  1425.2000      7.9497      2.5714      0.0452      4.7621    135.9883
  1425.3000      7.9508      2.5783      0.1288      4.3479    129.8655
  1425.4000      7.9508      2.5902      0.1023      3.6245    122.6977
  1425.5000      7.9156      2.6033      0.1570      2.8275    119.9829
  1425.6000      7.9156      2.6205      0.1697      1.7899    121.2799
  1425.7000      7.9156      2.6502      0.1103     -0.0093    122.3215
  1425.8000      7.9123      2.6883      0.1740     -2.3189    121.1949
  1425.9000      7.9123      2.7111      0.1714     -3.7014    118.1637
  1426.0000      7.8665      2.7133      0.0882     -3.8358    115.5328
  1426.1000      7.8665      2.7179      0.1020     -4.1155    114.0733
  1426.2000      7.8665      2.7385      0.0957     -5.3609    112.1154
  1426.3000      7.8568      2.7597      0.1577     -6.6488    109.8756
  1426.4000      7.8568      2.7606      0.1350     -6.7054    110.2143
  1426.5000      7.8823      2.7418      0.0329     -5.5646    114.0752
  1426.6000      7.8823      2.7186      0.0668     -4.1581    116.4279
  1426.7000      7.8823      2.7057      0.0027     -3.3741    115.9294
  1426.8000      7.9052      2.7069      0.0265     -3.4490    117.4148
  1426.9000      7.9052      2.7068      0.0680     -3.4424    121.0262
  1427.0000      7.8899      2.6913      0.0347     -2.5038    121.7187
  1427.1000      7.8899      2.6624      0.0812     -0.7498    115.9852
  1427.2000      7.8899      2.6352      0.0239      0.8990    107.6613
  1427.3000      7.8889      2.6308      0.0776      1.1607    104.6927
  1427.4000      7.8889      2.6463      0.0779      0.2259    110.5764
  1427.5000      7.9054      2.6579      0.0601     -0.4765    121.9152
