~Version Information
VERS.                      2.0: CWLS Log ASCII Standard - VERSION 2.0
WRAP.                       NO: One line per depth step
~Well Information Block
STRT.FT                -5.0000: 
STOP.FT               912.2500: 
STEP.FT                 0.2500: 
NULL.                -999.2500: 
COMP.          Pioneer Natural Resources: COMPANY
WELL.               Ernie 31-6: WELL
FLD.           Purgatoire River: FIELD
LOC.           681' FNL & 2138' FEL: LOCATION
CNTY.               Las Animas: COUNTY
SRVC.                         : SERVICE COMPANY
DATE.          Tue Jun 27 10:36:58 2006: LOG DATE
UWI.           05 071 08716 00: UNIQUE WELL ID
STAT.                       CO: STATE
~Curve Information Block
DEPT.FT            0 000 00 00: Depth
GR.GAPI                       : Gamma Ray
CCL.                          : Casing Collar Locator
TT3.usec                      : CBL 3' Travel Time
AMP3.mV                       : CBL 3' Amplitude
~Parameter Information Block
~A  Depth        GR         CCL         TT3         AMP3    
# ...
   564.5000     85.0300      0.0000    658.3699     19.3180
   564.7500     87.3255      0.0000    661.8083     20.3317
   565.0000     89.5108      0.0000    666.9531     21.2845
   565.2500     90.6685      0.0000    676.0526     22.1443
   565.5000     90.4101      0.0000    691.9458     22.9230
   565.7500     89.4267      0.0000    711.2937     23.6349
   566.0000     88.6692      0.0000    726.8619     24.2199
   566.2500     88.2478      0.0000    734.3568     24.5157
   566.5000     87.6483      0.0000    735.1504     24.3312
   566.7500     86.9808      0.0000    733.8257     23.5638
   567.0000     87.3540      0.0000    734.5397     22.2533
   567.2500     89.6193      0.0000    739.2559     20.5286
   567.5000     93.1489      0.0000    748.5613     18.5120
   567.7500     96.2873      0.0000    763.0090     16.2895
   568.0000     97.5866      0.0000    781.9741     13.9641
   568.2500     96.1114      0.0000    800.6895     11.7037
   568.5000     91.0934      0.0000    810.9609      9.7118
   568.7500     82.2846      0.0000    808.5574      8.1461
   569.0000     70.8356      0.0000    800.4668      7.0538
   569.2500     59.2533      0.0000    801.9084      6.3701
   569.5000     50.0503      0.0000    823.3122      5.9782
   569.7500     44.3009      0.0000    859.3791      5.7784
   570.0000     41.2582      0.0000    891.3190      5.7188
   570.2500     39.1408      0.0000    901.2952      5.7948
   570.5000     36.4850      0.0000    886.4038      6.0495
   570.7500     33.1801      0.0000    858.9574      6.5603
   571.0000     30.4975      0.0000    833.8765      7.3827
   571.2500     30.3174      0.0000    817.5693      8.4725
   571.5000     34.2362      0.0000    807.8947      9.6653
   571.7500     42.9691      0.0000    800.5814     10.7462
   572.0000     55.9552      0.0000    793.5852     11.5470
   572.2500     71.2100      0.0000    787.0986     11.9893
   572.5000     85.7638      0.0000    781.5994     12.0836
   572.7500     96.8961      0.0000    776.5929     11.9122
   573.0000    103.5353      0.0000    771.0618     11.5872
   573.2500    106.5319      0.0000    764.9063     11.1799
   573.5000    107.5468      0.0000    759.3510     10.6805
   573.7500    107.9258      0.0000    755.8624     10.0395
   574.0000    108.5682      0.0000    754.9961      9.2475
   574.2500    110.1798      0.0000    756.2625      8.3696
   574.5000    113.2537      0.0000    758.7018      7.5174
   574.7500    117.8701      0.0000    761.3969      6.8094
   575.0000    123.3107      0.0000    763.3558      6.3359
   575.2500    127.7234      0.0000    762.9691      6.1095
   575.5000    128.6745      0.0000    758.3820      6.0450
   575.7500    124.7931      0.0000    748.8846      6.0267
   576.0000    117.0047      0.0000    735.2750      5.9973
   576.2500    107.7995      0.0000    718.2960      5.9634
   576.5000     99.2711      0.0000    697.3527      5.9423
   576.7500     92.1786      0.0000    671.7660      5.9411
   577.0000     86.4657      2.0000    644.0723      5.9687
   577.2500     81.7071      2.0000    621.8144      6.0448
   577.5000     77.0837      0.0000    613.2292      6.2007
   577.7500     71.9953      0.0000    618.5825      6.4564
   578.0000     67.1052      0.0000    627.4799      6.7714
   578.2500     64.0386      0.0000    627.9814      7.0296
   578.5000     63.6759      0.0000    618.2291      7.1215
   578.7500     65.2250      0.0000    607.1473      7.0391
   579.0000     67.2715      0.0000    604.6855      6.8665
   579.2500     69.3904      0.0000    613.8279      6.6975
   579.5000     72.4566      0.0000    630.7935      6.5801
   579.7500     77.5044      0.0000    649.4454      6.5140
   580.0000     84.4682      0.0000    665.0255      6.4744
   580.2500     92.0246      0.0000    675.8099      6.4392
   580.5000     98.5318      0.0000    682.9963      6.4040
   580.7500    103.0724      0.0000    689.5257      6.3783
   581.0000    105.7244      0.0000    698.4083      6.3747
   581.2500    107.0648      0.0000    710.7756      6.4058
   581.5000    107.5541      0.0000    724.3660      6.4812
   581.7500    107.4110      0.0000    734.2576      6.5956
   582.0000    106.8714      0.0000    736.4462      6.7229
   582.2500    106.1592      0.0000    731.2834      6.8306
   582.5000    105.2036      0.0000    723.0981      6.9056
   582.7500    103.8067      0.0000    716.5558      6.9628
   583.0000    102.2667      0.0000    713.7839      7.0268
   583.2500    101.4070      0.0000    714.2018      7.1021
   583.5000    101.7360      0.0000    715.6871      7.1654
   583.7500    102.8409      0.0000    715.8451      7.1918
   584.0000    103.8574      0.0000    713.3216      7.1897
   584.2500    104.2100      0.0000    708.6863      7.1997
   584.5000    103.6426      0.0000    704.0253      7.2514
   584.7500    102.0762      0.0000    701.4374      7.3294
   585.0000    100.0033      0.0000    701.6182      7.3948
   585.2500     98.6252      0.0000    703.6340      7.4260
   585.5000     98.9665      0.0000    705.9583      7.4266
   585.7500    101.0219      0.0000    707.6342      7.4059
   586.0000    104.0830      0.0000    708.5337      7.3715
   586.2500    107.4683      0.0000    708.8724      7.3368
   586.5000    110.5595      0.0000    708.7306      7.3174
   586.7500    112.6325      0.0000    707.8955      7.3197
   587.0000    113.3839      0.0000    705.9471      7.3386
   587.2500    113.4369      0.0000    702.5677      7.3663
   587.5000    113.6810      0.0000    697.9780      7.3987
   587.7500    114.2111      0.0000    693.1376      7.4333
   588.0000    114.6184      0.0000    689.4759      7.4643
   588.2500    115.1658      0.0000    688.2784      7.4827
   588.5000    116.6358      0.0000    689.9169      7.4795
   588.7500    118.8175      0.0000    693.5135      7.4392
   589.0000    120.1316      0.0000    697.8849      7.3242
   589.2500    119.3689      0.0000    703.1117      7.0715
   589.5000    117.1340      0.0000    710.1694      6.6329
   589.7500    114.8257      0.0000    718.0246      6.0381
   590.0000    112.4807      0.0000    722.1373      5.4124
   590.2500    108.4662      0.0000    718.3151      4.9023
   590.5000    101.4333      0.0000    708.5035      4.5800
   590.7500     91.9881      0.0000    700.3420      4.4323
   591.0000     82.3156      0.0000    699.2225      4.4212
   591.2500     74.6604      0.0000    702.2511      4.5186
   591.5000     70.2719      0.0000    701.3248      4.6859
   591.7500     69.3308      0.0000    691.0399      4.8574
   592.0000     71.5465      0.0000    673.1844      4.9583
   592.2500     76.7059     -1.1057    655.6739      4.9396
   592.5000     84.5124      0.0000    648.0517      4.8076
   592.7500     93.9135      0.0000    655.6711      4.6299
   593.0000    102.8229      0.0000    675.7740      4.4978
   593.2500    108.7942      0.0000    698.9183      4.4692
   593.5000    110.1283      0.0000    713.9590      4.5539
   593.7500    106.4909      0.0000    712.2556      4.7475
   594.0000     98.8525      0.0000    689.9742      5.0465
   594.2500     89.1731      0.0000    649.2795      5.4185
   594.5000     79.7865      0.0000    597.1410      5.7817
   594.7500     72.3956      0.0000    541.7971      6.0414
   595.0000     67.3143      0.0000    490.3047      6.1510
   595.2500     63.7413      0.0000    448.6601      6.1321
   595.5000     60.8319      0.0000    421.9303      6.0413
   595.7500     58.4891      0.0000    414.2933      5.9308
   596.0000     57.3195      0.0000    429.8997      5.8371
   596.2500     58.0353      0.0000    471.5802      5.7876
   596.5000     60.6934      0.0000    535.5926      5.7951
   596.7500     64.2411      0.0000    608.4081      5.8457
   597.0000     67.0052      0.0000    672.3077      5.9024
   597.2500     67.9522      0.0000    715.9536      5.9289
   597.5000     67.5123      0.0000    739.1453      5.9111
   597.7500     67.0414      0.0000    748.6451      5.8618
