~Version Information
VERS.                      2.0: CWLS Log ASCII Standard - VERSION 2.0
WRAP.                       NO: One line per depth step
~Well Information Block
STRT.FT                -4.0000: 
STOP.FT              1544.0000: 
STEP.FT                 0.2500: 
NULL.                -999.2500: 
COMP.          Pioneer Natural Resources: COMPANY
WELL.           Screamin 12-29: WELL
FLD.           Purgatoire River: FIELD
LOC.           2038' FNL & 612' FWL--: LOCATION
CNTY.               Las Animas: COUNTY
SRVC.                Patterson: SERVICE COMPANY
DATE.          Fri Apr 14 00:36:42 2006: LOG DATE
UWI.           05 071 08661 00: UNIQUE WELL ID
STAT.                 Colorado: STATE
~Curve Information Block
DEPT.FT            0 000 00 00: Depth
GR.GAPI                       : Gamma Ray
CCL.                          : Casing Collar Locator
TT3.usec                      : CBL 3' Travel Time
AMP3.mV                       : CBL 3' Amplitude
~Parameter Information Block
~A  Depth        GR         CCL         TT3         AMP3    
# ...
    96.5000    101.7583      0.0000    748.5966      8.1945
    96.7500    100.6680      0.0000    756.0173      7.7740
    97.0000     95.3382      0.0000    768.4579      7.1313
    97.2500     89.4022      0.0000    776.2817      6.7708
    97.5000     78.5359      0.0000    785.9791      6.4274
    97.7500     71.6869     -2.0000    790.9796      6.3333
    98.0000     64.6881     -2.0000    796.3644      6.3309
    98.2500     62.8265      0.0000    798.3908      6.3824
    98.5000     63.7484      0.0000    798.1459      6.5241
    98.7500     66.1178      0.0000    794.8651      6.6939
    99.0000     70.5787      0.0000    784.6674      7.1445
    99.2500     72.8817      0.0000    775.8170      7.5886
    99.5000     73.3975      0.0000    764.3302      8.3693
    99.7500     71.3780      0.0000    759.8726      8.8602
   100.0000     65.7672      0.0000    757.3215      9.3911
   100.2500     61.5539      0.0000    756.4506      9.5602
   100.5000     56.6828      0.0000    754.1436      9.5443
   100.7500     55.1235      0.0000    752.4821      9.4037
   101.0000     55.2978      0.0000    752.7576      9.1196
   101.2500     56.4689      0.0000    755.5520      8.9453
   101.5000     58.1087      0.0000    760.3184      8.7688
   101.7500     58.1601      0.0000    760.1740      8.7146
   102.0000     56.2475      0.0000    751.1208      8.6995
   102.2500     54.4049      0.0000    740.4896      8.7064
   102.5000     52.6758      0.0000    724.4000      8.7109
   102.7500     52.7167      0.0000    717.5211      8.7093
   103.0000     54.1732      0.0000    716.0566      8.7207
   103.2500     55.6981      0.0000    720.2026      8.7492
   103.5000     58.5209      0.0000    729.3545      8.8316
   103.7500     60.5989      0.0000    733.8967      8.9126
   104.0000     63.4261      0.0000    734.4739      9.0709
   104.2500     64.7077      0.0000    730.9875      9.1954
   104.5000     65.3024      0.0000    723.8748      9.3901
   104.7500     64.9033      0.0000    720.3506      9.5134
   105.0000     63.9522      0.0000    719.3259      9.6829
   105.2500     63.7338      0.0000    721.9623      9.7838
   105.5000     64.5135      0.0000    730.6270      9.8938
   105.7500     65.4873      0.0000    738.6852      9.9148
   106.0000     67.0494      0.0000    752.1368      9.8396
   106.2500     68.3764      0.0000    761.3037      9.7279
   106.5000     71.7639      0.0000    775.6215      9.5315
   106.7500     74.9949      0.0000    786.3292      9.4291
   107.0000     79.6876      0.0000    805.8290      9.3724
   107.2500     81.5178      0.0000    821.5092      9.4045
   107.5000     82.0090      0.0000    846.9995      9.5378
   107.7500     81.9161      0.0000    862.8486      9.6649
   108.0000     83.2250      0.0000    881.0361      9.8597
   108.2500     85.3454      0.0000    888.1483      9.9482
   108.5000     89.5358      0.0000    890.5072      9.9586
   108.7500     92.5652      0.0000    886.8447      9.8843
   109.0000     97.2855      0.0000    875.8191      9.7150
   109.2500    100.2848      0.0000    867.5785      9.6081
   109.5000    103.2031      0.0000    860.6710      9.4907
   109.7500    103.1259      0.0000    862.9146      9.4360
   110.0000     99.4542      0.0000    876.3435      9.3827
   110.2500     95.5795      0.0000    888.5454      9.3732
   110.5000     90.8463      0.0000    905.6015      9.3955
   110.7500     89.9949      0.0000    915.1505      9.4072
   111.0000     92.3356      0.0000    928.0871      9.3495
   111.2500     95.0980      0.0000    935.1171      9.2394
   111.5000     98.6231      0.0000    937.3024      9.0009
   111.7500     99.5334      0.0000    929.8111      8.8420
   112.0000     97.8766      0.0000    906.3634      8.6780
   112.2500     95.0693      0.0000    887.0444      8.6316
   112.5000     90.5598      0.0000    859.5742      8.6278
   112.7500     89.0382      0.0000    843.4185      8.6405
   113.0000     90.6344      0.0000    821.4057      8.6519
   113.2500     94.0266      0.0000    808.5487      8.6528
   113.5000    100.4855      0.0000    795.3075      8.6473
   113.7500    104.1191      0.0000    792.1368      8.6310
   114.0000    106.6562      0.0000    795.8261      8.5654
   114.2500    106.3108      0.0000    803.4189      8.4917
   114.5000    104.0402      0.0000    822.6449      8.3580
   114.7500    102.1707      0.0000    840.0939      8.2699
   115.0000     99.3413      0.0000    868.7129      8.1483
   115.2500     97.5610      0.0000    885.6274      8.0623
   115.5000     95.8910      0.0000    902.6166      7.8903
   115.7500     95.9743      0.0000    907.0522      7.7360
   116.0000     97.3805      0.0000    903.5085      7.4724
   116.2500     98.0762      0.0000    895.0579      7.3111
   116.5000     97.3381      0.0000    875.0283      7.1401
   116.7500     95.8908      0.0000    858.8112      7.0773
   117.0000     94.1044      0.0000    836.1038      7.0345
   117.2500     94.2947      0.0000    825.4407      7.0250
   117.5000     97.6442      0.0000    817.9202      7.0288
   117.7500    101.8080      0.0000    817.1646      7.0439
   118.0000    109.6937      0.0000    820.1667      7.0838
   118.2500    114.7642      0.0000    825.4417      7.1154
   118.5000    119.6157      0.0000    840.3182      7.1529
   118.7500    120.2270      0.0000    853.7051      7.1668
   119.0000    117.7402      0.0000    869.7294      7.1849
   119.2500    114.4523      0.0000    870.6231      7.2081
   119.5000    107.2869      0.0000    852.4377      7.2609
   119.7500    101.2147      0.0000    831.5466      7.2943
   120.0000     92.4305      0.0000    800.4190      7.3180
   120.2500     88.7362      0.0000    785.4927      7.3127
   120.5000     87.8729      0.0000    773.8316      7.2872
   120.7500     89.4622      0.0000    771.6403      7.2740
   121.0000     92.0165      0.0000    773.6359      7.2789
   121.2500     92.5218      0.0000    777.0391      7.2927
   121.5000     91.1896      0.0000    782.4996      7.2902
   121.7500     89.6508      0.0000    784.6322      7.2509
   122.0000     87.9221      0.0000    783.8542      7.1302
   122.2500     87.5006      0.0000    780.9910      7.0249
   122.5000     87.1943      0.0000    775.0106      6.8694
   122.7500     86.5219      0.0000    770.8045      6.7854
   123.0000     84.7783      0.0000    764.9402      6.7048
   123.2500     83.9928      0.0000    761.8401      6.6820
   123.5000     84.9789      0.0000    760.1738      6.6824
   123.7500     87.0774      0.0000    762.0579      6.6955
   124.0000     90.5222      0.0000    769.3416      6.7223
   124.2500     91.7573      0.0000    776.3530      6.7437
   124.5000     91.3470      0.0000    789.7911      6.7855
   124.7500     90.1320      0.0000    801.5005      6.8211
   125.0000     88.4240      0.0000    823.9160      6.8760
   125.2500     88.1154      0.0000    841.0287      6.9000
   125.5000     89.6706      0.0000    865.3943      6.8949
   125.7500     91.9430      0.0000    877.1921      6.8626
   126.0000     95.7314      0.0000    884.0756      6.7951
   126.2500     97.3597      0.0000    882.6361      6.7581
   126.5000     97.5696      0.0000    878.6707      6.7311
   126.7500     96.6975      0.0000    877.9197      6.7257
   127.0000     95.5866      0.0000    877.8953      6.7199
   127.2500     95.8248      0.0000    875.7761      6.7182
   127.5000     98.1317      0.0000    869.0404      6.7435
   127.7500    100.6300      0.0000    865.1315      6.7969
   128.0000    104.3878      0.0000    864.3918      6.9401
   128.2500    105.8769      0.0000    866.1553      7.0626
   128.5000    105.6044      0.0000    865.5648      7.2433
   128.7500    104.1505      0.0000    860.3934      7.3417
   129.0000    102.1148      0.0000    847.5168      7.4509
   129.2500    101.9557      0.0000    838.8979      7.5081
   129.5000    103.7373      0.0000    830.0692      7.5890
   129.7500    105.4819      0.0000    827.3091      7.6439
