~Version Information
VERS.                      2.0: CWLS Log ASCII Standard - VERSION 2.0
WRAP.                       NO: One line per depth step
~Well Information Block
STRT.FT               380.0000: 
STOP.FT              1887.5000: 
STEP.FT                 0.1000: 
NULL.                -999.2500: 
COMP.          Pioneer Natural Resources: COMPANY
WELL.          Cortina 23-25 Tr: WELL
FLD.           Purgatoire River: FIELD
LOC.           2521' FSL & 2345' FWL: LOCATION
STAT.                 Colorado: State
CNTY.               Las Animas: COUNTY
CTRY. USA : Country
SECT. 25 : Section
TOWN. 32S : Township
RANG. 67W : Range
SRVC.                Patterson: SERVICE COMPANY
DATE.          Mon Sep 26 06:09:01 2005: LOG DATE
API.           05 071 08534 00: UNIQUE WELL ID
~Curve Information Block
DEPT.FT            0 000 00 00: Depth
DCAL.in                       : CDL Caliper
RHOB.g/cc                     : CDL Bulk Density
RHOC.g/cc                     : CDL Density Correction
DPOR.pu                       : CDL Density Porosity
GR.GAPI                       : Gamma Ray
NPOR.pu                       : Neutron Porosity
~Parameter Information Block
~A  Depth       DCAL        RHOB        RHOC        DPOR         GR         NPOR    
# ...
  1176.8000      7.9024      2.5968      0.0392      3.2239     99.4961     20.9351
  1176.9000      7.8841      2.5838      0.0313      4.0118     97.5945     20.3369
  1177.0000      7.8632      2.5662      0.0587      5.0776     99.7334     19.4137
  1177.1000      7.8409      2.5252      0.0374      7.5655    101.5356     17.9400
  1177.2000      7.8186      2.4624      0.0094     11.3716    100.5925     16.5989
  1177.3000      7.7982      2.3956     -0.0261     15.4171    101.8821     15.8055
  1177.4000      7.7820      2.3278     -0.0269     19.5300    107.0809     15.0062
  1177.5000      7.7717      2.2432     -0.0292     24.6536    112.3408     13.7723
  1177.6000      7.7690      2.1386     -0.0501     30.9925    118.0628     12.6219
  1177.7000      7.7747      2.0229     -0.0374     38.0072    124.8370     12.0895
  1177.8000      7.7888      1.8870     -0.0914     46.2440    128.2421     11.9191
  1177.9000      7.8105      1.7259     -0.1053     56.0079    125.3469     11.7642
  1178.0000      7.8384      1.5758     -0.1577     65.1040    117.2739     11.6592
  1178.1000      7.8704      1.4823     -0.1342     70.7691    107.4074     11.5854
  1178.2000      7.9042      1.4496     -0.0195     72.7505     98.1854     11.5031
  1178.3000      7.9377      1.4573      0.0628     72.2862     89.9522     11.5572
  1178.4000      7.9688      1.4972      0.1120     69.8656     82.2285     11.8572
  1178.5000      7.9960      1.5613      0.1694     65.9796     75.8302     12.1958
  1178.6000      8.0182      1.6167      0.2920     62.6217     72.2999     12.3230
  1178.7000      8.0348      1.6285      0.2605     61.9103     70.0598     12.4053
  1178.8000      8.0459      1.5960      0.2375     63.8775     65.2405     12.6761
  1178.9000      8.0522      1.5418      0.1584     67.1617     59.0685     12.9559
  1179.0000      8.0543      1.4889      0.1288     70.3684     56.9539     13.0749
  1179.1000      8.0536      1.4537      0.0508     72.5058     58.8139     13.0496
  1179.2000      8.0512      1.4337      0.0942     73.7125     59.9805     12.8283
  1179.3000      8.0483      1.4025      0.1159     75.6058     58.7488     12.3967
  1179.4000      8.0456      1.3510      0.0972     78.7257     56.2329     12.0051
  1179.5000      8.0439      1.3131      0.0517     81.0238     52.3414     11.8601
  1179.6000      8.0434      1.3091      0.1938     81.2675     48.1833     11.8938
  1179.7000      8.0445      1.3142      0.1744     80.9604     46.0058     12.1930
  1179.8000      8.0472      1.3060      0.1593     81.4537     46.1211     12.7264
  1179.9000      8.0515      1.2946      0.0447     82.1481     47.2059     13.2408
  1180.0000      8.0571      1.2970      0.0859     82.0015     47.2550     13.8740
  1180.1000      8.0641      1.3148      0.0834     80.9216     45.8044     14.8178
  1180.2000      8.0720      1.3509      0.1127     78.7344     44.9431     15.9571
  1180.3000      8.0806      1.4183      0.1610     74.6494     45.8583     17.0597
  1180.4000      8.0894      1.5185      0.1669     68.5765     48.0299     17.9059
  1180.5000      8.0979      1.6230      0.2546     62.2424     51.5829     18.6191
  1180.6000      8.1054      1.7078      0.2167     57.1029     58.0084     19.3069
  1180.7000      8.1116      1.7937      0.2111     51.8958     69.1320     19.7779
  1180.8000      8.1158      1.9021      0.2139     45.3284     82.3804     20.1888
  1180.9000      8.1177      2.0158      0.2560     38.4355     91.1783     20.7375
  1181.0000      8.1171      2.1147      0.2760     32.4437     93.9439     21.1526
  1181.1000      8.1140      2.1993      0.2758     27.3167     96.5633     21.3539
  1181.2000      8.1085      2.2690      0.2682     23.0899    101.5105     21.5046
  1181.3000      8.1011      2.3130      0.2280     20.4232    106.1803     21.6437
  1181.4000      8.0924      2.3310      0.1554     19.3309    111.2560     21.9435
  1181.5000      8.0833      2.3333      0.0889     19.1909    117.7577     22.2460
  1181.6000      8.0746      2.3248      0.0992     19.7085    123.6858     21.9533
  1181.7000      8.0672      2.3136      0.0662     20.3854    129.0689     21.1641
  1181.8000      8.0620      2.3148      0.0584     20.3129    136.3025     20.6188
  1181.9000      8.0594      2.3234      0.1368     19.7938    144.4282     20.3613
  1182.0000      8.0594      2.3265      0.0726     19.6085    151.9058     20.0267
  1182.1000      8.0618      2.3368      0.0918     18.9836    156.8005     19.8481
  1182.2000      8.0658      2.3581      0.1451     17.6883    154.2574     20.3732
  1182.3000      8.0704      2.3719      0.1448     16.8546    147.2536     21.5216
  1182.4000      8.0745      2.3822      0.1183     16.2282    145.8190     22.6033
  1182.5000      8.0772      2.4075      0.1821     14.6949    148.0780     23.3891
  1182.6000      8.0775      2.4372      0.2414     12.8948    146.6287     24.1633
  1182.7000      8.0752      2.4429      0.2780     12.5533    142.7182     24.9063
  1182.8000      8.0701      2.4172      0.1709     14.1085    141.1355     25.5135
  1182.9000      8.0627      2.3839      0.1822     16.1267    144.5180     26.2149
  1183.0000      8.0538      2.3660      0.1462     17.2092    151.3132     27.1269
  1183.1000      8.0446      2.3701      0.1205     16.9659    157.3249     27.9781
  1183.2000      8.0361      2.3879      0.0684     15.8841    156.7670     28.2946
  1183.3000      8.0298      2.4089     -0.0152     14.6132    147.8993     27.7870
  1183.4000      8.0267      2.4332      0.0037     13.1406    136.7538     26.7318
  1183.5000      8.0274      2.4572      0.0291     11.6851    129.7994     25.6135
  1183.6000      8.0324      2.4659      0.1160     11.1602    127.4641     24.3671
  1183.7000      8.0415      2.4535      0.0970     11.9067    125.4134     22.9914
  1183.8000      8.0543      2.4358      0.1514     12.9811    121.4023     21.9910
  1183.9000      8.0701      2.4239      0.1575     13.7034    115.4907     21.5244
  1184.0000      8.0879      2.4055      0.1588     14.8156    111.0489     21.3773
  1184.1000      8.1065      2.3740      0.0930     16.7299    112.6231     21.3010
  1184.2000      8.1247      2.3537      0.0667     17.9554    116.6816     21.1715
  1184.3000      8.1413      2.3696      0.1836     16.9945    116.7672     20.9926
  1184.4000      8.1552      2.4117      0.2790     14.4429    114.0654     20.9315
  1184.5000      8.1653      2.4603      0.2392     11.4975    116.5052     20.9867
  1184.6000      8.1712      2.5124      0.3152      8.3394    127.5947     21.0087
  1184.7000      8.1725      2.5577      0.3391      5.5953    139.3951     21.1866
  1184.8000      8.1694      2.5705      0.3456      4.8177    143.4469     21.6150
  1184.9000      8.1626      2.5401      0.2837      6.6603    141.8920     21.9192
  1185.0000      8.1532      2.4895      0.1366      9.7252    139.7877     21.9787
  1185.1000      8.1427      2.4431      0.1748     12.5376    136.1522     22.2210
  1185.2000      8.1325      2.4005      0.0872     15.1191    131.9565     22.9654
  1185.3000      8.1239      2.3671      0.0931     17.1461    133.2619     23.8700
  1185.4000      8.1180      2.3655      0.0247     17.2424    141.4314     24.4147
  1185.5000      8.1152      2.4095      0.0699     14.5778    150.1799     24.6470
  1185.6000      8.1151      2.4797      0.1345     10.3227    153.2001     24.7736
  1185.7000      8.1171      2.5449      0.1695      6.3713    149.4212     24.9885
  1185.8000      8.1199      2.5947      0.2057      3.3489    142.6098     25.5484
  1185.9000      8.1222      2.6361      0.2644      0.8436    139.8145     26.3510
  1186.0000      8.1229      2.6696      0.2942     -1.1850    145.2224     26.8713
  1186.1000      8.1208      2.6926      0.2596     -2.5801    154.7838     26.8323
  1186.2000      8.1154      2.7096      0.2281     -3.6103    159.5188     26.6515
  1186.3000      8.1063      2.7239      0.1918     -4.4773    156.1609     26.8543
