~Version Information
VERS.                      2.0: CWLS Log ASCII Standard - VERSION 2.0
WRAP.                       NO: One line per depth step
~Well Information Block
STRT.FT                -7.5000: 
STOP.FT              1572.0000: 
STEP.FT                 0.2500: 
NULL.                -999.2500: 
COMP.          Pioneer Natural Resources: COMPANY
WELL.          Galloway 32-13 Tr: WELL
FLD.           Purgatoire River: FIELD
LOC.           --1910' FNL & 2002' FEL----: LOCATION
PROV.                       CO: PROVINCE
CNTY.               Las Animas: COUNTRY
SRVC.          Patterson Wireline: SERVICE COMPANY
DATE.          Thu Nov 17 12:46:45 2005: LOG DATE
UWI.           05 071 08608 00: UNIQUE WELL ID
~Curve Information Block
DEPT.FT            0 000 00 00: Depth
CCL.                          : Casing Collar Locator
TT3.usec                      : CBL 3' Travel Time
AMP3.mV                       : CBL 3' Amplitude
GR.GAPI                       : Gamma Ray
~Parameter Information Block
~A  Depth       CCL         TT3         AMP3         GR     
# ...
  1031.0000      0.0000    281.6180     58.9012     97.7102
  1031.2500      0.0000    281.1010     62.6407     94.8514
  1031.5000      0.0000    280.9254     65.8251     92.3906
  1031.7500      0.0000    280.8776     68.4691     90.5741
  1032.0000      0.0000    280.8764     70.6097     88.9373
  1032.2500      0.0000    280.8922     72.3009     87.0544
  1032.5000      0.0000    280.9117     73.6118     85.0222
  1032.7500      0.0000    280.9292     74.6131     83.3314
  1033.0000      0.0000    280.9438     75.3641     82.6734
  1033.2500      0.0000    280.9559     75.9089     83.8312
  1033.5000      0.0000    280.9664     76.2814     87.1899
  1033.7500      0.0000    280.9756     76.5096     92.0350
  1034.0000      0.0000    280.9833     76.6174     96.4971
  1034.2500      0.0000    280.9889     76.6292     98.6029
  1034.5000      0.0000    280.9918     76.5774     97.7009
  1034.7500      0.0000    280.9915     76.5048     95.0167
  1035.0000      0.0000    280.9882     76.4520     92.8715
  1035.2500      0.0000    280.9828     76.4403     93.2496
  1035.5000      0.0000    280.9775     76.4656     96.7075
  1035.7500      0.0000    280.9745     76.5089    102.2965
  1036.0000      0.0000    280.9747     76.5519    108.4720
  1036.2500      0.0000    280.9787     76.5833    114.1897
  1036.5000      0.0000    280.9865     76.5918    119.3660
  1036.7500      0.0000    280.9973     76.5607    124.6547
  1037.0000      0.0000    281.0085     76.4766    130.7593
  1037.2500      0.0000    281.0158     76.3433    137.4944
  1037.5000      0.0000    281.0144     76.1813    143.2747
  1037.7500      0.0000    281.0022     76.0077    145.8233
  1038.0000      0.0000    280.9810     75.8164    143.8601
  1038.2500      0.0000    280.9563     75.5762    138.3516
  1038.5000      0.0000    280.9353     75.2501    131.9694
  1038.7500      0.0000    280.9248     74.8208    126.9507
  1039.0000      0.0000    280.9290     74.3039    123.0856
  1039.2500      0.0000    280.9471     73.7385    117.9265
  1039.5000      0.0000    280.9740     73.1606    109.4298
  1039.7500      0.0000    281.0052     72.5792     98.3880
  1040.0000      0.0000    281.0499     71.9660     87.9893
  1040.2500      0.0000    281.1758     71.2395     81.4237
  1040.5000      0.0000    281.6177     70.2176     80.1760
  1040.7500      0.0000    282.9158     68.5439     83.7590
  1041.0000      0.0000    285.8513     65.7045     90.2794
  1041.2500      0.0000    290.8333     61.3381     97.5659
  1041.5000      0.0000    296.9500     55.7747    104.2005
  1041.7500      0.0000    301.8645     50.2143    109.5599
  1042.0000      0.0000    303.3674     46.0656    113.2828
  1042.2500      0.0000    301.2709     43.9648    115.1125
  1042.5000      0.0000    297.4473     43.4987    114.9245
  1042.7500      0.0000    294.0758     43.7820    112.5582
  1043.0000      0.0000    292.2676     44.0935    108.0856
  1043.2500     -2.0000    292.2143     44.0272    102.7278
  1043.5000      2.0000    293.9120     43.3822     98.8999
  1043.7500      0.0000    297.1739     42.2497     98.5159
  1044.0000      0.0000    300.9357     41.3045    101.3087
  1044.2500      0.0000    303.1052     41.7528    105.3449
  1044.5000      0.0000    301.8479     44.5488    109.1493
  1044.7500      0.0000    297.2431     49.4783    113.0281
  1045.0000      0.0000    291.3053     55.1813    118.3782
  1045.2500      0.0000    286.2775     60.1472    125.9971
  1045.5000      0.0000    283.1575     63.6076    134.8704
  1045.7500      0.0000    281.6884     65.6046    142.2087
  1046.0000      0.0000    281.1689     66.5383    144.9983
  1046.2500      0.0000    281.0493     66.7896    142.2662
  1046.5000      0.0000    281.0531     66.6186    136.1774
  1046.7500      0.0000    281.0808     66.1991    130.6616
  1047.0000      0.0000    281.1076     65.6599    128.5248
  1047.2500      0.0000    281.1300     65.1063    129.6929
  1047.5000      0.0000    281.1489     64.6294    132.1962
  1047.7500      0.0000    281.1643     64.2983    134.5722
  1048.0000      0.0000    281.1753     64.1415    136.7403
  1048.2500      0.0000    281.1806     64.1472    138.5182
  1048.5000      0.0000    281.1784     64.2847    138.2586
  1048.7500      0.0000    281.1680     64.5245    133.8240
  1049.0000      0.0000    281.1491     64.8423    124.5951
  1049.2500      0.0000    281.1219     65.2059    111.9767
  1049.5000      0.0000    281.0850     65.5565     98.1955
  1049.7500      0.0000    281.0382     65.8060     85.1144
  1050.0000      0.0000    280.9844     65.8760     74.1359
  1050.2500      0.0000    280.9303     65.7639     66.6597
  1050.5000      0.0000    280.8838     65.5786     63.9390
  1050.7500      0.0000    280.8509     65.5092     66.0883
  1051.0000      0.0000    280.8342     65.7446     71.5163
  1051.2500      0.0000    280.8327     66.3754     77.8645
  1051.5000      0.0000    280.8421     67.3257     83.5304
  1051.7500      0.0000    280.8558     68.3799     88.0687
  1052.0000      0.0000    280.8679     69.3027     91.3605
  1052.2500      0.0000    280.8748     69.9496     92.9978
  1052.5000      0.0000    280.8746     70.2873     92.7475
  1052.7500      0.0000    280.8665     70.3658     91.2940
  1053.0000      0.0000    280.8506     70.3063     90.1667
  1053.2500      0.0000    280.8277     70.2844     90.8584
  1053.5000      0.0000    280.7990     70.4638     93.8994
  1053.7500      0.0000    280.7667     70.9192     98.6074
  1054.0000      0.0000    280.7360     71.6018    103.7632
  1054.2500      0.0000    280.7134     72.3518    108.5491
  1054.5000      0.0000    280.7024     72.9522    112.7394
  1054.7500      0.0000    280.7002     73.2261    116.2537
  1055.0000      0.0000    280.7011     73.1114    118.9392
  1055.2500      0.0000    280.7008     72.6506    120.7658
  1055.5000      0.0000    280.6972     71.9162    121.9060
  1055.7500      0.0000    280.6878     70.9369    122.4646
  1056.0000      0.0000    280.6691     69.6655    122.2117
  1056.2500      0.0000    280.6404     68.0006    120.6814
  1056.5000      0.0000    280.6107     65.8623    117.3883
  1056.7500      0.0000    280.6025     63.2727    111.8778
  1057.0000      0.0000    280.6456     60.3684    104.0967
  1057.2500      0.0000    280.7660     57.3395     95.1862
  1057.5000      0.0000    280.9750     54.3678     87.4369
  1057.7500      0.0000    281.2655     51.6122     82.7121
  1058.0000      0.0000    281.6089     49.2240     80.9999
  1058.2500      0.0000    281.9528     47.3470     80.8058
  1058.5000      0.0000    282.2301     46.0851     80.6100
  1058.7500      0.0000    282.3834     45.4630     79.7374
  1059.0000      0.0000    282.3857     45.4367     78.3112
  1059.2500      0.0000    282.2425     45.9651     76.8250
  1059.5000      0.0000    281.9819     47.0687     75.6239
  1059.7500      0.0000    281.6484     48.8081     74.5228
  1060.0000      0.0000    281.2954     51.1955     72.8436
  1060.2500      0.0000    280.9740     54.1111     70.0105
  1060.5000      0.0000    280.7258     57.2875     66.3934
  1060.7500      0.0000    280.5766     60.3845     63.4843
  1061.0000      0.0000    280.5276     63.1136     62.7169
  1061.2500      0.0000    280.5537     65.3167     63.8841
  1061.5000      0.0000    280.6150     66.9516     65.0239
  1061.7500      0.0000    280.6768     68.0378     64.1817
  1062.0000      0.0000    280.7224     68.6495     61.1465
  1062.2500      0.0000    280.7519     68.9548     57.2821
  1062.5000      0.0000    280.7736     69.2162     53.9155
  1062.7500      0.0000    280.7956     69.6846     51.2693
  1063.0000      0.0000    280.8208     70.4517     48.9440
  1063.2500      0.0000    280.8470     71.4061     47.1716
  1063.5000      0.0000    280.8698     72.3419     47.3972
  1063.7500      0.0000    280.8863     73.1023     51.5297
  1064.0000      0.0000    280.8960     73.6368     60.6044
  1064.2500      0.0000    280.8996     73.9723     74.1481
