~Version Information
VERS.                      2.0: CWLS Log ASCII Standard - VERSION 2.0
WRAP.                       NO: One line per depth step
~Well Information Block
STRT.FT                -6.2500: 
STOP.FT              1327.5000: 
STEP.FT                 0.2500: 
NULL.                -999.2500: 
COMP.          Pioneer Natural Resources: COMPANY
WELL.            Avant 14-3 Tr: WELL
FLD.           Purgatorie River: FIELD
LOC.           170' FSL & 1174' FWL--: LOCATION
STAT.                       CO: State
CNTY.               Las Animas: COUNTY
CTRY. USA : Country
SECT. 3 : Section
TOWN. 33S : Township
RANG. 67W : Range
SRVC.          Patterson Wireline: SERVICE COMPANY
DATE.          Tue Aug 23 16:44:25 2005: LOG DATE
API.           05 071 08463 00: UNIQUE WELL ID
~Curve Information Block
DEPT.FT            0 000 00 00: Depth
CCL.                          : Casing Collar Locator
TT3.usec                      : CBL 3' Travel Time
AMP3.mV                       : CBL 3' Amplitude
GR.GAPI                       : Gamma Ray
~Parameter Information Block
~A  Depth       CCL         TT3         AMP3         GR     
# ...
   864.7500      0.0000    979.7584      2.5048     44.5663
   865.0000      0.0000   1032.1569      2.5007     43.1181
   865.2500      0.0000   1073.4059      2.5516     42.3942
   865.5000      0.0000   1092.2209      2.6720     43.2414
   865.7500      0.0000   1078.9819      2.8666     46.1716
   866.0000      0.0000   1031.9777      3.1305     51.4018
   866.2500      0.0000    960.5855      3.4539     59.0321
   866.5000      0.0000    883.5040      3.8302     68.9382
   866.7500      0.0000    820.4276      4.2629     80.4799
   867.0000      0.0000    782.2914      4.7622     92.3270
   867.2500      0.0000    768.1973      5.3306    102.6720
   867.5000      0.0000    769.7531      5.9498    109.9787
   867.7500      0.0000    776.9660      6.5795    113.8656
   868.0000      0.0000    782.4319      7.1658    115.2757
   868.2500      0.0000    783.4285      7.6561    115.7522
   868.5000      0.0000    781.4169      8.0199    116.4643
   868.7500      0.0000    779.3987      8.2592    117.7154
   869.0000      0.0000    779.5020      8.3990    119.2067
   869.2500      0.0000    782.2540      8.4673    120.6804
   869.5000      0.0000    786.8628      8.4867    122.3032
   869.7500      0.0000    791.8247      8.4775    124.3297
   870.0000      0.0000    795.7809      8.4580    126.3326
   870.2500      0.0000    798.2039      8.4373    127.1304
   870.5000      0.0000    799.3657      8.4111    125.8653
   870.7500      0.0000    799.8146      8.3686    123.0399
   871.0000      0.0000    799.9794      8.3041    120.2778
   871.2500      0.0000    800.0689      8.2215    119.0953
   871.5000      0.0000    800.1425      8.1329    119.9926
   871.7500      0.0000    800.1895      8.0584    122.4660
   872.0000      0.0000    800.2002      8.0200    125.4339
   872.2500      0.0000    800.1891      8.0261    127.7411
   872.5000      0.0000    800.1843      8.0655    128.7152
   872.7500      0.0000    800.2028      8.1199    128.3740
   873.0000      0.0000    800.2393      8.1812    127.0957
   873.2500      0.0000    800.2760      8.2520    125.2338
   873.5000      0.0000    800.3024      8.3345    122.8991
   873.7500      0.0000    800.3293      8.4251    119.8716
   874.0000      0.0000    800.3797      8.5177    116.0056
   874.2500      0.0000    800.4501      8.6083    111.9476
   874.5000      0.0000    800.3631      8.6942    109.2180
   874.7500      0.0000    799.4619      8.7690    109.3835
   875.0000      0.0000    796.1545      8.8166    112.9137
   875.2500      0.0000    787.7817      8.8027    118.3684
   875.5000      0.0000    771.7831      8.6772    122.7435
   875.7500      0.0000    748.5165      8.4078    123.3732
   876.0000      0.0000    723.9075      8.0350    119.9624
   876.2500      0.0000    708.5039      7.6752    114.6186
   876.5000      0.0000    711.6065      7.4287    109.9722
   876.7500      0.0000    734.1907      7.2908    107.3479
   877.0000      0.0000    767.3303      7.1909    106.1970
   877.2500      0.0000    798.7670      7.1003    104.7809
   877.5000      0.0000    821.8252      7.0530    101.8080
   877.7500      0.0000    838.2761      7.0816     97.9271
   878.0000      2.0000    854.1631      7.1789     95.3121
   878.2500      0.0000    874.0931      7.3152     95.4069
   878.5000      0.0000    897.5900      7.4751     97.4149
   878.7500      0.0000    917.9843      7.6798     99.1875
   879.0000      0.0000    925.7828      7.9678     99.1349
   879.2500      0.0000    916.5217      8.3290     97.1336
   879.5000      0.0000    895.5468      8.6754     94.0910
   879.7500      0.0000    873.4681      8.9158     91.0595
   880.0000      0.0000    857.6786      9.0384     88.7201
   880.2500      0.0000    849.0482      9.0876     87.3337
   880.5000      0.0000    844.5394      9.0958     86.8260
   880.7500      0.0000    840.5974      9.0742     86.9608
   881.0000      0.0000    834.6141      9.0388     87.6680
   881.2500      0.0000    825.2092      9.0116     89.0633
   881.5000      0.0000    812.2986      9.0071     91.0390
   881.7500      0.0000    797.2026      9.0258     93.1237
   882.0000      0.0000    782.8082      9.0582     94.7864
   882.2500      0.0000    772.8299      9.0909     95.5314
   882.5000      0.0000    769.2172      9.1170     94.8005
   882.7500      0.0000    769.5482      9.1411     92.4196
   883.0000      0.0000    768.1450      9.1713     89.2760
   883.2500      0.0000    760.8638      9.2064     86.9879
   883.5000      0.0000    748.7180      9.2356     86.5247
   883.7500      0.0000    736.9786      9.2469     87.3301
   884.0000      0.0000    731.5339      9.2338     88.0031
   884.2500      0.0000    735.7365      9.1981     87.7744
   884.5000      0.0000    748.8273      9.1496     87.2253
   884.7500      0.0000    766.2583      9.0991     87.6883
   885.0000      0.0000    782.2966      9.0518     90.1240
   885.2500      0.0000    793.3237      9.0106     94.4998
   885.5000      0.0000    798.9758      8.9801     99.8246
   885.7500      0.0000    800.5687      8.9620    104.4247
   886.0000      0.0000    798.8324      8.9471    106.4225
   886.2500      0.0000    792.8788      8.9247    104.5963
   886.5000      0.0000    780.9671      8.8981     99.0851
   886.7500      0.0000    762.6007      8.8838     91.2413
   887.0000      0.0000    740.2761      8.8927     82.9342
   887.2500      0.0000    718.8782      8.9195     75.9859
   887.5000      0.0000    702.9739      8.9524     71.6704
   887.7500      0.0000    694.8046      8.9832     70.0910
   888.0000      0.0000    694.7830      9.0090     70.0357
   888.2500      0.0000    703.0178      9.0279     69.7813
   888.5000      0.0000    719.3470      9.0359     68.1894
   888.7500      0.0000    741.8410      9.0267     65.1383
   889.0000      0.0000    766.1656      8.9943     61.3830
   889.2500      0.0000    787.2384      8.9411     58.3015
   889.5000      0.0000    801.6406      8.8802     57.2089
   889.7500      0.0000    808.6724      8.8269     58.2868
   890.0000      0.0000    809.8906      8.7897     60.3219
   890.2500      0.0000    807.9688      8.7710     61.8124
   890.5000      0.0000    805.3134      8.7704     62.1493
   890.7500      0.0000    803.0196      8.7828     61.5510
   891.0000      0.0000    800.7589      8.7960     60.3020
   891.2500      0.0000    797.5831      8.7945     58.6846
   891.5000      0.0000    793.2026      8.7704     57.5829
   891.7500      0.0000    788.9169      8.7284     58.6036
   892.0000      0.0000    787.0139      8.6815     63.3142
   892.2500      0.0000    788.7059      8.6393     72.2234
   892.5000      0.0000    792.8652      8.6059     84.3485
   892.7500      0.0000    797.1750      8.5840     97.7420
   893.0000      0.0000    800.1315      8.5784    110.4346
   893.2500      0.0000    801.6418      8.5943    120.7898
   893.5000      0.0000    802.2195      8.6326    127.2838
   893.7500      0.0000    802.1144      8.6868    128.8637
   894.0000      0.0000    801.0109      8.7435    125.9441
   894.2500      0.0000    798.2334      8.7926    120.4579
   894.5000      0.0000    793.4352      8.8362    114.4836
   894.7500      0.0000    787.5122      8.8853    109.1095
   895.0000      0.0000    782.6168      8.9455    104.7435
   895.2500      0.0000    780.6428      9.0098    101.9075
   895.5000      0.0000    781.6934      9.0635    101.1159
   895.7500      0.0000    784.5776      9.0964    102.1452
   896.0000      0.0000    788.4962      9.1119    103.9702
   896.2500      0.0000    793.4996      9.1242    105.5733
   896.5000      0.0000    799.6342      9.1467    106.5573
   896.7500      0.0000    806.4673      9.1826    106.8943
   897.0000      0.0000    813.3071      9.2275    106.5018
   897.2500      0.0000    819.3311      9.2752    105.4091
   897.5000      0.0000    823.4730      9.3201    104.1438
   897.7500      0.0000    824.5228      9.3581    103.6489
   898.0000      0.0000    821.7597      9.3888    104.7253
