~Version Information
VERS.                      2.0: CWLS Log ASCII Standard - VERSION 2.0
WRAP.                       NO: One line per depth step
~Well Information Block
STRT.FT                -7.5000: 
STOP.FT              2228.7500: 
STEP.FT                 0.2500: 
NULL.                -999.2500: 
COMP.          Pioneer Natural Resources: COMPANY
WELL.          McDonald 33-31 R: WELL
FLD.           Purgatorie River: FIELD
LOC.           1386' FSL & 1926' FEL: LOCATION
STAT.                       CO: State
CNTY.               Las Animas: COUNTY
CTRY.                      USA: Country
SECT.                       31: Section
TOWN.                      32S: Township
RANG.                      66W: Range
SRVC.          Patterson Wireline: SERVICE COMPANY
DATE.          Wed Sep 28 13:29:18 2005: LOG DATE
API.           05 071 08533 00: API#
~Curve Information Block
DEPT.FT            0 000 00 00: Depth
CCL.                          : Casing Collar Locator
TT3.usec                      : CBL 3' Travel Time
AMP3.mV                       : CBL 3' Amplitude
GR.GAPI                       : Gamma Ray
~Parameter Information Block
~A  Depth       CCL         TT3         AMP3         GR     
# ...
  1466.5000      0.0000    756.2950      7.3076     91.0001
  1466.7500      0.0000    750.5027      7.4559     88.5068
  1467.0000      0.0000    743.2835      7.6750     86.8903
  1467.2500      0.0000    733.7054      7.8942     85.7443
  1467.5000      0.0000    721.7605      8.0598     85.1835
  1467.7500      0.0000    708.4590      8.1702     86.0494
  1468.0000      0.0000    696.3209      8.2637     89.4957
  1468.2500      0.0000    688.3093      8.3801     96.1800
  1468.5000      0.0000    684.5688      8.5339    105.7099
  1468.7500      0.0000    681.4592      8.7177    116.8983
  1469.0000      0.0000    675.8903      8.9198    128.5665
  1469.2500      0.0000    669.5414      9.1312    139.9611
  1469.5000      0.0000    666.2465      9.3413    150.4662
  1469.7500      0.0000    665.4069      9.5364    159.2662
  1470.0000      0.0000    660.6109      9.7099    165.5488
  1470.2500      0.0000    645.5197      9.8700    168.8808
  1470.5000      0.0000    619.7449     10.0283    169.1989
  1470.7500      0.0000    589.1342     10.1838    166.6640
  1471.0000      0.0000    561.6367     10.3228    161.8643
  1471.2500      0.0000    542.4730     10.4318    156.1252
  1471.5000      0.0000    531.9882     10.4913    151.2433
  1471.7500      0.0000    527.2827     10.4503    148.6617
  1472.0000      0.0000    525.5784     10.2201    148.9419
  1472.2500      0.0000    526.8600      9.7167    151.8955
  1472.5000      0.0000    534.6469      8.9382    156.7887
  1472.7500      0.0000    554.3232      8.0302    162.3496
  1473.0000      0.0000    589.1218      7.2655    167.1306
  1473.2500      0.0000    636.2097      6.8866    170.0118
  1473.5000      0.0000    686.3789      6.9094    170.0543
  1473.7500      0.0000    727.8809      7.1016    166.2870
  1474.0000      0.0000    751.7791      7.1826    158.6038
  1474.2500      2.0000    755.6502      7.0255    148.7866
  1474.5000     -2.0000    743.9442      6.6765    139.8290
  1474.7500     -2.0000    724.7696      6.2421    133.9572
  1475.0000      0.0000    704.8021      5.8066    131.2911
  1475.2500      0.0000    685.6956      5.4376    130.1246
  1475.5000      0.0000    664.9301      5.2145    128.3025
  1475.7500      0.0000    639.8884      5.2103    124.6895
  1476.0000      0.0000    610.8708      5.4396    119.8744
  1476.2500      0.0000    581.1517      5.8364    115.6551
  1476.5000      0.0000    555.7750      6.2875    113.4901
  1476.7500      0.0000    540.8192      6.6864    113.2068
  1477.0000      0.0000    541.8240      6.9677    113.3410
  1477.2500      0.0000    560.4266      7.1127    112.7760
  1477.5000      0.0000    591.6328      7.1402    111.7209
  1477.7500      0.0000    623.6417      7.0919    110.9457
  1478.0000      0.0000    641.0974      7.0165    110.4767
  1478.2500      0.0000    632.8855      6.9517    109.4445
  1478.5000      0.0000    601.3606      6.9106    107.1687
  1478.7500      0.0000    564.0645      6.8810    104.2075
  1479.0000      0.0000    542.4646      6.8391    102.3375
  1479.2500      0.0000    545.7279      6.7689    103.4227
  1479.5000      0.0000    566.0020      6.6726    108.1429
  1479.7500      0.0000    589.9992      6.5645    115.6372
  1480.0000      0.0000    611.9582      6.4577    124.3723
  1480.2500      0.0000    633.4141      6.3594    133.2889
  1480.5000      0.0000    654.9758      6.2770    141.8280
  1480.7500      0.0000    673.5553      6.2219    148.9739
  1481.0000      0.0000    686.0058      6.2000    153.1914
  1481.2500      0.0000    691.8597      6.2003    153.8936
  1481.5000      0.0000    692.8900      6.1975    152.5174
  1481.7500      0.0000    691.6828      6.1662    151.5661
  1482.0000      0.0000    690.5209      6.0947    152.7262
  1482.2500      0.0000    690.6498      5.9923    156.0959
  1482.5000      0.0000    692.0541      5.8882    160.7339
  1482.7500      0.0000    693.7031      5.8171    165.3669
  1483.0000      0.0000    694.2595      5.8012    168.7739
  1483.2500      0.0000    693.1313      5.8415    170.1978
  1483.5000      0.0000    690.8903      5.9180    169.8050
  1483.7500      0.0000    688.3684      5.9909    168.5478
  1484.0000      0.0000    685.1480      6.0116    167.2768
  1484.2500      0.0000    678.5278      5.9470    165.8654
  1484.5000      0.0000    663.7010      5.8019    163.2593
  1484.7500      0.0000    636.1974      5.6222    158.3625
  1485.0000      0.0000    596.4175      5.4727    150.8959
  1485.2500      0.0000    552.5057      5.4018    141.6026
  1485.5000      0.0000    517.0251      5.4161    131.9239
  1485.7500      0.0000    498.7897      5.4838    123.3459
  1486.0000      0.0000    496.7664      5.5668    116.5671
  1486.2500      0.0000    500.9128      5.6497    111.0921
  1486.5000      0.0000    499.1184      5.7374    105.9446
  1486.7500      0.0000    485.5024      5.8273    100.9300
  1487.0000      0.0000    464.5834      5.8906     97.0010
  1487.2500      0.0000    447.6976      5.8905     95.2306
  1487.5000      0.0000    443.5161      5.8222     95.4405
  1487.7500      0.0000    450.7490      5.7304     96.1105
  1488.0000      0.0000    461.4724      5.6802     95.9979
  1488.2500      0.0000    472.4230      5.7079     95.7142
  1488.5000      0.0000    489.9111      5.8012     97.3341
  1488.7500      0.0000    520.1144      5.9197    102.4841
  1489.0000      0.0000    557.2085      6.0314    110.9946
  1489.2500      0.0000    586.1226      6.1334    121.0575
  1489.5000      0.0000    596.6970      6.2414    130.4023
  1489.7500      0.0000    591.1432      6.3621    137.5795
  1490.0000      0.0000    577.5511      6.4791    142.4676
  1490.2500      0.0000    560.2204      6.5706    145.5903
  1490.5000      0.0000    538.2555      6.6325    147.1439
  1490.7500      0.0000    511.3030      6.6773    147.0605
  1491.0000      0.0000    484.2006      6.7113    145.6892
  1491.2500      0.0000    466.0706      6.7174    143.5806
  1491.5000      0.0000    466.0188      6.6639    140.5038
  1491.7500      0.0000    488.3987      6.5280    135.4016
  1492.0000      0.0000    529.0529      6.3121    127.6138
  1492.2500      0.0000    575.0203      6.0428    117.8758
  1492.5000      0.0000    610.8768      5.7589    107.9339
  1492.7500      0.0000    628.8182      5.5001     99.2689
  1493.0000      0.0000    633.7241      5.3025     92.3567
  1493.2500      0.0000    637.4980      5.1998     87.1259
  1493.5000      0.0000    648.0164      5.2184     83.9641
  1493.7500      0.0000    663.8815      5.3584     83.9816
  1494.0000      0.0000    678.8814      5.5755     87.9874
  1494.2500      0.0000    688.6924      5.7891     95.0718
  1494.5000      0.0000    692.7882      5.9189    102.5622
  1494.7500      0.0000    692.7712      5.9255    107.9046
  1495.0000      0.0000    690.7540      5.8290    110.8986
  1495.2500      0.0000    688.5301      5.6919    114.1843
  1495.5000      0.0000    687.0763      5.5759    121.2279
  1495.7500      0.0000    686.5126      5.5049    133.1455
  1496.0000      0.0000    686.5098      5.4690    147.1572
  1496.2500      0.0000    686.6697      5.4570    158.5455
  1496.5000      0.0000    686.7495      5.4750    164.4232
  1496.7500      0.0000    686.7062      5.5314    165.4592
  1497.0000      0.0000    686.6296      5.6099    164.3087
  1497.2500      0.0000    686.6132      5.6698    163.1703
  1497.5000      0.0000    686.6673      5.6810    162.8633
  1497.7500      0.0000    686.7142      5.6552    163.2961
  1498.0000      0.0000    686.6475      5.6285    164.0627
  1498.2500      0.0000    686.4039      5.6188    164.7071
  1498.5000      0.0000    686.0121      5.6116    165.0983
  1498.7500      0.0000    685.5926      5.5847    165.7985
  1499.0000      0.0000    685.2941      5.5333    167.4872
  1499.2500      0.0000    685.2065      5.4700    169.7549
  1499.5000      0.0000    685.3212      5.4084    171.1897
  1499.7500      0.0000    685.5654      5.3502    170.9710
