~Version Information
VERS.                      2.0: CWLS Log ASCII Standard - VERSION 2.0
WRAP.                       NO: One line per depth step
~Well Information Block
STRT.FT               235.0000: 
STOP.FT              1271.0000: 
STEP.FT                 0.1000: 
NULL.                -999.2500: 
COMP.          Pioneer Natural Resources: COMPANY
WELL.              Julie 11-30: WELL
FLD.           Purgatoire River: FIELD
LOC.           672' FNL & 1052' FWL: LOCATION
CNTY.               Las Animas: COUNTY
SRVC.                Patterson: SERVICE COMPANY
DATE.          Fri Apr 14 07:21:24 2006: LOG DATE
UWI.           05 071 08724 00: UNIQUE WELL ID
STAT.                 Colorado: STATE
~Curve Information Block
DEPT.FT            0 000 00 00: Depth
DCAL.in                       : CDL Caliper
RHOB.g/cc                     : CDL Bulk Density
RHOC.g/cc                     : CDL Density Correction
DPOR.pu                       : CDL Density Porosity
GR.GAPI                       : Gamma Ray
NPOR.pu                       : Neutron Porosity
~Parameter Information Block
~A  Depth       DCAL        RHOB        RHOC        DPOR         GR         NPOR    
# ...
   436.6000      8.2848      2.4304     -0.0237     13.3106    159.7306     26.0226
   436.7000      8.2848      2.4468     -0.0432     12.3124    163.3640     25.9158
   436.8000      8.2870      2.4518      0.0356     12.0117    167.3874     25.5605
   436.9000      8.2870      2.4220     -0.0130     13.8188    170.0631     24.9527
   437.0000      8.2873      2.3807     -0.0626     16.3189    169.1205     24.1902
   437.1000      8.2873      2.3660     -0.0220     17.2123    165.6414     23.7995
   437.2000      8.2873      2.3785     -0.0021     16.4547    163.8531     23.8851
   437.3000      8.2866      2.4019      0.0152     15.0338    161.1945     24.1509
   437.4000      8.2866      2.4299     -0.0082     13.3366    153.8922     24.5493
   437.5000      8.2857      2.4594      0.0280     11.5510    148.6928     25.2113
   437.6000      8.2857      2.4890      0.0369      9.7570    150.9116     26.1081
   437.7000      8.2857      2.5168      0.0641      8.0758    155.0061     26.9329
   437.8000      8.2876      2.5325      0.0596      7.1197    153.9719     27.6318
   437.9000      8.2876      2.5321      0.0309      7.1440    149.4210     28.6062
   438.0000      8.2865      2.5258      0.0745      7.5293    147.3525     30.0401
   438.1000      8.2865      2.5266      0.0645      7.4784    148.2040     31.2861
   438.2000      8.2865      2.5438      0.0367      6.4370    148.3523     31.5594
   438.3000      8.2862      2.5725      0.0079      4.6960    148.8241     31.0084
   438.4000      8.2862      2.5921      0.0300      3.5081    152.8509     30.3677
   438.5000      8.2852      2.5852      0.0542      3.9277    156.1533     30.1390
   438.6000      8.2852      2.5603     -0.0087      5.4364    153.6003     30.3261
   438.7000      8.2852      2.5404     -0.0185      6.6419    147.8578     30.6434
   438.8000      8.2846      2.5322      0.0044      7.1398    143.9551     30.8574
   438.9000      8.2846      2.5371     -0.0333      6.8407    143.9999     30.9895
   439.0000      8.2854      2.5564     -0.0077      5.6708    145.2026     31.2006
   439.1000      8.2854      2.5794     -0.0245      4.2760    143.1653     31.6850
   439.2000      8.2854      2.6037      0.0117      2.8081    141.4576     32.2535
   439.3000      8.2875      2.6333      0.0298      1.0124    145.3849     32.3139
   439.4000      8.2875      2.6545      0.0818     -0.2728    148.6646     31.8838
   439.5000      8.2849      2.6457      0.0009      0.2600    146.7716     31.4253
   439.6000      8.2849      2.6190     -0.0834      1.8797    147.0145     30.7097
   439.7000      8.2849      2.5926     -0.0066      3.4773    152.0901     29.8688
   439.8000      8.2824      2.5557     -0.0430      5.7135    155.3198     29.6555
   439.9000      8.2824      2.5145     -0.0241      8.2118    156.6445     29.7791
   440.0000      8.2820      2.4917     -0.0562      9.5943    160.3914     29.4170
   440.1000      8.2820      2.4913     -0.0208      9.6154    162.7273     28.8109
   440.2000      8.2820      2.5069      0.0269      8.6704    157.8720     28.5737
   440.3000      8.2881      2.5348     -0.0035      6.9845    148.9515     28.2685
   440.4000      8.2881      2.5653      0.0429      5.1330    143.9506     27.5934
   440.5000      8.2916      2.5733      0.0986      4.6480    144.0193     27.3852
   440.6000      8.2916      2.5460      0.0131      6.3047    145.1055     27.8357
   440.7000      8.2916      2.5072      0.0340      8.6572    146.0293     28.3343
   440.8000      8.2883      2.4800     -0.0126     10.3019    147.8495     28.6453
   440.9000      8.2883      2.4720     -0.0053     10.7887    151.3566     28.7215
   441.0000      8.2872      2.4818      0.0065     10.1910    154.0918     28.7294
   441.1000      8.2872      2.4938      0.0506      9.4659    154.1999     28.7086
   441.2000      8.2872      2.4910      0.0238      9.6347    154.5092     28.1716
   441.3000      8.2842      2.4767     -0.0030     10.5038    157.2902     27.0017
   441.4000      8.2842      2.4699     -0.0068     10.9136    164.5190     25.7036
   441.5000      8.2910      2.4752      0.0326     10.5934    175.4954     24.8328
   441.6000      8.2910      2.4814      0.0076     10.2191    181.2959     24.5999
   441.7000      8.2910      2.4876      0.0326      9.8413    176.6578     24.8277
   441.8000      8.2884      2.4982      0.0616      9.1970    168.7595     25.0944
   441.9000      8.2884      2.5094      0.0660      8.5191    165.7054     25.2073
   442.0000      8.2890      2.5074      0.0939      8.6405    166.9765     25.3737
   442.1000      8.2890      2.4902      0.0276      9.6864    169.8379     25.6516
   442.2000      8.2890      2.4731      0.0289     10.7199    174.3368     26.1360
   442.3000      8.2894      2.4554      0.0169     11.7928    179.8929     26.8733
   442.4000      8.2894      2.4309      0.0114     13.2769    184.3936     27.5576
   442.5000      8.2917      2.4093      0.0080     14.5877    184.3261     28.1227
   442.6000      8.2917      2.4005     -0.0248     15.1233    178.1001     28.7059
   442.7000      8.2917      2.4065      0.0070     14.7597    169.6870     29.0049
   442.8000      8.2841      2.4244     -0.0014     13.6738    160.7103     28.8991
   442.9000      8.2841      2.4472     -0.0156     12.2916    149.4299     28.7468
   443.0000      8.2827      2.4640      0.0745     11.2709    140.1220     28.8057
   443.1000      8.2827      2.4765      0.0836     10.5159    138.8819     29.1343
   443.2000      8.2827      2.4993      0.0781      9.1315    142.4688     29.5326
   443.3000      8.2760      2.5378      0.0668      6.7978    142.9244     29.9189
   443.4000      8.2760      2.5906      0.1171      3.6020    139.2319     30.5125
   443.5000      8.2597      2.6489      0.1769      0.0676    134.4638     31.1722
   443.6000      8.2597      2.6893      0.2056     -2.3789    131.0468     31.2455
   443.7000      8.2597      2.6957      0.1925     -2.7671    131.5260     30.6729
   443.8000      8.2571      2.6776      0.1515     -1.6701    136.8358     30.2273
   443.9000      8.2571      2.6489      0.1263      0.0695    141.7205     30.1345
   444.0000      8.2504      2.6068      0.1171      2.6179    141.3286     30.0294
   444.1000      8.2504      2.5606      0.0217      5.4162    138.6638     29.9474
   444.2000      8.2504      2.5390      0.0260      6.7280    135.9572     29.7131
   444.3000      8.2573      2.5426      0.0516      6.5116    131.9747     28.9826
   444.4000      8.2573      2.5386      0.0784      6.7516    130.7826     28.1117
   444.5000      8.2458      2.5114      0.0288      8.4012    136.7177     27.5233
   444.6000      8.2458      2.4845      0.0225     10.0288    145.5238     27.1484
   444.7000      8.2458      2.4850      0.0511     10.0012    152.4437     26.5908
   444.8000      8.2503      2.5138      0.0258      8.2532    157.8492     26.0527
   444.9000      8.2503      2.5497      0.0862      6.0782    162.1417     25.9225
   445.0000      8.2606      2.5611      0.1068      5.3852    164.4546     25.8339
   445.1000      8.2606      2.5405      0.0609      6.6386    164.1514     25.7158
   445.2000      8.2606      2.5116      0.0061      8.3897    159.6604     25.7623
   445.3000      8.2828      2.4888      0.0620      9.7714    151.4234     25.6603
   445.4000      8.2828      2.4645      0.0571     11.2414    146.0279     25.2195
   445.5000      8.2866      2.4462      0.0173     12.3521    148.2099     24.8263
   445.6000      8.2866      2.4539      0.0759     11.8838    154.1442     24.7156
   445.7000      8.2866      2.4866      0.1340      9.9023    155.1328     24.7743
   445.8000      8.2847      2.5166      0.1999      8.0845    149.9313     24.7801
   445.9000      8.2847      2.5174      0.1156      8.0335    143.1655     24.3581
   446.0000      8.2843      2.4879      0.1521      9.8240    136.3111     23.8507
   446.1000      8.2843      2.4369      0.1494     12.9174    132.3189     23.8139
