~Version Information
VERS.                      2.0: CWLS Log ASCII Standard - VERSION 2.0
WRAP.                       NO: One line per depth step
~Well Information Block
STRT.FT               262.2500: 
STOP.FT              1942.0000: 
STEP.FT                 0.2500: 
NULL.                -999.2500: 
COMP.          XTO Energy Inc.: COMPANY
WELL.          Golden Eagle 19-11: WELL
FLD.           Purgatoire River: FIELD
LOC.           2351' FSL & 1926' FWL--: LOCATION
CNTY.               Las Animas: COUNTY
SRVC.                Patterson: SERVICE COMPANY
DATE.          Wed Mar 08 23:33:01 2006: LOG DATE
UWI.           05 071 08696 00: UNIQUE WELL ID
STAT.                 Colorado: STATE
~Curve Information Block
DEPT.FT            0 000 00 00: Depth
SP.mV                         : DIL Spontaneous Potential
RILD.Ohm-m                    : DIL Deep Resistivity
RILM.Ohm-m                    : DIL Medium Resistivity
RLL3.Ohm-m                    : DIL Shallow Resistivity
GR.GAPI                       : Gamma Ray
~Parameter Information Block
~A  Depth        SP         RILD        RILM        RLL3         GR     
# ...
  1158.2500   2008.0000     14.5479     13.4206   2000.0000    117.5316
  1158.5000   2008.0000     14.9022     13.9343   2000.0000    115.6136
  1158.7500   2008.0000     15.2913     14.5473   2000.0000    114.2440
  1159.0000   2008.0000     15.7188     15.2612   2000.0000    111.2634
  1159.2500   2008.0000     16.1918     16.0611   2000.0000    108.5678
  1159.5000   2008.0000     16.7220     16.9117   2000.0000    104.3030
  1159.7500   2008.0000     17.3218     17.7665   2000.0000    102.0228
  1160.0000   2008.0000     17.9961     18.5890   2000.0000    100.0177
  1160.2500   2008.0000     18.7322     19.3706   2000.0000     99.3192
  1160.5000   2008.0000     19.4956     20.1302   2000.0000     97.8751
  1160.7500   2008.0000     20.2383     20.8954   2000.0000     95.8863
  1161.0000   2008.0000     20.9188     21.6782   2000.0000     91.2276
  1161.2500   2008.0000     21.5220     22.4617   2000.0000     87.7665
  1161.5000   2008.0000     22.0632     23.1367   2000.0000     83.8294
  1161.7500   2008.0000     22.5730     23.7846   2000.0000     82.6362
  1162.0000   2008.0000     23.0740     24.3131   2000.0000     82.4717
  1162.2500   2008.0000     23.5664     24.7283   2000.0000     82.2972
  1162.5000   2008.0000     24.0277     25.0678   2000.0000     79.5362
  1162.7500   2008.0000     24.4216     25.3817   2000.0000     75.2260
  1163.0000   2008.0000     24.7078     25.7137   2000.0000     65.7997
  1163.2500   2008.0000     24.8509     26.0909   2000.0000     59.0145
  1163.5000   2008.0000     24.8281     26.5124   2000.0000     50.8199
  1163.7500   2008.0000     24.6329     26.9309   2000.0000     47.6261
  1164.0000   2008.0000     24.2742     27.2376   2000.0000     46.4540
  1164.2500   2008.0000     23.7739     27.2737   2000.0000     47.7359
  1164.5000   2008.0000     23.1648     26.8896   2000.0000     52.0757
  1164.7500   2008.0000     22.4925     26.0283   2000.0000     56.3201
  1165.0000   2008.0000     21.8136     24.7679   2000.0000     64.4555
  1165.2500   2008.0000     21.1877     23.2824   2000.0000     70.9328
  1165.5000   2008.0000     20.6653     21.7586   2000.0000     81.9486
  1165.7500   2008.0000     20.2742     20.3378   2000.0000     89.8207
  1166.0000   2008.0000     20.0120     19.1066   2000.0000    101.0692
  1166.2500   2008.0000     19.8459     18.1127   2000.0000    106.9031
  1166.5000   2008.0000     19.7221     17.3798   2000.0000    111.0664
  1166.7500   2008.0000     19.5851     16.9134   2000.0000    110.4107
  1167.0000   2008.0000     19.3970     16.7015   2000.0000    105.3831
  1167.2500   2008.0000     19.1497     16.7149   2000.0000    100.3546
  1167.5000   2008.0000     18.8627     16.9101   2000.0000     91.4422
  1167.7500   2008.0000     18.5692     17.2341   2000.0000     84.8191
  1168.0000   2008.0000     18.2999     17.6324   2000.0000     74.2472
  1168.2500   2008.0000     18.0716     18.0576   2000.0000     67.3208
  1168.5000   2008.0000     17.8843     18.4752   2000.0000     58.4227
  1168.7500   2008.0000     17.7251     18.8593   2000.0000     54.1739
  1169.0000   2008.0000     17.5758     19.1798   2000.0000     51.2605
  1169.2500   2008.0000     17.4197     19.3912   2000.0000     52.0828
  1169.5000   2008.0000     17.2445     19.4335   2000.0000     57.6470
  1169.7500   2008.0000     17.0435     19.2509   2000.0000     63.6088
  1170.0000   2008.0000     16.8136     18.8193   2000.0000     73.7201
  1170.2500   2008.0000     16.5541     18.1654   2000.0000     79.9330
  1170.5000   2008.0000     16.2655     17.3635   2000.0000     87.2355
  1170.7500   2008.0000     15.9493     16.5088   2000.0000     90.6702
  1171.0000   2008.0000     15.6087     15.6869   2000.0000     94.0097
  1171.2500   2008.0000     15.2491     14.9557   2000.0000     95.3419
  1171.5000   2008.0000     14.8796     14.3434   2000.0000     96.8756
  1171.7500   2008.0000     14.5132     13.8555   2000.0000     98.2619
  1172.0000   2008.0000     14.1654     13.4846   2000.0000    101.5780
  1172.2500   2008.0000     13.8522     13.2164   2000.0000    104.3297
  1172.5000   2008.0000     13.5885     13.0334   2000.0000    107.7928
  1172.7500   2008.0000     13.3892     12.9191   2000.0000    108.8348
  1173.0000   2008.0000     13.2705     12.8620   2000.0000    108.1496
  1173.2500   2008.0000     13.2475     12.8604   2000.0000    106.5764
  1173.5000   2008.0000     13.3303     12.9236   2000.0000    103.3484
  1173.7500   2008.0000     13.5181     13.0679   2000.0000    100.8938
  1174.0000   2008.0000     13.7966     13.3097   2000.0000     97.1762
  1174.2500   2008.0000     14.1400     13.6594   2000.0000     94.9820
  1174.5000   2008.0000     14.5173     14.1175   2000.0000     92.2707
  1174.7500   2008.0000     14.9003     14.6731   2000.0000     90.5436
  1175.0000   2008.0000     15.2687     15.3031   2000.0000     87.4305
  1175.2500   2008.0000     15.6102     15.9720   2000.0000     85.0032
  1175.5000   2008.0000     15.9154     16.6354   2000.0000     81.5670
  1175.7500   2008.0000     16.1739     17.2460   2000.0000     79.9694
  1176.0000   2008.0000     16.3725     17.7615   2000.0000     79.2235
  1176.2500   2008.0000     16.5003     18.1509   2000.0000     79.8286
  1176.5000   2008.0000     16.5533     18.3962   2000.0000     81.8196
  1176.7500   2008.0000     16.5363     18.4898   2000.0000     83.3794
  1177.0000   2008.0000     16.4593     18.4310   2000.0000     85.4927
  1177.2500   2008.0000     16.3318     18.2254   2000.0000     86.7457
  1177.5000   2008.0000     16.1604     17.8869   2000.0000     88.7613
  1177.7500   2008.0000     15.9511     17.4398   2000.0000     90.3299
  1178.0000   2008.0000     15.7128     16.9148   2000.0000     92.7548
  1178.2500   2008.0000     15.4560     16.3454   2000.0000     94.1196
  1178.5000   2008.0000     15.1868     15.7662   2000.0000     95.5860
  1178.7500   2008.0000     14.9019     15.2128   2000.0000     96.3363
  1179.0000   2008.0000     14.5915     14.7179   2000.0000     97.5563
  1179.2500   2008.0000     14.2478     14.3033   2000.0000     98.5637
  1179.5000   2008.0000     13.8730     13.9716   2000.0000    100.3213
  1179.7500   2008.0000     13.4809     13.7055   2000.0000    101.5986
  1180.0000   2008.0000     13.0913     13.4723   2000.0000    103.7081
  1180.2500   2008.0000     12.7233     13.2353   2000.0000    105.2907
  1180.5000   2008.0000     12.3894     12.9653   2000.0000    107.9370
  1180.7500   2008.0000     12.0966     12.6503   2000.0000    109.9554
  1181.0000   2008.0000     11.8487     12.2974   2000.0000    113.7520
  1181.2500   2008.0000     11.6510     11.9284   2000.0000    116.9488
  1181.5000   2008.0000     11.5097     11.5710   2000.0000    122.4085
  1181.7500   2008.0000     11.4282     11.2534   2000.0000    126.1215
  1182.0000   2008.0000     11.4026     11.0001   2000.0000    131.5143
  1182.2500   2008.0000     11.4203     10.8310   2000.0000    134.9052
  1182.5000   2008.0000     11.4619     10.7596   2000.0000    138.7574
  1182.7500   2008.0000     11.5070     10.7914   2000.0000    139.4450
  1183.0000   2008.0000     11.5395     10.9234   2000.0000    136.1370
  1183.2500   2008.0000     11.5519     11.1416   2000.0000    131.0221
  1183.5000   2008.0000     11.5454     11.4213   2000.0000    120.6911
  1183.7500   2008.0000     11.5276     11.7271   2000.0000    113.5710
  1184.0000   2008.0000     11.5096     12.0183   2000.0000    104.7748
  1184.2500   2008.0000     11.5040     12.2582   2000.0000    100.7706
  1184.5000   2008.0000     11.5226     12.4239   2000.0000     97.6020
  1184.7500   2008.0000     11.5737     12.5115   2000.0000     97.2368
  1185.0000   2008.0000     11.6584     12.5334   2000.0000     99.0277
  1185.2500   2008.0000     11.7696     12.5103   2000.0000    101.4115
  1185.5000   2008.0000     11.8924     12.4635   2000.0000    105.6212
  1185.7500   2008.0000     12.0077     12.4103   2000.0000    108.1081
  1186.0000   2008.0000     12.0966     12.3614   2000.0000    110.6356
