~Version Information
VERS.                      2.0: CWLS Log ASCII Standard - VERSION 2.0
WRAP.                       NO: One line per depth step
~Well Information Block
STRT.FT               260.8000: 
STOP.FT              1942.0000: 
STEP.FT                 0.1000: 
NULL.                -999.2500: 
COMP.          XTO Energy Inc.: COMPANY
WELL.          Golden Eagle 19-11: WELL
FLD.           Purgatoire River: FIELD
LOC.           2351' FSL & 1926' FWL--: LOCATION
CNTY.               Las Animas: COUNTY
SRVC.                Patterson: SERVICE COMPANY
DATE.          Thu Mar 09 08:41:38 2006: LOG DATE
UWI.           05 071 08696 00: UNIQUE WELL ID
STAT.                 Colorado: STATE
~Curve Information Block
DEPT.FT            0 000 00 00: Depth
DCAL.in                       : CDL Caliper
RHOB.g/cc                     : CDL Bulk Density
RHOC.g/cc                     : CDL Density Correction
DPOR.pu                       : CDL Density Porosity
NPOR.pu                       : Neutron Porosity
GR.GAPI                       : Gamma Ray
~Parameter Information Block
~A  Depth       DCAL        RHOB        RHOC        DPOR        NPOR         GR     
# ...
  1576.0000      8.0280      1.5623      0.0132     65.9220     32.1525     58.6615
  1576.1000      8.0280      1.5702      0.0390     65.4426     32.0301     55.3496
  1576.2000      8.0280      1.6138      0.0791     62.8022     31.9757     53.2299
  1576.3000      8.0584      1.6792      0.1279     58.8381     31.7189     53.4535
  1576.4000      8.0584      1.7460      0.1553     54.7876     31.1749     56.2953
  1576.5000      8.0783      1.8089      0.1405     50.9746     30.7138     61.9482
  1576.6000      8.0783      1.8907      0.1481     46.0157     30.4606     70.2891
  1576.7000      8.0783      1.9983      0.1870     39.4998     30.1266     77.5657
  1576.8000      8.0644      2.0975      0.1973     33.4846     29.7555     80.4372
  1576.9000      8.0644      2.1680      0.0949     29.2110     29.6762     81.1504
  1577.0000      8.0244      2.2285      0.1381     25.5442     29.8017     84.8128
  1577.1000      8.0244      2.2915      0.1224     21.7247     29.9181     93.8069
  1577.2000      8.0244      2.3474      0.1051     18.3373     29.9575    103.5313
  1577.3000      7.9922      2.3846      0.1229     16.0864     30.1115    109.9144
  1577.4000      7.9922      2.4052      0.0890     14.8354     30.3035    114.5607
  1577.5000      7.9811      2.4195      0.1086     13.9672     30.1577    120.5209
  1577.6000      7.9811      2.4275      0.1367     13.4878     29.7049    129.4987
  1577.7000      7.9811      2.4279      0.0725     13.4589     29.1018    136.9859
  1577.8000      7.9800      2.4291      0.0659     13.3855     28.4718    138.5131
  1577.9000      7.9800      2.4302      0.0791     13.3210     28.1222    138.5627
  1578.0000      7.9794      2.4241      0.0435     13.6932     28.0228    140.9895
  1578.1000      7.9794      2.4113      0.0570     14.4653     27.7659    143.6753
  1578.2000      7.9794      2.3998      0.0330     15.1640     27.5293    143.1658
  1578.3000      7.9789      2.3971      0.0634     15.3272     27.8158    135.1882
  1578.4000      7.9789      2.4001      0.0516     15.1464     28.4857    119.2368
  1578.5000      7.9803      2.4047      0.0477     14.8646     28.9911    107.2828
  1578.6000      7.9803      2.4139      0.0546     14.3099     29.0655    108.1264
  1578.7000      7.9803      2.4229      0.0728     13.7647     28.5994    114.8255
  1578.8000      7.9815      2.4215      0.0860     13.8469     27.7660    119.8270
  1578.9000      7.9815      2.4167      0.0584     14.1410     27.4562    123.6300
  1579.0000      7.9799      2.4278      0.0374     13.4688     28.0760    123.2917
  1579.1000      7.9799      2.4527      0.0607     11.9565     28.7727    115.4661
  1579.2000      7.9799      2.4671      0.0793     11.0857     28.7680    111.9930
  1579.3000      7.9772      2.4606      0.0780     11.4813     28.3218    118.9633
  1579.4000      7.9772      2.4469      0.0654     12.3072     27.9817    122.3104
  1579.5000      7.9780      2.4399      0.0600     12.7336     27.9010    116.0140
  1579.6000      7.9780      2.4360      0.0600     12.9706     28.0054    109.8217
  1579.7000      7.9780      2.4288      0.0459     13.4036     28.3295    106.7680
  1579.8000      7.9835      2.4224      0.0395     13.7935     28.7055    104.4499
  1579.9000      7.9835      2.4175      0.0670     14.0888     28.8207    101.1983
  1580.0000      7.9917      2.4108      0.0515     14.4964     28.6356     97.8180
  1580.1000      7.9917      2.4066      0.0473     14.7538     28.1831     98.2687
  1580.2000      7.9917      2.4101      0.0739     14.5417     27.5598    100.7922
  1580.3000      7.9980      2.4179      0.0755     14.0655     27.1887    101.4254
  1580.4000      7.9980      2.4228      0.1040     13.7677     27.4475    103.4191
  1580.5000      7.9988      2.4205      0.0974     13.9089     27.8443    109.2309
  1580.6000      7.9988      2.4152      0.0909     14.2332     27.7546    110.7235
  1580.7000      7.9988      2.4092      0.0902     14.5928     27.5262    103.4567
  1580.8000      7.9987      2.3946      0.0726     15.4814     27.5397     97.3734
  1580.9000      7.9987      2.3731      0.0244     16.7816     27.5799    102.4888
  1581.0000      8.0006      2.3673      0.0051     17.1358     27.7424    115.0920
  1581.1000      8.0006      2.3875      0.0793     15.9114     28.3523    125.1234
  1581.2000      8.0006      2.4168      0.0718     14.1333     29.0400    128.5674
  1581.3000      8.0037      2.4413      0.0718     12.6457     29.2396    127.6946
  1581.4000      8.0037      2.4541      0.0931     11.8713     28.8783    123.7504
  1581.5000      8.0054      2.4475      0.0933     12.2715     28.2680    118.4170
  1581.6000      8.0054      2.4309      0.0473     13.2764     27.8543    113.9557
  1581.7000      8.0054      2.4253      0.0508     13.6173     27.7138    108.0459
  1581.8000      8.0042      2.4398      0.0503     12.7423     27.7471    102.2333
  1581.9000      8.0042      2.4686      0.0880     10.9920     27.8427     99.1602
  1582.0000      8.0017      2.4973      0.1060      9.2565     27.7262     95.1702
  1582.1000      8.0017      2.5116      0.0990      8.3870     27.2465     89.5909
  1582.2000      8.0017      2.5084      0.0891      8.5816     26.5275     84.2891
  1582.3000      7.9977      2.4983      0.0593      9.1911     25.8589     80.0110
  1582.4000      7.9977      2.4932      0.0714      9.5047     25.5031     78.3737
  1582.5000      7.9942      2.4892      0.0546      9.7438     25.4718     78.9016
  1582.6000      7.9942      2.4797      0.0185     10.3184     25.4840     76.1754
  1582.7000      7.9942      2.4771      0.0101     10.4798     25.5394     68.6018
  1582.8000      8.0046      2.4934      0.0118      9.4920     25.6161     62.8766
  1582.9000      8.0046      2.5106      0.0873      8.4467     25.3960     63.5069
  1583.0000      8.0431      2.5130      0.0064      8.3053     24.9668     68.1908
  1583.1000      8.0431      2.5135      0.0348      8.2749     24.7326     70.6294
  1583.2000      8.0431      2.5167      0.0648      8.0801     24.8287     67.3375
  1583.3000      8.0988      2.5206      0.0402      7.8421     25.0857     62.6847
  1583.4000      8.0988      2.5353      0.0445      6.9518     25.2330     61.3505
  1583.5000      8.1321      2.5553      0.1041      5.7418     25.3729     60.6813
  1583.6000      8.1321      2.5545      0.1084      5.7870     25.6511     57.8310
  1583.7000      8.1321      2.5275      0.0679      7.4257     25.7969     56.9496
  1583.8000      8.1224      2.5023      0.0089      8.9508     25.6592     59.6129
  1583.9000      8.1224      2.4930      0.0729      9.5134     25.2835     61.7070
  1584.0000      8.1326      2.4785      0.0614     10.3928     25.0031     63.0469
  1584.1000      8.1326      2.4507      0.0018     12.0814     25.1152     65.6138
  1584.2000      8.1326      2.4263     -0.0076     13.5577     25.3008     69.2236
  1584.3000      8.2012      2.4098      0.0127     14.5584     25.2879     71.7836
  1584.4000      8.2012      2.3886      0.0348     15.8403     25.3748     71.7374
  1584.5000      8.2549      2.3594     -0.0053     17.6137     25.8682     70.6281
  1584.6000      8.2549      2.3298      0.0002     19.4078     26.4703     69.2979
  1584.7000      8.2549      2.3084      0.0045     20.7058     26.5477     67.0326
  1584.8000      8.2394      2.3092      0.0152     20.6516     25.9788     66.3268
  1584.9000      8.2394      2.3392      0.0584     18.8384     25.1820     67.2804
  1585.0000      8.1534      2.3830      0.0610     16.1803     24.4706     64.7578
  1585.1000      8.1534      2.4265      0.0874     13.5477     23.7290     61.1842
  1585.2000      8.1534      2.4726      0.0923     10.7488     22.9475     62.4353
  1585.3000      8.0268      2.5250      0.1634      7.5731     22.5448     64.3022
  1585.4000      8.0268      2.5691      0.2133      4.9028     22.7845     60.4057
  1585.5000      7.9415      2.5822      0.2320      4.1092     23.3251     53.2052
