~Version Information
VERS.                      2.0: CWLS Log ASCII Standard - VERSION 2.0
WRAP.                       NO: One line per depth step
~Well Information Block
STRT.FT               240.0000: 
STOP.FT              1677.0000: 
STEP.FT                 0.1000: 
NULL.                -999.2500: 
COMP.          Pioneer Natural Resources: COMPANY
WELL.          Lorencito 8-1-34-67: WELL
FLD.           Purgatoire River: FIELD
LOC.           1567' FNL & 500' FEL: LOCATION
STAT.                 Colorado: State
CTRY. USA : Country 
CNTY.               Las Animas: COUNTY
SECT. 1 : Section 
TOWN. 34S : Township
RANG. 67W : Range
SRVC.                Patterson: SERVICE COMPANY
DATE.          Fri Aug 26 09:30:14 2005: LOG DATE
API.           05 071 08506 00: UNIQUE WELL ID
~Curve Information Block
DEPT.FT            0 000 00 00: Depth
DCAL.in                       : CDL Caliper
RHOB.g/cc                     : CDL Bulk Density
RHOC.g/cc                     : CDL Density Correction
DPOR.pu                       : CDL Density Porosity
GR.GAPI                       : Gamma Ray
NPOR.pu                       : Neutron Porosity
~Parameter Information Block
~A  Depth       DCAL        RHOB        RHOC        DPOR         GR         NPOR    
# ...
   614.4000      8.1250      1.9399     -0.0140     43.0363    110.9184     15.6671
   614.5000      8.1818      1.8486     -0.0495     48.5711    107.5261     15.2729
   614.6000      8.1818      1.7728     -0.0673     53.1626    102.7500     14.8223
   614.7000      8.1818      1.7055     -0.0237     57.2418     96.2463     14.4981
   614.8000      8.2177      1.6460     -0.0481     60.8470     89.8262     14.2409
   614.9000      8.2177      1.6011     -0.0410     63.5679     82.4946     13.7134
   615.0000      8.3716      1.5605      0.1162     66.0305     74.3514     13.1083
   615.1000      8.3716      1.5015      0.0759     69.6031     68.9091     12.7262
   615.2000      8.3716      1.4290      0.0334     73.9971     64.8218     12.4000
   615.3000      8.4549      1.3673      0.0457     77.7365     60.0617     11.8789
   615.4000      8.4549      1.3271      0.0537     80.1785     57.6366     11.2807
   615.5000      8.3940      1.3060      0.0327     81.4562     57.7260     10.8459
   615.6000      8.3940      1.3012      0.0582     81.7443     56.6195     10.6072
   615.7000      8.3940      1.3052      0.0766     81.5060     52.9139     10.4290
   615.8000      8.4354      1.3075      0.0578     81.3654     48.2006     10.1866
   615.9000      8.4354      1.2996      0.1024     81.8414     44.7199      9.8748
   616.0000      8.6447      1.2768      0.0690     83.2255     43.5805      9.7044
   616.1000      8.6447      1.2486      0.0531     84.9315     43.2377      9.8191
   616.2000      8.6447      1.2297      0.0628     86.0774     42.8967      9.9356
   616.3000      8.8421      1.2283     -0.0134     86.1648     43.1217      9.9667
   616.4000      8.8421      1.2485      0.0706     84.9404     43.2902     10.2805
   616.5000      9.0566      1.2884      0.1003     82.5202     45.2968     10.9516
   616.6000      9.0566      1.3527      0.1170     78.6220     52.6030     11.8572
   616.7000      9.0566      1.4516      0.2004     72.6290     62.2110     12.9659
   616.8000      9.1117      1.5805      0.3338     64.8204     69.5643     13.9926
   616.9000      9.1117      1.7154      0.3573     56.6422     75.3459     14.8208
   617.0000      8.9819      1.8338      0.3890     49.4694     81.0422     15.8274
   617.1000      8.9819      1.9340      0.3487     43.3938     86.4583     17.1387
   617.2000      8.9819      2.0229      0.3502     38.0066     91.0414     18.5116
   617.3000      9.1312      2.0926      0.3620     33.7839     95.5506     19.8519
   617.4000      9.1312      2.1395      0.3059     30.9391    100.4503     21.2674
   617.5000      9.0970      2.1812      0.1589     28.4101    104.8095     22.6582
   617.6000      9.0970      2.2260      0.2159     25.6993    109.0671     23.6723
   617.7000      9.0970      2.2610      0.1881     23.5766    111.8229     24.3202
   617.8000      8.4892      2.2876      0.0448     21.9618    114.3411     24.7296
   617.9000      8.4892      2.3209      0.0919     19.9465    120.9956     24.5908
   618.0000      8.2504      2.3580      0.0726     17.6963    128.4945     23.9144
   618.1000      8.2504      2.3758      0.1388     16.6206    131.4515     23.1621
   618.2000      8.2504      2.3548      0.1629     17.8900    131.0129     22.4983
   618.3000      8.2087      2.3109      0.0790     20.5515    129.7478     21.8304
   618.4000      8.2087      2.2705      0.1073     23.0024    128.8918     21.4062
   618.5000      8.2045      2.2212      0.1182     25.9885    131.7161     21.5130
   618.6000      8.2045      2.1425     -0.0043     30.7586    138.4701     21.8298
   618.7000      8.2045      2.0399     -0.0130     36.9768    145.0463     21.9164
   618.8000      8.2050      1.9250     -0.0167     43.9392    149.7547     21.8268
   618.9000      8.2050      1.8241     -0.0411     50.0517    152.6591     21.7252
   619.0000      8.2091      1.7754     -0.0580     53.0071    154.4620     21.8927
   619.1000      8.2091      1.7797      0.0155     52.7433    154.4247     22.6187
   619.2000      8.2091      1.8023      0.0263     51.3756    150.4787     23.5264
   619.3000      8.2027      1.8256      0.0084     49.9610    144.5740     24.0007
   619.4000      8.2027      1.8684      0.0073     47.3712    140.4788     24.1381
   619.5000      8.2146      1.9598      0.0242     41.8281    139.7326     24.2753
   619.6000      8.2146      2.1054      0.1697     33.0063    142.9384     24.3108
   619.7000      8.2146      2.2637      0.2797     23.4127    147.5583     24.2671
   619.8000      8.2438      2.3810      0.2580     16.3033    146.5150     24.2887
   619.9000      8.2438      2.4442      0.2441     12.4745    141.7528     24.3181
   620.0000      8.2797      2.4687      0.2212     10.9890    142.6722     24.4761
   620.1000      8.2797      2.4711      0.1577     10.8397    147.8439     24.7696
   620.2000      8.2797      2.4661      0.1943     11.1485    150.0584     24.8446
   620.3000      8.2858      2.4636      0.1053     11.2943    149.1342     24.7134
   620.4000      8.2858      2.4720      0.0503     10.7891    149.7441     24.6800
   620.5000      8.3007      2.4822      0.1218     10.1670    150.9492     24.8729
   620.6000      8.3007      2.4699      0.1196     10.9166    147.7499     25.4116
   620.7000      8.3007      2.4379      0.0073     12.8562    141.4299     26.1538
   620.8000      8.2703      2.4196      0.0036     13.9644    140.2648     26.5683
   620.9000      8.2703      2.4242      0.0856     13.6841    144.8039     26.5256
   621.0000      8.2431      2.4343      0.0582     13.0723    146.0013     26.3202
   621.1000      8.2431      2.4513      0.0338     12.0442    143.2257     26.1955
   621.2000      8.2431      2.4842      0.0914     10.0485    142.7361     26.0205
   621.3000      8.1798      2.5214      0.0894      7.7953    143.2233     25.6815
   621.4000      8.1798      2.5467      0.0796      6.2586    141.7496     25.6019
   621.5000      8.1558      2.5615      0.1098      5.3642    140.5500     25.9412
   621.6000      8.1558      2.5780      0.1721      4.3663    138.4457     26.1371
   621.7000      8.1558      2.5961      0.2028      3.2661    134.1853     25.9173
   621.8000      8.1471      2.6012      0.1574      2.9598    132.8056     25.5515
   621.9000      8.1471      2.5912      0.1117      3.5615    133.4915     25.3819
   622.0000      8.1299      2.5796      0.1092      4.2683    131.6357     25.5809
   622.1000      8.1299      2.5709      0.1446      4.7938    130.3247     25.9447
   622.2000      8.1299      2.5645      0.0906      5.1796    131.3356     26.3115
   622.3000      8.1333      2.5666      0.1137      5.0555    130.7992     26.5070
   622.4000      8.1333      2.5773      0.1168      4.4076    129.3030     26.1709
   622.5000      8.1302      2.5894      0.0845      3.6712    129.5098     25.3432
   622.6000      8.1302      2.5988      0.1475      3.1026    129.0816     24.5807
   622.7000      8.1302      2.6003      0.1159      3.0140    127.3332     24.3169
   622.8000      8.0966      2.5890      0.1171      3.6958    126.3770     24.6851
   622.9000      8.0966      2.5682      0.0453      4.9575    127.9746     25.7293
   623.0000      8.1065      2.5481      0.0319      6.1787    131.7055     27.0978
   623.1000      8.1065      2.5452      0.0003      6.3512    133.2337     28.1119
   623.2000      8.1065      2.5735      0.0859      4.6375    129.4994     28.5393
   623.3000      8.1131      2.6284      0.0644      1.3066    123.9084     28.7693
   623.4000      8.1131      2.6982      0.1047     -2.9192    120.4733     29.1452
   623.5000      8.1086      2.7687      0.1134     -7.1919    115.2787     29.5127
   623.6000      8.1086      2.8262      0.1467    -10.6814    104.1682     29.3454
   623.7000      8.1086      2.8586      0.1740    -12.6430     92.3662     28.5968
   623.8000      8.0917      2.8590      0.1163    -12.6672     84.7730     28.0871
   623.9000      8.0917      2.8239      0.1368    -10.5424     79.8543     28.0981
