~Version Information
VERS.                      2.0: CWLS Log ASCII Standard - VERSION 2.0
WRAP.                       NO: One line per depth step
~Well Information Block
STRT.FT                -5.0000: 
STOP.FT              1761.2500: 
STEP.FT                 0.2500: 
NULL.                -999.2500: 
COMP.          Pioneer Natural Resources: COMPANY
WELL.          Manville 42-14 Tr: WELL
FLD.           Purgatoire River: FIELD
LOC.           2018'FNL & 562' FEL: LOCATION
STAT.                 Colorado: State
CNTY.               Las Animas: COUNTY
CTRY. USA : Country
SECT. 14 : Section
TOWN. 32S : Township
RANG. 66W : Range
SRVC.                Patterson: SERVICE COMPANY
DATE.          Fri Sep 23 10:37:02 2005: LOG DATE
API. 05-071-08522             : UNIQUE WELL ID
~Curve Information Block
DEPT.FT            0 000 00 00: Depth
CCL.                          : Casing Collar Locator
TT3.usec                      : CBL 3' Travel Time
AMP3.mV                       : CBL 3' Amplitude
AMP5.mV                       : CBL 5' Amplitude
GR.GAPI                       : Gamma Ray
~Parameter Information Block
~A  Depth       CCL         TT3         AMP3        AMP5         GR     
    -5.0000   -999.2500   -999.2500   -999.2500   -999.2500     67.4958
    -4.7500   -999.2500   -999.2500   -999.2500   -999.2500     68.4452
    -4.5000   -999.2500   -999.2500   -999.2500   -999.2500     70.2882
    -4.2500   -999.2500   -999.2500   -999.2500   -999.2500     71.8426
    -4.0000   -999.2500   -999.2500   -999.2500   -999.2500     72.4886
    -3.7500   -999.2500   -999.2500   -999.2500   -999.2500     72.0258
    -3.5000   -999.2500   -999.2500   -999.2500   -999.2500     70.4529
    -3.2500   -999.2500   -999.2500   -999.2500     -0.3093     68.2843
    -3.0000   -999.2500   -999.2500   -999.2500     -0.2223     66.5743
    -2.7500   -999.2500   -999.2500   -999.2500     -0.3964     66.3795
    -2.5000   -999.2500   -999.2500   -999.2500     -0.2223     68.3373
    -2.2500   -999.2500   -999.2500   -999.2500     -0.2223     72.3834
    -2.0000   -999.2500   -999.2500   -999.2500     -0.1352     77.3010
    -1.7500   -999.2500   -999.2500   -999.2500      0.0389     80.8761
    -1.5000   -999.2500   -999.2500   -999.2500     -0.1352     81.2784
    -1.2500   -999.2500   -999.2500   -999.2500     -0.4834     78.4936
    -1.0000   -999.2500   -999.2500   -999.2500     -0.2223     74.2433
    -0.7500   -999.2500   -999.2500   -999.2500     -0.3093     70.5909
    -0.5000   -999.2500   -999.2500   -999.2500     -0.1352     68.6482
    -0.2500   -999.2500    801.0000     -0.7083     -0.1352     68.2011
     0.0000   -999.2500    801.0000     -0.7098     -0.2223     68.3152
     0.2500   -999.2500    801.0000     -0.7015     -0.2223     68.3015
     0.5000   -999.2500    801.0000     -0.6799     -0.3093     67.7838
     0.7500   -999.2500    801.0000     -0.6580     -0.2223     65.5620
     1.0000   -999.2500    801.0000     -0.6493     -0.1352     60.2940
     1.2500   -999.2500    801.0000     -0.6567      0.0389     51.8911
     1.5000   -999.2500    801.0000     -0.6694     -0.1352     41.9339
     1.7500   -999.2500    801.0000     -0.6717     -0.3093     32.9077
     2.0000   -999.2500    801.0000     -0.6574     -0.3964     26.9698
     2.2500   -999.2500    801.0000     -0.6339     -0.3964     25.0938
     2.5000   -999.2500    801.0000     -0.6140     -0.1352     26.9652
     2.7500   -999.2500    801.0000     -0.6045     -0.1352     31.3371
     3.0000   -999.2500    801.0000     -0.6038     -0.1352     36.5598
     3.2500   -999.2500    801.0000     -0.6078     -0.2223     41.2676
     3.5000   -999.2500    801.0000     -0.6146     -0.3964     44.9379
     3.7500   -999.2500    801.0000     -0.6238     -0.4834     47.9011
     4.0000   -999.2500    801.0000     -0.6347     -0.0482     50.8459
     4.2500   -999.2500    801.0000     -0.6457     -0.2223     54.2353
     4.5000   -999.2500    801.0000     -0.6558     -0.3964     57.8935
     4.7500   -999.2500    801.0000     -0.6652     -0.7446     61.0157
     5.0000      0.0000    801.0000     -0.6755     -0.3964     62.7936
     5.2500      0.0000    801.0000     -0.6886     -0.3964     63.1538
     5.5000      0.0000    801.0000     -0.7024     -0.3964     62.6195
     5.7500      0.0000    801.0000     -0.7091      0.0389     61.3953
     6.0000      0.0000    801.0000     -0.7023     -0.0482     59.1712
     6.2500      0.0000    800.9666     -0.6849     -0.3093     56.1418
     6.5000      0.0000    800.7462     -0.6605     -0.2223     53.5806
     6.7500      0.0000    799.6230     -0.6014     -0.3964     52.8634
     7.0000      0.0000    795.1614     -0.3534     -0.1352     54.1588
     7.2500      0.0000    781.3416      0.5530     -0.4834     56.4026
     7.5000      0.0000    747.9526      3.1303      0.2130     58.4586
     7.7500      0.0000    685.0048      8.8689      0.3000     60.2026
     8.0000      0.0000    592.3535     18.9319     -0.3964     62.5114
     8.2500      0.0000    485.8183     32.8420     -0.1352     66.0871
     8.5000      0.0000    390.0458     47.9862      0.1259     70.2066
     8.7500      0.0000    322.6689     60.9631      1.0834     72.9313
     9.0000      0.0000    285.5307     69.7206    113.0255     72.8041
     9.2500      0.0000    269.4681     74.3934    114.3312     70.1477
     9.5000      0.0000    264.0073     76.3878    113.9831     66.5909
     9.7500      0.0000    262.5476     77.0900    113.8960     63.6622
    10.0000      0.0000    262.2460     77.3146    113.8960     62.0140
    10.2500      0.0000    262.2065     77.4095    115.2888     61.5328
    10.5000      0.0000    262.2180     77.4961    114.8535     61.6382
    10.7500      0.0000    262.2318     77.6002    114.8535     61.5129
    11.0000      0.0000    262.2430     77.7027    114.4183     60.4601
    11.2500      0.0000    262.2506     77.7709    114.9406     58.4261
    11.5000      0.0000    262.2554     77.7879    114.7665     56.1807
    11.7500      0.0000    262.2586     77.7611    115.4629     54.7293
    12.0000      0.0000    262.2607     77.7167    114.7665     54.4994
    12.2500      0.0000    262.2614     77.6894    115.4629     55.2668
    12.5000      0.0000    262.2611     77.7118    115.8981     56.7782
    12.7500      0.0000    262.2614     77.8056    116.5074     58.9846
    13.0000      0.0000    262.2644     77.9720    117.2038     61.5260
    13.2500      0.0000    262.2743     78.1665    116.5074     63.5357
    13.5000      0.0000    262.3041     78.2372    115.8110     64.5088
    13.7500      0.0000    262.3911     77.8214     93.4400     65.1249
    14.0000      0.0000    262.6187     76.2482     46.6959     66.5935
    14.2500      0.0000    263.1158     72.6662     59.2306     69.1399
    14.5000      0.0000    263.9892     66.6039     42.0824     71.6757
    14.7500      0.0000    265.2015     58.6574     48.7850     73.0443
    15.0000      0.0000    266.5187     50.4890     47.9146     73.0144
    15.2500      0.0000    267.6295     43.8723     47.6534     71.9133
    15.5000      0.0000    268.3425     39.6713     47.9146     69.9326
    15.7500      0.0000    268.6690     37.6757     49.6555     67.2887
    16.0000     -2.0000    268.7437     37.1377     49.6555     64.7950
    16.2500      0.0000    268.7056     37.3254     51.1353     63.8127
    16.5000      2.0000    268.6383     37.7824     50.4389     65.4919
    16.7500     -2.0000    268.5710     38.3523     50.8742     69.9589
    17.0000      0.0000    268.4902     39.1380     52.6151     75.9910
    17.2500      0.0000    268.3255     40.5370     52.6151     81.2682
    17.5000      0.0000    267.9319     43.2519     53.3115     83.2708
    17.7500      0.0000    267.1494     47.9348     53.7467     80.7120
    18.0000      0.0000    265.9578     54.4842     54.0078     74.6896
    18.2500      0.0000    264.5732     61.7513     56.3581     68.2919
    18.5000      0.0000    263.3358     68.1776     60.0141     64.5872
    18.7500      0.0000    262.4787     72.7611     40.6897     64.8048
    19.0000      0.0000    262.0155     75.4174     77.7716     68.2876
    19.2500      0.0000    261.8177     76.6479     81.7758     73.7007
    19.5000      0.0000    261.7467     77.0596    106.7582     79.9573
    19.7500      0.0000    261.7191     77.1057    117.2038     86.2781
    20.0000      0.0000    261.7025     77.0450    116.1592     91.8492
    20.2500      0.0000    261.6897     76.9861    116.1592     95.7140
    20.5000      0.0000    261.6799     76.9489    116.4204     97.0716
    20.7500      0.0000    261.6738     76.9215    117.4649     95.5104
    21.0000      0.0000    261.6733     76.9096    116.8556     90.9761
    21.2500      0.0000    261.6809     76.9460    116.9426     83.9951
    21.5000      0.0000    261.6965     77.0543    116.8556     76.0148
    21.7500      0.0000    261.7159     77.2125    117.2908     68.8665
    22.0000      0.0000    261.7337     77.3625    116.8556     63.5490
    22.2500      0.0000    261.7466     77.4551    117.1167     59.8561
    22.5000      0.0000    261.7548     77.4815    117.3779     57.2515
    22.7500      0.0000    261.7611     77.4645    117.0297     55.5952
