~Version Information
VERS.                      2.0: CWLS Log ASCII Standard - VERSION 2.0
WRAP.                       NO: One line per depth step
~Well Information Block
STRT.FT                -8.2500: 
STOP.FT              1118.7500: 
STEP.FT                 0.2500: 
NULL.                -999.2500: 
COMP.          Pioneer Natural Resources: COMPANY
WELL.             Croc 42-9 Tr: WELL
FLD.           Purgatorie River: FIELD
LOC.           --2429' FNL & 315' FEL------: LOCATION
STAT.                       CO: State
CNTY.               Las Animas: COUNTY
CTRY. USA : Country
SECT. 9 : Section
TOWN. 32S : Township
RANG. 66W : Range
SRVC.          Patterson Wireline: SERVICE COMPANY
DATE.          Tue Oct 18 14:14:43 2005: LOG DATE
API.           05 071 08550 00: UNIQUE WELL ID
~Curve Information Block
DEPT.FT            0 000 00 00: Depth
CCL.                          : Casing Collar Locator
TT3.usec                      : CBL 3' Travel Time
AMP3.mV                       : CBL 3' Amplitude
GR.GAPI                       : Gamma Ray
~Parameter Information Block
~A  Depth       CCL         TT3         AMP3         GR     
# ...
   293.2500      0.0000    799.5147     14.0882     52.6652
   293.5000      0.0000    797.1356     14.0149     52.6839
   293.7500      0.0000    795.8900     13.9365     52.6517
   294.0000      0.0000    795.3662     13.8595     52.1355
   294.2500      0.0000    795.2454     13.7915     50.9714
   294.5000      0.0000    795.2209     13.7322     49.4683
   294.7500      0.0000    794.9341     13.6667     48.5647
   295.0000      0.0000    794.1857     13.5713     49.5294
   295.2500      0.0000    793.3455     13.4293     53.0106
   295.5000      0.0000    793.4137     13.2423     58.2254
   295.7500      0.0000    795.2411     13.0269     63.1732
   296.0000      0.0000    798.7097     12.8037     65.8120
   296.2500      0.0000    803.1437     12.5903     65.2785
   296.5000      0.0000    808.2938     12.3991     62.1997
   296.7500      0.0000    814.0033     12.2352     57.9257
   297.0000      0.0000    818.9420     12.0968     53.5439
   297.2500      0.0000    820.8054     11.9799     49.5502
   297.5000      0.0000    818.3493     11.8798     46.2133
   297.7500      0.0000    812.9914     11.7895     44.0730
   298.0000      0.0000    808.3259     11.7010     43.9790
   298.2500      0.0000    808.6553     11.6133     46.4233
   298.5000      0.0000    817.7307     11.5347     50.7734
   298.7500      0.0000    836.9256     11.4765     55.3494
   299.0000      0.0000    862.5563     11.4433     58.3999
   299.2500      0.0000    885.5372     11.4333     59.0436
   299.5000      0.0000    896.6928     11.4446     57.5400
   299.7500      0.0000    894.1055     11.4791     55.0335
   300.0000      0.0000    883.9163     11.5401     53.0215
   300.2500      0.0000    872.4279     11.6264     52.5957
   300.5000      0.0000    859.1025     11.7294     53.8566
   300.7500      0.0000    839.6398     11.8341     56.0746
   301.0000      0.0000    814.1210     11.9251     58.4503
   301.2500      0.0000    788.6940     11.9923     60.6087
   301.5000      0.0000    769.9396     12.0341     62.2852
   301.7500      0.0000    760.1329     12.0568     62.8143
   302.0000      0.0000    757.3434     12.0753     61.5166
   302.2500      0.0000    757.8657     12.1122     58.7382
   302.5000      0.0000    758.3118     12.1844     55.9277
   302.7500      0.0000    757.0250     12.2821     54.2862
   303.0000      0.0000    754.3958     12.3654     53.6256
   303.2500      0.0000    751.7924     12.3947     52.9015
   303.5000      0.0000    750.1947     12.3662     51.8605
   303.7500      0.0000    749.7767     12.3123     51.8910
   304.0000      0.0000    750.4014     12.2696     54.9955
   304.2500      0.0000    752.0283     12.2508     61.8943
   304.5000      0.0000    754.4891     12.2470     71.1617
   304.7500      0.0000    757.0959     12.2504     79.9640
   305.0000      0.0000    759.0080     12.2714     85.6214
   305.2500      0.0000    760.2596     12.3266     87.0721
   305.5000      0.0000    761.8718     12.4045     85.2784
   305.7500      0.0000    764.3522     12.4576     82.2171
   306.0000      0.0000    766.5825     12.4461     79.6130
   306.2500      0.0000    767.1116     12.3838     78.6053
   306.5000      0.0000    766.4129     12.3234     79.7715
   306.7500      0.0000    766.9199     12.3001     82.7597
   307.0000      0.0000    770.5207     12.3062     86.2837
   307.2500      0.0000    776.5226     12.3093     89.0369
   307.5000      0.0000    782.2465     12.2807     90.4607
   307.7500      0.0000    785.1967     12.2095     90.4452
   308.0000      0.0000    784.5567     12.1021     88.8475
   308.2500      0.0000    781.3684     11.9744     85.8500
   308.5000      0.0000    778.0728     11.8401     82.4380
   308.7500      0.0000    777.9913     11.6934     79.8949
   309.0000      0.0000    784.0161     11.4858     78.9371
   309.2500      0.0000    795.9160     11.1093     79.7454
   309.5000      0.0000    808.6151     10.4351     82.4323
   309.7500      0.0000    816.1110      9.4317     86.7332
   310.0000      0.0000    818.8914      8.2789     91.5053
   310.2500      0.0000    824.8366      7.3188     95.3470
   310.5000      0.0000    840.3579      6.8323     97.5156
   310.7500      0.0000    862.6474      6.8480     97.7315
   311.0000      0.0000    883.1472      7.1648     95.7614
   311.2500      0.0000    897.8630      7.5340     92.0672
   311.5000     -2.0000    912.3535      7.8112     88.3173
   311.7500      0.0000    935.4477      7.9800     86.1488
   312.0000      0.0000    967.6243      8.0936     85.3830
   312.2500      0.0000    996.6030      8.2318     84.1164
   312.5000      0.0000   1004.3590      8.5148     80.7306
   312.7500      0.0000    978.6619      9.1198     75.4062
   313.0000      0.0000    921.1072     10.2041     69.6442
   313.2500      0.0000    847.9604     11.7403     64.9123
   313.5000      0.0000    782.3346     13.4313     61.9836
   313.7500      0.0000    740.3538     14.8476     61.0212
   314.0000      0.0000    721.8786     15.6930     61.8061
   314.2500      0.0000    715.8924     15.9536     63.9095
   314.5000      0.0000    714.2442     15.8246     66.7958
   314.7500      0.0000    717.2361     15.5296     69.9209
   315.0000      0.0000    727.0856     15.2032     72.8682
   315.2500      0.0000    741.4067     14.8835     75.5063
   315.5000      0.0000    755.2894     14.5621     78.0695
   315.7500      0.0000    766.1614     14.2324     81.1303
   316.0000      0.0000    773.8530     13.9031     85.3811
   316.2500      0.0000    778.1022     13.5846     91.0138
   316.5000      0.0000    778.2402     13.2758     97.0998
   316.7500      0.0000    775.1479     12.9704    102.0352
   317.0000      0.0000    772.6103     12.6707    105.0295
   317.2500      0.0000    776.6349     12.3931    106.7294
   317.5000      0.0000    793.1545     12.1626    107.9446
   317.7500      0.0000    824.3387     12.0045    108.0474
   318.0000      0.0000    864.7354     11.9350    105.2726
   318.2500      0.0000    901.2291     11.9518     98.8534
   318.5000      0.0000    920.6920     12.0290     90.5031
   318.7500      0.0000    920.3446     12.1244     83.3700
   319.0000      0.0000    909.8184     12.1936     79.5539
   319.2500      0.0000    902.5917     12.2083     78.8570
   319.5000      0.0000    905.7548     12.1677     79.7696
   319.7500      0.0000    915.9929     12.0957     81.2352
   320.0000      0.0000    923.8083     12.0229     83.2779
   320.2500      0.0000    923.2796     11.9657     86.0334
   320.5000      0.0000    918.9026     11.9170     88.4575
   320.7500      0.0000    922.4880     11.8531     88.6178
   321.0000      0.0000    943.7787     11.7463     85.7293
   321.2500      0.0000    982.9560     11.5757     81.4151
   321.5000      0.0000   1028.3876     11.3347     78.3739
   321.7500      0.0000   1061.3407     11.0375     78.0533
   322.0000      0.0000   1066.9155     10.7236     80.0304
   322.2500      0.0000   1042.7388     10.4521     83.1122
   322.5000      0.0000    997.7928     10.2785     86.1821
   322.7500      0.0000    945.4965     10.2217     88.1533
   323.0000      0.0000    900.6158     10.2482     88.1096
   323.2500      0.0000    879.2808     10.2947     86.0118
   323.5000      0.0000    893.8391     10.3105     82.9509
   323.7500      0.0000    943.1600     10.2805     80.5033
   324.0000      0.0000   1009.6809     10.2201     80.0129
   324.2500      0.0000   1069.0059     10.1548     82.1949
   324.5000      0.0000   1104.1522     10.1002     86.5842
   324.7500      0.0000   1112.4210     10.0537     91.2676
   325.0000      0.0000   1101.3240     10.0050     93.9256
   325.2500      0.0000   1078.9897      9.9530     93.4986
   325.5000      0.0000   1047.4646      9.9090     90.6987
   325.7500      0.0000   1005.3280      9.8786     87.1580
   326.0000      0.0000    955.9200      9.8491     84.3085
   326.2500      0.0000    909.4522      9.8053     82.6170
   326.5000      0.0000    875.6266      9.7582     81.4996
