~Version Information
 VERS.                                  2.0 : CWLS LAS VERSION
 WRAP.                                   NO : WRAPING MODE
 SWARE .                 MController 2.5.0J : SOFTWARE VERSION
~Well Information
 WELL.YWAM 7-32R : WELL
 COMP.                Petrogulf Corporation : COMPANY
 FLD.                      Purgatoire River : FIELD
 LOC.                 SW/NE Sec 7 T33S R67W : LOCATION
 DATE.9/28/05 : DATE(S) LOGGED
 SRVC.       BLANCO Geological Services LLC : SERVICE COMPANY
 STAT.                                   CO : STATE
 CNTY.                           Las Animas : COUNTY
 CTRY.                                  USA : COUNTRY
 API.                       05-071-08518-00 : API NUMBER
 STRT.FT                               1.00 : START DEPTH
 STOP.FT                            2100.00 : STOP DEPTH
 STEP.FT                               1.00 : DEPTH INCREMENT
 NULL.                                -9999 : NULL VALUE
~Curve information
 DEPTH.FT                                   :
 ROP.MIN/FT                                 :
 GAS.UNITS                                  :
~ASCII Log data
# ...
      1201.0         0.30          5.9 
      1202.0         0.27          6.1 
      1203.0         0.37          5.4 
      1204.0         0.27          5.5 
      1205.0         0.37          5.2 
      1206.0         0.33          5.6 
      1207.0         0.38          5.5 
      1208.0         0.27          5.0 
      1209.0         0.33          5.5 
      1210.0         0.23          5.3 
      1211.0         0.27          5.4 
      1212.0         0.23          5.9 
      1213.0         0.27          7.0 
      1214.0         0.23          7.6 
      1215.0         0.13          7.9 
      1216.0         0.13          8.0 
      1217.0         0.13          8.1 
      1218.0         0.13          8.9 
      1219.0         0.23          8.7 
      1220.0         0.28          8.3 
      1221.0         0.27          8.3 
      1222.0         0.30         11.5 
      1223.0         0.27         14.7 
      1224.0         0.23         15.5 
      1225.0         0.30         15.0 
      1226.0         0.33         12.1 
      1227.0         0.33         10.7 
      1228.0         3.93         68.3 
      1229.0         0.43         26.8 
      1230.0         0.37         21.9 
      1231.0         0.30         20.2 
      1232.0         0.40         18.3 
      1233.0         0.27         17.1 
      1234.0         0.23         17.0 
      1235.0         0.32         17.2 
      1236.0         0.23         16.1 
      1237.0         0.23         16.4 
      1238.0         0.23         16.1 
      1239.0         0.33         16.2 
      1240.0         0.30         16.2 
      1241.0         0.30         16.2 
      1242.0         0.27         16.2 
      1243.0         0.27         16.2 
      1244.0         0.30         16.0 
      1245.0         0.27         16.1 
      1246.0         0.20         16.2 
      1247.0         0.23         16.6 
      1248.0         0.25         16.2 
      1249.0         0.27         16.8 
      1250.0         0.27         16.5 
      1251.0         0.30         16.0 
      1252.0         0.30         15.6 
      1253.0         0.50         15.3 
      1254.0         0.57         15.9 
      1255.0         0.47         15.8 
      1256.0         0.32         13.8 
      1257.0         0.43          9.0 
      1258.0         3.32        115.4 
      1259.0         0.67         32.5 
      1260.0         0.57         26.7 
      1261.0         0.43         22.3 
      1262.0         0.33         20.9 
      1263.0         0.32         21.0 
      1264.0         0.30         22.1 
      1265.0         0.23         23.6 
      1266.0         0.17         23.4 
      1267.0         0.27         23.2 
      1268.0         0.23         22.7 
      1269.0         0.20         21.9 
      1270.0         0.20         21.3 
      1271.0         0.20         20.7 
      1272.0         0.23         18.6 
      1273.0         0.27         16.8 
      1274.0         1.18         24.1 
      1275.0         0.30         25.9 
      1276.0         0.33         27.7 
      1277.0         0.43         27.7 
      1278.0         0.40         25.1 
      1279.0         0.43         20.8 
      1280.0         0.27         19.6 
      1281.0         0.28         19.4 
      1282.0         0.23         19.9 
      1283.0         0.23         20.4 
      1284.0         0.23         21.9 
      1285.0         0.23         22.5 
      1286.0         0.30         22.3 
      1287.0         0.23         17.8 
      1288.0         3.18        125.6 
      1289.0         0.30         36.6 
      1290.0         0.37         34.7 
      1291.0         0.45         31.0 
      1292.0         0.63         25.3 
      1293.0         1.03         25.3 
      1294.0         0.47         25.5 
      1295.0         0.30         24.9 
      1296.0         0.32         26.3 
      1297.0         0.20         26.3 
      1298.0         0.17         24.9 
      1299.0         0.17         25.0 
      1300.0         0.23         24.7 
      1301.0         0.30         23.0 
      1302.0         0.23         21.5 
      1303.0         0.40         20.6 
      1304.0         0.30         20.6 
      1305.0         0.30         20.8 
      1306.0         0.27         21.0 
      1307.0         0.32         21.2 
      1308.0         0.27         20.9 
      1309.0         0.33         20.9 
      1310.0         0.27         20.4 
      1311.0         0.37         20.3 
      1312.0         0.33         19.7 
      1313.0         0.30         19.2 
      1314.0         0.37         19.4 
      1315.0         0.27         18.8 
      1316.0         0.23         14.5 
      1317.0         0.28         12.0 
      1318.0         0.33         15.7 
      1319.0         0.47         19.6 
      1320.0         7.13       1337.6 
      1321.0         0.30         35.1 
      1322.0         0.37         33.5 
      1323.0         0.60         29.6 
      1324.0         0.52         23.7 
      1325.0         0.40         22.3 
      1326.0         0.33         23.2 
      1327.0         0.27         25.7 
      1328.0         0.33         26.9 
      1329.0         0.33         27.5 
      1330.0         0.33         26.8 
      1331.0         0.33         25.7 
      1332.0         0.37         24.6 
      1333.0         0.33         23.8 
      1334.0         0.32         23.0 
      1335.0         0.23         22.8 
      1336.0         0.27         22.7 
      1337.0         0.23         22.2 
      1338.0         0.33         21.6 
      1339.0         0.33         21.8 
      1340.0         0.37         21.9 
      1341.0         0.30         22.0 
      1342.0         0.17         22.3 
      1343.0         0.17         23.0 
      1344.0         0.17         23.7 
      1345.0         0.17         23.2 
      1346.0         0.17         23.7 
      1347.0         0.25         24.5 
      1348.0         0.17         24.7 
      1349.0         0.23         24.8 
      1350.0         5.05         59.7 
      1351.0         0.87         34.5 
      1352.0         0.72         28.4 
      1353.0         0.67         31.1 
      1354.0         0.47         32.3 
      1355.0         0.37         31.2 
      1356.0         0.57         29.7 
      1357.0         0.37         27.5 
      1358.0         0.30         25.8 
      1359.0         0.28         25.9 
      1360.0         0.23         26.1 
      1361.0         0.23         26.7 
      1362.0         0.23         26.7 
      1363.0         0.33         26.3 
      1364.0         0.30         25.5 
      1365.0         0.20         25.3 
      1366.0         0.20         26.6 
      1367.0         0.20         26.8 
      1368.0         0.43         27.9 
      1369.0         0.23         27.7 
      1370.0         0.30         27.4 
      1371.0         0.28         26.8 
      1372.0         0.47         26.8 
      1373.0         0.57         26.8 
      1374.0         0.50         27.5 
      1375.0         0.30         28.2 
      1376.0         0.33         28.8 
      1377.0         0.47         27.2 
      1378.0         0.37         14.5 
      1379.0         0.38         20.0 
      1380.0         2.67         60.7 
      1381.0         0.62         43.6 
      1382.0         0.67         40.4 
      1383.0         1.07         30.9 
      1384.0         0.67         26.1 
      1385.0         0.47         26.6 
      1386.0         0.42         27.8 
      1387.0         0.40         29.1 
      1388.0         0.37         29.1 
      1389.0         0.73         29.1 
      1390.0         0.83         26.5 
      1391.0         0.45         22.2 
      1392.0         0.83         24.7 
      1393.0         0.53         24.6 
      1394.0         0.43         24.7 
      1395.0         0.43         25.4 
      1396.0         0.43         25.4 
      1397.0         0.43         26.7 
      1398.0         0.35         27.7 
      1399.0         0.23         27.8 
      1400.0         0.30         27.4 
