~Version Information
VERS.                      2.0: CWLS Log ASCII Standard - VERSION 2.0
WRAP.                       NO: One line per depth step
~Well Information Block
STRT.FT                -8.5000: 
STOP.FT              2823.2500: 
STEP.FT                 0.2500: 
NULL.                -999.2500: 
COMP.          Pioneer Natural Resources: COMPANY
WELL.                AMX 13-13: WELL
FLD.           Purgatorie River: FIELD
LOC.           2316' FSL & 865' FWL--: LOCATION
PROV.                       CO: PROVINCE
CNTY.               Las Animas: COUNTRY
SRVC.          Patterson Wireline: SERVICE COMPANY
DATE.          Tue Dec 27 10:40:58 2005: LOG DATE
UWI.           05 071 08630 00: UNIQUE WELL ID
~Curve Information Block
DEPT.FT            0 000 00 00: Depth
CCL.                          : Casing Collar Locator
TT3.usec                      : CBL 3' Travel Time
AMP3.mV                       : CBL 3' Amplitude
GR.GAPI                       : Gamma Ray
~Parameter Information Block
~A  Depth       CCL         TT3         AMP3         GR     
# ...
  1666.5000      0.0000    616.5549      7.3383     94.4900
  1666.7500      0.0000    613.3721      7.3758    107.9913
  1667.0000      0.0000    612.6784      7.4085    122.6323
  1667.2500      0.0000    609.7842      7.4403    133.3150
  1667.5000      0.0000    605.7993      7.4798    136.7131
  1667.7500      0.0000    603.5067      7.5247    133.3783
  1668.0000      0.0000    601.5444      7.5602    126.9481
  1668.2500      0.0000    596.6548      7.5700    121.5287
  1668.5000      0.0000    589.1697      7.5494    119.6149
  1668.7500      0.0000    582.8002      7.5076    121.8499
  1669.0000      0.0000    580.1696      7.4599    127.8937
  1669.2500      0.0000    580.7187      7.4151    136.9180
  1669.5000      0.0000    582.2521      7.3676    147.4313
  1669.7500      0.0000    582.9694      7.3031    157.2457
  1670.0000      0.0000    581.8580      7.2125    164.0003
  1670.2500      0.0000    578.1623      7.1015    165.9773
  1670.5000      0.0000    571.1743      6.9902    162.8444
  1670.7500      0.0000    560.5020      6.9028    155.7085
  1671.0000      0.0000    545.9778      6.8556    146.2552
  1671.2500      0.0000    527.3027      6.8501    136.0594
  1671.5000      0.0000    504.7725      6.8766    126.9225
  1671.7500      0.0000    480.8490      6.9215    121.2154
  1672.0000      0.0000    459.9419      6.9737    121.0606
  1672.2500      0.0000    445.6330      7.0265    126.8222
  1672.5000      0.0000    438.4656      7.0765    136.2656
  1672.7500      0.0000    436.6079      7.1209    145.4970
  1673.0000      0.0000    437.9587      7.1559    151.5054
  1673.2500      0.0000    441.4446      7.1776    154.0106
  1673.5000      0.0000    447.1839      7.1837    154.6212
  1673.7500      0.0000    456.0146      7.1743    154.6349
  1674.0000      0.0000    468.5144      7.1528    154.0573
  1674.2500      0.0000    483.9276      7.1230    152.0825
  1674.5000      0.0000    500.5443      7.0866    148.0909
  1674.7500      0.0000    517.9103      7.0434    142.7375
  1675.0000      0.0000    537.8884      6.9947    138.0750
  1675.2500      0.0000    561.9152      6.9453    135.8132
  1675.5000      0.0000    587.4066      6.9008    135.3713
  1675.7500      0.0000    608.7964      6.8669    134.1784
  1676.0000      0.0000    622.7666      6.8567    129.9056
  1676.2500      0.0000    631.3823      6.8960    122.1498
  1676.5000      0.0000    639.6721      7.0121    112.1137
  1676.7500      0.0000    650.9395      7.2092    101.3124
  1677.0000      0.0000    664.9125      7.4545     91.1326
  1677.2500      0.0000    678.9564      7.6876     83.2519
  1677.5000      0.0000    689.4406      7.8491     79.2960
  1677.7500      0.0000    693.4556      7.9058     79.4550
  1678.0000      0.0000    691.9314      7.8653     81.7083
  1678.2500      0.0000    689.9398      7.7702     82.7579
  1678.5000      0.0000    690.9170      7.6740     80.1195
  1678.7500      0.0000    691.6815      7.6104     73.7588
  1679.0000      0.0000    686.5759      7.5860     65.7218
  1679.2500      0.0000    675.8448      7.5977     58.1063
  1679.5000      0.0000    666.2405      7.6485     51.8313
  1679.7500      0.0000    662.7901      7.7388     47.3940
  1680.0000      0.0000    663.4708      7.8498     45.8048
  1680.2500      0.0000    663.8558      7.9425     47.9869
  1680.5000      0.0000    664.0883      7.9770     53.7265
  1680.7500      0.0000    667.8074      7.9295     61.8505
  1681.0000      0.0000    675.1485      7.7951     71.1535
  1681.2500      0.0000    680.7371      7.5784     80.7050
  1681.5000      0.0000    680.0951      7.2906     89.5033
  1681.7500      0.0000    675.7759      6.9632     96.4001
  1682.0000      0.0000    675.2362      6.6541    100.6777
  1682.2500      0.0000    683.3686      6.4280    102.7224
  1682.5000      0.0000    698.1229      6.3250    103.9033
  1682.7500      0.0000    713.2216      6.3444    105.4526
  1683.0000      0.0000    723.9650      6.4428    107.3395
  1683.2500      2.0000    729.8738      6.5525    108.2748
  1683.5000     -2.0000    732.7429      6.6187    106.8530
  1683.7500      0.0000    733.5265      6.6300    102.9063
  1684.0000      0.0000    731.4919      6.6183     97.9091
  1684.2500      0.0000    725.8652      6.6390     93.8967
  1684.5000      0.0000    717.9802      6.7474     91.9160
  1684.7500      0.0000    711.3549      6.9699     91.5668
  1685.0000      0.0000    708.8209      7.2801     91.8967
  1685.2500      0.0000    709.6063      7.6099     92.5770
  1685.5000      0.0000    710.1609      7.8923     94.2271
  1685.7500      0.0000    707.5074      8.0954     97.7222
  1686.0000      0.0000    700.6530      8.2255    103.3575
  1686.2500      0.0000    689.2070      8.3077    110.7932
  1686.5000      0.0000    671.8616      8.3645    119.6508
  1686.7500      0.0000    647.1077      8.4041    129.8768
  1687.0000      0.0000    616.2927      8.4236    141.3739
  1687.2500      0.0000    585.6240      8.4197    153.3143
  1687.5000      0.0000    562.7995      8.3980    163.9698
  1687.7500      0.0000    550.1437      8.3719    171.3429
  1688.0000      0.0000    541.6839      8.3578    173.9393
  1688.2500      0.0000    527.6917      8.3701    171.2042
  1688.5000      0.0000    502.4908      8.4142    163.8505
  1688.7500      0.0000    469.0892      8.4795    153.8457
  1689.0000      0.0000    437.4056      8.5410    143.5074
  1689.2500      0.0000    418.5914      8.5732    134.3907
  1689.5000      0.0000    420.5895      8.5677    127.2087
  1689.7500      0.0000    446.3331      8.5383    122.4499
  1690.0000      0.0000    492.4534      8.5121    120.2723
  1690.2500      0.0000    548.9942      8.5135    119.9456
  1690.5000      0.0000    603.0378      8.5531    120.2222
  1690.7500      0.0000    644.8101      8.6280    120.3771
  1691.0000      0.0000    671.2053      8.7285    120.5618
  1691.2500      0.0000    684.9034      8.8428    121.3851
  1691.5000      0.0000    691.2232      8.9573    123.2430
  1691.7500      0.0000    695.0272      9.0546    125.5566
  1692.0000      0.0000    698.7309      9.1154    126.7177
  1692.2500      0.0000    701.9226      9.1260    125.5080
  1692.5000      0.0000    702.6815      9.0902    122.8143
  1692.7500      0.0000    699.7997      9.0315    121.3747
  1693.0000      0.0000    694.3536      8.9776    123.3101
  1693.2500      0.0000    689.6246      8.9370    128.0374
  1693.5000      0.0000    689.2750      8.8925    133.0709
  1693.7500      0.0000    694.8409      8.8188    136.9868
  1694.0000      0.0000    704.2419      8.7055    141.1475
  1694.2500      0.0000    712.8788      8.5643    148.0443
  1694.5000      0.0000    716.9750      8.4171    158.0038
  1694.7500      0.0000    716.0563      8.2789    167.9167
  1695.0000      0.0000    712.1788      8.1487    173.3599
  1695.2500      0.0000    707.6279      8.0160    171.9819
  1695.5000      0.0000    703.9845      7.8739    165.1141
  1695.7500      0.0000    702.5720      7.7234    156.7236
  1696.0000      0.0000    704.7107      7.5677    150.8114
  1696.2500      0.0000    711.5415      7.4144    148.7369
  1696.5000      0.0000    723.6619      7.2802    148.4041
  1696.7500      0.0000    740.1544      7.1851    146.5909
  1697.0000      0.0000    757.5464      7.1346    142.3476
  1697.2500      0.0000    770.4191      7.1155    137.6897
  1697.5000      0.0000    773.8501      7.1121    135.2540
  1697.7500      0.0000    766.0836      7.1244    136.1529
  1698.0000      0.0000    750.1823      7.1645    139.6419
  1698.2500      0.0000    733.5472      7.2397    143.6857
  1698.5000      0.0000    723.8429      7.3395    145.9798
  1698.7500      0.0000    723.0643      7.4399    145.2998
  1699.0000      0.0000    725.6666      7.5225    142.1021
  1699.2500      0.0000    723.7113      7.5894    137.6650
  1699.5000      0.0000    713.7405      7.6554    132.4483
  1699.7500      0.0000    698.3383      7.7211    125.2455
