~Version Information
VERS.                      2.0: CWLS Log ASCII Standard - VERSION 2.0
WRAP.                       NO: One line per depth step
~Well Information Block
STRT.FT               650.0000: 
STOP.FT              2127.7000: 
STEP.FT                 0.1000: 
NULL.                -999.2500: 
COMP.          Pioneer Natural Resources: COMPANY
WELL.          Kennington 41-26: WELL
FLD.           Purgatoire River: FIELD
LOC.           940' FNL & 1008' FEL--: LOCATION
CNTY.               Las Animas: COUNTY
SRVC.                Patterson: SERVICE COMPANY
DATE.          Wed Mar 29 11:30:50 2006: LOG DATE
UWI.           05 071 08679 00: UNIQUE WELL ID
STAT.                 Colorado: STATE
~Curve Information Block
DEPT.FT            0 000 00 00: Depth
DCAL.in                       : CDL Caliper
RHOB.g/cc                     : CDL Bulk Density
RHOC.g/cc                     : CDL Density Correction
DPOR.pu                       : CDL Density Porosity
NPOR.pu                       : Neutron Porosity
GR.GAPI                       : Gamma Ray
~Parameter Information Block
~A  Depth       DCAL        RHOB        RHOC        DPOR        NPOR         GR     
# ...
  1322.0000      7.9991      2.5639      0.1167      5.2193     25.2187    125.7040
  1322.1000      7.9991      2.5707      0.1055      4.8067     26.0417    131.0417
  1322.2000      7.9991      2.5797      0.1093      4.2612     29.5879    127.6229
  1322.3000      8.0017      2.5863      0.1289      3.8630     31.8249    119.3502
  1322.4000      8.0017      2.5844      0.1321      3.9751     30.6650    116.4405
  1322.5000      8.0077      2.5820      0.0711      4.1227     27.8677    118.7411
  1322.6000      8.0077      2.5891      0.0806      3.6928     25.8834    119.1084
  1322.7000      8.0077      2.5954      0.0542      3.3080     25.1689    117.1891
  1322.8000      8.0157      2.5873      0.0727      3.7985     25.4839    114.6306
  1322.9000      8.0157      2.5654      0.0582      5.1244     26.0888    111.9001
  1323.0000      8.0206      2.5409      0.0126      6.6102     25.5293    109.8254
  1323.1000      8.0206      2.5252      0.0337      7.5618     24.3313    110.6583
  1323.2000      8.0206      2.5187      0.0558      7.9583     25.0378    116.1794
  1323.3000      8.0214      2.5167      0.0571      8.0769     27.6269    123.5425
  1323.4000      8.0214      2.5206      0.0178      7.8416     29.3192    126.6658
  1323.5000      8.0209      2.5261      0.0654      7.5070     28.6999    121.8979
  1323.6000      8.0209      2.5226      0.0425      7.7236     26.4487    113.3976
  1323.7000      8.0209      2.5146      0.0325      8.2038     24.5132    110.6800
  1323.8000      8.0148      2.5193      0.0126      7.9219     24.2544    114.4358
  1323.9000      8.0148      2.5453      0.0092      6.3425     24.9348    116.6787
  1324.0000      7.9997      2.5823      0.0752      4.1020     25.2869    114.7384
  1324.1000      7.9997      2.6122      0.1117      2.2913     24.6418    110.8734
  1324.2000      7.9997      2.6314      0.0984      1.1253     23.2340    108.1336
  1324.3000      7.9854      2.6434      0.1173      0.3988     22.2569    106.7188
  1324.4000      7.9854      2.6437      0.0754      0.3791     22.1623    103.6050
  1324.5000      7.9812      2.6299      0.0398      1.2172     21.6648     99.0512
  1324.6000      7.9812      2.6027      0.0694      2.8654     20.5497     96.6052
  1324.7000      7.9812      2.5721      0.0372      4.7220     19.9094     95.8877
  1324.8000      7.9868      2.5589      0.0362      5.5223     19.8415     95.1656
  1324.9000      7.9868      2.5655      0.0258      5.1212     20.0552     95.6487
  1325.0000      8.0017      2.5724      0.0222      4.7041     20.2818     96.6997
  1325.1000      8.0017      2.5652      0.0477      5.1372     20.7066     97.2389
  1325.2000      8.0017      2.5501     -0.0060      6.0568     21.8537     99.4265
  1325.3000      8.0224      2.5454     -0.0352      6.3401     23.3055    103.8793
  1325.4000      8.0224      2.5565     -0.0073      5.6643     23.7878    107.2073
  1325.5000      8.0383      2.5714      0.0175      4.7610     22.9606    105.5437
  1325.6000      8.0383      2.5848      0.0112      3.9488     21.7221     98.1600
  1325.7000      8.0383      2.6023      0.0435      2.8916     21.3313     90.2503
  1325.8000      8.0445      2.6208      0.0513      1.7672     22.2462     87.4541
  1325.9000      8.0445      2.6262      0.0790      1.4437     23.4583     87.7979
  1326.0000      8.0453      2.6202      0.0160      1.8049     23.8769     86.9287
  1326.1000      8.0453      2.6174      0.0687      1.9736     23.0526     85.3611
  1326.2000      8.0453      2.6154      0.0172      2.0946     21.8844     86.5073
  1326.3000      8.0461      2.6139      0.0214      2.1873     22.2282     93.5839
  1326.4000      8.0461      2.6155      0.0619      2.0934     24.0127    105.3650
  1326.5000      8.0436      2.6146      0.0536      2.1449     25.8421    114.8174
  1326.6000      8.0436      2.6115      0.0435      2.3340     26.7984    115.6458
  1326.7000      8.0436      2.6061      0.0241      2.6625     25.8088    109.2850
  1326.8000      8.0302      2.5909      0.0414      3.5810     22.4637    100.7572
  1326.9000      8.0302      2.5686     -0.0103      4.9313     19.2530     94.4682
  1327.0000      8.0126      2.5587     -0.0383      5.5318     18.9697     91.7748
  1327.1000      8.0126      2.5707     -0.0076      4.8047     20.7686     88.4656
  1327.2000      8.0126      2.5934      0.0153      3.4295     21.5419     83.3737
  1327.3000      8.0096      2.6253     -0.0071      1.4958     19.5319     79.8360
  1327.4000      8.0096      2.6716      0.0643     -1.3097     16.8586     78.0663
  1327.5000      8.0199      2.7175      0.0848     -4.0891     17.0739     77.1095
  1327.6000      8.0199      2.7568      0.0731     -6.4715     20.0962     76.2716
  1327.7000      8.0199      2.8096      0.0554     -9.6710     22.3751     73.4655
  1327.8000      8.0263      2.8750      0.1485    -13.6355     22.1744     66.8843
  1327.9000      8.0263      2.9116      0.1037    -15.8525     21.2985     59.2516
  1328.0000      8.0128      2.8952      0.1096    -14.8636     21.9866     54.1795
  1328.1000      8.0128      2.8523      0.0651    -12.2630     24.7995     51.0266
  1328.2000      8.0128      2.8132      0.0712     -9.8910     28.6553     49.3720
  1328.3000      7.9860      2.7778      0.0214     -7.7453     31.5530     49.8658
  1328.4000      7.9860      2.7442     -0.0259     -5.7118     32.2840     52.7259
  1328.5000      7.9748      2.7096      0.0283     -3.6134     31.4336     57.1605
  1328.6000      7.9748      2.6534     -0.0557     -0.2033     30.4775     62.0965
  1328.7000      7.9748      2.5789     -0.1246      4.3065     30.3464     68.3157
  1328.8000      7.9867      2.5280     -0.1560      7.3914     30.8027     75.7095
  1328.9000      7.9867      2.5244     -0.0849      7.6106     31.0867     82.8808
  1329.0000      8.0043      2.5444      0.0219      6.4025     30.4707     91.8901
  1329.1000      8.0043      2.5645      0.0517      5.1816     28.4415    104.3555
  1329.2000      8.0043      2.5886      0.0741      3.7208     26.1247    113.5261
  1329.3000      8.0250      2.6123      0.0826      2.2840     25.3326    112.4091
  1329.4000      8.0250      2.6169      0.1160      2.0041     26.0374    105.9818
  1329.5000      8.0437      2.5973      0.0757      3.1945     27.0918    103.4832
  1329.6000      8.0437      2.5766      0.0244      4.4485     27.6137    105.1575
  1329.7000      8.0437      2.5730      0.0651      4.6637     27.6219    104.9489
  1329.8000      8.0522      2.5746      0.0565      4.5717     27.3084    101.1839
  1329.9000      8.0522      2.5726     -0.0280      4.6897     26.9634     99.0898
  1330.0000      8.0550      2.5739     -0.0280      4.6137     27.4101    101.8940
  1330.1000      8.0550      2.5768      0.0065      4.4366     28.2407    106.3521
  1330.2000      8.0550      2.5774      0.0192      4.4029     28.5917    108.3032
  1330.3000      8.0567      2.5795      0.0058      4.2729     28.6139    105.5363
  1330.4000      8.0567      2.5838      0.0645      4.0113     28.2995    101.9725
  1330.5000      8.0569      2.5882      0.0227      3.7440     27.8547    105.1350
  1330.6000      8.0569      2.6010      0.0632      2.9712     27.2268    114.7579
  1330.7000      8.0569      2.6225      0.0682      1.6639     25.8394    122.7457
  1330.8000      8.0562      2.6436      0.0791      0.3896     24.9743    123.5078
  1330.9000      8.0562      2.6592      0.0871     -0.5595     25.7640    118.3745
  1331.0000      8.0562      2.6621      0.0996     -0.7345     26.0324    112.9611
  1331.1000      8.0562      2.6516      0.0313     -0.0995     23.7842    113.1256
  1331.2000      8.0562      2.6429      0.0153      0.4332     21.0755    117.9120
  1331.3000      8.0551      2.6399      0.0437      0.6112     20.9525    119.2491
  1331.4000      8.0551      2.6323      0.0410      1.0726     24.0598    113.5520
  1331.5000      8.0520      2.6175     -0.0042      1.9675     28.5344    105.5831
