~Version Information
VERS.                      2.0: CWLS Log ASCII Standard - VERSION 2.0
WRAP.                       NO: One line per depth step
~Well Information Block
STRT.FT                -8.5000: 
STOP.FT              2030.0000: 
STEP.FT                 0.2500: 
NULL.                -999.2500: 
COMP.          Pioneer Natural Resources: COMPANY
WELL.           Alabaster 11-8: WELL
FLD.           Purgatorie River: FIELD
LOC.           1249' FNL & 215' FWL--: LOCATION
PROV.                       CO: PROVINCE
CNTY.               Las Animas: COUNTRY
SRVC.          Patterson Wireline: SERVICE COMPANY
DATE.          Mon Jan 30 11:59:01 2006: LOG DATE
UWI.           05 071 08642 00: UNIQUE WELL ID
~Curve Information Block
DEPT.FT            0 000 00 00: Depth
CCL.                          : Casing Collar Locator
TT3.usec                      : CBL 3' Travel Time
AMP3.mV                       : CBL 3' Amplitude
GR.GAPI                       : Gamma Ray
~Parameter Information Block
~A  Depth       CCL         TT3         AMP3         GR     
# ...
  1867.5000      0.0000    646.5334      2.7435     86.8873
  1867.7500      0.0000    648.3210      2.7949     83.8035
  1868.0000      0.0000    656.4408      2.8866     80.9002
  1868.2500      0.0000    667.5858      3.0594     78.4689
  1868.5000     -2.0000    677.4341      3.3116     76.8506
  1868.7500      0.0000    684.1285      3.5698     76.6441
  1869.0000      0.0000    688.3150      3.7412     78.2488
  1869.2500      0.0000    690.9465      3.7845     81.2283
  1869.5000      0.0000    692.3788      3.7315     84.6682
  1869.7500      0.0000    693.1508      3.6419     88.0791
  1870.0000      0.0000    693.6372      3.5333     91.3943
  1870.2500      0.0000    692.1643      3.3781     94.1647
  1870.5000      0.0000    684.7869      3.1933     95.3677
  1870.7500      0.0000    668.6484      3.0894     94.2050
  1871.0000      0.0000    646.0173      3.1786     90.7456
  1871.2500      0.0000    624.0648      3.4559     85.6842
  1871.5000      0.0000    608.2006      3.8040     79.8051
  1871.7500      0.0000    594.2827      4.1009     73.9266
  1872.0000      0.0000    570.0138      4.2980     69.1052
  1872.2500      0.0000    527.1951      4.4092     66.3258
  1872.5000      0.0000    471.7868      4.4604     65.6811
  1872.7500      0.0000    420.0200      4.4602     66.1574
  1873.0000      0.0000    386.2027      4.4088     66.5095
  1873.2500      0.0000    376.4229      4.3173     66.2232
  1873.5000      0.0000    391.4213      4.2091     65.6717
  1873.7500      0.0000    429.8286      4.1043     65.8248
  1874.0000      0.0000    486.0302      4.0106     67.8862
  1874.2500      0.0000    547.8401      3.9280     72.5437
  1874.5000      0.0000    600.7682      3.8554     79.1298
  1874.7500      0.0000    636.1717      3.7945     85.7439
  1875.0000      0.0000    654.5793      3.7475     90.4079
  1875.2500      0.0000    661.8993      3.7150     92.0337
  1875.5000      0.0000    663.9344      3.6960     90.3984
  1875.7500      0.0000    663.9318      3.6923     85.7294
  1876.0000      0.0000    662.9399      3.7079     78.7800
  1876.2500      0.0000    661.0148      3.7423     71.0593
  1876.5000      0.0000    658.3300      3.7873     64.3619
  1876.7500      0.0000    655.8275      3.8315     59.9097
  1877.0000      0.0000    654.8316      3.8668     58.0668
  1877.2500      0.0000    655.6466      3.8901     58.6391
  1877.5000      0.0000    656.3073      3.9045     61.0870
  1877.7500      0.0000    652.4042      3.9189     64.5481
  1878.0000      0.0000    637.9193      3.9465     67.9434
  1878.2500      0.0000    607.5892      3.9990     70.1947
  1878.5000      0.0000    561.1810      4.0805     70.6175
  1878.7500      0.0000    506.4727      4.1838     69.5342
  1879.0000      0.0000    456.3746      4.2895     68.5128
  1879.2500      0.0000    421.7177      4.3684     69.5021
  1879.5000      0.0000    407.0479      4.3923     73.3238
  1879.7500      0.0000    412.3676      4.3511     78.9562
  1880.0000      0.0000    435.7236      4.2612     84.4129
  1880.2500      0.0000    472.1765      4.1570     88.4320
  1880.5000      0.0000    512.1614      4.0695     91.3577
  1880.7500      0.0000    544.2307      4.0118     94.2847
  1881.0000      0.0000    560.6585      3.9792     97.3413
  1881.2500      0.0000    560.3022      3.9616     99.1005
  1881.5000      0.0000    547.4424      3.9560     97.9085
  1881.7500      0.0000    529.3478      3.9688     93.7229
  1882.0000      0.0000    513.4864      4.0044     88.5237
  1882.2500      0.0000    503.7530      4.0530     84.8769
  1882.5000      0.0000    497.7154      4.0937     84.0054
  1882.7500      0.0000    488.5154      4.1127     85.1244
  1883.0000      0.0000    471.0988      4.1169     86.4702
  1883.2500      0.0000    447.0018      4.1282     86.8463
  1883.5000      0.0000    423.1176      4.1639     86.3930
  1883.7500      0.0000    406.7399      4.2233     86.1727
  1884.0000      0.0000    402.3215      4.2924     87.0814
  1884.2500      0.0000    411.2276      4.3565     89.0355
  1884.5000      0.0000    431.7300      4.4076     91.0349
  1884.7500      0.0000    457.8418      4.4392     91.8093
  1885.0000      0.0000    479.2827      4.4412     90.3831
  1885.2500      0.0000    485.1940      4.4046     86.4426
  1885.5000      0.0000    470.5380      4.3315     80.6963
  1885.7500      0.0000    440.0860      4.2408     74.7952
  1886.0000      0.0000    405.4512      4.1644     70.3237
  1886.2500      0.0000    377.2109      4.1336     67.7503
  1886.5000      0.0000    359.3954      4.1634     66.6382
  1886.7500      0.0000    350.2420      4.2454     66.5926
  1887.0000      0.0000    346.1651      4.3566     67.4723
  1887.2500      0.0000    344.5096      4.4719     68.8792
  1887.5000      0.0000    344.0730      4.5711     70.0414
  1887.7500      0.0000    344.8051      4.6374     70.3142
  1888.0000      0.0000    347.7815      4.6587     69.6445
  1888.2500      0.0000    355.4297      4.6336     68.5882
  1888.5000      0.0000    371.0294      4.5747     67.9148
  1888.7500      0.0000    396.3372      4.5027     68.2223
  1889.0000      0.0000    428.2704      4.4352     69.9774
  1889.2500      0.0000    458.1436      4.3819     73.7721
  1889.5000      0.0000    475.7072      4.3485     80.0408
  1889.7500      0.0000    475.2328      4.3398     88.2385
  1890.0000      0.0000    458.7144      4.3565     96.4453
  1890.2500      0.0000    434.2246      4.3927    102.1581
  1890.5000      0.0000    411.1433      4.4373    103.9229
  1890.7500      0.0000    395.8700      4.4743    102.4778
  1891.0000      0.0000    391.1951      4.4796    100.2650
  1891.2500      0.0000    398.9154      4.4205     99.6114
  1891.5000      0.0000    421.4603      4.2671    101.2233
  1891.7500      0.0000    459.4420      4.0186    104.1004
  1892.0000      0.0000    507.7792      3.7230    106.3989
  1892.2500      0.0000    556.3334      3.4665    106.3905
  1892.5000      0.0000    595.9859      3.3302    103.2590
  1892.7500      0.0000    623.7043      3.3483     97.4076
  1893.0000      0.0000    641.5659      3.5024     89.7561
  1893.2500      0.0000    652.6716      3.7449     80.8939
  1893.5000      0.0000    659.0968      4.0212     71.5255
  1893.7500      0.0000    662.2751      4.2788     63.4564
  1894.0000      0.0000    663.5259      4.4710     59.0927
  1894.2500      0.0000    663.9430      4.5633     59.8324
  1894.5000      0.0000    664.2025      4.5432     65.3106
  1894.7500      0.0000    664.5721      4.4297     73.7886
  1895.0000      0.0000    664.9565      4.2697     82.8611
  1895.2500      0.0000    664.8669      4.1166     90.4031
  1895.5000      0.0000    663.2856      4.0060     95.5559
  1895.7500      0.0000    658.7412      3.9510     98.7699
  1896.0000      0.0000    650.1874      3.9514    100.8520
  1896.2500      0.0000    638.6861      3.9991    102.1525
  1896.5000      0.0000    628.2687      4.0722    102.5887
  1896.7500      0.0000    624.0153      4.1354    102.1547
  1897.0000      0.0000    628.2230      4.1548    101.2854
  1897.2500      0.0000    638.4517      4.1190    100.8056
  1897.5000      0.0000    649.6188      4.0479    101.4086
  1897.7500      0.0000    657.8187      3.9790    102.9450
  1898.0000      0.0000    662.1337      3.9424    104.1198
  1898.2500      0.0000    663.6957      3.9461    102.9696
  1898.5000      0.0000    663.9942      3.9822     98.0509
  1898.7500      0.0000    664.0055      4.0409     89.8136
  1899.0000      0.0000    664.1195      4.1151     81.1027
  1899.2500      0.0000    664.3329      4.1956     75.8956
  1899.5000      0.0000    664.4241      4.2671     76.8615
  1899.7500      0.0000    663.9894      4.3100     83.7583
  1900.0000      0.0000    662.2090      4.3112     94.1122
  1900.2500      0.0000    657.5438      4.2763    105.3401
  1900.5000      0.0000    648.0161      4.2353    116.2044
  1900.7500      0.0000    632.5313      4.2291    126.4333
