~Version Information
VERS.                      2.0: CWLS Log ASCII Standard - VERSION 2.0
WRAP.                       NO: One line per depth step
~Well Information Block
STRT.FT                -5.0000: 
STOP.FT              1761.2500: 
STEP.FT                 0.2500: 
NULL.                -999.2500: 
COMP.          Pioneer Natural Resources: COMPANY
WELL.          Manville 42-14 Tr: WELL
FLD.           Purgatoire River: FIELD
LOC.           2018'FNL & 562' FEL: LOCATION
STAT.                 Colorado: State
CNTY.               Las Animas: COUNTY
CTRY. USA : Country
SECT. 14 : Section
TOWN. 32S : Township
RANG. 66W : Range
SRVC.                Patterson: SERVICE COMPANY
DATE.          Fri Sep 23 10:37:02 2005: LOG DATE
API. 05-071-08522             : UNIQUE WELL ID
~Curve Information Block
DEPT.FT            0 000 00 00: Depth
CCL.                          : Casing Collar Locator
TT3.usec                      : CBL 3' Travel Time
AMP3.mV                       : CBL 3' Amplitude
AMP5.mV                       : CBL 5' Amplitude
GR.GAPI                       : Gamma Ray
~Parameter Information Block
~A  Depth       CCL         TT3         AMP3        AMP5         GR     
# ...
  1731.0000      0.0000    332.2307     15.1872      5.6969    151.5658
  1731.2500      0.0000    312.3626     15.9206      6.1321    153.8299
  1731.5000      0.0000    304.6093     16.5669      6.7415    156.1373
  1731.7500      0.0000    302.2174     17.1187      7.1767    157.3849
  1732.0000      0.0000    301.6924     17.6050      7.3508    156.9406
  1732.2500      0.0000    301.6918     18.0731      8.1342    154.8190
  1732.5000      0.0000    301.7599     18.5815      8.2213    151.3476
  1732.7500      0.0000    301.7009     19.1925      8.3953    147.2522
  1733.0000      0.0000    301.4398     19.9303      8.9176    143.9178
  1733.2500      0.0000    301.0259     20.7347      8.6565    142.7404
  1733.5000      0.0000    300.5904     21.4781      8.5694    143.7667
  1733.7500      0.0000    300.2528     22.0334      8.9176    145.1864
  1734.0000      0.0000    300.0641     22.3218      8.9176    144.4814
  1734.2500      0.0000    300.0209     22.3194      9.0047    140.2387
  1734.5000      0.0000    300.0970     22.0517      9.0047    133.2279
  1734.7500      0.0000    300.2589     21.5827      9.0047    126.1175
  1735.0000      0.0000    300.4688     20.9977      9.4399    121.9188
  1735.2500      0.0000    300.6869     20.3938      9.3529    121.9139
  1735.5000      0.0000    300.8758     19.8694      9.2658    124.6444
  1735.7500      0.0000    301.0111     19.4935      9.3529    127.0793
  1736.0000      0.0000    301.0891     19.2754      8.9176    127.0492
  1736.2500      0.0000    301.1203     19.1727      8.7435    124.6492
  1736.5000      0.0000    301.1134     19.1371      8.2213    121.4414
  1736.7500      0.0000    301.0647     19.1548      8.5694    118.6537
  1737.0000      0.0000    300.9653     19.2451      8.8306    116.5084
  1737.2500      0.0000    300.8181     19.4297      8.5694    115.2370
  1737.5000      0.0000    300.6436     19.7067      8.5694    116.1402
  1737.7500      0.0000    300.4710     20.0430      8.6565    121.0212
  1738.0000      0.0000    300.3300     20.3788      8.2213    130.3902
  1738.2500      0.0000    300.2418     20.6458      8.8306    142.4710
  1738.5000      0.0000    300.2058     20.8020      8.5694    154.4025
  1738.7500      0.0000    300.2019     20.8512      8.6565    164.5244
  1739.0000      0.0000    300.2175     20.8216      8.3953    173.0377
  1739.2500      0.0000    300.2661     20.7329      9.3529    180.2441
  1739.5000      0.0000    300.3640     20.6008      8.7435    185.1497
  1739.7500      0.0000    300.4926     20.4650      9.1788    186.6641
  1740.0000      0.0000    300.6009     20.3875      9.3529    185.2637
  1740.2500      0.0000    300.6473     20.4085      9.6140    182.3533
  1740.5000      0.0000    300.6326     20.5093      9.0047    178.5815
  1740.7500      0.0000    300.5896     20.6163      9.0917    173.6911
  1741.0000      0.0000    300.5521     20.6422      8.7435    167.6288
  1741.2500      0.0000    300.5353     20.5341      8.6565    161.2061
  1741.5000      0.0000    300.5340     20.3014      8.6565    155.8426
  1741.7500      0.0000    300.5342     20.0047      8.7435    152.7266
  1742.0000      0.0000    300.5305     19.7115      8.7435    151.7525
  1742.2500      0.0000    300.5355     19.4552      8.4824    151.1103
  1742.5000      0.0000    300.5674     19.2307      8.2213    148.5036
  1742.7500      0.0000    300.6295     19.0198      7.6119    143.2993
  1743.0000      0.0000    300.7052     18.8131      7.7860    137.3578
  1743.2500      0.0000    300.7699     18.6195      7.5249    133.3979
  1743.5000      0.0000    300.7994     18.4684      7.6990    132.4787
  1743.7500      0.0000    300.7743     18.3975      7.4378    133.1992
  1744.0000      0.0000    300.6905     18.4294      7.9601    133.2316
  1744.2500      0.0000    300.5644     18.5608      7.5249    131.2753
  1744.5000      0.0000    300.4212     18.7769      7.8731    127.6773
  1744.7500      0.0000    300.2793     19.0626      7.5249    123.8509
  1745.0000      0.0000    300.1526     19.3928      7.9601    121.3666
  1745.2500      0.0000    300.0584     19.7183      7.6990    121.0684
  1745.5000      0.0000    300.0144     19.9692      7.3508    122.4476
  1745.7500      0.0000    300.0276     20.0801      7.4378    123.8788
  1746.0000      0.0000    300.0908     20.0215      7.0896    123.9705
  1746.2500      0.0000    300.1839     19.8189      7.2637    122.8476
  1746.5000      0.0000    300.2801     19.5389      7.1767    121.8219
  1746.7500      0.0000    300.3548     19.2527      7.6119    121.5758
  1747.0000      0.0000    300.3938     19.0109      8.4824    120.5165
  1747.2500      0.0000    300.3939     18.8444      7.9601    114.8344
  1747.5000      0.0000    300.3577     18.7730      8.0472    100.8108
  1747.7500      0.0000    300.2926     18.7964      8.1342     78.2554
  1748.0000      0.0000    300.2184     18.8819      7.9601     51.9299
  1748.2500      0.0000    300.1682     18.9769      8.2213     28.7233
  1748.5000      0.0000    300.1696     19.0446      8.4824     13.0057
  1748.7500      0.0000    300.2262     19.0854      7.6990      4.7598
  1749.0000      0.0000    300.3194     19.1234      8.9176      1.3952
  1749.2500      0.0000    300.4251     19.1803      7.9601      0.3247
  1749.5000      0.0000    300.5214     19.2635      8.4824      0.0593
  1749.7500      0.0000    300.5858     19.3766      8.3953      0.0074
  1750.0000      0.0000    300.5951     19.5393      8.2213      0.0000
  1750.2500      0.0000    300.5333     19.7911      8.6565   -999.2500
  1750.5000      0.0000    300.4044     20.1607      8.3953   -999.2500
  1750.7500      0.0000    300.2373     20.6223      8.9176   -999.2500
  1751.0000      0.0000    300.0731     21.0970      9.0917   -999.2500
  1751.2500      0.0000    299.9205     21.5018      9.0047   -999.2500
  1751.5000      0.0000    299.6952     21.7882      9.0047   -999.2500
  1751.7500      0.0000    298.9679     21.9158      9.3529   -999.2500
  1752.0000      0.0000    296.3019     21.7747      9.1788   -999.2500
  1752.2500      0.0000    288.1899     21.0884   -999.2500   -999.2500
  1752.5000      0.0000    268.7719     19.3857   -999.2500   -999.2500
  1752.7500      0.0000    232.5077     16.2159   -999.2500   -999.2500
  1753.0000      0.0000    179.7471     11.6211   -999.2500   -999.2500
  1753.2500      0.0000    119.9622      6.4227   -999.2500   -999.2500
  1753.5000      0.0000     67.2025      1.8378   -999.2500   -999.2500
  1753.7500      0.0000     30.9415     -1.3126   -999.2500   -999.2500
  1754.0000      0.0000     11.5325     -2.9986   -999.2500   -999.2500
  1754.2500      0.0000      3.4417     -3.7012   -999.2500   -999.2500
  1754.5000      0.0000      0.8150     -3.9293   -999.2500   -999.2500
  1754.7500      0.0000      0.1508     -3.9869   -999.2500   -999.2500
  1755.0000      0.0000      0.0201     -3.9983   -999.2500   -999.2500
  1755.2500      0.0000   -999.2500   -999.2500   -999.2500   -999.2500
  1755.5000      0.0000   -999.2500   -999.2500   -999.2500   -999.2500
  1755.7500      0.0000   -999.2500   -999.2500   -999.2500   -999.2500
  1756.0000      0.0000   -999.2500   -999.2500   -999.2500   -999.2500
  1756.2500      0.0000   -999.2500   -999.2500   -999.2500   -999.2500
  1756.5000      0.0000   -999.2500   -999.2500   -999.2500   -999.2500
  1756.7500      0.0000   -999.2500   -999.2500   -999.2500   -999.2500
  1757.0000      0.0000   -999.2500   -999.2500   -999.2500   -999.2500
  1757.2500      0.0000   -999.2500   -999.2500   -999.2500   -999.2500
  1757.5000      0.0000   -999.2500   -999.2500   -999.2500   -999.2500
  1757.7500      0.0000   -999.2500   -999.2500   -999.2500   -999.2500
  1758.0000      0.0000   -999.2500   -999.2500   -999.2500   -999.2500
  1758.2500      0.0000   -999.2500   -999.2500   -999.2500   -999.2500
  1758.5000      0.0000   -999.2500   -999.2500   -999.2500   -999.2500
  1758.7500      0.0000   -999.2500   -999.2500   -999.2500   -999.2500
