~Version Information
VERS.                      2.0: CWLS Log ASCII Standard - VERSION 2.0
WRAP.                       NO: One line per depth step
~Well Information Block
STRT.FT               240.0000: 
STOP.FT               940.5000: 
STEP.FT                 0.1000: 
NULL.                -999.2500: 
COMP.          Pioneer Natural Resources: COMPANY
WELL.               Ernie 31-6: WELL
FLD.           Purgatoire River: FIELD
LOC.           681' FNL & 2138' FEL: LOCATION
CNTY.               Las Animas: COUNTY
SRVC.                Patterson: SERVICE COMPANY
DATE.          Tue May 30 07:05:10 2006: LOG DATE
UWI.           05 071 08716 00: UNIQUE WELL ID
STAT.                 Colorado: STATE
~Curve Information Block
DEPT.FT            0 000 00 00: Depth
DCAL.in                       : CDL Caliper
RHOB.g/cc                     : CDL Bulk Density
RHOC.g/cc                     : CDL Density Correction
DPOR.pu                       : CDL Density Porosity
GR.GAPI                       : Gamma Ray
NPOR.pu                       : Neutron Porosity
~Parameter Information Block
~A  Depth       DCAL        RHOB        RHOC        DPOR         GR         NPOR    
# ...
   652.8000      8.0811      2.3823      0.0909     16.2261    109.4788     21.1148
   652.9000      8.0811      2.3932      0.0788     15.5628    103.5565     20.7499
   653.0000      8.1108      2.4268      0.0963     13.5264    106.4801     20.3167
   653.1000      8.1108      2.4726      0.1238     10.7540    116.1951     20.1586
   653.2000      8.1108      2.5011      0.1734      9.0265    125.5683     20.5474
   653.3000      8.1147      2.4947      0.1531      9.4139    130.5177     20.8959
   653.4000      8.1147      2.4669      0.1373     11.0970    130.1967     20.8062
   653.5000      8.1012      2.4437      0.1332     12.5058    128.6832     20.2478
   653.6000      8.1012      2.4353      0.1099     13.0137    129.8980     19.1971
   653.7000      8.1012      2.4255      0.1079     13.6053    132.8256     18.1005
   653.8000      8.1187      2.3932      0.0924     15.5636    136.3264     17.6347
   653.9000      8.1187      2.3428      0.0557     18.6156    139.6569     17.5713
   654.0000      8.1182      2.2934      0.0535     21.6143    142.1001     17.0145
   654.1000      8.1182      2.2482      0.0404     24.3509    143.2380     15.8066
   654.2000      8.1182      2.1976     -0.0001     27.4209    141.5023     14.4110
   654.3000      8.1234      2.1313      0.0530     31.4346    132.9565     13.1721
   654.4000      8.1234      2.0458      0.0264     36.6208    119.2334     12.3140
   654.5000      8.1673      1.9434      0.0438     42.8249    108.4333     11.8207
   654.6000      8.1673      1.8305     -0.0152     49.6669    100.9024     11.3490
   654.7000      8.1673      1.7253     -0.0270     56.0397     90.9329     10.9731
   654.8000      8.2083      1.6347      0.0585     61.5357     77.7113     10.9209
   654.9000      8.2083      1.5418      0.0875     67.1654     64.1121     11.0304
   655.0000      8.2281      1.4479     -0.0041     72.8529     54.1006     11.2769
   655.1000      8.2281      1.3762     -0.0144     77.1996     50.1005     11.6902
   655.2000      8.2281      1.3404     -0.0342     79.3702     49.2574     12.0195
   655.3000      8.2371      1.3402      0.0034     79.3815     47.3798     12.2168
   655.4000      8.2371      1.3619      0.0504     78.0695     44.9284     12.6534
   655.5000      8.2384      1.3852      0.0615     76.6563     43.8679     13.6114
   655.6000      8.2384      1.4000      0.0624     75.7595     46.7460     14.7669
   655.7000      8.2384      1.4156      0.0537     74.8136     54.1780     15.4620
   655.8000      8.2315      1.4541      0.0488     72.4768     60.8656     15.6435
   655.9000      8.2315      1.5221      0.1005     68.3580     63.3493     15.6837
   656.0000      8.1798      1.5935      0.1240     64.0325     64.1955     15.6993
   656.1000      8.1798      1.6408      0.0622     61.1615     63.6439     15.6314
   656.2000      8.1798      1.6688      0.0448     59.4648     59.0655     15.5176
   656.3000      8.1678      1.6882      0.1042     58.2897     53.0953     15.3628
   656.4000      8.1678      1.6911      0.1101     58.1149     50.5892     15.0760
   656.5000      8.1667      1.6719      0.0953     59.2791     50.4755     14.4905
   656.6000      8.1667      1.6325      0.0675     61.6686     49.0368     13.4250
   656.7000      8.1667      1.5667      0.0298     65.6537     46.7068     12.3090
   656.8000      8.1669      1.4756     -0.0698     71.1751     45.4030     11.8689
   656.9000      8.1669      1.3885     -0.1461     76.4549     44.4701     12.2881
   657.0000      8.1682      1.3377     -0.0968     79.5329     43.9382     12.8990
   657.1000      8.1682      1.3237      0.0280     80.3802     45.1323     13.0856
   657.2000      8.1682      1.3243      0.0840     80.3464     46.7658     13.0682
   657.3000      8.1652      1.3278      0.0475     80.1343     46.5599     13.1971
   657.4000      8.1652      1.3400      0.0821     79.3958     46.0078     13.4613
   657.5000      8.1672      1.3620      0.1071     78.0602     46.4727     13.4659
   657.6000      8.1672      1.3882      0.1308     76.4728     45.6623     13.1498
   657.7000      8.1672      1.4151      0.1628     74.8397     43.8348     13.0352
   657.8000      8.1657      1.4389      0.1502     73.4021     45.3512     13.0252
   657.9000      8.1657      1.4538      0.1098     72.4983     49.6484     12.7635
   658.0000      8.1719      1.4597      0.0714     72.1371     51.9128     12.3551
   658.1000      8.1719      1.4648      0.0613     71.8323     50.0043     12.1055
   658.2000      8.1719      1.4735      0.0981     71.3031     43.8396     12.0580
   658.3000      8.1670      1.4767      0.1182     71.1087     35.7979     11.8811
   658.4000      8.1670      1.4641      0.1196     71.8724     30.2528     11.6862
   658.5000      8.1703      1.4414      0.1340     73.2456     29.4601     11.8154
   658.6000      8.1703      1.4185      0.1407     74.6360     32.1827     12.0251
   658.7000      8.1703      1.3933      0.1447     76.1649     32.7348     11.9166
   658.8000      8.2427      1.3656      0.0757     77.8439     29.2355     11.6900
   658.9000      8.2427      1.3445      0.0843     79.1193     27.2274     11.6548
   659.0000      8.2554      1.3340      0.0561     79.7592     28.3543     11.5762
   659.1000      8.2554      1.3316      0.0761     79.9025     30.1293     11.3169
   659.2000      8.2554      1.3380      0.0249     79.5136     31.1404     11.1874
   659.3000      8.2477      1.3513      0.0860     78.7086     31.5055     11.3127
   659.4000      8.2477      1.3619      0.0789     78.0639     32.5837     11.4890
   659.5000      8.1145      1.3668      0.0585     77.7701     36.2304     11.5431
   659.6000      8.1145      1.3676      0.0708     77.7187     43.3158     11.5947
   659.7000      8.1145      1.3612      0.0982     78.1121     51.0584     11.6355
   659.8000      8.0872      1.3509      0.0569     78.7321     54.4732     11.5336
   659.9000      8.0872      1.3491      0.0815     78.8418     53.3202     11.6031
   660.0000      8.0202      1.3582      0.0674     78.2937     53.0773     12.0349
   660.1000      8.0202      1.3747      0.0400     77.2889     55.6732     12.5109
   660.2000      8.0202      1.3991      0.0402     75.8111     57.7284     12.8722
   660.3000      8.0101      1.4278      0.0628     74.0719     58.6226     13.2278
   660.4000      8.0101      1.4592      0.0783     72.1711     62.0600     13.6820
   660.5000      8.0097      1.5076      0.0761     69.2339     67.5650     14.4032
   660.6000      8.0097      1.5902      0.1756     64.2330     70.7645     15.3778
   660.7000      8.0097      1.7074      0.2221     57.1286     72.6361     16.4741
   660.8000      7.9787      1.8432      0.2385     48.8974     77.3364     17.7666
   660.9000      7.9787      1.9681      0.2691     41.3295     84.0356     19.1124
   661.0000      7.9232      2.0676      0.2543     35.2954     89.8817     20.1314
   661.1000      7.9232      2.1582      0.2547     29.8044     93.9136     20.7559
   661.2000      7.9232      2.2509      0.2915     24.1868     96.9835     21.0613
   661.3000      7.8504      2.3289      0.3215     19.4578    103.4006     21.1568
   661.4000      7.8504      2.3759      0.1828     16.6131    114.6705     21.0127
   661.5000      7.8413      2.3945      0.1222     15.4854    127.9025     20.4994
   661.6000      7.8413      2.3827      0.1233     16.1992    139.0628     20.0991
   661.7000      7.8413      2.3369      0.0436     18.9753    144.2295     20.1278
   661.8000      7.8331      2.2778     -0.0166     22.5579    144.9672     19.8077
   661.9000      7.8331      2.2298     -0.0315     25.4678    148.3418     18.8768
   662.0000      7.8329      2.1938     -0.0051     27.6458    155.9406     18.3211
   662.1000      7.8329      2.1592      0.0073     29.7432    163.2972     18.5672
   662.2000      7.8329      2.1251     -0.0125     31.8131    169.6760     19.2487
   662.3000      7.8317      2.1013      0.0302     33.2559    173.8393     19.7129
