~Version Information
VERS.                      2.0: CWLS Log ASCII Standard - VERSION 2.0
WRAP.                       NO: One line per depth step
~Well Information Block
STRT.FT               428.8000: 
STOP.FT               951.7000: 
STEP.FT                 0.1000: 
NULL.                -999.2500: 
COMP.          Pioneer Natural Resources: COMPANY
WELL.          Sculpin 32-30 Tr: WELL
FLD.           Purgatoire River: FIELD
LOC.           1600' FNL & 1857' FEL--: LOCATION
CNTY.               Las Animas: COUNTY
SRVC.                Patterson: SERVICE COMPANY
DATE.          Wed Jul 19 09:12:32 2006: LOG DATE
UWI.           05 071 08706 00: UNIQUE WELL ID
STAT.                 Colorado: STATE
~Curve Information Block
DEPT.FT            0 000 00 00: Depth
DCAL.in                       : CDL Caliper
RHOB.g/cc                     : CDL Bulk Density
RHOC.g/cc                     : CDL Density Correction
DPOR.pu                       : CDL Density Porosity
GR.GAPI                       : Gamma Ray
~Parameter Information Block
~A  Depth       DCAL        RHOB        RHOC        DPOR         GR     
# ...
   664.0000      8.0112      2.4728      0.1213     10.7390    123.9321
   664.1000      8.0112      2.4844      0.1698     10.0354    120.4692
   664.2000      8.0112      2.4959      0.1521      9.3400    120.3676
   664.3000      8.0114      2.5047      0.1341      8.8081    122.0527
   664.4000      8.0114      2.5108      0.1394      8.4366    122.2314
   664.5000      8.0109      2.5191      0.0749      7.9311    120.1937
   664.6000      8.0109      2.5349      0.1294      6.9782    118.3327
   664.7000      8.0109      2.5494      0.0998      6.0945    119.3156
   664.8000      8.0096      2.5548      0.0805      5.7720    120.9451
   664.9000      8.0096      2.5514      0.0976      5.9778    120.1823
   665.0000      8.0094      2.5469      0.0744      6.2498    119.5001
   665.1000      8.0094      2.5508      0.0492      6.0128    119.5225
   665.2000      8.0094      2.5563      0.0717      5.6813    118.5191
   665.3000      8.0105      2.5591      0.0252      5.5069    116.2332
   665.4000      8.0105      2.5739      0.0117      4.6097    112.1481
   665.5000      8.0119      2.5934      0.0924      3.4297    109.3941
   665.6000      8.0119      2.5786      0.0820      4.3259    112.6438
   665.7000      8.0119      2.5170      0.0060      8.0626    118.8136
   665.8000      8.0115      2.4385     -0.0208     12.8154    120.4373
   665.9000      8.0115      2.3806     -0.0633     16.3292    118.7986
   666.0000      8.0049      2.3622     -0.0372     17.4437    119.4474
   666.1000      8.0049      2.3714      0.0028     16.8868    122.0667
   666.2000      8.0049      2.3863     -0.0048     15.9811    122.1131
   666.3000      7.9929      2.4020      0.0245     15.0332    119.5054
   666.4000      7.9929      2.4170      0.0647     14.1241    118.7758
   666.5000      7.9803      2.4254      0.1130     13.6143    120.2067
   666.6000      7.9803      2.4321      0.1126     13.2085    122.4994
   666.7000      7.9803      2.4554      0.1281     11.7939    126.9904
   666.8000      7.9707      2.5047      0.1888      8.8042    133.4037
   666.9000      7.9707      2.5612      0.2711      5.3793    138.3605
   667.0000      7.9715      2.5963      0.2287      3.2523    138.1440
   667.1000      7.9715      2.6016      0.1728      2.9364    131.9999
   667.2000      7.9715      2.5879      0.1268      3.7621    123.6351
   667.3000      7.9789      2.5789      0.0617      4.3116    116.2270
   667.4000      7.9789      2.5898      0.1139      3.6456    112.0677
   667.5000      7.9842      2.6075      0.0906      2.5730    110.4871
   667.6000      7.9842      2.6149      0.1006      2.1294    106.5330
   667.7000      7.9842      2.6154      0.0598      2.0980    101.0141
   667.8000      7.9874      2.6199      0.0844      1.8225     98.8874
   667.9000      7.9874      2.6293      0.0499      1.2557     99.1542
   668.0000      7.9870      2.6393      0.0645      0.6511     98.9461
   668.1000      7.9870      2.6443      0.0773      0.3438     97.8854
   668.2000      7.9870      2.6398      0.0910      0.6171     96.5378
   668.3000      7.9838      2.6225      0.0776      1.6689     94.2316
   668.4000      7.9838      2.5923      0.0563      3.4957     90.7706
   668.5000      7.9837      2.5688     -0.0310      4.9228     89.0367
   668.6000      7.9837      2.5719      0.0606      4.7364     89.0451
   668.7000      7.9837      2.5823      0.0814      4.1047     88.5435
   668.8000      7.9859      2.5757      0.0405      4.5059     90.3892
   668.9000      7.9859      2.5567      0.0298      5.6552     96.0587
   669.0000      7.9878      2.5388      0.0261      6.7396    101.3447
   669.1000      7.9878      2.5338      0.0205      7.0404    105.1899
   669.2000      7.9878      2.5479      0.0329      6.1901    109.7367
   669.3000      7.9891      2.5697      0.0490      4.8688    116.2484
   669.4000      7.9891      2.5853      0.0588      3.9239    121.6715
   669.5000      7.9904      2.6007      0.0689      2.9877    121.5345
   669.6000      7.9904      2.6266      0.0646      1.4163    115.5466
   669.7000      7.9904      2.6576      0.1061     -0.4609    107.1435
   669.8000      7.9909      2.6878      0.0871     -2.2908    103.2850
   669.9000      7.9909      2.7221      0.1076     -4.3670    103.7763
   670.0000      7.9895      2.7640      0.0791     -6.9107    101.3203
   670.1000      7.9895      2.8044      0.1301     -9.3584     94.3404
   670.2000      7.9895      2.8215      0.1489    -10.3921     88.1855
   670.3000      7.9881      2.8069      0.0833     -9.5068     85.3530
   670.4000      7.9881      2.7785      0.0060     -7.7866     83.0320
   670.5000      7.9877      2.7572      0.0078     -6.4947     79.5124
   670.6000      7.9877      2.7401      0.0200     -5.4621     76.0620
   670.7000      7.9877      2.7141      0.0007     -3.8828     73.0188
   670.8000      7.9872      2.6891     -0.0655     -2.3714     70.7973
   670.9000      7.9872      2.6822     -0.0162     -1.9491     74.4412
   671.0000      7.9878      2.6788      0.0242     -1.7436     85.6815
   671.1000      7.9878      2.6518      0.0813     -0.1104     98.1891
   671.2000      7.9878      2.6037      0.0159      2.8082    107.4408
   671.3000      7.9944      2.5637      0.0234      5.2302    113.6869
   671.4000      7.9944      2.5434      0.0307      6.4586    119.4541
   671.5000      8.0047      2.5358     -0.0179      6.9216    124.5216
   671.6000      8.0047      2.5323      0.0689      7.1330    124.3526
   671.7000      8.0047      2.5259      0.0302      7.5203    118.6247
   671.8000      8.0104      2.5247      0.0458      7.5928    114.8772
   671.9000      8.0104      2.5331      0.0855      7.0850    117.9278
   672.0000      8.0110      2.5346      0.0768      6.9912    125.6094
   672.1000      8.0110      2.5201      0.0330      7.8705    132.7076
   672.2000      8.0110      2.5030      0.0539      8.9121    136.1869
   672.3000      8.0109      2.4994      0.0215      9.1247    137.9021
   672.4000      8.0109      2.5121      0.0736      8.3602    138.4037
   672.5000      8.0099      2.5309      0.0550      7.2175    137.6515
   672.6000      8.0099      2.5412      0.0873      6.5916    136.5487
   672.7000      8.0099      2.5342      0.0551      7.0153    133.9107
   672.8000      8.0076      2.5174      0.0529      8.0336    130.3155
   672.9000      8.0076      2.5001      0.0662      9.0872    128.5229
   673.0000      8.0072      2.4845      0.0258     10.0303    128.5683
   673.1000      8.0072      2.4654      0.0712     11.1882    128.2697
   673.2000      8.0072      2.4332      0.0187     13.1420    127.6009
   673.3000      8.0090      2.3951     -0.0203     15.4501    127.6397
   673.4000      8.0090      2.3675     -0.0261     17.1191    126.6015
   673.5000      8.0107      2.3545      0.0131     17.9092    125.8116
   673.6000      8.0107      2.3499      0.0295     18.1870    127.5884
   673.7000      8.0107      2.3495      0.0105     18.2143    126.7369
   673.8000      8.0115      2.3526      0.0422     18.0247    119.7706
   673.9000      8.0115      2.3578      0.0786     17.7067    112.2635
   674.0000      8.0134      2.3642      0.0971     17.3216    110.2416
   674.1000      8.0134      2.3769      0.1004     16.5531    114.4640
   674.2000      8.0134      2.4028      0.1101     14.9793    122.4165
   674.3000      8.0190      2.4368      0.0971     12.9226    129.3065
   674.4000      8.0190      2.4574      0.1460     11.6703    131.1670
   674.5000      8.0249      2.4499      0.0414     12.1262    129.2168
   674.6000      8.0249      2.4308     -0.0041     13.2850    127.1708
   674.7000      8.0249      2.4246      0.0158     13.6617    128.7928
   674.8000      8.0268      2.4347      0.0154     13.0515    134.5842
   674.9000      8.0268      2.4536      0.0542     11.9058    139.3484
   675.0000      8.0243      2.4740      0.0705     10.6677    137.6363
   675.1000      8.0243      2.4866      0.0995      9.9044    129.9586
