~Version Information
VERS.                      2.0: CWLS Log ASCII Standard - VERSION 2.0
WRAP.                       NO: One line per depth step
~Well Information Block
STRT.FT                 5.0000: 
STOP.FT               880.0000: 
STEP.FT                 0.2500: 
NULL.                -999.2500: 
COMP.          Pioneer Natural Resources: COMPANY
WELL.          Bienville 31-28: WELL
FLD.           Purgatoire River: FIELD
LOC.           1212' FNL & 2271' FEL: LOCATION
PROV.                 Colorado: PROVINCE
CNTY.               Las Animas: COUNTRY
SRVC.                Patterson: SERVICE COMPANY
DATE.          Tue Jan 24 11:44:03 2006: LOG DATE
UWI.           05 071 08666 00: UNIQUE WELL ID
~Curve Information Block
DEPT.FT            0 000 00 00: Depth
GR.GAPI                       : Gamma Ray
CCL.                          : Casing Collar Locator
TT3.usec                      : CBL 3' Travel Time
AMP3.mV                       : CBL 3' Amplitude
~Parameter Information Block
~A  Depth        GR         CCL         TT3         AMP3    
# ...
   273.0000     90.5288      0.0000    677.6656      6.8253
   273.2500     88.8603      0.0000    677.5491      6.7797
   273.5000     87.1950      0.0000    677.4767      6.7604
   273.7500     85.5302      0.0000    677.4640      6.7656
   274.0000     84.1270      0.0000    677.5255      6.7841
   274.2500     83.4245      0.0000    677.6632      6.7993
   274.5000     83.6354      0.0000    677.8424      6.7995
   274.7500     84.6188      0.0000    677.9274      6.7842
   275.0000     86.1465      0.0000    677.5855      6.7597
   275.2500     88.1391      0.0000    676.2208      6.7331
   275.5000     90.5696      0.0000    673.2200      6.7123
   275.7500     93.0288      0.0000    668.7416      6.7041
   276.0000     94.5023      0.0000    664.4750      6.7074
   276.2500     94.0825      0.0000    663.0303      6.7139
   276.5000     92.1584      0.0000    665.8987      6.7166
   276.7500     90.4873      0.0000    672.1208      6.7147
   277.0000     90.7927      0.0000    679.1436      6.7124
   277.2500     93.5385      0.0000    684.5474      6.7163
   277.5000     98.0916      0.0000    687.0387      6.7331
   277.7500    103.5084      0.0000    686.7874      6.7629
   278.0000    108.8182      0.0000    685.3076      6.7946
   278.2500    112.8886      0.0000    684.5004      6.8110
   278.5000    114.6674      0.0000    685.2667      6.8041
   278.7500    113.9356      0.0000    686.8627      6.7824
   279.0000    111.5830      0.0000    687.6582      6.7596
   279.2500    108.7644      0.0000    686.6498      6.7403
   279.5000    105.8567      0.0000    684.2637      6.7178
   279.7500    102.4055      0.0000    681.7053      6.6863
   280.0000     97.9405      0.0000    679.8255      6.6494
   280.2500     92.6949      0.0000    678.7326      6.6160
   280.5000     87.6623      0.0000    678.1503      6.5873
   280.7500     84.0360      0.0000    677.8116      6.5496
   281.0000     82.4152      0.0000    677.5811      6.4857
   281.2500     82.3067      0.0000    677.4153      6.3946
   281.5000     82.4248      0.0000    677.3050      6.2930
   281.7500     81.6948      0.0000    677.2413      6.1990
   282.0000     80.0316      0.0000    677.2159      6.1221
   282.2500     78.1499      0.0000    677.2203      6.0696
   282.5000     76.8327      0.0000    677.2390      6.0489
   282.7500     76.3828      0.0000    677.2467      6.0599
   283.0000     76.3019      0.0000    677.2191      6.0898
   283.2500     75.3988      0.0000    677.1485      6.1229
   283.5000     72.8063      0.0000    677.0507      6.1517
   283.7500     69.1381      0.0000    676.9597      6.1799
   284.0000     66.2258      0.0000    676.9125      6.2138
   284.2500     65.4629      0.0000    676.9270      6.2544
   284.5000     66.5707      0.0000    676.9818      6.2961
   284.7500     68.0497      0.0000    676.9881      6.3308
   285.0000     68.7133      0.0000    676.7321      6.3517
   285.2500     68.7365      0.0000    675.7776      6.3545
   285.5000     69.1552      0.0000    673.4534      6.3404
   285.7500     70.3317      0.0000    669.1762      6.3187
   286.0000     71.2849      0.0000    663.1305      6.3045
   286.2500     70.9626      0.0000    656.7060      6.3080
   286.5000     69.9469      0.0000    652.0021      6.3246
   286.7500     70.5056      0.0000    650.6324      6.3405
   287.0000     75.0466      0.0000    652.7678      6.3471
   287.2500     84.6450      0.0000    657.0058      6.3485
   287.5000     98.5897      0.0000    661.0505      6.3514
   287.7500    114.7029      0.0000    662.8992      6.3545
   288.0000    130.0716      0.0000    661.7741      6.3511
   288.2500    142.0645      0.0000    658.0760      6.3401
   288.5000    149.1861      0.0000    652.5754      6.3289
   288.7500    151.0415      0.0000    645.5624      6.3251
   289.0000    147.7791      0.0000    636.4197      6.3293
   289.2500    140.2289      0.0000    623.7047      6.3342
   289.5000    130.4772      0.0000    605.6008      6.3293
   289.7500    121.2593      0.0000    580.6807      6.3089
   290.0000    114.2422      0.0000    549.2025      6.2786
   290.2500    109.2683      0.0000    514.2101      6.2497
   290.5000    105.3721      0.0000    480.6605      6.2233
   290.7500    102.1343      0.0000    452.6910      6.1851
   291.0000     99.9207      0.0000    431.9716      6.1202
   291.2500     99.0837      0.0000    419.1327      6.0350
   291.5000     99.2772      0.0000    416.6956      5.9590
   291.7500     99.9105      0.0000    429.8975      5.9198
   292.0000    101.3826      0.0000    463.1805      5.9168
   292.2500    105.3834      0.0000    514.2279      5.9218
   292.5000    113.2451      0.0000    571.4475      5.9068
   292.7500    123.9563      0.0000    619.0632      5.8705
   293.0000    134.4197      0.0000    645.9533      5.8371
   293.2500    141.7584      0.0000    649.6445      5.8274
   293.5000    144.8660      0.0000    633.1071      5.8355
   293.7500    143.9412      0.0000    601.0339      5.8387
   294.0000    139.4912      0.0000    560.9200      5.8251
   294.2500    132.1077      0.0000    524.2234      5.8053
   294.5000    122.8146      0.0000    500.4483      5.7991
   294.7500    113.3529      0.0000    488.6414      5.8188
   295.0000    105.9986      0.0000    478.2867      5.8630
   295.2500    102.8492      0.0000    460.3162      5.9200
   295.5000    105.0266      0.0000    435.4175      5.9760
   295.7500    112.1679      0.0000    411.2582      6.0195
   296.0000    122.2966      0.0000    394.6080      6.0374
   296.2500    132.1841      0.0000    387.9823      6.0182
   296.5000    138.3300      0.0000    392.2745      5.9660
   296.7500    138.3343      0.0000    409.4506      5.9060
   297.0000    132.0258      0.0000    439.8524      5.8632
   297.2500    121.5954      0.0000    475.7700      5.8401
   297.5000    110.4201      0.0000    500.6868      5.8152
   297.7500    101.3472      0.0000    500.2866      5.7541
   298.0000     95.6719      0.0000    475.6029      5.6201
   298.2500     93.1822      0.0000    442.6201      5.3992
   298.5000     92.8276      0.0000    419.0999      5.1258
   298.7500     93.5705      0.0000    414.6750      4.8539
   299.0000     95.1731      0.0000    431.9668      4.5727
   299.2500     98.3877      0.0000    470.3404      4.1995
   299.5000    104.0882      0.0000    523.6325      3.7091
   299.7500    112.0290      0.0000    576.4963      3.2176
   300.0000    120.7082      0.0000    610.4427      2.8739
   300.2500    128.4693      0.0000    618.5540      2.7118
   300.5000    134.4594      0.0000    611.9110      2.6552
   300.7500    138.6942      3.0000    607.3366      2.6257
   301.0000    141.6890      0.0000    610.4763      2.6220
   301.2500    143.9357      0.0000    615.2027      2.7324
   301.5000    145.2934      0.0000    617.2009      3.0780
   301.7500    144.9539      0.0000    621.3716      3.6907
   302.0000    142.3263      0.0000    634.9397      4.4340
   302.2500    137.9869      0.0000    658.0126      5.0959
   302.5000    133.7515      0.0000    683.2034      5.5598
   302.7500    131.8139      0.0000    702.5298      5.8474
   303.0000    133.4769      0.0000    712.7260      6.0272
   303.2500    138.3693      0.0000    714.8240      6.1407
   303.5000    144.8944      0.0000    711.1827      6.2040
   303.7500    151.3291      0.0000    704.0412      6.2305
   304.0000    156.2806      0.0000    695.7644      6.2383
   304.2500    158.5764      0.0000    688.9234      6.2413
   304.5000    157.5534      0.0000    685.7554      6.2466
   304.7500    153.6173      0.0000    688.1080      6.2654
   305.0000    148.1050      0.0000    697.7452      6.3243
   305.2500    142.3511      0.0000    715.8199      6.4549
   305.5000    136.8355      0.0000    741.3228      6.6658
   305.7500    131.0289      0.0000    770.3213      6.9287
   306.0000    123.9693      0.0000    797.3548      7.1966
   306.2500    115.4313      0.0000    817.9626      7.4365
