~Version Information
VERS.                      2.0: CWLS Log ASCII Standard - VERSION 2.0
WRAP.                       NO: One line per depth step
~Well Information Block
STRT.FT               330.0000: 
STOP.FT              1923.5000: 
STEP.FT                 0.1000: 
NULL.                -999.2500: 
COMP.          Pioneer Natural Resources: COMPANY
WELL.          State Wildlife 32-16 Tr: WELL
FLD.           Purgatoire River: FIELD
LOC.           1838' FNL & 1850' FEL: LOCATION
STAT.                 Colorado: State
CNTY.               Las Animas: COUNTY
CTRY. USA : Country
SECT. 16 : Section
TOWN. 32S : Township
RANG. 66W : Range
SRVC.                Patterson: SERVICE COMPANY
DATE.          Mon Nov 14 07:20:48 2005: LOG DATE
API.           05 071 08568 00: UNIQUE WELL ID
~Curve Information Block
DEPT.FT            0 000 00 00: Depth
DCAL.in                       : CDL Caliper
RHOB.g/cc                     : CDL Bulk Density
RHOC.g/cc                     : CDL Density Correction
DPOR.pu                       : CDL Density Porosity
GR.GAPI                       : Gamma Ray
NPOR.pu                       : Neutron Porosity
~Parameter Information Block
~A  Depth       DCAL        RHOB        RHOC        DPOR         GR         NPOR    
# ...
  1904.4000      7.8295      2.2537     -0.0140     24.0170     88.3173     25.2645
  1904.5000      7.8271      2.2520     -0.0523     24.1185     95.3472     25.8456
  1904.6000      7.8271      2.2514     -0.0023     24.1565    100.9992     26.9833
  1904.7000      7.8271      2.2717     -0.0370     22.9248    107.3218     27.8301
  1904.8000      7.8534      2.3321      0.1153     19.2662    115.1087     27.8646
  1904.9000      7.8534      2.4162      0.1873     14.1691    121.3749     27.1986
  1905.0000      7.8745      2.4968      0.2340      9.2834    123.4834     26.5421
  1905.1000      7.8745      2.5538      0.2443      5.8315    124.9719     26.4429
  1905.2000      7.8745      2.5724      0.1347      4.7052    129.6879     26.4750
  1905.3000      7.8802      2.5608      0.0690      5.4056    133.1998     26.1169
  1905.4000      7.8802      2.5407      0.0991      6.6243    132.8180     25.5602
  1905.5000      7.9182      2.5304      0.0668      7.2456    134.8953     25.3157
  1905.6000      7.9182      2.5420      0.0558      6.5459    141.7784     25.4014
  1905.7000      7.9182      2.5685      0.0885      4.9416    146.6240     25.3716
  1905.8000      7.8698      2.5952      0.0355      3.3222    145.3536     25.2172
  1905.9000      7.8698      2.6105      0.1094      2.3956    140.2723     25.1235
  1906.0000      7.8597      2.6052      0.0638      2.7126    135.2238     24.5954
  1906.1000      7.8597      2.5895      0.0721      3.6696    134.6218     23.3291
  1906.2000      7.8597      2.5789      0.0276      4.3063    137.1898     22.2899
  1906.3000      7.8587      2.5776      0.0490      4.3855    135.9169     22.2170
  1906.4000      7.8587      2.5816      0.0384      4.1431    131.2675     22.9060
  1906.5000      7.8734      2.5857      0.0579      3.8995    129.8508     23.8956
  1906.6000      7.8734      2.5893      0.0351      3.6794    132.4570     24.7249
  1906.7000      7.8734      2.5979      0.0830      3.1572    134.6200     24.9867
  1906.8000      7.8670      2.6082      0.0973      2.5332    133.2786     24.3519
  1906.9000      7.8670      2.6192      0.0403      1.8692    127.0017     23.1650
  1907.0000      7.8619      2.6339      0.1118      0.9755    110.7662     22.3055
  1907.1000      7.8619      2.6432      0.0879      0.4094     78.9441     22.2292
  1907.2000      7.8619      2.6436      0.0747      0.3876     39.7820     22.6488
  1907.3000      7.8597      2.6390      0.0903      0.6685     12.5407     23.0623
  1907.4000      7.8597      2.6316      0.0660      1.1156      2.2859     23.3532
  1907.5000      7.8531      2.6280      0.1117      1.3321      0.2303     23.4035
  1907.6000      7.8531      2.6318      0.1207      1.1025      0.0122     22.9933
  1907.7000      7.8531      2.6458      0.0924      0.2561      0.0000     22.3057
  1907.8000      7.8374      2.6711      0.1325     -1.2816   -999.2500     21.7450
  1907.9000      7.8374      2.6990      0.1334     -2.9671   -999.2500     21.6159
  1908.0000      7.8007      2.7184      0.1569     -4.1484   -999.2500     22.0594
  1908.1000      7.8007      2.7286      0.1336     -4.7635   -999.2500     22.5382
  1908.2000      7.8007      2.7320      0.1286     -4.9695   -999.2500     22.4864
  1908.3000      7.8264      2.7202      0.1369     -4.2553   -999.2500     22.4006
  1908.4000      7.8264      2.6911      0.0774     -2.4896   -999.2500     23.0402
  1908.5000      7.7783      2.6604      0.0762     -0.6308   -999.2500     24.2306
  1908.6000      7.7783      2.6354      0.0702      0.8840   -999.2500     26.4127
  1908.7000      7.7783      2.6066      0.1025      2.6294   -999.2500     32.0383
  1908.8000      7.7575      2.5637      0.0416      5.2317   -999.2500     40.6037
  1908.9000      7.7575      2.5169     -0.0093      8.0675   -999.2500     46.8558
  1909.0000      7.7797      2.4920     -0.0103      9.5782   -999.2500     49.1617
  1909.1000      7.7797      2.4944      0.0705      9.4280   -999.2500     49.6192
  1909.2000      7.7797      2.5074      0.0569      8.6430   -999.2500     49.6678
  1909.3000      7.7906      2.5213      0.0547      7.8017   -999.2500     49.6706
  1909.4000      7.7906      2.5405      0.0714      6.6388   -999.2500   -999.2500
  1909.5000      7.8105      2.5745      0.0948      4.5770   -999.2500   -999.2500
  1909.6000      7.8105      2.6192      0.1643      1.8682   -999.2500   -999.2500
  1909.7000      7.8105      2.6546      0.1957     -0.2811   -999.2500   -999.2500
  1909.8000      7.8353      2.6675      0.2414     -1.0605   -999.2500   -999.2500
  1909.9000      7.8353      2.6596      0.1809     -0.5809   -999.2500   -999.2500
  1910.0000      7.9434      2.6439      0.1468      0.3703   -999.2500   -999.2500
  1910.1000      7.9434      2.6338      0.1437      0.9791   -999.2500   -999.2500
  1910.2000      7.9434      2.6342      0.1645      0.9555   -999.2500   -999.2500
  1910.3000      7.9376      2.6443      0.1244      0.3445   -999.2500   -999.2500
  1910.4000      7.9376      2.6558      0.1776     -0.3536   -999.2500   -999.2500
  1910.5000      7.8676      2.6571      0.1030     -0.4285   -999.2500   -999.2500
  1910.6000      7.8676      2.6494      0.0951      0.0377   -999.2500   -999.2500
  1910.7000      7.8676      2.6393      0.0625      0.6476   -999.2500   -999.2500
  1910.8000      7.8439      2.6257      0.0952      1.4700   -999.2500   -999.2500
  1910.9000      7.8439      2.6031      0.0376      2.8434   -999.2500   -999.2500
  1911.0000      7.8355      2.5786      0.0292      4.3273   -999.2500   -999.2500
  1911.1000      7.8355      2.5639      0.0663      5.2175   -999.2500   -999.2500
  1911.2000      7.8355      2.5566      0.0424      5.6580   -999.2500   -999.2500
  1911.3000      7.8528      2.5524      0.0529      5.9126   -999.2500   -999.2500
  1911.4000      7.8528      2.5532      0.0514      5.8695   -999.2500   -999.2500
  1911.5000      7.8315      2.5611      0.0494      5.3885   -999.2500   -999.2500
  1911.6000      7.8315      2.5755      0.0182      4.5135   -999.2500   -999.2500
  1911.7000      7.8315      2.5907      0.0540      3.5919   -999.2500   -999.2500
  1911.8000      7.8083      2.5942      0.1043      3.3795   -999.2500   -999.2500
  1911.9000      7.8083      2.5860      0.0490      3.8783   -999.2500   -999.2500
  1912.0000      7.8577      2.5830      0.0543      4.0620   -999.2500   -999.2500
  1912.1000      7.8577      2.5882      0.0696      3.7441   -999.2500   -999.2500
  1912.2000      7.8577      2.5934      0.0941      3.4321   -999.2500   -999.2500
  1912.3000      7.8647      2.5991      0.0766      3.0836   -999.2500   -999.2500
  1912.4000      7.8647      2.6067      0.0913      2.6262   -999.2500   -999.2500
  1912.5000      7.8439      2.6154      0.1082      2.0964   -999.2500   -999.2500
  1912.6000      7.8439      2.6279      0.0939      1.3380   -999.2500   -999.2500
  1912.7000      7.8439      2.6367      0.1226      0.8085   -999.2500   -999.2500
  1912.8000      7.8202      2.6318      0.0933      1.1005   -999.2500   -999.2500
  1912.9000      7.8202      2.6188      0.0497      1.8898   -999.2500   -999.2500
  1913.0000      7.8015      2.6051      0.0727      2.7236   -999.2500   -999.2500
  1913.1000      7.8015      2.5948      0.0304      3.3432   -999.2500   -999.2500
  1913.2000      7.8015      2.5935      0.0738      3.4266   -999.2500   -999.2500
  1913.3000      7.7968      2.5952      0.0897      3.3194   -999.2500   -999.2500
  1913.4000      7.7968      2.5970      0.0535      3.2147   -999.2500   -999.2500
  1913.5000      7.7986      2.6040      0.0808      2.7878   -999.2500   -999.2500
  1913.6000      7.7986      2.6116      0.0771      2.3286   -999.2500   -999.2500
  1913.7000      7.7986      2.6175      0.0581      1.9722   -999.2500   -999.2500
  1913.8000      7.7971      2.6257      0.0851      1.4716   -999.2500   -999.2500
  1913.9000      7.7971      2.6339      0.0735      0.9753   -999.2500   -999.2500
