~Version Information
VERS.                      2.0: CWLS Log ASCII Standard - VERSION 2.0
WRAP.                       NO: One line per depth step
~Well Information Block
STRT.FT                -8.7500: 
STOP.FT              1727.2500: 
STEP.FT                 0.2500: 
NULL.                -999.2500: 
COMP.          XTO Energy Inc.: COMPANY
WELL.          Apache Canyon 34-08: WELL
FLD.              Vermejo Coal: FIELD
LOC.           1668' FNL & 275' FEL: LOCATION
STAT.                       CO: State
CNTY.               Las Animas: COUNTY
CTRY. USA : Country
SECT. 34 : Section
TOWN. 33S : Township
RANG. 67W : Range
SRVC.          Patterson Wireline: SERVICE COMPANY
DATE.          Mon Jan 09 09:34:21 2006: LOG DATE
API.           05 071 08541 00: UNIQUE WELL ID
~Curve Information Block
DEPT.FT            0 000 00 00: Depth
CCL.                          : Casing Collar Locator
TT3.usec                      : CBL 3' Travel Time
AMP3.mV                       : CBL 3' Amplitude
GR.GAPI                       : Gamma Ray
~Parameter Information Block
~A  Depth       CCL         TT3         AMP3         GR     
# ...
  1029.7500      0.0000    771.0317      5.2626     92.5460
  1030.0000      0.0000    785.6994      5.6751     92.2052
  1030.2500      0.0000    792.6834      6.1774     90.6334
  1030.5000      0.0000    790.2421      6.7630     88.2057
  1030.7500      0.0000    780.4158      7.3930     86.5473
  1031.0000      0.0000    770.0878      7.9931     87.2847
  1031.2500      0.0000    769.5378      8.4923     90.6274
  1031.5000      0.0000    786.1038      8.8592     95.0272
  1031.7500      0.0000    817.1855      9.0945     98.3547
  1032.0000      0.0000    850.8405      9.1970     99.6421
  1032.2500      0.0000    874.1072      9.1493    100.0654
  1032.5000      0.0000    880.2241      8.9406    102.3188
  1032.7500      0.0000    870.3598      8.5925    108.4308
  1033.0000      0.0000    851.6681      8.1518    117.6768
  1033.2500      0.0000    832.5787      7.6643    126.8524
  1033.5000      0.0000    817.5573      7.1642    132.7623
  1033.7500      0.0000    805.8834      6.6829    134.3249
  1034.0000      0.0000    794.6285      6.2544    132.6108
  1034.2500      0.0000    782.0748      5.9052    129.3862
  1034.5000      0.0000    769.6362      5.6421    125.6656
  1034.7500      0.0000    761.6473      5.4605    121.4845
  1035.0000      0.0000    761.8599      5.3731    116.9112
  1035.2500      0.0000    769.2751      5.4175    112.8533
  1035.5000      0.0000    778.6021      5.6173    110.5309
  1035.7500      0.0000    785.4420      5.9517    110.3447
  1036.0000      0.0000    789.3809      6.3917    111.6014
  1036.2500      0.0000    791.5253      6.9605    113.3175
  1036.5000      0.0000    791.2471      7.7382    114.9071
  1036.7500      0.0000    786.6895      8.8119    116.1235
  1037.0000     -2.0000    775.4300     10.2411    116.8851
  1037.2500      2.0000    752.0413     12.0676    117.4229
  1037.5000      0.0000    707.7798     14.3713    118.3825
  1037.7500      0.0000    637.7818     17.3283    120.5180
  1038.0000      0.0000    549.6374     21.1601    124.0610
  1038.2500      0.0000    461.6686     25.9316    128.1132
  1038.5000      0.0000    390.7157     31.3878    130.6775
  1038.7500      0.0000    342.5565     36.9893    129.7580
  1039.0000      0.0000    313.6338     42.0037    124.8883
  1039.2500      0.0000    298.4191     45.5593    117.7535
  1039.5000      0.0000    293.3322     46.8456    111.2453
  1039.7500      0.0000    296.1350     45.4494    107.5364
  1040.0000      0.0000    304.9555     41.5597    106.7630
  1040.2500      0.0000    319.0746     35.9582    107.6063
  1040.5000      0.0000    340.4184     29.7828    109.0523
  1040.7500      0.0000    374.2183     24.0181    111.1998
  1041.0000      0.0000    426.5342     19.0620    114.2092
  1041.2500      0.0000    498.4094     14.8693    116.8722
  1041.5000      0.0000    582.0643     11.4434    116.9195
  1041.7500      0.0000    665.7001      8.9592    113.1563
  1042.0000      0.0000    742.7912      7.4621    106.9901
  1042.2500      2.0000    813.3760      6.6893    101.2393
  1042.5000      0.0000    875.4818      6.2516     97.4404
  1042.7500     -2.0000    920.3655      5.9139     94.8060
  1043.0000      2.0000    940.4340      5.6912     91.7049
  1043.2500      2.0000    938.6652      5.7237     87.4477
  1043.5000     -2.0000    924.8581      6.0951     82.4705
  1043.7500      0.0000    902.6714      6.8099     77.4410
  1044.0000     -2.0000    863.8383      8.0282     72.6103
  1044.2500      0.0000    796.9564     10.2665     67.7747
  1044.5000      0.0000    702.0674     14.1435     62.4723
  1044.7500      0.0000    595.5545     19.7694     56.2822
  1045.0000      0.0000    498.9909     26.5154     49.2752
  1045.2500      0.0000    423.8475     33.5437     42.2543
  1045.5000      0.0000    368.6693     40.4644     36.4979
  1045.7500      0.0000    328.0088     47.3787     33.3394
  1046.0000      0.0000    299.0760     54.4401     33.8685
  1046.2500      0.0000    280.7262     61.4885     38.5784
  1046.5000      0.0000    270.8567     67.9987     46.9539
  1046.7500      0.0000    266.5048     73.2443     57.3685
  1047.0000      0.0000    265.3172     76.5490     67.5275
  1047.2500      0.0000    266.3759     77.4986     75.4121
  1047.5000      0.0000    270.1377     76.0478     80.3951
  1047.7500      0.0000    277.8194     72.4822     83.4957
  1048.0000      0.0000    290.6857     67.2198     86.1001
  1048.2500      0.0000    309.9841     60.5298     88.4892
  1048.5000      0.0000    337.4961     52.5102     90.0432
  1048.7500      0.0000    375.6617     43.4879     90.6612
  1049.0000      0.0000    425.9394     34.3369     91.2702
  1049.2500      0.0000    485.8022     26.1569     92.8062
  1049.5000      0.0000    547.4739     19.6370     95.1843
  1049.7500      0.0000    601.2876     14.8133     97.4739
  1050.0000      0.0000    641.3828     11.3269     98.7467
  1050.2500      0.0000    667.6133      8.7900     98.5010
  1050.5000      0.0000    682.3275      6.9680     96.5214
  1050.7500      0.0000    686.9278      5.7532     92.8347
  1051.0000      0.0000    682.2047      5.0659     88.0710
  1051.2500      2.0000    671.4060      4.7918     83.7127
  1051.5000      0.0000    662.0970      4.7908     81.6307
  1051.7500     -2.0000    663.2178      4.9323     83.0622
  1052.0000      0.0000    678.2049      5.1272     87.7175
  1052.2500      0.0000    700.9421      5.3330     93.6612
  1052.5000      0.0000    719.6915      5.5200     98.3126
  1052.7500      0.0000    726.2261      5.6329    100.1220
  1053.0000      0.0000    722.6559      5.6090     99.4954
  1053.2500      0.0000    720.0859      5.4460     98.0642
  1053.5000      0.0000    729.0347      5.2266     97.2224
  1053.7500      0.0000    750.0250      5.0569     97.3662
  1054.0000      0.0000    774.2446      4.9918     98.1125
  1054.2500      0.0000    792.6081      5.0245     98.8828
  1054.5000      0.0000    802.2007      5.1196     99.3524
  1054.7500      0.0000    804.7368      5.2394     99.4557
  1055.0000      0.0000    801.6947      5.3494     99.1537
  1055.2500      0.0000    791.7690      5.4229     98.7298
  1055.5000      0.0000    772.1852      5.4478     99.3891
  1055.7500      0.0000    742.2897      5.4296    102.7555
  1056.0000      0.0000    705.9278      5.3836    109.1274
  1056.2500      0.0000    669.4971      5.3227    116.5541
  1056.5000      0.0000    637.3175      5.2548    122.1087
  1056.7500      0.0000    609.6845      5.1879    124.0484
  1057.0000      0.0000    585.5318      5.1329    122.7366
  1057.2500      0.0000    565.7911      5.0973    119.9382
  1057.5000      0.0000    553.3137      5.0785    117.5423
  1057.7500      0.0000    549.9615      5.0647    116.5925
  1058.0000      0.0000    554.6001      5.0453    116.8306
  1058.2500      0.0000    564.6790      5.0170    116.7718
  1058.5000      0.0000    579.8391      4.9834    114.5760
  1058.7500      0.0000    602.7487      4.9495    109.5376
  1059.0000      0.0000    634.8622      4.9192    102.8672
  1059.2500      0.0000    671.7931      4.8946     96.6864
  1059.5000      0.0000    704.9010      4.8787     92.2516
  1059.7500      0.0000    728.0432      4.8771     89.3921
  1060.0000      0.0000    741.5756      4.8975     87.3648
  1060.2500      0.0000    749.9032      4.9434     85.6734
  1060.5000      0.0000    756.9963      5.0082     84.3994
  1060.7500      0.0000    764.4843      5.0747     84.4740
  1061.0000      0.0000    772.1049      5.1236     87.1806
  1061.2500      0.0000    778.6786      5.1460     92.4821
  1061.5000      0.0000    783.0502      5.1480     98.0723
  1061.7500      0.0000    784.4037      5.1434    100.7787
  1062.0000      0.0000    781.4682      5.1424     98.8259
  1062.2500      0.0000    772.3376      5.1488     92.6808
  1062.5000      0.0000    756.5997      5.1641     84.3654
  1062.7500      0.0000    737.6725      5.1878     76.3466
  1063.0000      0.0000    721.5903      5.2143     70.5044
