~Version Information
VERS.                      2.0: CWLS Log ASCII Standard - VERSION 2.0
WRAP.                       NO: One line per depth step
~Well Information Block
STRT.FT               575.0000: 
STOP.FT              1557.5000: 
STEP.FT                 0.1000: 
NULL.                -999.2500: 
COMP.          Pioneer Natural Resources: COMPANY
WELL.          McClaren 13-34 Tr: WELL
FLD.           Purgatoire River: FIELD
LOC.           1934' FSL & 826' FWL: LOCATION
PROV.                 Colorado: PROVINCE
CNTY.               Las Animas: COUNTRY
SRVC.                Patterson: SERVICE COMPANY
DATE.          Tue Jul 12 07:15:27 2005: LOG DATE
UWI.           05 071 08437 00: UNIQUE WELL ID
~Curve Information Block
DEPT.FT            0 000 00 00: Depth
DCAL.in                       : CDL Caliper
RHOB.g/cc                     : CDL Bulk Density
RHOC.g/cc                     : CDL Density Correction
DPOR.pu                       : CDL Density Porosity
GR.GAPI                       : Gamma Ray
NPOR.pu                       : Neutron Porosity
~Parameter Information Block
~A  Depth       DCAL        RHOB        RHOC        DPOR         GR         NPOR    
# ...
   767.0000      7.8987      2.5586      0.1127      5.5408    129.7142     25.7673
   767.1000      7.8987      2.5475      0.0429      6.2112    128.6090     26.6801
   767.2000      7.8987      2.5344     -0.0098      7.0060    127.9768     27.4097
   767.3000      7.9000      2.5318      0.0427      7.1662    128.8561     27.5998
   767.4000      7.9000      2.5355      0.0064      6.9374    125.9563     27.2515
   767.5000      7.9003      2.5465      0.0194      6.2711    123.1494     26.7259
   767.6000      7.9003      2.5711      0.0080      4.7805    124.3116     26.5782
   767.7000      7.9003      2.6021      0.0261      2.9057    122.7217     26.8436
   767.8000      7.9008      2.6167      0.0661      2.0189    116.0730     26.8823
   767.9000      7.9008      2.6010      0.0354      2.9681    111.0823     26.4336
   768.0000      7.9010      2.5695     -0.0268      4.8781    113.2235     25.5914
   768.1000      7.9010      2.5448     -0.0193      6.3754    120.9603     24.5642
   768.2000      7.9010      2.5272      0.0064      7.4406    124.8297     23.8359
   768.3000      7.9009      2.5013     -0.0090      9.0110    119.0622     23.7323
   768.4000      7.9009      2.4624     -0.0545     11.3721    108.9916     24.0449
   768.5000      7.9002      2.4251     -0.0958     13.6322    103.8359     24.2736
   768.6000      7.9002      2.4122     -0.0766     14.4142    106.4065     24.4928
   768.7000      7.9002      2.4294     -0.0198     13.3672    110.7569     25.0226
   768.8000      7.8991      2.4593      0.0098     11.5558    112.4768     25.4958
   768.9000      7.8991      2.4819      0.0572     10.1893    111.9366     25.8104
   769.0000      7.8981      2.4933      0.0559      9.4947    110.2198     26.2272
   769.1000      7.8981      2.5067      0.0478      8.6871    110.7822     26.8204
   769.2000      7.8981      2.5293      0.1120      7.3139    116.3251     27.4843
   769.3000      7.8988      2.5524      0.1215      5.9148    124.9573     27.9905
   769.4000      7.8988      2.5650      0.1628      5.1525    133.4275     28.4680
   769.5000      7.9005      2.5581      0.1737      5.5689    137.5592     29.0640
   769.6000      7.9005      2.5360      0.0743      6.9093    133.9722     29.5292
   769.7000      7.9005      2.5193      0.0370      7.9192    125.9831     29.9386
   769.8000      7.9019      2.5159      0.0459      8.1298    120.0461     30.5180
   769.9000      7.9019      2.5173      0.0436      8.0441    119.4929     30.8809
   770.0000      7.9023      2.5229      0.0514      7.7019    124.1747     30.7361
   770.1000      7.9023      2.5369      0.0385      6.8520    126.9119     30.3047
   770.2000      7.9023      2.5596      0.0515      5.4783    121.4951     29.7937
   770.3000      7.9019      2.5873      0.0705      3.7993    114.6545     29.4282
   770.4000      7.9019      2.6109      0.0780      2.3674    112.4247     29.0481
   770.5000      7.9014      2.6220      0.0891      1.7000    108.8260     28.2887
   770.6000      7.9014      2.6261      0.0614      1.4472    100.6007     27.5445
   770.7000      7.9014      2.6341      0.0744      0.9659     93.7097     27.2780
   770.8000      7.9012      2.6385      0.0868      0.6957     92.0765     27.1721
   770.9000      7.9012      2.6289      0.0711      1.2787     94.1053     27.0737
   771.0000      7.9008      2.6090      0.0554      2.4871     98.8893     27.1632
   771.1000      7.9008      2.5833      0.0625      4.0410    107.1109     27.2937
   771.2000      7.9008      2.5501      0.0282      6.0549    115.7800     27.1668
   771.3000      7.8993      2.5171     -0.0244      8.0530    124.0706     26.9903
   771.4000      7.8993      2.5007     -0.0175      9.0482    129.4476     27.2018
   771.5000      7.8986      2.5037      0.0476      8.8693    127.5468     27.7488
   771.6000      7.8986      2.5131      0.0641      8.2974    121.7592     28.3205
   771.7000      7.8986      2.5147      0.0554      8.1984    120.2373     28.6367
   771.8000      7.8997      2.5024      0.0579      8.9472    124.4627     28.5091
   771.9000      7.8997      2.4849      0.0149     10.0032    128.5917     28.0069
   772.0000      7.9010      2.4778      0.0181     10.4363    129.4232     27.3973
   772.1000      7.9010      2.4825      0.0313     10.1513    127.4840     27.0083
   772.2000      7.9010      2.4944      0.0731      9.4304    124.5945     26.9201
   772.3000      7.9016      2.5161      0.0636      8.1168    122.4236     27.4286
   772.4000      7.9016      2.5420      0.1559      6.5435    122.4337     28.6734
   772.5000      7.9013      2.5621      0.1533      5.3299    126.6794     29.7083
   772.6000      7.9013      2.5912      0.1115      3.5639    132.7368     29.8648
   772.7000      7.9013      2.6433      0.1647      0.4067    135.1911     29.6780
   772.8000      7.9003      2.6952      0.2186     -2.7396    133.4201     29.6733
   772.9000      7.9003      2.7235      0.1918     -4.4568    131.0532     29.9984
   773.0000      7.8995      2.7301      0.1780     -4.8575    132.3834     30.6704
   773.1000      7.8995      2.7154      0.2027     -3.9607    137.5587     31.3783
   773.2000      7.8995      2.6840      0.1315     -2.0598    140.3808     31.6304
   773.3000      7.8994      2.6679      0.0943     -1.0844    138.9156     31.2695
   773.4000      7.8994      2.6946      0.1067     -2.7009    138.8532     31.0933
   773.5000      7.8994      2.7476      0.1195     -5.9179    142.2289     31.8008
   773.6000      7.8994      2.7809      0.1336     -7.9363    145.6348     32.6690
   773.7000      7.8994      2.7757      0.0893     -7.6170    149.7536     32.6548
   773.8000      7.8988      2.7557      0.1296     -6.4076    154.9923     31.7674
   773.9000      7.8988      2.7447      0.1123     -5.7395    156.9932     30.6240
   774.0000      7.8992      2.7384      0.1201     -5.3601    151.7163     29.8289
   774.1000      7.8992      2.7148      0.1143     -3.9279    142.0049     29.5597
   774.2000      7.8992      2.6699      0.0587     -1.2042    139.3157     29.3656
   774.3000      7.9031      2.6285      0.0188      1.3012    148.1285     28.8895
   774.4000      7.9031      2.6005      0.0333      3.0009    156.6171     28.4138
   774.5000      7.9062      2.5692      0.0551      4.8990    154.5337     28.6301
   774.6000      7.9062      2.5385      0.0149      6.7587    147.4598     29.7264
   774.7000      7.9062      2.5305      0.0334      7.2422    145.0413     30.8598
   774.8000      7.9023      2.5404      0.0729      6.6410    146.2448     31.3191
   774.9000      7.9023      2.5508      0.0793      6.0143    145.4302     31.2469
   775.0000      7.8984      2.5620      0.0430      5.3342    144.9825     30.9273
   775.1000      7.8984      2.5746      0.0998      4.5678    150.3321     30.2779
   775.2000      7.8984      2.5802      0.1050      4.2284    157.5860     29.5650
   775.3000      7.8974      2.5760      0.0755      4.4824    157.7655     29.5413
   775.4000      7.8974      2.5595      0.0560      5.4856    150.6077     29.8987
   775.5000      7.8971      2.5331      0.0609      7.0863    142.3722     29.4749
   775.6000      7.8971      2.5148      0.0097      8.1934    136.6882     28.5066
   775.7000      7.8971      2.5167      0.0467      8.0786    133.7000     28.4578
   775.8000      7.8974      2.5289      0.0399      7.3403    131.8813     29.3831
   775.9000      7.8974      2.5369      0.0467      6.8532    132.5625     30.4314
   776.0000      7.8987      2.5376      0.0174      6.8099    134.8625     31.5344
   776.1000      7.8987      2.5395      0.0355      6.6983    134.5495     32.0894
   776.2000      7.8987      2.5510      0.0832      5.9980    131.6536     31.6361
   776.3000      7.8970      2.5787      0.0561      4.3242    129.6322     31.3291
   776.4000      7.8970      2.6234      0.0921      1.6143    128.9043     31.7875
   776.5000      7.8849      2.6749      0.1302     -1.5083    130.3012     32.3973
