~Version Information
VERS.                      2.0: CWLS Log ASCII Standard - VERSION 2.0
WRAP.                       NO: One line per depth step
~Well Information Block
STRT.FT                -5.0000: 
STOP.FT              1761.2500: 
STEP.FT                 0.2500: 
NULL.                -999.2500: 
COMP.          Pioneer Natural Resources: COMPANY
WELL.          Manville 42-14 Tr: WELL
FLD.           Purgatoire River: FIELD
LOC.           2018'FNL & 562' FEL: LOCATION
STAT.                 Colorado: State
CNTY.               Las Animas: COUNTY
CTRY. USA : Country
SECT. 14 : Section
TOWN. 32S : Township
RANG. 66W : Range
SRVC.                Patterson: SERVICE COMPANY
DATE.          Fri Sep 23 10:37:02 2005: LOG DATE
API. 05-071-08522             : UNIQUE WELL ID
~Curve Information Block
DEPT.FT            0 000 00 00: Depth
CCL.                          : Casing Collar Locator
TT3.usec                      : CBL 3' Travel Time
AMP3.mV                       : CBL 3' Amplitude
AMP5.mV                       : CBL 5' Amplitude
GR.GAPI                       : Gamma Ray
~Parameter Information Block
~A  Depth       CCL         TT3         AMP3        AMP5         GR     
# ...
  1255.0000      0.0000    303.1238     16.0412      7.2637     99.1587
  1255.2500      0.0000    303.2740     15.9101      7.1767     95.0424
  1255.5000      0.0000    303.4384     15.7604      7.2637     89.6419
  1255.7500      0.0000    303.5947     15.6131      7.2637     82.4735
  1256.0000      0.0000    303.7188     15.4862      7.0896     74.2027
  1256.2500      0.0000    303.8073     15.3748      7.4378     66.4389
  1256.5000      0.0000    303.8810     15.2571      7.4378     60.3959
  1256.7500      0.0000    303.9567     15.1259      7.1767     56.0254
  1257.0000      0.0000    304.0176     15.0134      6.8285     52.8587
  1257.2500      0.0000    304.0221     14.9768      6.9156     51.0669
  1257.5000      0.0000    303.9449     15.0548      7.0896     50.9683
  1257.7500      0.0000    303.8030     15.2408      6.7415     52.0184
  1258.0000      0.0000    303.6401     15.4901      6.9156     53.1401
  1258.2500      0.0000    303.4923     15.7486      7.0896     53.8497
  1258.5000      0.0000    303.3683     15.9797      7.0896     54.3868
  1258.7500      0.0000    303.2553     16.1736      6.5674     54.7670
  1259.0000      0.0000    303.1399     16.3373      7.5249     54.2326
  1259.2500      0.0000    303.0221     16.4841      7.3508     51.9481
  1259.5000      0.0000    302.9105     16.6324      7.8731     48.1368
  1259.7500      0.0000    302.8095     16.8041      7.8731     44.2576
  1260.0000      0.0000    302.7173     17.0155      8.3083     41.9137
  1260.2500      0.0000    302.6325     17.2677      8.3083     41.6235
  1260.5000      0.0000    302.5589     17.5471      8.6565     42.6633
  1260.7500      0.0000    302.4998     17.8387      8.6565     43.9783
  1261.0000      0.0000    302.4515     18.1349      8.8306     45.1238
  1261.2500      0.0000    302.4038     18.4320      9.0917     46.3414
  1261.5000      0.0000    302.3473     18.7196      8.9176     47.9293
  1261.7500      0.0000    302.2821     18.9767      9.1788     49.7566
  1262.0000      0.0000    302.2189     19.1744      8.8306     51.4303
  1262.2500      0.0000    302.1734     19.2830      9.3529     52.6431
  1262.5000      0.0000    302.1570     19.2819      9.5270     53.0968
  1262.7500      0.0000    302.1680     19.1774      9.5270     52.3345
  1263.0000      0.0000    302.1901     19.0096      9.5270     50.1544
  1263.2500      0.0000    302.2053     18.8310      9.4399     47.2367
  1263.5000      0.0000    302.2108     18.6728      9.3529     44.9553
  1263.7500      0.0000    302.2387     18.5371      9.2658     44.3857
  1264.0000      0.0000    302.3995     18.4175      9.7881     45.6646
  1264.2500      0.0000    303.1172     18.3094     10.0492     48.2631
  1264.5000      0.0000    305.8379     18.1807      6.9156     51.4970
  1264.7500      0.0000    314.0529     17.9154      7.3508     54.6884
  1265.0000      0.0000    333.2413     17.3109      7.1767     57.2528
  1265.2500      0.0000    367.1048     16.2062      3.6948     58.8513
  1265.5000      0.0000    410.6088     14.6790      5.1746     59.3088
  1265.7500      0.0000    447.5191     13.0995      5.6098     58.3968
  1266.0000      0.0000    460.1926     11.9249      5.6969     56.0292
  1266.2500      0.0000    445.3678     11.4095      5.5228     52.7511
  1266.5000      0.0000    419.2122     11.4809      5.6969     49.8055
  1266.7500      0.0000    405.9569     11.8427      6.2192     48.6715
  1267.0000      0.0000    420.7983     12.1767      6.1321     50.6416
  1267.2500      2.0000    459.4417     12.2807      6.1321     56.5842
  1267.5000      0.0000    500.5232     12.0843      6.5674     66.5133
  1267.7500      0.0000    521.4796     11.6412      6.3933     79.1442
  1268.0000      0.0000    516.0581     11.1883      6.3062     92.2111
  1268.2500      0.0000    494.9894     11.1634      6.2192    103.6131
  1268.5000      0.0000    469.5409     11.9987      5.9580    112.3399
  1268.7500      0.0000    440.3420     13.7709      6.1321    118.4123
  1269.0000      0.0000    404.4807     16.0574      5.9580    122.3496
  1269.2500      0.0000    366.1853     18.1873      4.2171    124.7966
  1269.5000      0.0000    334.7591     19.6685      5.7839    126.1350
  1269.7500      0.0000    315.4458     20.4128     13.3570    126.2412
  1270.0000      0.0000    306.5393     20.6288     10.7456    124.9739
  1270.2500      0.0000    303.4523     20.5765     11.5290    122.7997
  1270.5000      0.0000    302.6617     20.4169     10.8327    120.5264
  1270.7500      0.0000    302.5399     20.2122     10.6586    118.6896
  1271.0000      0.0000    302.5645     19.9852     10.4845    117.6012
  1271.2500      0.0000    302.6258     19.7578     10.3104    117.5858
  1271.5000      0.0000    302.6876     19.5551     10.3974    118.5846
  1271.7500      0.0000    302.7411     19.3961     10.1363    119.7122
  1272.0000      0.0000    302.7824     19.2846      9.9622    119.6503
  1272.2500      0.0000    302.8177     19.2041      9.9622    117.6327
  1272.5000      0.0000    302.8601     19.1227     10.3974    114.1364
  1272.7500      0.0000    302.9215     19.0130      9.8751    110.6829
  1273.0000      0.0000    303.0049     18.8685      9.7010    108.7416
  1273.2500      0.0000    303.1041     18.6960      9.6140    108.5216
  1273.5000      0.0000    303.2107     18.4954      9.7881    108.8439
  1273.7500      0.0000    303.3197     18.2552      9.0917    108.4921
  1274.0000      0.0000    303.4268     17.9701      8.9176    107.5769
  1274.2500      0.0000    303.5201     17.6594      9.0047    107.2388
  1274.5000      0.0000    303.5826     17.3684      8.4824    108.1489
  1274.7500      0.0000    303.6091     17.1415      8.2213    109.6133
  1275.0000      0.0000    303.6194     16.9874      8.2213    110.0304
  1275.2500      0.0000    303.6451     16.8705      7.7860    108.2245
  1275.5000      0.0000    303.7000     16.7439      7.9601    104.5659
  1275.7500      0.0000    303.7685     16.5836      7.5249    100.7732
  1276.0000      0.0000    303.8297     16.3887      7.4378     98.5045
  1276.2500      0.0000    303.8827     16.1671      7.4378     98.2144
  1276.5000      0.0000    303.9432     15.9343      7.5249     99.1074
  1276.7500      0.0000    304.0203     15.7186      7.1767     99.8055
  1277.0000      0.0000    304.1040     15.5505      7.1767     99.2909
  1277.2500      0.0000    304.1707     15.4467      7.7860     97.7414
  1277.5000      0.0000    304.1983     15.4067      7.2637     96.3774
  1277.7500      0.0000    304.1812     15.4174      7.6990     96.1973
  1278.0000      0.0000    304.1385     15.4554      6.4803     96.9773
  1278.2500      0.0000    304.1047     15.4885      7.0896     97.6576
  1278.5000      0.0000    304.1069     15.4878      6.7415     97.4584
  1278.7500      0.0000    304.1485     15.4449      6.4803     96.4070
  1279.0000      0.0000    304.2106     15.3789      6.4803     94.9364
  1279.2500      0.0000    304.2677     15.3244      6.5674     93.2498
  1279.5000      0.0000    304.3060     15.3093      6.4803     91.2517
  1279.7500      0.0000    304.3301     15.3387      6.9156     89.0522
  1280.0000      0.0000    304.3538     15.3957      6.7415     87.2930
  1280.2500      0.0000    304.3828     15.4540      6.8285     86.9495
  1280.5000      0.0000    304.4089     15.4896      7.0896     88.9010
  1280.7500      0.0000    304.4225     15.4818      6.6544     93.3876
  1281.0000      0.0000    304.4282     15.4137      7.0896     99.3984
  1281.2500      0.0000    304.4384     15.2870      6.6544    104.8438
  1281.5000      0.0000    304.4517     15.1418      6.6544    108.0544
  1281.7500      0.0000    304.4414     15.0470      7.0896    109.2495
  1282.0000      0.0000    304.3686     15.0602      6.9156    110.0517
  1282.2500      0.0000    304.2089     15.1904      7.0026    111.5524
  1282.5000      0.0000    303.9764     15.3890      6.3933    113.4537
  1282.7500      0.0000    303.7312     15.5732      6.5674    115.1554
