~Version Information
VERS.                      2.0: CWLS Log ASCII Standard - VERSION 2.0
WRAP.                       NO: One line per depth step
~Well Information Block
STRT.FT               830.0000: 
STOP.FT              2368.5000: 
STEP.FT                 0.1000: 
NULL.                -999.2500: 
COMP.          Pioneer Natural Resources: COMPANY
WELL.              Rolls 14-14: WELL
FLD.           Purgatoire River: FIELD
LOC.           572' FSL & 856' FWL: LOCATION
PROV.                 Colorado: PROVINCE
CNTY.               Las Animas: COUNTRY
SRVC.                Patterson: SERVICE COMPANY
DATE.          Mon Aug 01 05:48:31 2005: LOG DATE
UWI.           05 071 08455 00: UNIQUE WELL ID
~Curve Information Block
DEPT.FT            0 000 00 00: Depth
DCAL.in                       : CDL Caliper
RHOB.g/cc                     : CDL Bulk Density
RHOC.g/cc                     : CDL Density Correction
DPOR.pu                       : CDL Density Porosity
GR.GAPI                       : Gamma Ray
NPOR.pu                       : Neutron Porosity
~Parameter Information Block
~A  Depth       DCAL        RHOB        RHOC        DPOR         GR         NPOR    
# ...
  1444.4000      8.0429      2.7361      0.1461     -5.2153     75.9614     21.8684
  1444.5000      8.0178      2.7027      0.0581     -3.1926     72.7827     21.7089
  1444.6000      8.0178      2.6651      0.0506     -0.9179     72.6228     21.2680
  1444.7000      8.0178      2.6295      0.0109      1.2413     77.8483     20.6283
  1444.8000      8.0157      2.6026      0.0260      2.8734     85.9664     20.0556
  1444.9000      8.0157      2.5818      0.0328      4.1327     90.9636     19.6537
  1445.0000      8.0484      2.5567      0.0466      5.6530     92.3596     19.4259
  1445.1000      8.0484      2.5373      0.0433      6.8314     97.5923     19.4128
  1445.2000      8.0484      2.5443      0.0665      6.4055    109.3635     19.4234
  1445.3000      8.0233      2.5645      0.1456      5.1793    119.3043     19.4271
  1445.4000      8.0233      2.5696      0.1131      4.8715    118.4722     19.7143
  1445.5000      8.0232      2.5668      0.1006      5.0422    110.4706     20.0336
  1445.6000      8.0232      2.5788      0.1047      4.3170    106.0261     20.0824
  1445.7000      8.0232      2.5969      0.1516      3.2181    106.6791     20.0731
  1445.8000      8.0321      2.6065      0.0785      2.6362    105.8981     20.2349
  1445.9000      8.0321      2.6212      0.0711      1.7437    101.9207     20.4615
  1446.0000      8.0344      2.6349      0.1518      0.9154     98.1800     20.4975
  1446.1000      8.0344      2.6163      0.1587      2.0411     96.3249     20.2726
  1446.2000      8.0344      2.5697      0.0943      4.8652     96.6801     20.1094
  1446.3000      8.0381      2.5322      0.0598      7.1409     97.4034     20.3225
  1446.4000      8.0381      2.5241      0.0963      7.6294     96.2306     20.6486
  1446.5000      8.0274      2.5363      0.0543      6.8891     94.5873     20.7089
  1446.6000      8.0274      2.5499      0.0438      6.0671     92.7917     20.5915
  1446.7000      8.0274      2.5505      0.0895      6.0275     88.5143     20.4026
  1446.8000      8.0238      2.5445      0.0089      6.3953     82.0576     20.0617
  1446.9000      8.0238      2.5545      0.0117      5.7866     77.8061     19.5952
  1447.0000      8.0420      2.5757      0.0930      4.5052     77.3737     19.0961
  1447.1000      8.0420      2.5826      0.0285      4.0843     77.7016     18.6733
  1447.2000      8.0420      2.5741      0.0361      4.5990     74.9488     18.3850
  1447.3000      8.0198      2.5665      0.0034      5.0621     69.1539     17.9822
  1447.4000      8.0198      2.5665      0.0151      5.0609     64.7205     17.3412
  1447.5000      8.0317      2.5676     -0.0023      4.9936     64.1023     17.0310
  1447.6000      8.0317      2.5646      0.0473      5.1787     63.9279     17.4994
  1447.7000      8.0317      2.5522      0.0545      5.9268     63.0647     18.2778
  1447.8000      8.0673      2.5329     -0.0055      7.0940     63.5740     18.5532
  1447.9000      8.0673      2.5189      0.0240      7.9465     64.9082     18.2132
  1448.0000      8.0642      2.5078      0.0031      8.6160     65.3112     17.7420
  1448.1000      8.0642      2.4960     -0.0212      9.3346     64.7266     17.4344
  1448.2000      8.0642      2.4928     -0.0083      9.5294     63.9753     17.4161
  1448.3000      8.0600      2.4932      0.0106      9.5031     63.1581     17.7742
  1448.4000      8.0600      2.4815      0.0086     10.2099     62.3966     18.3643
  1448.5000      8.0549      2.4659     -0.0170     11.1586     62.0173     18.9328
  1448.6000      8.0549      2.4648      0.0066     11.2235     61.0839     19.3819
  1448.7000      8.0549      2.4736      0.0142     10.6881     59.5648     19.9573
  1448.8000      8.0407      2.4839      0.0124     10.0696     59.6738     20.8328
  1448.9000      8.0407      2.5053      0.0134      8.7703     61.6944     21.5413
  1449.0000      8.0408      2.5482      0.0419      6.1725     66.1389     21.5927
  1449.1000      8.0408      2.6054      0.0724      2.7049     72.4624     21.3110
  1449.2000      8.0408      2.6577      0.0824     -0.4691     74.7227     21.1469
  1449.3000      8.0342      2.6904      0.1739     -2.4512     71.0468     21.0346
  1449.4000      8.0342      2.7073      0.0971     -3.4735     66.9969     20.8367
  1449.5000      8.0032      2.7189      0.1567     -4.1767     64.6937     20.7157
  1449.6000      8.0032      2.7192      0.1151     -4.1931     62.0095     20.8185
  1449.7000      8.0032      2.6980      0.1315     -2.9108     58.0477     21.1413
  1449.8000      7.9927      2.6596      0.0526     -0.5814     55.1111     21.5650
  1449.9000      7.9927      2.6198      0.0148      1.8316     55.2201     21.6714
  1450.0000      7.9816      2.5884     -0.0163      3.7342     57.3119     21.1187
  1450.1000      7.9816      2.5661     -0.0182      5.0864     59.1802     20.3407
  1450.2000      7.9816      2.5571     -0.0038      5.6273     59.5513     19.9652
  1450.3000      7.9996      2.5583      0.0430      5.5565     57.0221     19.9455
  1450.4000      7.9996      2.5519      0.0408      5.9458     52.5258     19.9008
  1450.5000      8.0250      2.5369      0.0400      6.8518     50.1907     19.7099
  1450.6000      8.0250      2.5334      0.0192      7.0681     51.0675     19.6067
  1450.7000      8.0250      2.5431      0.0304      6.4780     53.2334     19.4556
  1450.8000      8.0219      2.5460      0.0723      6.3027     53.9652     19.0274
  1450.9000      8.0219      2.5369      0.0255      6.8548     51.1383     18.6231
  1451.0000      8.0179      2.5362      0.0045      6.8978     47.8149     18.4769
  1451.1000      8.0179      2.5595      0.0152      5.4866     48.8300     18.4035
  1451.2000      8.0179      2.5965      0.0599      3.2439     53.9819     18.0659
  1451.3000      8.0291      2.6227      0.1040      1.6568     58.8092     17.5577
  1451.4000      8.0291      2.6260      0.0697      1.4569     60.6363     17.4312
  1451.5000      8.0135      2.6201      0.0573      1.8091     59.2949     17.7025
  1451.6000      8.0135      2.6212      0.0349      1.7453     55.4119     17.9677
  1451.7000      8.0135      2.6228      0.0720      1.6457     51.1652     18.2336
  1451.8000      8.0293      2.6173      0.0374      1.9814     47.6620     18.5532
  1451.9000      8.0293      2.6186      0.0467      1.9041     45.9162     18.6765
  1452.0000      8.0526      2.6304      0.0399      1.1891     48.1997     18.4637
  1452.1000      8.0526      2.6332      0.0481      1.0193     51.7369     18.2561
  1452.2000      8.0526      2.6174      0.0385      1.9777     50.9824     18.5030
  1452.3000      8.0496      2.5975      0.0248      3.1845     46.2287     19.2241
  1452.4000      8.0496      2.5921      0.0130      3.5097     42.3808     19.8872
  1452.5000      8.0782      2.6019      0.0170      2.9149     42.9151     20.0288
  1452.6000      8.0782      2.6138      0.0337      2.1926     45.0951     20.0908
  1452.7000      8.0782      2.6188      0.0610      1.8888     43.6905     20.4100
  1452.8000      8.0893      2.6233      0.0194      1.6194     39.9951     20.4184
  1452.9000      8.0893      2.6433     -0.0101      0.4059     39.9138     20.0071
  1453.0000      8.0485      2.6722      0.0354     -1.3436     43.3140     19.6262
  1453.1000      8.0485      2.6815      0.0665     -1.9082     45.1045     19.4417
  1453.2000      8.0485      2.6649      0.0663     -0.9060     44.4068     19.1308
  1453.3000      8.0470      2.6479     -0.0012      0.1270     43.8964     18.2792
  1453.4000      8.0470      2.6488      0.0590      0.0749     46.0410     17.3875
  1453.5000      8.0511      2.6554      0.0306     -0.3295     51.4381     17.0025
  1453.6000      8.0511      2.6509      0.0455     -0.0520     56.4864     16.6354
  1453.7000      8.0511      2.6312      0.0403      1.1389     57.2526     15.8714
  1453.8000      8.0452      2.6031      0.0993      2.8410     54.1399     15.2593
  1453.9000      8.0452      2.5877      0.0745      3.7752     50.8970     15.1794
