~Version Information
VERS.                      2.0: CWLS Log ASCII Standard - VERSION 2.0
WRAP.                       NO: One line per depth step
~Well Information Block
STRT.FT               230.2000: 
STOP.FT              1518.7000: 
STEP.FT                 0.1000: 
NULL.                -999.2500: 
COMP.          Pioneer Natural Resources: COMPANY
WELL.          Mow 8-14-33-67 Tr: WELL
FLD.           Purgatoire River: FIELD
LOC.           2258' FNL & 929' FEL: LOCATION
PROV.                 Colorado: PROVINCE
CNTY.               Las Animas: COUNTRY
SRVC.                Patterson: SERVICE COMPANY
DATE.          Mon Jan 30 11:22:55 2006: LOG DATE
UWI.           05 071 08684 00: UNIQUE WELL ID
~Curve Information Block
DEPT.FT            0 000 00 00: Depth
DCAL.in                       : CDL Caliper
DPOR.pu                       : CDL Density Porosity
RHOB.g/cc                     : CDL Bulk Density
RHOC.g/cc                     : CDL Density Correction
GR.GAPI                       : Gamma Ray
~Parameter Information Block
~A  Depth       DCAL        DPOR        RHOB        RHOC         GR     
# ...
   342.2000      8.1241     11.3398      2.4629      0.0324     61.9735
   342.3000      8.1246     12.1171      2.4501      0.0276     55.3200
   342.4000      8.1246     12.3503      2.4462      0.0524     47.7642
   342.5000      8.1245     11.8801      2.4540      0.0139     44.1337
   342.6000      8.1245     10.5570      2.4758      0.0213     44.3833
   342.7000      8.1245      8.3628      2.5120      0.0793     45.5302
   342.8000      8.1241      5.8256      2.5539      0.1155     46.7601
   342.9000      8.1241      4.1579      2.5814      0.1369     50.1014
   343.0000      8.1239      3.8860      2.5859      0.1029     54.5804
   343.1000      8.1239      4.4293      2.5769      0.1246     54.1984
   343.2000      8.1239      5.1745      2.5646      0.0806     47.5855
   343.3000      8.1240      5.6928      2.5561      0.0924     41.2326
   343.4000      8.1240      6.0019      2.5510      0.0297     40.0839
   343.5000      8.1240      6.1240      2.5490      0.0424     43.0916
   343.6000      8.1240      5.4847      2.5595     -0.0062     46.3249
   343.7000      8.1240      3.7227      2.5886      0.0633     47.0156
   343.8000      8.1237      1.6590      2.6226      0.0853     47.3807
   343.9000      8.1237      0.3334      2.6445      0.1294     50.9005
   344.0000      8.1236      0.3176      2.6448      0.1596     54.9245
   344.1000      8.1236      1.5317      2.6247      0.1291     55.2195
   344.2000      8.1236      3.1168      2.5986      0.0725     53.8168
   344.3000      8.1236      4.4977      2.5758      0.0705     52.2964
   344.4000      8.1236      5.6923      2.5561      0.0365     49.2372
   344.5000      8.1236      6.3462      2.5453      0.0147     45.4421
   344.6000      8.1236      5.9273      2.5522     -0.0201     42.3226
   344.7000      8.1236      4.8273      2.5703      0.0219     40.3268
   344.8000      8.1240      4.3314      2.5785      0.0475     41.0233
   344.9000      8.1240      4.9416      2.5685      0.0206     44.0398
   345.0000      8.1238      6.0044      2.5509      0.0308     45.7811
   345.1000      8.1238      6.7142      2.5392      0.0488     44.8307
   345.2000      8.1238      6.6198      2.5408      0.0158     43.2359
   345.3000      8.1233      5.6368      2.5570      0.0525     41.1234
   345.4000      8.1233      4.6046      2.5740      0.0669     38.6036
   345.5000      8.1236      4.8933      2.5693      0.0916     37.6091
   345.6000      8.1236      6.9271      2.5357      0.0489     37.5042
   345.7000      8.1236      9.7317      2.4894      0.0175     37.6777
   345.8000      8.1241     12.1906      2.4489     -0.0038     40.7369
   345.9000      8.1241     13.8926      2.4208     -0.0083     46.0382
   346.0000      8.1240     14.6706      2.4079     -0.0520     49.1481
   346.1000      8.1240     14.3347      2.4135     -0.0052     49.7322
   346.2000      8.1240     13.4589      2.4279      0.0388     49.9859
   346.3000      8.1233     13.0770      2.4342      0.0473     49.7597
   346.4000      8.1233     13.6220      2.4252      0.0179     47.5591
   346.5000      8.1229     14.7803      2.4061      0.0407     44.0711
   346.6000      8.1229     15.8478      2.3885      0.0275     44.0525
   346.7000      8.1229     16.1740      2.3831      0.0430     48.8660
   346.8000      8.1234     16.0464      2.3852      0.0788     54.6278
   346.9000      8.1234     16.1638      2.3833      0.0448     57.5708
   347.0000      8.1239     16.1822      2.3830      0.0386     55.9075
   347.1000      8.1239     15.5160      2.3940      0.0499     52.6446
   347.2000      8.1239     14.6083      2.4090      0.0910     50.9850
   347.3000      8.1238     14.3032      2.4140      0.0778     49.2688
   347.4000      8.1238     14.6490      2.4083      0.0610     45.6455
   347.5000      8.1238     14.7430      2.4067      0.0210     43.2715
   347.6000      8.1238     14.2111      2.4155      0.0785     44.6583
   347.7000      8.1238     13.9013      2.4206      0.0968     46.3029
   347.8000      8.1237     14.1388      2.4167      0.0547     45.7973
   347.9000      8.1237     14.3461      2.4133      0.0828     46.8138
   348.0000      8.1237     14.2962      2.4141      0.0525     51.9642
   348.1000      8.1237     13.8556      2.4214      0.0241     58.1661
   348.2000      8.1237     13.0983      2.4339      0.0645     60.8603
   348.3000      8.1237     12.6963      2.4405      0.0822     60.6892
   348.4000      8.1237     12.6993      2.4405      0.0550     61.0115
   348.5000      8.1238     12.5540      2.4429      0.0770     60.5226
   348.6000      8.1238     12.3609      2.4460      0.0794     56.9111
   348.7000      8.1238     12.5601      2.4428      0.0614     52.9557
   348.8000      8.1238     13.2715      2.4310      0.0600     49.5057
   348.9000      8.1238     14.4574      2.4115      0.0514     45.2724
   349.0000      8.1235     15.5824      2.3929      0.0155     43.7754
   349.1000      8.1235     15.6799      2.3913      0.0034     48.3510
   349.2000      8.1235     14.7422      2.4068      0.0376     54.4823
   349.3000      8.1232     13.8362      2.4217      0.0606     56.3010
   349.4000      8.1232     13.3200      2.4302      0.0424     56.1388
   349.5000      8.1230     12.5770      2.4425      0.0421     59.0824
   349.6000      8.1230     11.7664      2.4559      0.0955     63.7828
   349.7000      8.1230     11.6022      2.4586      0.0340     64.4677
   349.8000      8.1234     11.8299      2.4548      0.0278     59.4722
   349.9000      8.1234     11.6815      2.4573      0.0298     53.0522
   350.0000      8.1231     11.0261      2.4681      0.0788     48.0198
   350.1000      8.1231     10.4144      2.4782      0.0628     45.7144
   350.2000      8.1231      9.9366      2.4860      0.0503     47.5231
   350.3000      8.1219      9.5686      2.4921      0.0883     50.0608
   350.4000      8.1219      9.9312      2.4861      0.0733     50.4155
   350.5000      8.1218     10.9181      2.4699      0.0616     49.8424
   350.6000      8.1218     11.6242      2.4582      0.0910     50.8362
   350.7000      8.1218     11.5221      2.4599      0.0326     53.5221
   350.8000      8.1230     10.8055      2.4717      0.0836     56.2933
   350.9000      8.1230     10.2347      2.4811      0.0640     59.7322
   351.0000      8.1230     10.3556      2.4791      0.0720     61.8896
   351.1000      8.1230     11.5054      2.4602      0.0572     58.9832
   351.2000      8.1230     13.3299      2.4301      0.0416     54.6397
   351.3000      8.1222     14.3367      2.4134     -0.0044     53.7584
   351.4000      8.1222     13.3557      2.4296      0.0213     54.2637
   351.5000      8.1211     10.9379      2.4695      0.0445     51.9212
   351.6000      8.1211      8.4238      2.5110      0.0312     48.6665
   351.7000      8.1211      6.7465      2.5387      0.0888     50.1723
   351.8000      8.1194      6.3590      2.5451      0.0860     55.3060
   351.9000      8.1194      6.8845      2.5364      0.0361     59.6109
   352.0000      8.1192      7.3668      2.5284      0.0471     62.4301
   352.1000      8.1192      6.8774      2.5365     -0.0065     63.3514
   352.2000      8.1192      5.2870      2.5628      0.0436     61.1034
   352.3000      8.1202      4.1231      2.5820      0.0770     56.4982
   352.4000      8.1202      4.5951      2.5742      0.0542     53.7201
   352.5000      8.1201      5.9336      2.5521      0.0229     54.3768
   352.6000      8.1201      6.9965      2.5346      0.0150     54.4909
   352.7000      8.1201      7.4404      2.5272      0.0261     50.8397
   352.8000      8.1191      7.6099      2.5244      0.0663     45.3651
   352.9000      8.1191      7.7906      2.5215     -0.0211     42.7756
   353.0000      8.1184      7.6649      2.5235     -0.0027     46.2315
   353.1000      8.1184      7.2561      2.5303      0.0080     51.3077
   353.2000      8.1184      6.7537      2.5386      0.0030     51.2509
   353.3000      8.1181      6.2629      2.5467      0.0292     49.4028
