~Version Information
 VERS.                                  2.0 : CWLS LAS VERSION
 WRAP.                                   NO : WRAPING MODE
 SWARE .                 MController 2.5.0N : SOFTWARE VERSION
~Well Information
 WELL.                     Irish Eyes 33-21 : WELL
 COMP.    Pioneer Natural Resources USA Inc : COMPANY
 FLD.                      Purgatoire River : FIELD
 LOC.                  NWSE Sec21 T34S R65W : LOCATION
 DATE.                             01/15/06 : DATE(S) LOGGED
 SRVC.       Blanco Geological Services LLC : SERVICE COMPANY
 STAT.                             Colorado : STATE
 CNTY.                           Las Animas : COUNTY
 CTRY.                                  USA : COUNTRY
 API.                       05-071-08658-00 : API NUMBER
 STRT.FT                             296.00 : START DEPTH
 STOP.FT                            1285.00 : STOP DEPTH
 STEP.FT                               1.00 : DEPTH INCREMENT
 NULL.                                -9999 : NULL VALUE
~Curve information
 DEPTH.FT                                   :
 ROP.MIN/FT                                 :
 GAS.UNITS                                  :
~ASCII Log data
# ...
       696.0         0.33          7.7 
       697.0         0.33          8.0 
       698.0         0.33          7.8 
       699.0         0.33          7.3 
       700.0         0.37          7.3 
       701.0         0.30          7.9 
       702.0         0.23          7.0 
       703.0         0.23          8.2 
       704.0         0.25          7.4 
       705.0         0.23          8.5 
       706.0         0.20          8.5 
       707.0         0.23          8.2 
       708.0         0.20          8.2 
       709.0         0.20          8.5 
       710.0         0.20          8.7 
       711.0         0.23          8.0 
       712.0         0.23          7.3 
       713.0         0.20          7.3 
       714.0         0.30          8.1 
       715.0         0.77          8.2 
       716.0         2.45         73.0 
       717.0         0.27         15.6 
       718.0         0.23         14.8 
       719.0         0.37         12.6 
       720.0         0.23          9.3 
       721.0         0.35          9.7 
       722.0         0.30          9.5 
       723.0         0.30          8.4 
       724.0         0.30          8.9 
       725.0         0.30          8.1 
       726.0         0.23          8.6 
       727.0         0.23          8.6 
       728.0         0.27          9.0 
       729.0         0.23         10.1 
       730.0         0.23          9.6 
       731.0         0.27          9.7 
       732.0         0.30         10.4 
       733.0         0.32          9.8 
       734.0         0.40          9.0 
       735.0         0.30          9.0 
       736.0         0.30          8.9 
       737.0         0.27          9.1 
       738.0         0.27          9.5 
       739.0         0.33          9.8 
       740.0         0.33          9.7 
       741.0         0.33          9.6 
       742.0         0.33          8.7 
       743.0         0.35          8.9 
       744.0         0.30          8.6 
       745.0         0.27          8.9 
       746.0         2.98         63.4 
       747.0         0.60         17.6 
       748.0         0.30         14.4 
       749.0         0.30         13.5 
       750.0         0.30         11.2 
       751.0         0.33         10.7 
       752.0         0.33         10.5 
       753.0         0.30         10.7 
       754.0         0.33         11.4 
       755.0         0.38         10.9 
       756.0         0.33         11.1 
       757.0         0.37         11.1 
       758.0         0.37         11.5 
       759.0         0.40         10.3 
       760.0         0.37         50.9 
       761.0         0.30        108.4 
       762.0         0.23        152.9 
       763.0         0.17        167.1 
       764.0         0.17        172.6 
       765.0         0.20        171.1 
       766.0         0.18        162.7 
       767.0         0.20        155.7 
       768.0         0.20        150.2 
       769.0         0.23        147.1 
       770.0         0.30        119.5 
       771.0         0.23        111.9 
       772.0         0.23        110.8 
       773.0         0.20        108.2 
       774.0         0.23        107.1 
       775.0         0.23         94.9 
       776.0         2.92        244.0 
       777.0         0.50        138.9 
       778.0         0.50        115.9 
       779.0         0.40        109.3 
       780.0         0.35         99.3 
       781.0         0.37         90.6 
       782.0         0.30         76.2 
       783.0         0.33         74.4 
       784.0         0.33         72.8 
       785.0         0.30         71.4 
       786.0         0.33         71.2 
       787.0         0.33         71.1 
       788.0         0.33         70.7 
       789.0         0.37         69.1 
       790.0         0.35         67.6 
       791.0         0.33         67.6 
       792.0         0.37         68.8 
       793.0         0.33         69.7 
       794.0         0.40         69.7 
       795.0         0.40         66.2 
       796.0         0.33         63.0 
       797.0         0.23         64.9 
       798.0         0.17         64.9 
       799.0         0.37         65.6 
       800.0         0.38         64.9 
       801.0         0.37         64.1 
       802.0         0.37         64.4 
       803.0         0.47         65.6 
       804.0         0.30         59.7 
       805.0         0.23         57.2 
       806.0         3.92        253.4 
       807.0         0.47        101.1 
       808.0         0.27         74.1 
       809.0         0.32         65.1 
       810.0         0.30         64.8 
       811.0         0.27         63.5 
       812.0         0.33         61.1 
       813.0         0.33         58.4 
       814.0         0.37         92.9 
       815.0         0.23        106.1 
       816.0         0.17        114.9 
       817.0         0.13        118.8 
       818.0         0.17        117.4 
       819.0         0.17        114.0 
       820.0         0.20        109.0 
       821.0         0.20        112.7 
       822.0         0.20        114.8 
       823.0         0.13        114.8 
       824.0         0.15        115.3 
       825.0         0.13        115.3 
       826.0         0.17        114.0 
       827.0         0.13        110.1 
       828.0         0.30        108.8 
       829.0         0.47        108.0 
       830.0         0.37        104.4 
       831.0         0.47         99.0 
       832.0         0.27         94.7 
       833.0         0.30         92.6 
       834.0         0.27         84.0 
       835.0         0.30         59.2 
       836.0         2.92        262.6 
       837.0         0.53        121.5 
       838.0         0.45        121.0 
       839.0         0.37        106.3 
       840.0         0.37         85.4 
       841.0         0.37         76.8 
       842.0         0.33         71.9 
       843.0         0.37         67.7 
       844.0         0.37        134.7 
       845.0         0.37        174.3 
       846.0         0.17        204.6 
       847.0         0.17        204.6 
       848.0         0.15        205.0 
       849.0         0.20        183.0 
       850.0         0.23        171.2 
       851.0         0.23        159.2 
       852.0         0.20        135.5 
       853.0         0.30        118.8 
       854.0         0.27        106.6 
       855.0         0.30        103.4 
       856.0         0.27         97.1 
       857.0         0.23        102.4 
       858.0         0.23        101.3 
       859.0         0.37         97.6 
       860.0         0.30         96.8 
       861.0         0.32         85.8 
       862.0         0.27         83.7 
       863.0         0.23         84.0 
       864.0         0.30         82.1 
       865.0         0.27         76.5 
       866.0         3.55        258.1 
       867.0         0.33        117.3 
       868.0         0.30        110.8 
       869.0         0.23         97.5 
       870.0         0.30         86.9 
       871.0         0.27         80.7 
       872.0         0.27         77.3 
       873.0         0.32         74.8 
       874.0         0.30         73.4 
       875.0         0.37         71.3 
       876.0         0.30         70.1 
       877.0         0.33         69.9 
       878.0         0.37         69.2 
       879.0         0.33         67.5 
       880.0         0.30         67.4 
       881.0         0.33         67.7 
       882.0         0.33         67.3 
       883.0         0.32         66.4 
       884.0         0.30         64.8 
       885.0         0.30         64.9 
       886.0         0.27         65.0 
       887.0         0.27         64.2 
       888.0         0.27         64.2 
       889.0         0.27         64.9 
       890.0         0.30         64.9 
       891.0         0.27         64.5 
       892.0         0.30         62.8 
       893.0         0.27         62.3 
       894.0         0.30         62.6 
       895.0         0.32         57.8 
