~Version Information
VERS.                      2.0: CWLS Log ASCII Standard - VERSION 2.0
WRAP.                       NO: One line per depth step
~Well Information Block
STRT.FT               550.0000: 
STOP.FT              1981.5000: 
STEP.FT                 0.2500: 
NULL.                -999.2500: 
COMP.          Pioneer Natural Resources: COMPANY
WELL.          Flying Horse 12-11 Tr: WELL
FLD.           Purgatoire River: FIELD
LOC.           2459' FNL & 410' FWL: LOCATION
STAT.                 Colorado: State
CNTY.               Las Animas: COUNTY
CTRY. USA : Country
SECT. 11 : Section
TOWN. 32S : Township
RANG. 66W : Range
SRVC.                Patterson: SERVICE COMPANY
DATE.          Sat Sep 03 20:17:31 2005: LOG DATE
API.           05 071 08485 00: UNIQUE WELL ID
~Curve Information Block
DEPT.FT            0 000 00 00: Depth
SN.Ohm-m                      : IEL Short Normal
SP.mV                         : IEL Spontaneous Potential
DIR.Ohm-m                     : IEL Induction Resistivity
GR.GAPI                       : Gamma Ray
~Parameter Information Block
~A  Depth        SN          SP         DIR          GR     
# ...
  1119.5000   2000.0000   2000.0000     37.3804     61.4674
  1119.7500   2000.0000   2000.0000     36.5867     62.7203
  1120.0000   2000.0000   2000.0000     35.5953     64.5849
  1120.2500   2000.0000   2000.0000     34.4624     65.7958
  1120.5000   2000.0000   2000.0000     33.2708     67.6568
  1120.7500   2000.0000   2000.0000     32.0446     68.9459
  1121.0000   2000.0000   2000.0000     30.7356     70.9498
  1121.2500   2000.0000   2000.0000     29.2857     72.3391
  1121.5000   2000.0000   2000.0000     27.6926     74.3325
  1121.7500   2000.0000   2000.0000     26.0267     75.4166
  1122.0000   2000.0000   2000.0000     24.3938     76.8999
  1122.2500   2000.0000   2000.0000     22.8875     78.4834
  1122.5000   2000.0000   2000.0000     21.5599     83.0362
  1122.7500   2000.0000   2000.0000     20.4224     87.6491
  1123.0000   2000.0000   2000.0000     19.4646     96.1155
  1123.2500   2000.0000   2000.0000     18.6744    102.2882
  1123.5000   2000.0000   2000.0000     18.0444    111.8025
  1123.7500   2000.0000   2000.0000     17.5644    117.8784
  1124.0000   2000.0000   2000.0000     17.2141    125.4951
  1124.2500   2000.0000   2000.0000     16.9615    129.1168
  1124.5000   2000.0000   2000.0000     16.7717    132.4438
  1124.7500   2000.0000   2000.0000     16.6184    133.6934
  1125.0000   2000.0000   2000.0000     16.4937    134.9446
  1125.2500   2000.0000   2000.0000     16.4101    135.6126
  1125.5000   2000.0000   2000.0000     16.3951    136.1514
  1125.7500   2000.0000   2000.0000     16.4819    135.7918
  1126.0000   2000.0000   2000.0000     16.6994    133.4804
  1126.2500   2000.0000   2000.0000     17.0615    130.5799
  1126.5000   2000.0000   2000.0000     17.5544    124.4023
  1126.7500   2000.0000   2000.0000     18.1309    119.4636
  1127.0000   2000.0000   2000.0000     18.7221    111.7438
  1127.2500   2000.0000   2000.0000     19.2654    106.8722
  1127.5000   2000.0000   2000.0000     19.7280    100.6838
  1127.7500   2000.0000   2000.0000     20.1072     97.8495
  1128.0000   2000.0000   2000.0000     20.4147     96.6290
  1128.2500   2000.0000   2000.0000     20.6663     98.1437
  1128.5000   2000.0000   2000.0000     20.8855    103.2307
  1128.7500   2000.0000   2000.0000     21.1057    107.5372
  1129.0000   2000.0000   2000.0000     21.3520    113.5444
  1129.2500   2000.0000   2000.0000     21.6044    116.4439
  1129.5000   2000.0000   2000.0000     21.7763    118.5497
  1129.7500   2000.0000   2000.0000     21.7445    118.5725
  1130.0000   2000.0000   2000.0000     21.4326    117.1004
  1130.2500   2000.0000   2000.0000     20.8776    115.3975
  1130.5000   2000.0000   2000.0000     20.2049    112.1247
  1130.7500   2000.0000   2000.0000     19.5411    109.7804
  1131.0000   2000.0000   2000.0000     18.9527    106.8602
  1131.2500   2000.0000   2000.0000     18.4495    105.8770
  1131.5000   2000.0000   2000.0000     18.0212    106.7507
  1131.7500   2000.0000   2000.0000     17.6671    109.1900
  1132.0000   2000.0000   2000.0000     17.3941    115.0615
  1132.2500   2000.0000   2000.0000     17.1964    119.2961
  1132.5000   2000.0000   2000.0000     17.0415    123.7422
  1132.7500   2000.0000   2000.0000     16.8790    124.8362
  1133.0000   2000.0000   2000.0000     16.6647    124.8426
  1133.2500   2000.0000   2000.0000     16.3817    124.9687
  1133.5000   2000.0000   2000.0000     16.0395    126.2283
  1133.7500   2000.0000   2000.0000     15.6594    127.3666
  1134.0000   2000.0000   2000.0000     15.2603    128.6766
  1134.2500   2000.0000   2000.0000     14.8555    129.4560
  1134.5000   2000.0000   2000.0000     14.4570    131.5088
  1134.7500   2000.0000   2000.0000     14.0776    133.6837
  1135.0000   2000.0000   2000.0000     13.7294    137.4121
  1135.2500   2000.0000   2000.0000     13.4219    139.7511
  1135.5000   2000.0000   2000.0000     13.1630    143.2227
  1135.7500   2000.0000   2000.0000     12.9593    145.8076
  1136.0000   2000.0000   2000.0000     12.8109    149.5382
  1136.2500   2000.0000   2000.0000     12.7013    151.0289
  1136.5000   2000.0000   2000.0000     12.5943    150.8915
  1136.7500   2000.0000   2000.0000     12.4501    149.7706
  1137.0000   2000.0000   2000.0000     12.2548    148.6278
  1137.2500   2000.0000   2000.0000     12.0361    149.0686
  1137.5000   2000.0000   2000.0000     11.8491    151.0929
  1137.7500   2000.0000   2000.0000     11.7445    152.1991
  1138.0000   2000.0000   2000.0000     11.7456    151.5515
  1138.2500   2000.0000   2000.0000     11.8460    149.2239
  1138.5000   2000.0000   2000.0000     12.0222    143.7752
  1138.7500   2000.0000   2000.0000     12.2498    139.7596
  1139.0000   2000.0000   2000.0000     12.5135    134.4759
  1139.2500   2000.0000   2000.0000     12.8054    131.6811
  1139.5000   2000.0000   2000.0000     13.1156    127.7282
  1139.7500   2000.0000   2000.0000     13.4253    124.2837
  1140.0000   2000.0000   2000.0000     13.7079    116.9585
  1140.2500   2000.0000   2000.0000     13.9419    111.3055
  1140.5000   2000.0000   2000.0000     14.1283    104.7531
  1140.7500   2000.0000   2000.0000     14.2971    103.4444
  1141.0000   2000.0000   2000.0000     14.4960    106.6913
  1141.2500   2000.0000   2000.0000     14.7717    110.9881
  1141.5000   2000.0000   2000.0000     15.1524    117.0771
  1141.7500   2000.0000   2000.0000     15.6388    119.2892
  1142.0000   2000.0000   2000.0000     16.1962    119.0201
  1142.2500   2000.0000   2000.0000     16.7535    117.0452
  1142.5000   2000.0000   2000.0000     17.2199    113.2230
  1142.7500   2000.0000   2000.0000     17.5237    110.9241
  1143.0000   2000.0000   2000.0000     17.6487    108.1171
  1143.2500   2000.0000   2000.0000     17.6339    106.3297
  1143.5000   2000.0000   2000.0000     17.5372    102.9500
  1143.7500   2000.0000   2000.0000     17.3988     99.7950
  1144.0000   2000.0000   2000.0000     17.2305     93.3717
  1144.2500   2000.0000   2000.0000     17.0279     88.3364
  1144.5000   2000.0000   2000.0000     16.7898     81.5218
  1144.7500   2000.0000   2000.0000     16.5291     78.9091
  1145.0000   2000.0000   2000.0000     16.2684     79.6974
  1145.2500   2000.0000   2000.0000     16.0247     83.4998
  1145.5000   2000.0000   2000.0000     15.7927     92.7410
  1145.7500   2000.0000   2000.0000     15.5390    100.0196
  1146.0000   2000.0000   2000.0000     15.2155    110.9178
  1146.2500   2000.0000   2000.0000     14.7889    117.6658
  1146.5000   2000.0000   2000.0000     14.2633    126.7066
  1146.7500   2000.0000   2000.0000     13.6772    131.9774
  1147.0000   2000.0000   2000.0000     13.0789    138.6393
  1147.2500   2000.0000   2000.0000     12.5050    142.0307
  1147.5000   2000.0000   2000.0000     11.9744    145.1501
  1147.7500   2000.0000   2000.0000     11.4955    146.0590
  1148.0000   2000.0000   2000.0000     11.0734    146.7440
  1148.2500   2000.0000   2000.0000     10.7121    147.4624
  1148.5000   2000.0000   2000.0000     10.4127    149.4152
  1148.7500   2000.0000   2000.0000     10.1692    151.0764
  1149.0000   2000.0000   2000.0000      9.9682    153.4703
  1149.2500   2000.0000   2000.0000      9.7949    154.8100
  1149.5000   2000.0000   2000.0000      9.6418    156.2965
  1149.7500   2000.0000   2000.0000      9.5139    156.7756
  1150.0000   2000.0000   2000.0000      9.4235    156.5347
  1150.2500   2000.0000   2000.0000      9.3795    155.9337
  1150.5000   2000.0000   2000.0000      9.3791    155.0731
  1150.7500   2000.0000   2000.0000      9.4093    154.8531
  1151.0000   2000.0000   2000.0000      9.4532    155.2771
  1151.2500   2000.0000   2000.0000      9.4963    155.9217
  1151.5000   2000.0000   2000.0000      9.5285    156.4548
  1151.7500   2000.0000   2000.0000      9.5453    155.6964
  1152.0000   2000.0000   2000.0000      9.5480    152.2052
  1152.2500   2000.0000   2000.0000      9.5451    148.7770
  1152.5000   2000.0000   2000.0000      9.5496    143.7923
  1152.7500   2000.0000   2000.0000      9.5741    141.6292
