~Version Information
VERS.                      2.0: CWLS Log ASCII Standard - VERSION 2.0
WRAP.                       NO: One line per depth step
~Well Information Block
STRT.FT                -7.5000: 
STOP.FT              2228.7500: 
STEP.FT                 0.2500: 
NULL.                -999.2500: 
COMP.          Pioneer Natural Resources: COMPANY
WELL.          McDonald 33-31 R: WELL
FLD.           Purgatorie River: FIELD
LOC.           1386' FSL & 1926' FEL: LOCATION
STAT.                       CO: State
CNTY.               Las Animas: COUNTY
CTRY.                      USA: Country
SECT.                       31: Section
TOWN.                      32S: Township
RANG.                      66W: Range
SRVC.          Patterson Wireline: SERVICE COMPANY
DATE.          Wed Sep 28 13:29:18 2005: LOG DATE
API.           05 071 08533 00: API#
~Curve Information Block
DEPT.FT            0 000 00 00: Depth
CCL.                          : Casing Collar Locator
TT3.usec                      : CBL 3' Travel Time
AMP3.mV                       : CBL 3' Amplitude
GR.GAPI                       : Gamma Ray
~Parameter Information Block
~A  Depth       CCL         TT3         AMP3         GR     
# ...
  1600.5000      0.0000    465.4738      6.3190     70.0178
  1600.7500      0.0000    448.9353      6.2291     71.8681
  1601.0000      0.0000    440.8924      6.1562     74.3109
  1601.2500      0.0000    437.5021      6.1263     76.7850
  1601.5000      0.0000    436.1367      6.1461     78.6364
  1601.7500      0.0000    435.5815      6.2067     79.4392
  1602.0000      0.0000    435.4037      6.2949     79.1870
  1602.2500      0.0000    435.4633      6.3995     78.0790
  1602.5000      0.0000    435.7159      6.5078     76.3463
  1602.7500      0.0000    436.1370      6.6056     74.4986
  1603.0000      0.0000    436.6430      6.6828     73.4014
  1603.2500      0.0000    437.0698      6.7390     73.8476
  1603.5000      0.0000    437.2556      6.7786     76.1717
  1603.7500      0.0000    437.1460      6.8024     80.0624
  1604.0000      0.0000    436.7945      6.8081     84.3485
  1604.2500      0.0000    436.2730      6.7969     87.4159
  1604.5000      0.0000    435.6097      6.7748     88.4380
  1604.7500      0.0000    434.8094      6.7473     87.8673
  1605.0000      0.0000    433.9037      6.7153     86.4829
  1605.2500      0.0000    432.9715      6.6764     84.6073
  1605.5000      0.0000    432.1206      6.6317     82.5103
  1605.7500      0.0000    431.4789      6.5909     80.8697
  1606.0000      0.0000    431.2666      6.5685     80.3077
  1606.2500      0.0000    431.9208      6.5738     80.7572
  1606.5000      0.0000    434.0381      6.6042     81.6275
  1606.7500      0.0000    437.8340      6.6493     82.4021
  1607.0000      0.0000    442.3542      6.6979     82.8347
  1607.2500      0.0000    445.4710      6.7392     82.8028
  1607.5000      0.0000    445.3017      6.7622     82.2726
  1607.7500      0.0000    441.8164      6.7576     81.3055
  1608.0000      0.0000    436.6969      6.7226     79.9164
  1608.2500      0.0000    431.6782      6.6639     78.0207
  1608.5000      0.0000    427.5458      6.5966     75.6660
  1608.7500      0.0000    424.6320      6.5364     73.3025
  1609.0000      0.0000    423.3595      6.4916     71.7270
  1609.2500      0.0000    423.7286      6.4604     71.6625
  1609.5000      0.0000    424.6377      6.4353     73.1770
  1609.7500      0.0000    424.2530      6.4077     75.3260
  1610.0000      0.0000    421.1954      6.3708     76.5154
  1610.2500      0.0000    415.5272      6.3209     75.7437
  1610.5000      0.0000    408.9574      6.2595     73.8132
  1610.7500      0.0000    404.2815      6.1963     72.9645
  1611.0000      0.0000    404.8329      6.1467     74.7809
  1611.2500      0.0000    414.4633      6.1215     78.6132
  1611.5000      0.0000    437.0070      6.1166     82.3788
  1611.7500      0.0000    473.9511      6.1164     84.4743
  1612.0000      0.0000    521.7758      6.1078     84.4906
  1612.2500      0.0000    572.2357      6.0906     82.6248
  1612.5000      0.0000    616.1740      6.0761     79.2223
  1612.7500      0.0000    647.8512      6.0778     74.8427
  1613.0000      0.0000    666.6909      6.1012     70.2896
  1613.2500      0.0000    675.8964      6.1383     66.5868
  1613.5000      0.0000    679.6425      6.1724     64.9939
  1613.7500      0.0000    681.0139      6.1907     66.6143
  1614.0000      0.0000    681.5485      6.1922     71.6073
  1614.2500      0.0000    681.7706      6.1798     78.9147
  1614.5000      0.0000    681.8220      6.1476     87.0364
  1614.7500      0.0000    681.7913      6.0816     95.0384
  1615.0000      0.0000    681.7918      5.9802    102.6737
  1615.2500      0.0000    681.8756      5.8706    109.7859
  1615.5000      0.0000    681.9498      5.7971    115.8592
  1615.7500      0.0000    681.7028      5.7877    119.9730
  1616.0000      0.0000    680.4012      5.8303    121.1037
  1616.2500      0.0000    676.5254      5.8797    118.8616
  1616.5000      0.0000    667.7935      5.8926    114.0956
  1616.7500      0.0000    652.5878      5.8571    108.5119
  1617.0000      0.0000    632.2564      5.7891    103.6300
  1617.2500      0.0000    611.2692      5.7036    100.2026
  1617.5000      0.0000    593.7247      5.5982     98.4587
  1617.7500      0.0000    580.3828      5.4664     98.5492
  1618.0000      0.0000    570.7078      5.3184    100.5696
  1618.2500      0.0000    566.5173      5.1814    104.1658
  1618.5000      0.0000    570.5558      5.0804    108.2334
  1618.7500      0.0000    581.0676      5.0226    111.0701
  1619.0000      0.0000    590.3395      5.0001    111.0411
  1619.2500      0.0000    590.9102      4.9991    107.5159
  1619.5000      0.0000    583.3271      5.0080    101.3846
  1619.7500      0.0000    576.5970      5.0203     94.5719
  1620.0000      0.0000    580.6321      5.0333     88.9861
  1620.2500      0.0000    598.3316      5.0454     85.8724
  1620.5000      0.0000    624.0870      5.0550     85.6951
  1620.7500      0.0000    648.8205      5.0633     87.9447
  1621.0000      0.0000    666.3408      5.0728     90.8894
  1621.2500      0.0000    675.8190      5.0826     92.1593
  1621.5000      0.0000    679.8002      5.0865     90.3457
  1621.7500      0.0000    681.1220      5.0806     86.1640
  1622.0000      0.0000    681.4688      5.0715     81.7553
  1622.2500      0.0000    681.5112      5.0745     78.8522
  1622.5000      0.0000    681.4430      5.1023     77.7120
  1622.7500      0.0000    681.2980      5.1571     77.4249
  1623.0000      0.0000    680.9451      5.2302     76.8802
  1623.2500      0.0000    679.8868      5.3101     75.7288
  1623.5000      0.0000    677.0808      5.3878     74.8304
  1623.7500      0.0000    671.3503      5.4581     75.6131
  1624.0000      0.0000    662.8719      5.5151     78.7319
  1624.2500      0.0000    654.6246      5.5513     83.4398
  1624.5000      0.0000    651.2162      5.5635     88.2528
  1624.7500      0.0000    654.9673      5.5607     91.8944
  1625.0000      0.0000    663.5667      5.5619     93.6292
  1625.2500      0.0000    672.3655      5.5840     93.3111
  1625.5000      0.0000    678.3177      5.6306     91.5017
  1625.7500      0.0000    681.2191      5.6941     89.1650
  1626.0000      0.0000    682.2763      5.7679     86.8144
  1626.2500      0.0000    682.5922      5.8516     84.2432
  1626.5000      0.0000    682.7273      5.9440     81.5234
  1626.7500      0.0000    682.8676      6.0318     79.7459
  1627.0000      0.0000    683.0168      6.0911     79.9913
  1627.2500      0.0000    683.1175      6.1007     81.7890
  1627.5000      0.0000    683.1111      6.0576     83.3024
  1627.7500      0.0000    682.9867      5.9788     82.9586
  1628.0000      0.0000    682.7738      5.8901     80.5181
  1628.2500      0.0000    682.5120      5.8132     76.7862
  1628.5000      0.0000    682.2361      5.7621     72.9245
  1628.7500      0.0000    681.9781      5.7493     70.1119
  1629.0000      0.0000    681.7560      5.7868     69.2257
  1629.2500      0.0000    681.5526      5.8827     70.3574
  1629.5000      0.0000    681.2011      6.0366     72.7051
  1629.7500      0.0000    680.0543      6.2361     75.1205
  1630.0000      0.0000    676.4620      6.4563     76.7740
  1630.2500      0.0000    667.6577      6.6662     77.3355
  1630.5000      0.0000    651.0518      6.8413     76.6915
  1630.7500      0.0000    626.9402      6.9683     74.7088
  1631.0000      0.0000    600.3103      7.0427     71.4569
  1631.2500      0.0000    579.2520      7.0681     67.5820
  1631.5000      0.0000    570.7691      7.0622     64.2258
  1631.7500      0.0000    577.1978      7.0565     62.2923
  1632.0000      0.0000    594.8624      7.0805     61.6415
  1632.2500      0.0000    615.5009      7.1377     61.1301
  1632.5000      0.0000    631.0923      7.1984     59.5764
  1632.7500      0.0000    639.4792      7.2188     56.5710
  1633.0000      0.0000    644.8005      7.1665     52.6191
  1633.2500      0.0000    651.6367      7.0255     49.1425
  1633.5000      0.0000    659.8497      6.7857     48.4353
  1633.7500      0.0000    665.9019      6.4568     52.8549
