~Version Information
VERS.                      2.0: CWLS Log ASCII Standard - VERSION 2.0
WRAP.                       NO: One line per depth step
~Well Information Block
STRT.FT               830.0000: 
STOP.FT              1782.5000: 
STEP.FT                 0.1000: 
NULL.                -999.2500: 
COMP.          Pioneer Natural Resources: COMPANY
WELL.          Manville 42-14 Tr: WELL
FLD.           Purgatoire River: FIELD
LOC.           2018 FNL & 562' FEL: LOCATION
STAT.                 Colorado: State
CNTY.               Las Animas: COUNTY
CTRY. USA : Country
SECT. 14 : Section
TOWN. 32S : Township
RANG. 66W : Range
SRVC.                Patterson: SERVICE COMPANY
DATE.          Mon Sep 19 09:44:06 2005: LOG DATE
API.           05 071 08522 00: UNIQUE WELL ID
~Curve Information Block
DEPT.FT            0 000 00 00: Depth
DCAL.in                       : CDL Caliper
RHOB.g/cc                     : CDL Bulk Density
RHOC.g/cc                     : CDL Density Correction
DPOR.pu                       : CDL Density Porosity
GR.GAPI                       : Gamma Ray
NPOR.pu                       : Neutron Porosity
~Parameter Information Block
~A  Depth       DCAL        RHOB        RHOC        DPOR         GR         NPOR    
# ...
  1646.0000      8.0176      2.4837     -0.0092     10.0769    144.0862     24.2458
  1646.1000      8.0176      2.4999      0.0225      9.0984    145.1440     23.7309
  1646.2000      8.0176      2.5226      0.0049      7.7226    153.7693     23.9245
  1646.3000      8.0578      2.5497      0.0497      6.0790    163.4251     24.1777
  1646.4000      8.0578      2.5755      0.0609      4.5155    166.0092     23.4094
  1646.5000      8.0545      2.5819      0.0623      4.1249    160.5078     22.5887
  1646.6000      8.0545      2.5689      0.1048      4.9157    152.1684     22.6866
  1646.7000      8.0545      2.5567      0.0964      5.6557    149.6960     23.1052
  1646.8000      8.0457      2.5592      0.0510      5.5007    153.6389     23.1976
  1646.9000      8.0457      2.5732      0.0588      4.6568    157.8533     23.2330
  1647.0000      8.0220      2.5853      0.0946      3.9185    156.8053     23.7414
  1647.1000      8.0220      2.5881      0.0995      3.7522    146.9356     24.4246
  1647.2000      8.0220      2.5839      0.0977      4.0076    133.7059     24.2611
  1647.3000      8.0135      2.5728      0.0961      4.6776    125.1121     23.2644
  1647.4000      8.0135      2.5606      0.0375      5.4207    119.5343     22.5662
  1647.5000      8.0262      2.5558      0.0547      5.7113    115.5503     22.2904
  1647.6000      8.0262      2.5537      0.0631      5.8341    117.0375     21.4621
  1647.7000      8.0262      2.5563      0.0538      5.6791    122.3380     20.0494
  1647.8000      8.0226      2.5696      0.1095      4.8725    125.6776     19.4325
  1647.9000      8.0226      2.5813      0.1141      4.1620    127.9679     20.2512
  1648.0000      8.0221      2.5795      0.1018      4.2745    132.4240     21.4256
  1648.1000      8.0221      2.5687      0.1182      4.9293    135.2023     21.7083
  1648.2000      8.0221      2.5622      0.0880      5.3221    133.9978     21.0999
  1648.3000      8.0137      2.5620      0.1337      5.3356    130.0014     20.4813
  1648.4000      8.0137      2.5542      0.1120      5.8072    121.2376     20.7728
  1648.5000      7.9661      2.5371      0.0426      6.8422    112.3358     21.4778
  1648.6000      7.9661      2.5269      0.0565      7.4633    112.4077     21.3815
  1648.7000      7.9661      2.5314      0.0794      7.1865    118.7764     20.9532
  1648.8000      7.9726      2.5423      0.0710      6.5262    122.8515     20.9621
  1648.9000      7.9726      2.5517      0.0189      5.9594    121.6969     21.2353
  1649.0000      7.9940      2.5602      0.0683      5.4436    119.5887     21.9396
  1649.1000      7.9940      2.5730      0.0567      4.6672    121.1148     22.9800
  1649.2000      7.9940      2.6003      0.0422      3.0115    125.0600     23.2711
  1649.3000      8.0403      2.6351      0.1250      0.9029    127.5864     22.5408
  1649.4000      8.0403      2.6519      0.1242     -0.1169    127.2876     22.0137
  1649.5000      8.0082      2.6466      0.1250      0.2064    125.9353     22.5361
  1649.6000      8.0082      2.6331      0.0989      1.0260    126.9268     23.5967
  1649.7000      8.0082      2.6172      0.0870      1.9864    130.4997     23.6552
  1649.8000      7.9957      2.6048      0.0430      2.7403    131.1884     22.4221
  1649.9000      7.9957      2.6054      0.0468      2.7037    125.6051     21.2803
  1650.0000      7.9844      2.6108      0.0726      2.3751    117.4222     20.9563
  1650.1000      7.9844      2.6073      0.0191      2.5882    111.3514     20.9241
  1650.2000      7.9844      2.6017      0.0395      2.9268    109.4315     20.4315
  1650.3000      7.9804      2.5980      0.0829      3.1542    109.8059     19.8483
  1650.4000      7.9804      2.5845      0.0467      3.9702    107.6208     19.8434
  1650.5000      8.0176      2.5565      0.0320      5.6643    103.3397     20.2363
  1650.6000      8.0176      2.5291     -0.0377      7.3289    103.0061     20.3964
  1650.7000      8.0176      2.5255     -0.0517      7.5449    109.9492     20.2943
  1650.8000      7.9958      2.5486      0.0396      6.1453    120.9817     20.7179
  1650.9000      7.9958      2.5789      0.0635      4.3118    128.8421     21.7084
  1651.0000      8.0019      2.6001      0.0795      3.0268    129.6498     22.2858
  1651.1000      8.0019      2.6000      0.1479      3.0310    128.1107     22.5051
  1651.2000      8.0019      2.5734      0.0932      4.6434    129.3030     23.2393
  1651.3000      8.0112      2.5463      0.0575      6.2845    135.1693     23.8415
  1651.4000      8.0112      2.5475      0.0495      6.2140    146.0897     23.7556
  1651.5000      7.9902      2.5652      0.0954      5.1421    151.9709     23.7992
  1651.6000      7.9902      2.5732      0.1005      4.6539    144.9371     23.8615
  1651.7000      7.9902      2.5713      0.0578      4.7677    133.3487     23.5742
  1651.8000      7.9895      2.5758      0.0579      4.4980    129.0925     23.8332
  1651.9000      7.9895      2.5943      0.0625      3.3762    135.3265     24.8840
  1652.0000      7.9900      2.6124      0.1404      2.2770    144.7251     25.7095
  1652.1000      7.9900      2.6036      0.1165      2.8136    150.0858     25.9060
  1652.2000      7.9900      2.5661      0.0699      5.0825    151.7515     26.2100
  1652.3000      8.0371      2.5320      0.0018      7.1503    149.1929     26.6872
  1652.4000      8.0371      2.5268      0.0122      7.4638    146.0216     26.2692
  1652.5000      8.0348      2.5421      0.0435      6.5418    148.1866     24.9617
  1652.6000      8.0348      2.5614      0.0310      5.3717    153.6278     23.7736
  1652.7000      8.0348      2.5831      0.0501      4.0545    158.4360     23.1286
  1652.8000      8.0158      2.5994      0.1052      3.0681    162.5928     23.2884
  1652.9000      8.0158      2.5973      0.0503      3.1966    163.1572     24.1492
  1653.0000      8.0529      2.5789      0.0480      4.3104    157.0338     25.1161
  1653.1000      8.0529      2.5543      0.0652      5.8018    149.7771     26.0167
  1653.2000      8.0529      2.5345      0.0366      6.9998    148.6329     27.0096
  1653.3000      8.0550      2.5283      0.0198      7.3732    154.0994     27.3866
  1653.4000      8.0550      2.5361      0.0201      6.9052    161.6197     26.5050
  1653.5000      8.0735      2.5527      0.0170      5.8990    168.1672     25.6332
  1653.6000      8.0735      2.5701      0.0312      4.8428    174.3919     25.7977
  1653.7000      8.0735      2.5733      0.0361      4.6498    182.3953     26.2001
  1653.8000      8.0529      2.5543      0.0181      5.8025    193.2633     26.2620
  1653.9000      8.0529      2.5197     -0.0107      7.8996    198.6729     26.5039
  1654.0000      8.0714      2.4736      0.0483     10.6920    190.4130     27.2340
  1654.1000      8.0714      2.4233     -0.0339     13.7415    177.4654     27.9164
  1654.2000      8.0714      2.3927     -0.0302     15.5959    169.9095     27.8826
  1654.3000      8.0736      2.3939      0.0020     15.5232    168.2201     27.3493
  1654.4000      8.0736      2.4074      0.0099     14.7058    168.8646     27.0351
  1654.5000      8.0721      2.4135      0.0164     14.3347    169.1115     26.9459
  1654.6000      8.0721      2.4168      0.0017     14.1315    169.7848     26.7176
  1654.7000      8.0721      2.4204      0.0755     13.9160    172.0724     26.5696
  1654.8000      8.1317      2.4016      0.1197     15.0553    177.1688     27.1824
  1654.9000      8.1317      2.3305      0.1631     19.3632    187.4959     28.6145
  1655.0000      8.2012      2.2071      0.0700     26.8431    200.9690     29.8252
  1655.1000      8.2012      2.0685      0.0087     35.2404    208.2398     30.0147
  1655.2000      8.2012      1.9434     -0.0148     42.8235    203.9107     29.7510
  1655.3000      8.2635      1.8241     -0.1054     50.0551    194.6898     29.7155
  1655.4000      8.2635      1.7024     -0.1077     57.4302    184.0037     29.7537
  1655.5000      8.2188      1.6060     -0.1207     63.2738    165.7639     30.0235
