~Version Information
VERS.                      2.0: CWLS Log ASCII Standard - VERSION 2.0
WRAP.                       NO: One line per depth step
~Well Information Block
STRT.FT               485.0000: 
STOP.FT              1030.5000: 
STEP.FT                 0.1000: 
NULL.                -999.2500: 
COMP.          Pioneer Natural Resources: COMPANY
WELL.          Red Raider 22-15: WELL
FLD.           Purgatoire River: FIELD
LOC.           1809' FNL & 2107' FWL: LOCATION
CNTY.               Las Animas: COUNTY
SRVC.                Patterson: SERVICE COMPANY
DATE.          Tue Apr 11 10:06:17 2006: LOG DATE
UWI.           05 071 08718 00: UNIQUE WELL ID
STAT.                 Colorado: STATE
~Curve Information Block
DEPT.FT            0 000 00 00: Depth
DCAL.in                       : CDL Caliper
RHOB.g/cc                     : CDL Bulk Density
RHOC.g/cc                     : CDL Density Correction
DPOR.pu                       : CDL Density Porosity
GR.GAPI                       : Gamma Ray
NPOR.pu                       : Neutron Porosity
~Parameter Information Block
~A  Depth       DCAL        RHOB        RHOC        DPOR         GR         NPOR    
# ...
   840.2000      7.9281      1.4915     -0.0568     70.2126     69.0982     15.6190
   840.3000      7.9374      1.4204     -0.0311     74.5214     60.3953     17.0745
   840.4000      7.9374      1.3674     -0.0388     77.7347     53.8119     18.4604
   840.5000      7.9470      1.3524      0.0235     78.6417     50.3177     19.6504
   840.6000      7.9470      1.3995      0.0355     75.7896     49.1094     21.1640
   840.7000      7.9470      1.5081      0.0980     69.2081     51.2752     23.0223
   840.8000      7.9529      1.6522      0.1560     60.4715     55.7002     24.2513
   840.9000      7.9529      1.8118      0.2064     50.8018     59.7539     24.6373
   841.0000      7.9524      1.9768      0.2750     40.8016     62.5479     25.0400
   841.1000      7.9524      2.1341      0.3387     31.2676     63.9742     25.7652
   841.2000      7.9524      2.2738      0.3680     22.7977     65.8816     26.6591
   841.3000      7.9464      2.3888      0.3769     15.8278     71.2298     27.4212
   841.4000      7.9464      2.4679      0.3860     11.0344     79.3390     27.6160
   841.5000      7.9395      2.5027      0.2704      8.9263     86.2750     27.3964
   841.6000      7.9395      2.5021      0.1094      8.9635     91.5912     27.4373
   841.7000      7.9395      2.4949      0.0476      9.3977     97.2435     27.8104
   841.8000      7.9361      2.5035      0.0423      8.8768    100.8632     27.7655
   841.9000      7.9361      2.5256      0.0414      7.5397     99.6214     26.9756
   842.0000      7.9365      2.5462      0.1142      6.2883     96.0120     26.2526
   842.1000      7.9365      2.5597      0.0368      5.4751     91.4313     26.2009
   842.2000      7.9365      2.5737      0.0651      4.6220     84.7865     26.4904
   842.3000      7.9372      2.5853      0.0867      3.9193     78.7567     26.5352
   842.4000      7.9372      2.5811      0.0827      4.1752     76.1774     26.2097
   842.5000      7.9365      2.5650      0.0464      5.1496     77.5006     25.5190
   842.6000      7.9365      2.5561      0.0271      5.6929     81.3254     24.2882
   842.7000      7.9365      2.5603      0.0405      5.4382     83.8614     23.1482
   842.8000      7.9357      2.5721      0.0096      4.7231     84.5814     22.7776
   842.9000      7.9357      2.5857      0.0451      3.8943     85.5566     22.7793
   843.0000      7.9355      2.5852      0.0531      3.9302     88.6415     22.6351
   843.1000      7.9355      2.5662      0.0118      5.0804     94.7247     22.3535
   843.2000      7.9355      2.5537      0.0076      5.8369    101.3615     21.9762
   843.3000      7.9348      2.5539      0.0573      5.8234    104.5212     21.4251
   843.4000      7.9348      2.5481      0.0424      6.1768    104.4127     20.8802
   843.5000      7.9332      2.5363      0.0284      6.8881    104.8556     20.7518
   843.6000      7.9332      2.5232      0.0975      7.6841    105.4419     20.8617
   843.7000      7.9332      2.5015      0.0608      9.0007    104.7045     20.9944
   843.8000      7.9320      2.4737      0.0596     10.6821    105.7379     21.3157
   843.9000      7.9320      2.4452      0.0450     12.4139    107.7374     21.5750
   844.0000      7.9314      2.4188      0.0278     14.0099    106.8191     21.3931
   844.1000      7.9314      2.3987      0.0267     15.2313    106.4120     21.1511
   844.2000      7.9314      2.3839      0.0172     16.1274    113.0483     21.5462
   844.3000      7.9306      2.3746     -0.0109     16.6883    123.7589     22.4238
   844.4000      7.9306      2.3699      0.0190     16.9735    131.0890     23.1554
   844.5000      7.9308      2.3649     -0.0009     17.2810    133.4146     23.4755
   844.6000      7.9308      2.3623      0.0086     17.4379    135.1049     23.5320
   844.7000      7.9308      2.3672      0.0288     17.1403    137.9075     23.8005
   844.8000      7.9336      2.3778      0.0344     16.4982    135.4404     24.2982
   844.9000      7.9336      2.3912      0.0288     15.6857    127.3128     24.7854
   845.0000      7.9349      2.4053      0.0538     14.8274    121.9679     25.3516
   845.1000      7.9349      2.4215      0.0629     13.8468    120.8099     25.8596
   845.2000      7.9349      2.4446      0.0387     12.4477    123.6448     26.3810
   845.3000      7.9341      2.4707      0.0610     10.8639    129.2980     27.1507
   845.4000      7.9341      2.4900      0.0654      9.6954    130.4465     27.7182
   845.5000      7.9334      2.4982      0.1078      9.1985    127.4173     27.9624
   845.6000      7.9334      2.4981      0.0609      9.2081    125.6846     28.1505
   845.7000      7.9334      2.5034      0.0451      8.8853    124.8415     28.1021
   845.8000      7.9330      2.5276      0.0546      7.4200    126.4528     27.5467
   845.9000      7.9330      2.5606      0.1142      5.4197    129.8237     26.6637
   846.0000      7.9327      2.5771      0.0892      4.4165    128.1725     26.0291
   846.1000      7.9327      2.5754      0.0495      4.5221    121.7372     25.6995
   846.2000      7.9327      2.5669      0.0789      5.0338    117.8790     25.4321
   846.3000      7.9325      2.5502      0.0323      6.0488    117.9512     25.6135
   846.4000      7.9325      2.5263      0.0235      7.4989    115.8779     26.4608
   846.5000      7.9315      2.5076      0.0362      8.6315    110.8599     27.1265
   846.6000      7.9315      2.5063      0.0350      8.7119    108.0497     26.7895
   846.7000      7.9315      2.5191      0.0133      7.9306    106.3599     25.9005
   846.8000      7.9307      2.5310      0.0297      7.2111    102.4306     25.3394
   846.9000      7.9307      2.5299      0.0367      7.2771    100.6009     24.9861
   847.0000      7.9318      2.5225     -0.0075      7.7257    101.7415     24.3934
   847.1000      7.9318      2.5265      0.0185      7.4820    102.1355     23.7937
   847.2000      7.9318      2.5432      0.0317      6.4729    102.4175     23.5049
   847.3000      7.9337      2.5573      0.0532      5.6184    105.0735     23.6315
   847.4000      7.9337      2.5640      0.0239      5.2100    109.5180     24.0281
   847.5000      7.9351      2.5718      0.0609      4.7424    110.8874     24.3630
   847.6000      7.9351      2.5754      0.0661      4.5208    108.9752     24.6575
   847.7000      7.9351      2.5700      0.0049      4.8459    107.7163     25.0481
   847.8000      7.9353      2.5674      0.0067      5.0035    103.7227     25.6317
   847.9000      7.9353      2.5621      0.0670      5.3299     95.6675     26.3220
   848.0000      7.9347      2.5364      0.0662      6.8848     90.8129     26.5044
   848.1000      7.9347      2.5054      0.0132      8.7626     92.6640     25.9709
   848.2000      7.9347      2.4976     -0.0447      9.2349     96.1781     25.0614
   848.3000      7.9356      2.5106      0.0365      8.4511     97.0607     23.9997
   848.4000      7.9356      2.5276     -0.0175      7.4202     96.7913     23.3816
   848.5000      7.9365      2.5449      0.0167      6.3713     97.2832     23.3955
   848.6000      7.9365      2.5562      0.0301      5.6868     98.1698     23.4062
   848.7000      7.9365      2.5576      0.0367      5.6007     97.6280     23.3279
   848.8000      7.9353      2.5573      0.0260      5.6170     96.0592     23.4152
   848.9000      7.9353      2.5548      0.0417      5.7700     96.2066     23.5473
   849.0000      7.9337      2.5384      0.0384      6.7657     97.3172     23.5369
   849.1000      7.9337      2.5117     -0.0017      8.3819     97.5715     23.6542
   849.2000      7.9337      2.4968      0.0072      9.2843     98.0153     24.2014
   849.3000      7.9333      2.5030      0.0043      8.9095     98.9268     24.7664
   849.4000      7.9333      2.5161      0.0256      8.1181    100.4292     24.8955
   849.5000      7.9331      2.5231      0.0254      7.6899    101.9127     24.6579
   849.6000      7.9331      2.5254      0.0180      7.5545    101.1585     24.1994
   849.7000      7.9331      2.5240      0.0385      7.6343     98.1176     23.6525
