~Version Information
VERS.                      2.0: CWLS Log ASCII Standard - VERSION 2.0
WRAP.                       NO: One line per depth step
~Well Information Block
STRT.FT                 0.0000: 
STOP.FT              1538.0000: 
STEP.FT                 0.2500: 
NULL.                -999.2500: 
COMP.          Pioneer Natural Resources: COMPANY
WELL.           Butch 33-10 TR: WELL
FLD.           Purgatorie River: FIELD
LOC.           2309' FSL & 1337' FEL: LOCATION
PROV.                 Colorado: PROVINCE
CNTY.               Las Animas: COUNTRY
SRVC.                Patterson: SERVICE COMPANY
DATE.          Thu Jan 19 12:40:27 2006: LOG DATE
UWI.                          : UNIQUE WELL ID
~Curve Information Block
DEPT.FT            0 000 00 00: Depth
CCL.                          : Casing Collar Locator
TT3.usec                      : CBL 3' Travel Time
AMP3.mV                       : CBL 3' Amplitude
GR.GAPI                       : Gamma Ray
~Parameter Information Block
~A  Depth       CCL         TT3         AMP3         GR     
     0.0000   -999.2500   1176.0000      1.7594     69.8963
     0.2500   -999.2500   1176.0000      1.8394     68.5982
     0.5000   -999.2500   1176.0000      1.9076     60.6501
     0.7500   -999.2500   1176.0000      1.9122     55.7263
     1.0000   -999.2500   1176.0000      1.8953     50.5501
     1.2500   -999.2500   1176.0000      1.8444     44.8666
     1.5000   -999.2500   1176.0000      1.7512     38.8372
     1.7500   -999.2500   1176.0000      1.6319     33.2363
     2.0000   -999.2500   1176.0000      1.5263     29.1546
     2.2500   -999.2500   1176.0000      1.4684     27.5277
     2.5000   -999.2500   1176.0000      1.4626     28.6936
     2.7500   -999.2500   1176.0000      1.4888     32.2351
     3.0000   -999.2500   1176.0000      1.5226     37.1569
     3.2500   -999.2500   1176.0000      1.5537     42.1746
     3.5000   -999.2500   1176.0000      1.5968     46.0430
     3.7500      0.0000   1176.0000      1.6743     47.9897
     4.0000      0.0000   1176.0000      1.7760     48.0484
     4.2500      0.0000   1176.0000      1.8603     46.9533
     4.5000      0.0000   1176.0000      1.9036     45.6404
     4.7500      0.0000   1176.0000      1.9139     44.7413
     5.0000      0.0000   1176.0000      1.9027     44.4349
     5.2500      0.0000   1176.0000      1.8722     44.6061
     5.5000      0.0000   1176.0000      1.8267     45.0169
     5.7500      0.0000   1176.0000      1.7753     45.3298
     6.0000      0.0000   1176.0000      1.7177     45.1840
     6.2500      0.0000   1176.0000      1.6440     44.3941
     6.5000      0.0000   1176.0000      1.5522     43.0081
     6.7500      0.0000   1176.0000      1.4562     41.2005
     7.0000      0.0000   1176.0000      1.3790     39.3523
     7.2500      0.0000   1176.0000      1.3361     38.1343
     7.5000      0.0000   1176.0000      1.3306     38.0821
     7.7500      0.0000   1176.0000      1.3632     39.0375
     8.0000      0.0000   1176.0000      1.4299     40.3245
     8.2500      0.0000   1176.0000      1.5075     41.4607
     8.5000      0.0000   1176.0000      1.5733     42.4162
     8.7500      0.0000   1175.9788      1.6246     43.3361
     9.0000      0.0000   1175.7454      1.6500     44.4364
     9.2500      0.0000   1174.0775      1.6322     46.1463
     9.5000      0.0000   1166.5698      1.5900     48.8595
     9.7500      0.0000   1145.7103      1.5573     52.3350
    10.0000      0.0000   1110.9030      1.5470     55.6615
    10.2500      0.0000   1076.3761      1.6300     58.0655
    10.5000      0.0000   1046.6323      2.3102     59.6262
    10.7500      0.0000    988.0050      5.4349     61.0860
    11.0000      0.0000    859.2628     14.6799     63.1289
    11.2500      0.0000    668.3359     32.4574     65.8712
    11.5000      0.0000    476.5947     54.6243     68.8598
    11.7500      0.0000    344.6210     72.5641     71.4773
    12.0000      0.0000    283.1501     82.0856     73.4223
    12.2500      0.0000    264.1256     85.5274     74.8778
    12.5000      0.0000    260.2653     86.4649     76.2562
    12.7500      0.0000    259.7433     86.6643     77.7250
    13.0000      0.0000    259.6827     86.6710     78.9688
    13.2500      0.0000    259.6767     86.6878     79.6066
    13.5000      0.0000    259.6819     86.7035     79.8878
    13.7500      0.0000    259.6880     86.3437     80.7288
    14.0000      0.0000    259.7173     84.9536     82.8861
    14.2500      0.0000    259.8939     82.2948     86.2262
    14.5000      0.0000    260.4759     78.9626     89.8442
    14.7500      0.0000    261.6991     75.1492     92.7383
    15.0000      0.0000    263.4297     70.2661     94.4579
    15.2500      0.0000    265.0836     65.0360     95.4566
    15.5000      0.0000    266.1447     61.2868     96.8226
    15.7500      0.0000    266.6230     59.4083     99.3328
    16.0000     -2.0000    266.8077     58.5350    102.6827
    16.2500      2.0000    266.8873     58.0832    105.8228
    16.5000      0.0000    266.9376     57.8044    108.0931
    16.7500      0.0000    267.0129     57.4182    109.7874
    17.0000      0.0000    267.1178     56.8018    111.5911
    17.2500      0.0000    267.0540     56.6509    113.6212
    17.5000      0.0000    266.3627     58.3687    115.1769
    17.7500      0.0000    264.7698     62.4438    115.5847
    18.0000      0.0000    262.7456     68.1986    115.0954
    18.2500      0.0000    261.1381     74.9682    114.4726
    18.5000      0.0000    260.2931     81.4893    113.8463
    18.7500      0.0000    259.9760     85.9833    112.5811
    19.0000      0.0000    259.8780     88.0240    110.2485
    19.2500      0.0000    259.8466     88.5981    107.2430
    19.5000      0.0000    259.8354     88.6766    104.3017
    19.7500      0.0000    259.8343     88.6777    101.7695
    20.0000      0.0000    259.8371     88.7049     99.5970
    20.2500      0.0000    259.8339     88.7447     97.9640
    20.5000      0.0000    259.8189     88.7663     97.5128
    20.7500      0.0000    259.8012     88.8002     98.6342
    21.0000      0.0000    259.7946     88.9105    100.6618
    21.2500      0.0000    259.8018     89.0943    102.1509
    21.5000      0.0000    259.8153     89.2715    102.1802
    21.7500      0.0000    259.8199     89.3711    101.1829
    22.0000      0.0000    259.7961     89.3715    100.3464
    22.2500      0.0000    259.7413     89.2816    100.4759
    22.5000      0.0000    259.6878     89.1629    101.6315
    22.7500      0.0000    259.6799     89.1320    103.4360
    23.0000      0.0000    259.7198     89.2504    105.1491
    23.2500      0.0000    259.7635     89.4452    105.6245
    23.5000      0.0000    259.7856     89.6020    103.8813
    23.7500      0.0000    259.8033     89.6953    100.0197
    24.0000      0.0000    259.8303     89.7696     95.3101
    24.2500      0.0000    259.8555     89.8406     91.2218
    24.5000      0.0000    259.8680     89.8936     88.4009
    24.7500      0.0000    259.8735     89.9392     86.5554
    25.0000      0.0000    259.8836     90.0245     85.2248
    25.2500      0.0000    259.9043     90.2111     84.4334
    25.5000      0.0000    259.9330     90.5183     84.3525
    25.7500      0.0000    259.9593     90.8708     84.5670
    26.0000      0.0000    259.9720     91.1403     84.3249
    26.2500      0.0000    259.9719     91.2537     83.6374
    26.5000      0.0000    259.9680     91.2535     83.5345
    26.7500      0.0000    259.9640     91.2509     84.8151
    27.0000      0.0000    259.9588     91.3266     86.7534
    27.2500      0.0000    259.9565     91.4606     87.4034
    27.5000      0.0000    259.9607     91.5737     85.3024
    27.7500      0.0000    259.9692     91.6557     80.9880
    28.0000      0.0000    259.9825     91.7531     76.8450
    28.2500      0.0000    260.0030     91.8403     75.2923
    28.5000      0.0000    260.0199     91.8386     76.9410
    28.7500      0.0000    260.0175     91.6767     80.3998
    29.0000      0.0000    260.0206     91.1564     83.7889
    29.2500      0.0000    260.1630     89.8297     86.5007
    29.5000      0.0000    260.7000     87.1866     89.6385
    29.7500      0.0000    261.8069     82.8277     94.6995
    30.0000      0.0000    263.3129     76.6106    101.5246
    30.2500      0.0000    264.7859     69.4698    107.3633
    30.5000      0.0000    265.8829     63.5374    108.5061
    30.7500      0.0000    266.5166     60.2545    103.5865
    31.0000      0.0000    266.7866     59.1993     95.2624
    31.2500      2.0000    266.8525     59.1755     88.2170
    31.5000     -2.0000    266.8340     59.4114     85.5542
    31.7500      0.0000    266.7624     59.7598     87.1888
    32.0000      0.0000    266.5746     60.6483     90.9706
    32.2500      0.0000    266.1633     63.0075     94.5658
    32.5000      0.0000    265.4560     67.5721     96.5098
    32.7500      0.0000    264.4366     73.7032     96.3252
    33.0000      0.0000    263.1485     79.4763     94.0282
    33.2500      0.0000    261.7503     83.5284     89.4636
