~Version Information
 VERS.                                  2.0 : CWLS LAS VERSION
 WRAP.                                   NO : WRAPING MODE
 SWARE .                 MController 2.5.0J : SOFTWARE VERSION
~Well Information
 WELL.                     DAYTONA 31-14 TR : WELL
 COMP.    PIONEER NATURAL RESOURCES USA INC : COMPANY
 FLD.                      PURGATOIRE RIVER : FIELD
 LOC.                NW/NE SEC 14 T33S R67W : LOCATION
 DATE.                             01/27/06 : DATE(S) LOGGED
 SRVC.       BLANCO GEOLOGICAL SERVICES LLC : SERVICE COMPANY
 STAT.                             COLORADO : STATE
 CNTY.                           LAS ANIMAS : COUNTY
 CTRY.                                  USA : COUNTRY
 API.                       05-071-08681-00 : API NUMBER
 STRT.FT                             385.00 : START DEPTH
 STOP.FT                            1587.00 : STOP DEPTH
 STEP.FT                               1.00 : DEPTH INCREMENT
 NULL.                                -9999 : NULL VALUE
~Curve information
 DEPTH.FT                                   :
 ROP.MIN/FT                                 :
 GAS.UNITS                                  :
~ASCII Log data
# ...
       785.0         0.23          3.8 
       786.0         0.43          3.8 
       787.0         0.20          3.9 
       788.0         0.20          3.9 
       789.0         0.23          3.8 
       790.0         0.22          4.0 
       791.0         0.23          3.9 
       792.0         0.17          3.7 
       793.0         0.17          3.7 
       794.0         0.20          3.6 
       795.0         0.20          3.2 
       796.0         0.20          3.9 
       797.0         0.17          3.7 
       798.0         0.17          3.3 
       799.0         0.10          3.2 
       800.0         0.13          3.5 
       801.0         0.17          3.2 
       802.0         0.23          3.5 
       803.0         0.10          3.3 
       804.0         0.17          3.8 
       805.0         0.13          3.7 
       806.0         1.98          3.7 
       807.0         0.27          3.5 
       808.0         0.20          3.0 
       809.0         0.13          3.3 
       810.0         0.30          3.5 
       811.0         0.33          3.4 
       812.0         0.27          3.3 
       813.0         0.13          3.1 
       814.0         0.13          3.4 
       815.0         0.13          3.0 
       816.0         0.12          3.2 
       817.0         0.13          3.5 
       818.0         0.13          3.1 
       819.0         0.17          3.0 
       820.0         0.20          3.4 
       821.0         0.17          3.1 
       822.0         0.17          3.1 
       823.0         0.13          3.5 
       824.0         0.13          3.5 
       825.0         0.17          3.3 
       826.0         0.17          3.4 
       827.0         0.17          3.1 
       828.0         0.17          3.4 
       829.0         0.17          3.6 
       830.0         0.13          3.5 
       831.0         0.17          3.5 
       832.0         0.27          3.3 
       833.0         0.20          3.4 
       834.0         0.17          3.3 
       835.0         0.13          3.0 
       836.0         1.52          3.4 
       837.0         0.13          3.4 
       838.0         0.20          3.1 
       839.0         0.27          3.0 
       840.0         0.20          3.4 
       841.0         0.20          3.4 
       842.0         0.17          3.2 
       843.0         0.17          3.0 
       844.0         0.13          2.9 
       845.0         0.23          3.3 
       846.0         0.17          3.4 
       847.0         0.18          3.0 
       848.0         0.20          3.4 
       849.0         0.17          3.2 
       850.0         0.17          3.3 
       851.0         0.17          3.2 
       852.0         0.17          3.6 
       853.0         0.17          3.5 
       854.0         0.17          3.3 
       855.0         0.13          2.9 
       856.0         0.13          3.2 
       857.0         0.13          3.3 
       858.0         0.13          3.0 
       859.0         0.13          2.8 
       860.0         0.23          3.1 
       861.0         0.23          3.3 
       862.0         0.37          3.3 
       863.0         0.30          3.4 
       864.0         0.13          2.7 
       865.0         0.28          2.5 
       866.0         5.55         22.0 
       867.0         0.50         19.6 
       868.0         0.40         17.8 
       869.0         0.28         13.8 
       870.0         0.17         14.4 
       871.0         0.13         14.1 
       872.0         0.13         14.8 
       873.0         0.17         16.1 
       874.0         0.17         13.4 
       875.0         0.13         14.2 
       876.0         0.13         14.8 
       877.0         0.23         15.9 
       878.0         0.20         17.6 
       879.0         0.23         19.6 
       880.0         0.23         11.9 
       881.0         0.20         11.1 
       882.0         0.27         14.0 
       883.0         0.17         12.7 
       884.0         0.20          7.5 
       885.0         0.23          5.5 
       886.0         0.25          5.5 
       887.0         0.23          6.1 
       888.0         0.23          2.0 
       889.0         0.17          1.4 
       890.0         0.23          1.8 
       891.0         0.17          2.1 
       892.0         0.20          1.8 
       893.0         0.23          1.9 
       894.0         0.27          1.8 
       895.0         0.27          2.0 
       896.0         4.38         18.0 
       897.0         0.45         76.7 
       898.0         0.23         77.6 
       899.0         0.23         45.3 
       900.0         0.27         26.5 
       901.0         0.30         32.2 
       902.0         0.30         33.4 
       903.0         0.27         31.5 
       904.0         0.23         31.0 
       905.0         0.27         16.6 
       906.0         0.27         13.1 
       907.0         0.23          7.0 
       908.0         0.23          6.1 
       909.0         0.25          7.0 
       910.0         0.27          6.2 
       911.0         0.23          6.9 
       912.0         0.27          5.4 
       913.0         0.27          5.7 
       914.0         0.27          6.6 
       915.0         0.27          6.8 
       916.0         0.27          6.7 
       917.0         0.23          5.5 
       918.0         0.30          6.4 
       919.0         0.23          5.5 
       920.0         0.27          6.2 
       921.0         0.27          4.9 
       922.0         0.28          3.3 
       923.0         0.23          1.8 
       924.0         0.27          1.5 
       925.0         0.23          1.5 
       926.0         3.35          5.7 
       927.0         0.30          6.4 
       928.0         0.20         27.0 
       929.0         0.10         29.6 
       930.0         0.10         32.0 
       931.0         0.10         45.9 
       932.0         0.20         51.0 
       933.0         0.23         24.6 
       934.0         0.30         22.0 
       935.0         0.27         20.7 
       936.0         0.30          5.8 
       937.0         0.27         21.6 
       938.0         0.28         22.2 
       939.0         0.27         24.2 
       940.0         0.30         23.9 
       941.0         0.87         13.6 
       942.0         0.27          7.4 
       943.0         0.17          8.1 
       944.0         0.10          7.0 
       945.0         0.07          5.4 
       946.0         0.07          6.4 
       947.0         0.27          9.3 
       948.0         0.27          7.1 
       949.0         0.20          8.1 
       950.0         0.20          6.9 
       951.0         0.25          1.8 
       952.0         0.17          1.4 
       953.0         0.13          1.5 
       954.0         0.27          1.6 
       955.0         0.20          1.5 
       956.0         3.48          3.8 
       957.0         0.37          2.5 
       958.0         0.33         12.3 
       959.0         0.30         10.0 
       960.0         0.33         19.6 
       961.0         0.33         22.2 
       962.0         0.37         17.3 
       963.0         0.32         15.2 
       964.0         0.30         11.5 
       965.0         0.33         10.1 
       966.0         0.23          4.6 
       967.0         0.17          2.4 
       968.0         0.13          4.9 
       969.0         0.17          6.2 
       970.0         0.23          5.8 
       971.0         0.20          3.4 
       972.0         0.23          2.3 
       973.0         0.23          5.5 
       974.0         0.53          6.5 
       975.0         0.55          4.2 
       976.0         0.73          6.6 
       977.0         0.27          8.7 
       978.0         0.37          5.3 
       979.0         0.20          1.7 
       980.0         0.30          1.6 
       981.0         0.27          2.0 
       982.0         0.20          2.0 
       983.0         0.20          1.9 
       984.0         0.17          2.0 
