~Version Information
VERS.                      2.0: CWLS Log ASCII Standard - VERSION 2.0
WRAP.                       NO: One line per depth step
~Well Information Block
STRT.FT               -10.0000: 
STOP.FT              1935.0000: 
STEP.FT                 0.2500: 
NULL.                -999.2500: 
COMP.          Pioneer Natural Resources: COMPANY
WELL.           Willys 32-8 Tr: WELL
FLD.           Purgatorie River: FIELD
LOC.           1843' FNL & 2355' FEL--: LOCATION
CNTY.               Las Animas: COUNTY
SRVC.          Patterson Wireline: SERVICE COMPANY
DATE.          Wed Feb 15 13:29:41 2006: LOG DATE
UWI.           05 071 08688 00: UNIQUE WELL ID
STAT.                       CO: STATE
~Curve Information Block
DEPT.FT            0 000 00 00: Depth
CCL.                          : Casing Collar Locator
TT3.usec                      : CBL 3' Travel Time
AMP3.mV                       : CBL 3' Amplitude
GR.GAPI                       : Gamma Ray
~Parameter Information Block
~A  Depth       CCL         TT3         AMP3         GR     
   -10.0000   -999.2500   -999.2500   -999.2500     65.1348
    -9.7500   -999.2500   -999.2500   -999.2500     67.6710
    -9.5000   -999.2500   -999.2500   -999.2500     69.2396
    -9.2500   -999.2500   -999.2500   -999.2500     70.0196
    -9.0000   -999.2500   -999.2500   -999.2500     71.1291
    -8.7500   -999.2500   -999.2500   -999.2500     73.7089
    -8.5000   -999.2500   -999.2500   -999.2500     77.6646
    -8.2500   -999.2500   -999.2500   -999.2500     81.5540
    -8.0000   -999.2500   -999.2500   -999.2500     83.9761
    -7.7500   -999.2500   -999.2500   -999.2500     84.8891
    -7.5000   -999.2500   -999.2500   -999.2500     85.3976
    -7.2500   -999.2500   -999.2500   -999.2500     86.4987
    -7.0000   -999.2500   -999.2500   -999.2500     88.1573
    -6.7500   -999.2500   -999.2500   -999.2500     89.2711
    -6.5000   -999.2500   -999.2500   -999.2500     88.3001
    -6.2500   -999.2500   -999.2500   -999.2500     84.2497
    -6.0000   -999.2500   -999.2500   -999.2500     77.5272
    -5.7500   -999.2500   -999.2500   -999.2500     70.0933
    -5.5000   -999.2500   -999.2500   -999.2500     64.7337
    -5.2500   -999.2500   1161.0000      0.9187     63.6167
    -5.0000   -999.2500   1161.0000      0.9281     66.8200
    -4.7500   -999.2500   1161.0000      0.9328     72.0484
    -4.5000   -999.2500   1161.0000      0.9336     76.0222
    -4.2500   -999.2500   1161.0000      0.9345     76.4375
    -4.0000   -999.2500   1161.0000      0.9393     73.0375
    -3.7500   -999.2500   1161.0000      0.9471     67.4986
    -3.5000   -999.2500   1161.0000      0.9533     62.4699
    -3.2500   -999.2500   1161.0000      0.9535     60.0767
    -3.0000   -999.2500   1161.0000      0.9474     60.7584
    -2.7500   -999.2500   1161.0000      0.9385     63.4089
    -2.5000   -999.2500   1161.0000      0.9311     66.4807
    -2.2500   -999.2500   1161.0000      0.9267     68.8546
    -2.0000   -999.2500   1161.0000      0.9233     70.0160
    -1.7500   -999.2500   1161.0000      0.9178     69.9426
    -1.5000   -999.2500   1161.0000      0.9102     68.9935
    -1.2500   -999.2500   1161.0000      0.9047     67.6602
    -1.0000   -999.2500   1161.0000      0.9054     66.1763
    -0.7500   -999.2500   1161.0000      0.9116     64.2290
    -0.5000   -999.2500   1161.0000      0.9206     56.4322
    -0.2500      0.0000   1161.0000      0.9186     50.5494
     0.0000      0.0000   1161.0000      0.9155     44.4191
     0.2500      2.0000   1161.0000      0.9152     38.8231
     0.5000     -2.0000   1161.0000      0.9186     34.1251
     0.7500      0.0000   1161.0000      0.9229     30.5963
     1.0000      2.0000   1161.0000      0.9227     28.5273
     1.2500      0.0000   1161.0000      0.9144     27.9583
     1.5000      0.0000   1161.0000      0.8982     28.6310
     1.7500      0.0000   1161.0000      0.8789     30.2794
     2.0000      0.0000   1161.0000      0.8643     32.7829
     2.2500      0.0000   1161.0000      0.8600     36.0681
     2.5000      0.0000   1161.0000      0.8658     39.9902
     2.7500      0.0000   1161.0000      0.8757     44.2018
     3.0000     -2.0000   1161.0000      0.8826     48.0031
     3.2500      0.0000   1161.0000      0.8840     50.5593
     3.5000      0.0000   1161.0000      0.8833     51.5962
     3.7500      2.0000   1161.0000      0.8855     51.9421
     4.0000      0.0000   1161.0000      0.8919     53.1366
     4.2500      0.0000   1161.0000      0.8990     56.2649
     4.5000      0.0000   1161.0000      0.9015     61.0689
     4.7500      0.0000   1161.0000      0.8963     66.0432
     5.0000      0.0000   1161.0000      0.8849     69.3136
     5.2500      0.0000   1161.0000      0.8730     69.7348
     5.5000      0.0000   1161.0000      0.8663     67.6965
     5.7500      0.0000   1161.0000      0.8674     65.1432
     6.0000      0.0000   1161.0000      0.8770     64.2840
     6.2500      0.0000   1161.0000      0.8951     65.6521
     6.5000      0.0000   1161.0000      0.9199     67.6221
     6.7500      0.0000   1161.0000      0.9465     68.1882
     7.0000      0.0000   1161.0000      0.9684     66.8599
     7.2500      0.0000   1160.9926      0.9805     64.6203
     7.5000      0.0000   1160.9286      0.9820     62.6233
     7.7500      0.0000   1160.5446      0.9793     61.3030
     8.0000      0.0000   1158.8188      0.9978     60.3045
     8.2500      0.0000   1152.5773      1.1344     58.9267
     8.5000      0.0000   1134.3250      1.7017     56.8156
     8.7500      0.0000   1091.0460      3.4669     54.4099
     9.0000      0.0000   1007.7783      7.7681     52.7788
     9.2500      0.0000    878.0129     16.0343     52.9103
     9.5000      0.0000    714.8228     28.5749     54.6570
     9.7500      0.0000    550.0334     43.5964     56.2659
    10.0000      0.0000    417.1246     57.8091     55.6082
    10.2500      0.0000    331.9368     68.4371     52.3450
    10.5000      0.0000    288.7362     74.7218     48.4654
    10.7500      0.0000    271.4656     77.6665     46.3253
    11.0000      0.0000    266.0378     78.7756     46.4733
    11.2500      0.0000    264.6979     79.1420     47.7058
    11.5000      0.0000    264.4352     79.2891     48.8255
    11.7500      0.0000    264.3887     79.3840     49.7205
    12.0000      0.0000    264.3756     79.4481     50.7682
    12.2500      0.0000    264.3601     79.4679     51.7989
    12.5000      0.0000    264.3442     79.4383     52.0588
    12.7500      0.0000    264.3299     79.3774     51.0019
    13.0000      0.0000    264.3185     79.3106     48.7147
    13.2500      0.0000    264.3108     79.2144     45.6605
    13.5000      0.0000    264.3103     78.9436     42.5392
    13.7500      0.0000    264.3287     78.2012     40.4043
    14.0000      0.0000    264.3943     76.6076     40.2928
    14.2500      0.0000    264.5576     73.8596     42.4853
    14.5000      0.0000    264.9129     69.8835     46.2837
    14.7500      0.0000    265.6621     64.8742     50.4596
    15.0000      0.0000    267.2221     59.2054     53.8993
    15.2500      0.0000    270.2490     53.2840     56.0458
    15.5000      0.0000    275.3683     47.4264     56.8829
    15.7500      0.0000    282.6801     41.8100     56.6387
    16.0000      0.0000    291.6250     36.5210     55.6125
    16.2500      0.0000    301.8949     31.6396     54.1772
    16.5000      0.0000    315.0899     27.2654     52.8169
    16.7500      0.0000    336.1473     23.4685     52.1356
    17.0000      0.0000    373.2588     20.2582     52.5755
    17.2500      0.0000    434.3437     17.6173     53.8468
    17.5000      0.0000    519.7457     15.5361     54.8298
    17.7500      0.0000    616.9419     13.9939     54.4995
    18.0000      0.0000    705.3030     12.9230     52.9291
    18.2500      0.0000    768.7593     12.2089     51.0742
    18.5000      0.0000    803.9538     11.7303     49.6599
    18.7500      0.0000    817.1375     11.3978     48.6530
    19.0000      0.0000    816.3574     11.1628     47.7763
    19.2500      0.0000    807.8579     10.9997     47.0514
    19.5000      0.0000    797.1882     10.8886     46.8048
    19.7500      0.0000    789.5245     10.8112     47.5390
    20.0000      0.0000    787.0665     10.7534     49.6639
    20.2500      0.0000    787.4201     10.7052     52.8366
    20.5000      0.0000    785.7824     10.6578     55.5944
    20.7500      0.0000    778.7610     10.6000     56.2469
    21.0000      0.0000    766.8220     10.5171     54.4431
    21.2500      0.0000    753.8601     10.3997     51.5499
    21.5000      0.0000    743.4880     10.2570     49.2743
    21.7500      0.0000    735.6216     10.1172     48.1845
    22.0000      0.0000    727.9957     10.0092     47.7085
    22.2500      0.0000    720.2755      9.9446     47.1902
    22.5000      0.0000    714.7565      9.9162     46.5984
    22.7500      0.0000    713.4229      9.9069     46.3006
    23.0000      0.0000    715.8500      9.8974     46.4802
    23.2500      0.0000    720.0612      9.8712     46.9550
