~Version Information
 VERS.                                  2.0 : CWLS LAS VERSION
 WRAP.                                   NO : WRAPING MODE
 SWARE .                 MController 2.5.0J : SOFTWARE VERSION
~Well Information
 WELL.                     Hemisphere 32-24 : WELL
 COMP.    Pioneer Natural Resources USA Inc : COMPANY
 FLD.                      Purgatoire River : FIELD
 LOC.                 SE/SW Sec 24 T33 R67W : LOCATION
 DATE.                             08/14/05 : DATE(S) LOGGED
 SRVC.       BLANCO Geological Services LLC : SERVICE COMPANY
 STAT.                                   CO : STATE
 CNTY.                           Las Animas : COUNTY
 CTRY.                                  USA : COUNTRY
 API.                       05-071-08440-00 : API NUMBER
 STRT.FT                             399.00 : START DEPTH
 STOP.FT                            2171.00 : STOP DEPTH
 STEP.FT                               1.00 : DEPTH INCREMENT
 NULL.                                -9999 : NULL VALUE
~Curve information
 DEPTH.FT                                   :
 ROP.MIN/FT                                 :
 GAS.UNITS                                  :
~ASCII Log data
# ...
       599.0         0.13          6.0 
       600.0         0.17          6.3 
       601.0         0.20          6.9 
       602.0         0.27          6.8 
       603.0         0.27          7.2 
       604.0         0.20          7.1 
       605.0         0.10          7.0 
       606.0         0.17          7.0 
       607.0         0.38          7.3 
       608.0         0.27          7.0 
       609.0         0.33          7.0 
       610.0         0.23          7.0 
       611.0         0.23          6.4 
       612.0         0.30          6.6 
       613.0         0.17          6.2 
       614.0         0.17          6.2 
       615.0         0.20          5.9 
       616.0         0.23          5.7 
       617.0         0.23          6.2 
       618.0         0.23          6.6 
       619.0         0.23          6.2 
       620.0         0.33          6.7 
       621.0         0.28          6.4 
       622.0         0.20          6.0 
       623.0         0.30          6.0 
       624.0         0.30          5.5 
       625.0         0.17          5.9 
       626.0         1.03          5.9 
       627.0         0.33          6.1 
       628.0         0.30          5.6 
       629.0         0.53          5.7 
       630.0         0.32          5.9 
       631.0         0.17          5.9 
       632.0         0.20          6.7 
       633.0         0.23          7.0 
       634.0         0.23          6.9 
       635.0         0.23          6.8 
       636.0         0.13          7.0 
       637.0         0.20          7.5 
       638.0         0.27          7.4 
       639.0         0.30          7.1 
       640.0         0.23          6.6 
       641.0         0.27          6.7 
       642.0         0.33          7.1 
       643.0         0.23          7.2 
       644.0         0.28          6.9 
       645.0         0.33          7.1 
       646.0         0.33          6.9 
       647.0         0.37          7.0 
       648.0         0.30          7.1 
       649.0         0.30          9.2 
       650.0         0.40         11.9 
       651.0         0.53         12.9 
       652.0         0.65         13.8 
       653.0         0.37         11.8 
       654.0         0.17         10.7 
       655.0         0.17         10.7 
       656.0         1.63         10.4 
       657.0         0.20          8.9 
       658.0         0.13          8.9 
       659.0         0.27          9.6 
       660.0         0.17         10.3 
       661.0         0.10         12.8 
       662.0         0.12         12.8 
       663.0         0.33         16.7 
       664.0         0.20         18.9 
       665.0         0.23         19.6 
       666.0         0.27         17.7 
       667.0         0.37         17.7 
       668.0         0.13         14.3 
       669.0         0.07         13.0 
       670.0         0.17         13.0 
       671.0         0.17         12.2 
       672.0         0.13         11.9 
       673.0         0.13         11.9 
       674.0         0.23         12.3 
       675.0         0.23         12.9 
       676.0         0.27         13.5 
       677.0         0.30         13.3 
       678.0         0.28         11.9 
       679.0         0.23         11.4 
       680.0         0.17         11.4 
       681.0         0.20         11.0 
       682.0         0.27         11.1 
       683.0         0.23         10.8 
       684.0         0.20         10.7 
       685.0         0.20         10.6 
       686.0         2.18         10.6 
       687.0         0.17          6.8 
       688.0         0.40          7.8 
       689.0         0.23          7.9 
       690.0         0.23         10.5 
       691.0         0.17         11.1 
       692.0         0.13         12.8 
       693.0         0.20         13.3 
       694.0         0.17         13.3 
       695.0         0.13         13.6 
       696.0         0.07         13.6 
       697.0         0.13         13.6 
       698.0         0.17         13.6 
       699.0         0.20         15.1 
       700.0         0.23         14.9 
       701.0         0.28         13.8 
       702.0         0.30         12.7 
       703.0         0.27         12.2 
       704.0         0.27         11.6 
       705.0         0.63         11.6 
       706.0         0.17         11.0 
       707.0         0.17         12.5 
       708.0         0.10         12.5 
       709.0         0.20         11.9 
       710.0         0.27         12.3 
       711.0         0.23         12.2 
       712.0         0.20         12.1 
       713.0         0.37         12.1 
       714.0         0.25         12.3 
       715.0         0.20         11.8 
       716.0         2.07         15.3 
       717.0         0.40         22.7 
       718.0         0.42         25.0 
       719.0         0.27         23.0 
       720.0         0.33         18.5 
       721.0         0.30         15.2 
       722.0         0.23         12.6 
       723.0         0.27         12.7 
       724.0         0.27         11.7 
       725.0         0.30         12.4 
       726.0         0.30         11.6 
       727.0         0.23         11.6 
       728.0         0.20         11.3 
       729.0         0.20         11.3 
       730.0         0.23         11.9 
       731.0         0.28         11.4 
       732.0         0.23         11.1 
       733.0         0.20         11.4 
       734.0         0.23         11.5 
       735.0         0.23         11.9 
       736.0         0.23         11.7 
       737.0         0.23         11.6 
       738.0         0.23         11.4 
       739.0         0.23         11.2 
       740.0         0.30         11.0 
       741.0         0.27         11.2 
       742.0         0.23         11.6 
       743.0         0.27         11.5 
       744.0         0.23         11.2 
       745.0         0.25         11.3 
       746.0         1.43         12.1 
       747.0         0.20         12.1 
       748.0         0.40         16.5 
       749.0         0.27         21.6 
       750.0         0.27         22.9 
       751.0         0.23         22.0 
       752.0         0.23         16.8 
       753.0         0.25         15.5 
       754.0         0.20         13.0 
       755.0         0.20         12.5 
       756.0         0.20         12.3 
       757.0         0.40         11.7 
       758.0         0.47         11.3 
       759.0         0.47         11.1 
       760.0         0.50         11.1 
       761.0         0.20         11.2 
       762.0         0.17         11.2 
       763.0         0.17         11.3 
       764.0         0.25         10.7 
       765.0         0.23         11.8 
       766.0         0.17         11.2 
       767.0         0.20         11.3 
       768.0         0.17         11.3 
       769.0         0.33         12.0 
       770.0         0.30         11.9 
       771.0         0.30         11.9 
       772.0         0.50         12.5 
       773.0         0.47         11.7 
       774.0         0.37         11.1 
       775.0         0.20         11.0 
       776.0         2.58         14.0 
       777.0         0.43         24.9 
       778.0         0.48         26.6 
       779.0         0.47         24.7 
       780.0         0.53         14.7 
       781.0         0.53         13.3 
       782.0         0.57         11.9 
       783.0         0.50         11.6 
       784.0         0.50         11.9 
       785.0         0.45         11.9 
       786.0         0.23         11.8 
       787.0         0.20         11.6 
       788.0         0.33         11.3 
       789.0         0.40         11.0 
       790.0         0.47         10.9 
       791.0         0.40         11.2 
       792.0         0.47         10.9 
       793.0         0.43         11.0 
       794.0         0.48         10.7 
       795.0         0.47         10.9 
       796.0         0.47         10.9 
       797.0         0.20         11.2 
       798.0         0.17         10.8 
