~Version Information
VERS.                      2.0: CWLS Log ASCII Standard - VERSION 2.0
WRAP.                       NO: One line per depth step
~Well Information Block
STRT.FT               520.0000: 
STOP.FT              2555.2500: 
STEP.FT                 0.2500: 
NULL.                -999.2500: 
COMP.          Pioneer Natural Resources: COMPANY
WELL.          Horsefeathers 24-34: WELL
FLD.           Purgatoire River: FIELD
LOC.           183' FSL & 1570' FWL--: LOCATION
CNTY.               Las Animas: COUNTY
SRVC.                Patterson: SERVICE COMPANY
DATE.          Sun Feb 05 17:35:59 2006: LOG DATE
UWI.           05 071 08675 00: UNIQUE WELL ID
STAT.                 Colorado: STATE
~Curve Information Block
DEPT.FT            0 000 00 00: Depth
SN.Ohm-m                      : IEL Short Normal
SP.mV                         : IEL Spontaneous Potential
DIR.Ohm-m                     : IEL Induction Resistivity
GR.GAPI                       : Gamma Ray
~Parameter Information Block
NPORSHIFT.              0.0000: NPORSHIFT
~A  Depth        SN          SP         DIR          GR     
# ...
  1994.0000      9.5463     38.0203      7.9539    135.8330
  1994.2500      9.5811     38.0931      7.9956    134.2548
  1994.5000      9.6144     38.1894      8.0322    130.8868
  1994.7500      9.6450     38.3105      8.0555    129.2604
  1995.0000      9.6660     38.4566      8.0598    129.6581
  1995.2500      9.6671     38.6276      8.0416    131.8602
  1995.5000      9.6411     38.8226      7.9998    136.2770
  1995.7500      9.5886     39.0413      7.9350    138.7219
  1996.0000      9.5187     39.2837      7.8508    140.8229
  1996.2500      9.4438     39.5502      7.7529    141.4438
  1996.5000      9.3724     39.8414      7.6495    141.5874
  1996.7500      9.3046     40.1575      7.5490    140.9656
  1997.0000      9.2320     40.4975      7.4588    138.6024
  1997.2500      9.1405     40.8585      7.3841    136.2870
  1997.5000      9.0154     41.2347      7.3281    132.5876
  1997.7500      8.8474     41.6160      7.2923    130.4123
  1998.0000      8.6370     41.9877      7.2788    127.9152
  1998.2500      8.4033     42.3297      7.2910    126.8305
  1998.5000      8.2005     42.6178      7.3347    126.1315
  1998.7500      8.1284     42.8261      7.4178    126.1725
  1999.0000      8.3110     42.9303      7.5487    126.4160
  1999.2500      8.8284     42.9122      7.7350    126.3295
  1999.5000      9.6383     42.7646      7.9800    125.5852
  1999.7500     10.5516     42.4941      8.2783    124.6586
  2000.0000     11.3052     42.1233      8.6133    122.1788
  2000.2500     11.6984     41.6884      8.9576    119.3696
  2000.5000     11.6939     41.2344      9.2776    113.4357
  2000.7500     11.4139     40.8067      9.5423    109.1507
  2001.0000     11.0518     40.4422      9.7311    104.3658
  2001.2500     10.7741     40.1618      9.8380    103.2037
  2001.5000     10.6671     39.9671      9.8691    104.6675
  2001.7500     10.7364     39.8421      9.8347    107.1450
  2002.0000     10.9374     39.7595      9.7430    111.7557
  2002.2500     11.2094     39.6886      9.5982    114.9164
  2002.5000     11.5012     39.6033      9.4058    119.3731
  2002.7500     11.7820     39.4859      9.1789    121.9641
  2003.0000     12.0376     39.3279      8.9414    124.9913
  2003.2500     12.2620     39.1262      8.7225    126.4275
  2003.5000     12.4535     38.8791      8.5503    128.1853
  2003.7500     12.6166     38.5818      8.4471    129.5724
  2004.0000     12.7596     38.2234      8.4289    132.2784
  2004.2500     12.8834     37.7871      8.5071    133.8656
  2004.5000     12.9732     37.2523      8.6883    133.9831
  2004.7500     13.0012     36.5994      8.9729    131.8563
  2005.0000     12.9443     35.8180      9.3547    125.6753
  2005.2500     12.8190     34.9143      9.8223    120.1799
  2005.5000     12.7155     33.9187     10.3636    110.8396
  2005.7500     12.8063     32.8885     10.9726    104.3682
  2006.0000     13.3056     31.9045     11.6513     95.0740
  2006.2500     14.3815     31.0600     12.4054     89.4462
  2006.5000     16.0556     30.4439     13.2341     81.8177
  2006.7500     18.1650     30.1230     14.1181     76.9536
  2007.0000     20.4344     30.1276     15.0148     69.4613
  2007.2500     22.6046     30.4453     15.8636     64.3835
  2007.5000     24.5023     31.0257     16.6040     57.3662
  2007.7500     26.0270     31.7914     17.1950     53.5688
  2008.0000     27.1300     32.6549     17.6261     49.6328
  2008.2500     27.8253     33.5338     17.9157     48.1528
  2008.5000     28.1941     34.3617     18.1021     47.1851
  2008.7500     28.3504     35.0936     18.2353     47.0277
  2009.0000     28.3924     35.7067     18.3676     47.2984
  2009.2500     28.3715     36.1973     18.5417     47.9889
  2009.5000     28.2868     36.5778     18.7795     50.2079
  2009.7500     28.0899     36.8729     19.0764     52.5478
  2010.0000     27.6968     37.1157     19.4032     57.0325
  2010.2500     27.0120     37.3426     19.7150     60.2934
  2010.5000     25.9731     37.5873     19.9612     65.0667
  2010.7500     24.5989     37.8730     20.0941     68.3520
  2011.0000     23.0122     38.2064     20.0770     74.7676
  2011.2500     21.4140     38.5747     19.8922     80.9735
  2011.5000     20.0152     38.9481     19.5464     93.9941
  2011.7500     18.9639     39.2862     19.0659    104.9007
  2012.0000     18.3073     39.5486     18.4855    122.8291
  2012.2500     18.0008     39.7047     17.8379    134.1173
  2012.5000     17.9446     39.7414     17.1540    146.9217
  2012.7500     18.0257     39.6648     16.4683    151.6187
  2013.0000     18.1559     39.4988     15.8225    153.2536
  2013.2500     18.2946     39.2785     15.2599    151.8520
  2013.5000     18.4418     39.0430     14.8147    147.7710
  2013.7500     18.6073     38.8279     14.5017    144.0971
  2014.0000     18.7779     38.6587     14.3122    137.0122
  2014.2500     18.9084     38.5462     14.2165    131.1792
  2014.5000     18.9405     38.4860     14.1739    121.2652
  2014.7500     18.8343     38.4605     14.1454    114.6919
  2015.0000     18.5912     38.4446     14.1059    107.1907
  2015.2500     18.2501     38.4129     14.0482    105.1952
  2015.5000     17.8621     38.3466     13.9786    107.9844
  2015.7500     17.4634     38.2380     13.9047    113.3129
  2016.0000     17.0648     38.0907     13.8252    124.1863
  2016.2500     16.6584     37.9172     13.7260    131.5794
  2016.5000     16.2297     37.7337     13.5880    140.2091
  2016.7500     15.7699     37.5557     13.3994    143.4253
  2017.0000     15.2876     37.3952     13.1634    144.4805
  2017.2500     14.8166     37.2615     12.8988    143.5280
  2017.5000     14.4153     37.1634     12.6334    141.6554
  2017.7500     14.1510     37.1130     12.3972    141.0291
  2018.0000     14.0724     37.1274     12.2163    141.5047
  2018.2500     14.1840     37.2279     12.1071    142.4075
  2018.5000     14.4416     37.4345     12.0733    143.2330
  2018.7500     14.7745     37.7585     12.1060    142.5856
  2019.0000     15.1206     38.1954     12.1896    139.5417
  2019.2500     15.4497     38.7211     12.3101    136.8653
  2019.5000     15.7673     39.2941     12.4645    133.6089
  2019.7500     16.1049     39.8639     12.6645    132.4701
  2020.0000     16.5044     40.3814     12.9334    132.0124
  2020.2500     17.0005     40.8096     13.2975    131.9511
  2020.5000     17.6071     41.1297     13.7769    131.2620
  2020.7500     18.3207     41.3409     14.3797    130.1579
  2021.0000     19.1372     41.4552     15.1010    127.6598
  2021.2500     20.0705     41.4906     15.9278    125.4854
  2021.5000     21.1557     41.4637     16.8469    120.6395
  2021.7500     22.4363     41.3858     17.8514    115.3398
  2022.0000     23.9439     41.2622     18.9397    103.1742
  2022.2500     25.6755     41.0940     20.1069     92.9137
  2022.5000     27.5674     40.8810     21.3331     77.4958
  2022.7500     29.4735     40.6262     22.5747     69.1891
  2023.0000     31.1677     40.3383     23.7610     61.5478
  2023.2500     32.3940     40.0341     24.7983     59.6295
  2023.5000     32.9556     39.7384     25.5831     60.1638
  2023.7500     32.7891     39.4812     26.0214     61.8404
  2024.0000     31.9731     39.2932     26.0467     65.4072
  2024.2500     30.6760     39.1993     25.6371     68.5129
  2024.5000     29.0916     39.2126     24.8294     74.7706
  2024.7500     27.3913     39.3303     23.7179     80.2472
  2025.0000     25.6999     39.5344     22.4284     90.6331
  2025.2500     24.0875     39.7956     21.0825     98.9377
  2025.5000     22.5805     40.0804     19.7729    112.4492
  2025.7500     21.1887     40.3590     18.5562    121.0458
  2026.0000     19.9268     40.6103     17.4582    131.8411
  2026.2500     18.8159     40.8241     16.4828    137.6836
  2026.5000     17.8722     40.9995     15.6245    145.5485
  2026.7500     17.1012     41.1410     14.8782    150.6409
  2027.0000     16.5007     41.2545     14.2423    157.6053
  2027.2500     16.0593     41.3442     13.7161    161.0628
