~Version Information
VERS.                      2.0: CWLS Log ASCII Standard - VERSION 2.0
WRAP.                       NO: One line per depth step
~Well Information Block
STRT.FT               460.0000: 
STOP.FT              2811.5000: 
STEP.FT                 0.1000: 
NULL.                -999.2500: 
COMP.          Pioneer Natural Resources: COMPANY
WELL.           Dolzanie 34-12: WELL
FLD.           Purgatoire River: FIELD
LOC.           1001' FSL & 1750' FEL--: LOCATION
PROV.                 Colorado: PROVINCE
CNTY.               Las Animas: COUNTRY
SRVC.                Patterson: SERVICE COMPANY
DATE.          Wed Jul 20 07:56:24 2005: LOG DATE
UWI.           05 071 08439 00: UNIQUE WELL ID
~Curve Information Block
DEPT.FT            0 000 00 00: Depth
DCAL.in                       : CDL Caliper
DPOR.pu                       : CDL Density Porosity
NPOR.pu                       : Neutron Porosity
RHOB.g/cc                     : CDL Bulk Density
RHOC.g/cc                     : CDL Density Correction
GR.GAPI                       : Gamma Ray
~Parameter Information Block
~A  Depth       DCAL        DPOR        NPOR        RHOB        RHOC         GR     
# ...
   767.2000      7.9218      8.0977     24.1804      2.5164      0.0196     94.5392
   767.3000      7.9221      8.4602     24.2624      2.5104     -0.0110     93.6114
   767.4000      7.9221      7.7209     24.1148      2.5226      0.0728     89.0936
   767.5000      7.9207      6.9327     23.7079      2.5356      0.0605     82.5401
   767.6000      7.9207      6.5684     23.5297      2.5416      0.0515     76.8645
   767.7000      7.9207      6.1249     23.5666      2.5489      0.0434     74.0985
   767.8000      7.9195      5.4753     23.4633      2.5597      0.0831     74.7519
   767.9000      7.9195      5.2710     23.2630      2.5630      0.0680     78.4610
   768.0000      7.9178      5.5986     23.1183      2.5576      0.0488     82.7832
   768.1000      7.9178      5.9656     23.2295      2.5516      0.0670     84.7020
   768.2000      7.9178      6.3212     23.7168      2.5457      0.0630     85.0801
   768.3000      7.9171      6.9533     24.2135      2.5353      0.0575     86.3707
   768.4000      7.9171      7.8521     24.2181      2.5204      0.0399     88.5655
   768.5000      7.9178      8.4703     23.6585      2.5102      0.0205     91.6821
   768.6000      7.9178      8.3871     23.0988      2.5116      0.0232     93.8945
   768.7000      7.9178      7.8128     23.1867      2.5211      0.0384     91.6837
   768.8000      7.9173      7.4855     23.5846      2.5265      0.0676     87.6902
   768.9000      7.9173      8.2487     23.7551      2.5139      0.0679     86.7383
   769.0000      7.9172      9.9205     24.0909      2.4863      0.0383     88.5610
   769.1000      7.9172     11.0796     24.4280      2.4672      0.0212     90.1450
   769.2000      7.9172     10.7600     23.9262      2.4725      0.0503     89.5993
   769.3000      7.9186      9.3753     22.9885      2.4953      0.0646     89.0284
   769.4000      7.9186      8.2663     22.4262      2.5136      0.0858     89.2981
   769.5000      7.9191      8.3946     22.1055      2.5115      0.0562     85.9121
   769.6000      7.9191      9.0436     21.9061      2.5008      0.0464     79.3064
   769.7000      7.9191      9.3225     21.6478      2.4962      0.0740     74.9589
   769.8000      7.9179      9.6620     21.1365      2.4906      0.0481     74.0754
   769.9000      7.9179     10.4171     20.6779      2.4781      0.0351     75.0581
   770.0000      7.9168     10.9238     20.3949      2.4698      0.0196     76.0750
   770.1000      7.9168     10.5935     20.0952      2.4752      0.0125     76.3162
   770.2000      7.9168      9.5544     19.9535      2.4924      0.0246     77.1243
   770.3000      7.9173      8.4525     20.1330      2.5105      0.0573     78.3952
   770.4000      7.9173      8.3943     20.1850      2.5115      0.0547     78.8893
   770.5000      7.9179      9.8394     19.9254      2.4876      0.0440     77.3172
   770.6000      7.9179     11.4258     19.6839      2.4615      0.0071     74.0339
   770.7000      7.9179     11.7503     19.4670      2.4561      0.0341     73.0623
   770.8000      7.9185     11.5510     19.1390      2.4594      0.0790     76.1063
   770.9000      7.9185     11.8861     18.8393      2.4539      0.0606     78.5210
   771.0000      7.9185     12.5152     18.6568      2.4435      0.0449     76.9202
   771.1000      7.9185     12.9384     18.4953      2.4365      0.0325     75.9531
   771.2000      7.9185     12.9278     18.4699      2.4367      0.0475     78.2542
   771.3000      7.9185     12.5117     18.5616      2.4436      0.0368     79.0766
   771.4000      7.9185     12.1064     18.5790      2.4502      0.0457     75.4931
   771.5000      7.9188     11.7540     18.7176      2.4561      0.0163     70.8874
   771.6000      7.9188     11.0718     18.9247      2.4673      0.0642     69.0428
   771.7000      7.9188     10.6374     19.0181      2.4745      0.0986     69.1787
   771.8000      7.9198     11.0235     18.9741      2.4681      0.0523     68.7288
   771.9000      7.9198     11.4814     18.5810      2.4606      0.0238     67.2852
   772.0000      7.9198     11.6017     18.0585      2.4586      0.0516     66.0385
   772.1000      7.9198     11.8136     17.9118      2.4551      0.0204     65.4431
   772.2000      7.9198     11.7944     18.1017      2.4554      0.0382     64.2193
   772.3000      7.9187     11.1461     18.3735      2.4661      0.0371     61.9359
   772.4000      7.9187     10.6371     18.4695      2.4745      0.0664     60.2423
   772.5000      7.9186     11.1694     18.1809      2.4657      0.0524     60.3781
   772.6000      7.9186     12.2232     17.7816      2.4483     -0.0012     62.2160
   772.7000      7.9186     12.4752     17.4991      2.4442      0.0389     65.8616
   772.8000      7.9200     11.6708     17.1979      2.4574      0.0521     69.8054
   772.9000      7.9200     10.5027     16.9488      2.4767      0.0822     71.3932
   773.0000      7.9207      9.3651     16.6237      2.4955      0.0617     71.6684
   773.1000      7.9207      8.1401     15.9340      2.5157      0.0772     71.9385
   773.2000      7.9207      7.0960     15.3013      2.5329      0.0872     70.3074
   773.3000      7.9197      6.3831     15.3348      2.5447      0.0870     65.8254
   773.4000      7.9197      5.6337     15.9805      2.5570      0.0726     61.0305
   773.5000      7.9184      4.9362     16.6751      2.5686      0.1173     58.1500
   773.6000      7.9184      4.6173     17.2356      2.5738      0.0966     56.8899
   773.7000      7.9184      4.7489     18.1663      2.5716      0.1101     56.5143
   773.8000      7.9182      5.2053     19.7494      2.5641      0.0562     56.0261
   773.9000      7.9182      5.1917     21.5661      2.5643      0.0356     56.2421
   774.0000      7.9190      3.9130     23.1753      2.5854      0.0506     58.0696
   774.1000      7.9190      1.5561     24.3719      2.6243      0.0676     59.1622
   774.2000      7.9190     -1.0571     25.1244      2.6674      0.1075     58.1938
   774.3000      7.9199     -3.0635     25.8741      2.7005      0.0766     57.7008
   774.4000      7.9199     -3.7375     27.2299      2.7117      0.1238     59.0774
   774.5000      7.9213     -2.9524     29.0761      2.6987      0.0619     59.8588
   774.6000      7.9213     -1.9534     30.6726      2.6822      0.0687     59.2855
   774.7000      7.9213     -1.9886     31.5086      2.6828      0.0184     59.0872
   774.8000      7.9212     -2.4116     31.4519      2.6898      0.1174     58.5521
   774.9000      7.9212     -1.7161     30.6747      2.6783      0.0481     57.0165
   775.0000      7.9201      0.2555     29.8250      2.6458      0.0777     55.8578
   775.1000      7.9201      2.5252     29.4427      2.6083      0.0181     55.5093
   775.2000      7.9201      4.0077     29.1821      2.5839      0.0097     55.7686
   775.3000      7.9191      4.6119     28.4217      2.5739      0.0184     58.2627
   775.4000      7.9191      5.5440     27.3348      2.5585      0.0252     65.1858
   775.5000      7.9187      7.7506     26.4541      2.5221      0.0215     74.9492
   775.6000      7.9187     10.4174     25.8812      2.4781     -0.0851     79.8472
   775.7000      7.9187     12.1797     25.4800      2.4490     -0.0480     75.2899
   775.8000      7.9193     12.9523     25.0086      2.4363     -0.0302     67.5150
   775.9000      7.9193     13.3120     24.4319      2.4304      0.0280     63.6204
   776.0000      7.9189     13.6674     24.0442      2.4245     -0.0023     64.2116
   776.1000      7.9189     13.7808     23.8415      2.4226     -0.0086     66.9709
   776.2000      7.9189     13.2463     23.4553      2.4314      0.0399     69.2947
   776.3000      7.9187     12.5435     22.6909      2.4430      0.0621     69.1308
   776.4000      7.9187     12.4249     21.5977      2.4450      0.0754     67.7098
   776.5000      7.9197     12.6700     20.3714      2.4409      0.0481     66.4923
   776.6000      7.9197     12.3736     19.3605      2.4458      0.0525     64.9542
   776.7000      7.9197     11.1851     18.8334      2.4654      0.0585     65.3281
