~Version Information
VERS.                      2.0: CWLS Log ASCII Standard - VERSION 2.0
WRAP.                       NO: One line per depth step
~Well Information Block
STRT.FT               -14.7500: 
STOP.FT              1106.0000: 
STEP.FT                 0.2500: 
NULL.                -999.2500: 
COMP.          Pioneer Natural Resources: COMPANY
WELL.          Black Cat 13-32 Tr: WELL
FLD.           Purgatorie River: FIELD
LOC.           1679' FSL & 1150' FWL--: LOCATION
CNTY.               Las Animas: COUNTY
SRVC.          Patterson Wireline: SERVICE COMPANY
DATE.          Wed Mar 15 15:59:24 2006: LOG DATE
UWI.           05 071 08721 00: UNIQUE WELL ID
STAT.                       CO: STATE
~Curve Information Block
DEPT.FT            0 000 00 00: Depth
CCL.                          : Casing Collar Locator
TT3.usec                      : CBL 3' Travel Time
AMP3.mV                       : CBL 3' Amplitude
GR.GAPI                       : Gamma Ray
~Parameter Information Block
~A  Depth       CCL         TT3         AMP3         GR     
# ...
   420.7500      0.0000    719.4300      6.3495    136.2527
   421.0000      0.0000    715.2054      6.2373    134.5253
   421.2500      0.0000    711.4557      6.0886    132.4455
   421.5000      0.0000    710.1393      5.9198    131.5603
   421.7500      0.0000    710.8225      5.7480    132.9433
   422.0000      0.0000    712.0793      5.5943    136.2952
   422.2500      0.0000    713.5638      5.4800    139.8736
   422.5000      0.0000    715.9186      5.4174    141.2228
   422.7500      0.0000    719.0704      5.3986    138.5047
   423.0000      0.0000    721.5864      5.3957    131.7035
   423.2500      0.0000    722.0013      5.3789    122.7525
   423.5000      0.0000    720.4462      5.3384    114.3377
   423.7500      0.0000    718.7109      5.2856    108.3063
   424.0000      0.0000    718.6625      5.2358    104.9360
   424.2500      0.0000    720.6490      5.1949    103.4070
   424.5000      0.0000    723.4590      5.1637    102.8099
   424.7500      0.0000    725.5994      5.1438    102.6918
   425.0000      0.0000    726.3017      5.1382    102.8299
   425.2500      0.0000    725.5193      5.1473    102.7531
   425.5000      0.0000    723.5691      5.1688    101.7485
   425.7500      0.0000    720.9789      5.1986     99.4088
   426.0000      0.0000    718.2692      5.2322     95.9547
   426.2500      0.0000    715.5951      5.2679     91.8821
   426.5000      0.0000    712.8063      5.3097     87.5757
   426.7500      0.0000    709.9531      5.3637     83.4710
   427.0000      0.0000    707.4534      5.4295     80.1661
   427.2500      0.0000    705.8583      5.4969     77.9199
   427.5000      0.0000    705.8791      5.5535     76.3837
   427.7500      0.0000    708.2370      5.5944     75.4079
   428.0000      0.0000    712.5862      5.6265     75.7869
   428.2500      0.0000    716.7993      5.6605     78.4393
   428.5000      0.0000    718.6021      5.6983     82.8443
   428.7500      0.0000    718.2769      5.7266     86.9268
   429.0000      0.0000    718.6556      5.7291     88.9496
   429.2500      0.0000    721.7927      5.7016     89.3670
   429.5000      0.0000    726.3447      5.6549     90.4417
   429.7500      0.0000    728.7665      5.6024     93.9758
   430.0000      0.0000    726.5450      5.5509     99.7195
   430.2500      0.0000    719.9788      5.5029    105.7742
   430.5000      0.0000    711.5027      5.4627    109.8222
   430.7500      0.0000    703.8370      5.4360    110.1211
   431.0000      0.0000    698.4798      5.4255    106.4850
   431.2500      0.0000    695.4039      5.4293    100.7467
   431.5000      0.0000    693.7922      5.4423     95.5344
   431.7500      0.0000    692.8778      5.4576     92.2562
   432.0000      0.0000    692.2667      5.4681     90.5685
   432.2500      0.0000    691.8423      5.4688     89.5898
   432.5000      0.0000    691.6173      5.4605     88.9666
   432.7500      0.0000    691.7059      5.4513     88.7191
   433.0000      0.0000    692.4348      5.4549     88.5787
   433.2500      0.0000    694.5742      5.4836     87.8935
   433.5000      0.0000    699.4101      5.5407     86.2165
   433.7500      0.0000    708.1002      5.6185     83.7186
   434.0000      0.0000    720.2457      5.7055     80.9002
   434.2500      0.0000    733.0323      5.7947     78.1145
   434.5000      0.0000    742.4977      5.8846     75.5510
   434.7500      0.0000    746.1774      5.9701     73.3707
   435.0000      0.0000    744.3930      6.0368     71.4849
   435.2500      0.0000    739.0563      6.0686     69.4561
   435.5000      0.0000    731.9610      6.0631     67.2084
   435.7500      0.0000    724.7061      6.0374     65.8418
   436.0000      0.0000    719.5143      6.0148     67.2128
   436.2500      0.0000    718.5183      6.0017     72.4383
   436.5000      0.0000    721.3886      5.9776     80.9373
   436.7500      0.0000    724.4545      5.9107     90.8979
   437.0000      0.0000    723.4341      5.7880    100.5720
   437.2500      0.0000    717.1174      5.6317    109.1961
   437.5000      0.0000    707.6403      5.4883    116.7034
   437.7500      0.0000    697.4160      5.3993    122.6409
   438.0000      0.0000    686.9953      5.3773    125.8357
   438.2500      0.0000    676.2217      5.4080    125.4918
   438.5000      0.0000    666.4767      5.4672    122.2618
   438.7500      0.0000    660.7300      5.5313    117.7871
   439.0000      0.0000    661.1375      5.5790    113.4408
   439.2500      0.0000    666.8072      5.5967    109.8850
   439.5000      0.0000    674.2740      5.5839    107.6017
   439.7500      0.0000    680.5098      5.5499    107.4130
   440.0000      0.0000    685.5690      5.5091    110.2348
   440.2500     -2.0000    691.9031      5.4802    116.0387
   440.5000      0.0000    701.0825      5.4778    122.9608
   440.7500      0.0000    711.4406      5.4961    127.9625
   441.0000      0.0000    718.5352      5.5127    129.1131
   441.2500      0.0000    717.0791      5.5191    127.2154
   441.5000      0.0000    703.5079      5.5397    124.7344
   441.7500      0.0000    679.5620      5.6027    123.1682
   442.0000      0.0000    654.4036      5.6956    122.0071
   442.2500      0.0000    640.3015      5.7694    120.2454
   442.5000      0.0000    643.1826      5.7899    118.0483
   442.7500      0.0000    657.9952      5.7681    116.6193
   443.0000      0.0000    674.4750      5.7382    117.0503
   443.2500      0.0000    685.8718      5.7227    119.6212
   443.5000      0.0000    691.4922      5.7212    123.7202
   443.7500      0.0000    693.5965      5.7215    128.2288
   444.0000      0.0000    694.2758      5.7128    132.3366
   444.2500      0.0000    694.6371      5.6914    136.0111
   444.5000      0.0000    695.3143      5.6579    139.4653
   444.7500      0.0000    697.0310      5.6131    142.4134
   445.0000      0.0000    700.7828      5.5579    144.1533
   445.2500      0.0000    707.2668      5.4987    144.1514
   445.5000      0.0000    715.8635      5.4464    142.3098
   445.7500      0.0000    724.2079      5.4110    138.9437
   446.0000      0.0000    729.3576      5.3960    134.8599
   446.2500      0.0000    729.7781      5.3983    131.0739
   446.5000      0.0000    726.3907      5.4118    127.9821
   446.7500      0.0000    721.9506      5.4316    125.1872
   447.0000      0.0000    719.2380      5.4557    122.5525
   447.2500      0.0000    719.1281      5.4822    121.0900
   447.5000      0.0000    720.2600      5.5064    122.3142
   447.7500      0.0000    720.8931      5.5235    126.7088
   448.0000      0.0000    720.7908      5.5343    132.9630
   448.2500      0.0000    720.9602      5.5423    138.7060
   448.5000      0.0000    722.1160      5.5451    141.8211
   448.7500      0.0000    724.0148      5.5328    141.2619
   449.0000      0.0000    726.0522      5.4971    137.4698
   449.2500      0.0000    727.8105      5.4403    132.5326
   449.5000      0.0000    728.8271      5.3745    129.3345
   449.7500      0.0000    728.2734      5.3171    129.7210
   450.0000      0.0000    725.6909      5.2850    133.2122
   450.2500      0.0000    722.1874      5.2873    137.5542
   450.5000      0.0000    720.0873      5.3199    140.5993
   450.7500      0.0000    720.6437      5.3672    141.6593
   451.0000      0.0000    722.4502      5.4116    141.1396
   451.2500      0.0000    722.5765      5.4414    139.3089
   451.5000      0.0000    719.1170      5.4522    135.9121
   451.7500      0.0000    712.6360      5.4466    130.9830
   452.0000      0.0000    705.5975      5.4325    125.6424
   452.2500      0.0000    700.6837      5.4197    121.7753
   452.5000      0.0000    699.5058      5.4126    120.6795
   452.7500      0.0000    702.4307      5.4083    121.9758
   453.0000      0.0000    709.0336      5.4019    123.9907
   453.2500      0.0000    718.3798      5.3952    125.2381
   453.5000      0.0000    728.9314      5.3955    125.3656
   453.7500      0.0000    738.4127      5.4085    124.9868
   454.0000      0.0000    744.2375      5.4320    124.9721
