~Version Information
 VERS.                                  2.0 : CWLS LAS VERSION
 WRAP.                                   NO : WRAPING MODE
 SWARE .                 MController 2.5.0N : SOFTWARE VERSION
~Well Information
 WELL.                       Screamin 12-29 : WELL
 COMP.       Pioneer Natural Resources, USA : COMPANY
 FLD.                       Purgatory River : FIELD
 LOC.                 SW/NW Sec29 T32S R65W : LOCATION
 DATE.                            3/30/2006 : DATE(S) LOGGED
 SRVC.      Blanco Geological Services, LLC : SERVICE COMPANY
 STAT.                             Colorado : STATE
 CNTY.                           Las Animas : COUNTY
 CTRY.                                  USA : COUNTRY
 API.                       05-071-08660-00 : API NUMBER
 STRT.FT                             603.00 : START DEPTH
 STOP.FT                             950.00 : STOP DEPTH
 STEP.FT                               1.00 : DEPTH INCREMENT
 NULL.                                -9999 : NULL VALUE
~Curve information
 DEPTH.FT                                   :
 ROP.MIN/FT                                 :
 GAS.UNITS                                  :
~ASCII Log data
       591.0     -9999.00          3.0 
       592.0         0.13          2.9 
       593.0         0.13          2.9 
       594.0         0.13          3.0 
       595.0         0.13          3.0 
       596.0         0.13          3.1 
       597.0         0.10          3.2 
       598.0         0.13          2.8 
       599.0         0.13          3.2 
       600.0         0.13          3.0 
       601.0         0.10          2.8 
       602.0         0.13          2.9 
       603.0         0.13          3.0 
       604.0         0.13          3.0 
       605.0         0.13          3.1 
       606.0         0.13          3.2 
       607.0         0.13          3.0 
       608.0         0.10          2.8 
       609.0         0.13          2.9 
       610.0         0.13          2.6 
       611.0         0.10          3.0 
       612.0         0.13          3.0 
       613.0         0.13          2.6 
       614.0         0.13          2.7 
       615.0         0.12          3.1 
       616.0         0.13          3.3 
       617.0         0.13          3.1 
       618.0         0.13          3.1 
       619.0         0.17          2.8 
       620.0         0.20          3.0 
       621.0         4.65          2.8 
       622.0         0.20          2.8 
       623.0         0.10          2.8 
       624.0         0.10          2.8 
       625.0         0.10          2.6 
       626.0         0.10          2.6 
       627.0         0.10          2.7 
       628.0         0.10          2.9 
       629.0         0.10          2.6 
       630.0         0.10          2.6 
       631.0         0.10          2.7 
       632.0         0.12          2.4 
       633.0         0.10          2.4 
       634.0         0.10          2.4 
       635.0         0.10          2.6 
       636.0         0.13          2.9 
       637.0         0.10          2.6 
       638.0         0.13          2.6 
       639.0         0.10          2.5 
       640.0         0.13          3.0 
       641.0         0.13          2.7 
       642.0         0.10          2.5 
       643.0         0.13          2.6 
       644.0         0.10          2.5 
       645.0         0.13          2.6 
       646.0         0.13          2.5 
       647.0         0.10          2.7 
       648.0         0.13          2.3 
       649.0         0.13          3.0 
       650.0         0.10          2.5 
       651.0         0.13          2.5 
       652.0         2.98          2.1 
       653.0         0.13          2.1 
       654.0         0.20          2.2 
       655.0         0.17          2.4 
       656.0         0.13          2.2 
       657.0         0.13          2.4 
       658.0         0.13          2.3 
       659.0         0.10          2.5 
       660.0         0.13          2.6 
       661.0         0.10          2.0 
       662.0         0.12          2.5 
       663.0         0.13          2.7 
       664.0         0.10          2.4 
       665.0         0.13          2.6 
       666.0         0.10          2.7 
       667.0         0.20          2.3 
       668.0         0.17          2.5 
       669.0         0.27          2.4 
       670.0         0.27          2.4 
       671.0         0.20          2.2 
       672.0         0.17          2.5 
       673.0         0.20          2.4 
       674.0         0.20          2.5 
       675.0         0.20          2.2 
       676.0         0.20          2.3 
       677.0         0.20          2.5 
       678.0         0.20          2.5 
       679.0         0.20          2.4 
       680.0         0.22          2.4 
       681.0         0.20          2.8 
       682.0         4.15          2.1 
       683.0         0.43          1.9 
       684.0         0.30          2.2 
       685.0         0.33          1.8 
       686.0         0.30          1.8 
       687.0         0.27          1.8 
       688.0         0.27          2.0 
       689.0         0.30          2.1 
       690.0         0.28          1.9 
       691.0         0.27          2.0 
       692.0         0.30          2.2 
       693.0         0.30          2.0 
       694.0         0.27          1.9 
       695.0         0.30          1.8 
       696.0         0.33          1.8 
       697.0         0.27          2.4 
       698.0         0.27          2.6 
       699.0         0.27          3.3 
       700.0         0.30          3.9 
       701.0         0.28          3.7 
       702.0         0.27          3.7 
       703.0         0.33          3.5 
       704.0         0.30          3.1 
       705.0         0.33          3.2 
       706.0         0.40          3.2 
       707.0         0.40          2.9 
       708.0         0.57          2.3 
       709.0         0.60          2.2 
       710.0         0.45          2.2 
       711.0         0.50          1.8 
       712.0         3.45          2.5 
       713.0         0.33          2.2 
       714.0         0.33          1.6 
       715.0         0.27          1.8 
       716.0         0.23          1.7 
       717.0         0.33          1.9 
       718.0         0.33          2.0 
       719.0         0.30          2.0 
       720.0         0.27          2.0 
       721.0         0.32          1.9 
       722.0         0.27          1.6 
       723.0         0.27          1.6 
       724.0         0.27          1.7 
       725.0         0.27          1.8 
       726.0         0.23          1.6 
       727.0         0.27          1.9 
       728.0         0.20          1.7 
       729.0         0.20          1.6 
       730.0         0.23          1.6 
       731.0         0.27          1.4 
       732.0         0.30          1.4 
       733.0         0.23          1.3 
       734.0         0.28          1.7 
       735.0         0.30          1.8 
       736.0         0.33          1.1 
       737.0         0.30          1.2 
       738.0         0.27          1.5 
       739.0         0.23          1.1 
       740.0         0.27          1.1 
       741.0         0.30          3.3 
       742.0        10.90        479.2 
       743.0         0.12         26.5 
       744.0         0.30         17.6 
       745.0         0.30         18.4 
       746.0         0.30         19.6 
       747.0         0.27         17.9 
       748.0         0.33          1.5 
       749.0         0.30          1.5 
       750.0         0.27          1.3 
       751.0         0.23          1.5 
       752.0         0.27          3.3 
       753.0         0.30         21.1 
       754.0        10.90        479.2 
       755.0         0.12         17.6 
       756.0         0.30         18.8 
       757.0         0.30         19.6 
       758.0         0.30         18.9 
       759.0         0.27         17.8 
       760.0         0.30         17.1 
       761.0         0.33         17.2 
       762.0         0.27         17.6 
       763.0         0.23         18.8 
       764.0         0.27         18.7 
       765.0         0.27         17.4 
       766.0         0.27         17.0 
       767.0         0.28         16.5 
       768.0         0.33         16.5 
       769.0         0.27         16.1 
       770.0         0.30         16.5 
       771.0         0.20         16.4 
       772.0         0.30         16.0 
       773.0         3.15         65.3 
       774.0         0.43         59.6 
       775.0         0.37         32.7 
       776.0         0.60         25.1 
       777.0         0.47         25.3 
       778.0         0.32         20.4 
       779.0         0.30         18.4 
       780.0         0.30         17.5 
       781.0         0.27         15.8 
       782.0         0.30         16.2 
       783.0         0.27         15.6 
       784.0         0.33         15.7 
       785.0         0.27         14.6 
       786.0         0.30         15.1 
       787.0         0.27         14.5 
       788.0         0.30         14.5 
       789.0         0.28         14.7 
       790.0         0.27         13.8 
