~Version Information
VERS.                      2.0: CWLS Log ASCII Standard - VERSION 2.0
WRAP.                       NO: One line per depth step
~Well Information Block
STRT.FT               -10.0000: 
STOP.FT              2073.0000: 
STEP.FT                 0.2500: 
NULL.                -999.2500: 
COMP.          Pioneer Natural Resources: COMPANY
WELL.              Joplin 44-5: WELL
FLD.           Purgatorie River: FIELD
LOC.           262' FSL & 418' FEL--: LOCATION
PROV.                       CO: PROVINCE
CNTY.               Las Animas: COUNTRY
SRVC.          Patterson Wireline: SERVICE COMPANY
DATE.          Mon Dec 19 09:21:33 2005: LOG DATE
UWI.           05 071 08623 00: UNIQUE WELL ID
~Curve Information Block
DEPT.FT            0 000 00 00: Depth
CCL.                          : Casing Collar Locator
TT3.usec                      : CBL 3' Travel Time
AMP3.mV                       : CBL 3' Amplitude
GR.GAPI                       : Gamma Ray
~Parameter Information Block
~A  Depth       CCL         TT3         AMP3         GR     
# ...
   526.0000     -2.0000    855.0387      5.5063     87.4055
   526.2500      2.0000    882.4198      5.4662     90.5158
   526.5000      0.0000    912.0516      5.4766     96.5397
   526.7500      0.0000    942.3273      5.5842    103.0232
   527.0000      0.0000    967.3068      5.8168    107.4405
   527.2500      0.0000    976.9197      6.1216    108.7891
   527.5000      0.0000    966.5947      6.3717    107.7836
   527.7500      0.0000    940.8755      6.4738    106.0534
   528.0000      0.0000    906.5203      6.4565    104.8927
   528.2500      0.0000    868.1781      6.4196    104.1212
   528.5000      0.0000    831.1164      6.4193    102.2577
   528.7500      0.0000    801.6981      6.4364     98.3434
   529.0000      0.0000    783.1873      6.4328     93.4125
   529.2500      0.0000    773.9620      6.4021     89.7921
   529.5000      0.0000    770.2612      6.3684     89.1777
   529.7500      0.0000    769.2686      6.3566     91.6349
   530.0000      0.0000    769.9352      6.3726     95.8192
   530.2500      0.0000    772.3421      6.4033     99.4792
   530.5000      0.0000    776.8343      6.4313    100.2266
   530.7500      0.0000    783.2058      6.4448     96.8329
   531.0000      0.0000    790.3272      6.4362     90.1739
   531.2500      0.0000    796.5275      6.3989     82.6940
   531.5000      0.0000    800.4642      6.3274     76.7050
   531.7500      0.0000    801.5248      6.2224     73.0470
   532.0000      0.0000    799.5291      6.0937     71.0363
   532.2500      0.0000    794.5547      5.9623     69.3958
   532.5000      0.0000    787.3998      5.8570     67.3972
   532.7500      0.0000    779.8965      5.7994     65.4594
   533.0000      0.0000    774.1519      5.7885     64.6067
   533.2500      0.0000    771.1159      5.8023     65.2259
   533.5000      0.0000    769.9122      5.8127     66.5103
   533.7500      0.0000    768.6126      5.7971     67.0981
   534.0000      0.0000    765.8644      5.7446     65.9374
   534.2500      0.0000    761.9242      5.6638     62.6886
   534.5000      0.0000    757.9612      5.5827     57.9965
   534.7500      0.0000    754.3889      5.5358     53.5991
   535.0000      0.0000    750.4946      5.5462     51.5635
   535.2500      0.0000    745.8710      5.6177     52.8567
   535.5000      0.0000    741.3367      5.7334     56.6232
   535.7500      0.0000    737.8708      5.8586     60.8945
   536.0000      0.0000    735.3350      5.9526     63.8830
   536.2500      0.0000    732.9033      5.9888     64.7662
   536.5000      0.0000    730.2290      5.9721     63.6549
   536.7500      0.0000    727.5352      5.9320     61.0748
   537.0000      0.0000    724.7670      5.8937     57.5125
   537.2500      0.0000    721.1003      5.8604     53.4527
   537.5000      0.0000    715.4670      5.8215     49.6336
   537.7500      0.0000    707.6727      5.7734     46.8648
   538.0000      0.0000    699.1134      5.7262     45.4487
   538.2500      0.0000    692.2614      5.6953     45.0143
   538.5000      0.0000    689.2416      5.6902     44.9517
   538.7500      0.0000    690.5201      5.7083     44.8369
   539.0000      0.0000    694.4362      5.7333     44.5463
   539.2500      0.0000    698.0001      5.7429     44.2315
   539.5000      0.0000    699.0009      5.7222     44.3477
   539.7500      0.0000    697.8768      5.6729     45.6424
   540.0000      0.0000    697.0349      5.6083     48.7305
   540.2500      0.0000    697.9745      5.5402     53.3324
   540.5000      0.0000    699.6428      5.4742     58.0349
   540.7500      0.0000    700.2399      5.4140     61.0501
   541.0000      0.0000    700.2940      5.3640     61.3587
   541.2500      0.0000    703.5144      5.3259     59.4185
   541.5000      0.0000    715.0682      5.2973     57.0937
   541.7500      0.0000    739.9150      5.2744     56.7521
   542.0000      0.0000    782.0095      5.2571     59.8479
   542.2500      0.0000    841.8663      5.2478     65.9492
   542.5000      0.0000    911.7098      5.2462     73.0102
   542.7500      0.0000    974.0518      5.2465     78.6699
   543.0000      0.0000   1010.9213      5.2421     81.5174
   543.2500      0.0000   1019.2557      5.2329     81.5126
   543.5000      0.0000   1015.7994      5.2266     79.5991
   543.7500      0.0000   1022.5970      5.2326     77.0306
   544.0000      0.0000   1046.8745      5.2539     74.8364
   544.2500      0.0000   1076.4318      5.2840     73.5768
   544.5000      0.0000   1092.5491      5.3107     73.3721
   544.7500      0.0000   1084.7733      5.3229     74.1136
   545.0000      0.0000   1056.9841      5.3166     75.6431
   545.2500      0.0000   1024.7568      5.2966     77.5954
   545.5000      0.0000   1005.3276      5.2724     79.1084
   545.7500      0.0000   1004.3557      5.2527     79.2068
   546.0000      0.0000   1010.7014      5.2408     77.9069
   546.2500      0.0000   1005.9140      5.2349     76.5588
   546.5000      0.0000    979.8290      5.2312     76.5498
   546.7500      0.0000    937.9763      5.2275     77.9723
   547.0000      0.0000    895.7549      5.2222     80.0187
   547.2500      0.0000    866.2065      5.2135     82.2715
   547.5000      0.0000    852.4296      5.2021     84.9145
   547.7500      0.0000    849.3929      5.1926     87.6775
   548.0000      0.0000    850.3985      5.1883     89.2871
   548.2500      0.0000    851.2274      5.1877     88.4780
   548.5000      0.0000    850.2663      5.1875     85.4138
   548.7500      0.0000    847.1854      5.1881     81.8878
   549.0000      0.0000    842.1335      5.1938     80.2482
   549.2500      0.0000    835.2432      5.2084     81.8672
   549.5000      0.0000    826.2336      5.2312     85.8718
   549.7500      0.0000    814.7568      5.2576     89.3193
   550.0000      0.0000    801.6956      5.2832     89.5060
   550.2500      0.0000    789.8396      5.3051     86.5421
   550.5000      0.0000    782.4433      5.3195     83.2547
   550.7500      0.0000    780.7639      5.3215     82.3826
   551.0000      0.0000    783.4324      5.3095     84.1838
   551.2500      0.0000    788.2985      5.2862     86.7303
   551.5000      0.0000    794.0936      5.2571     88.0294
   551.7500      0.0000    800.1099      5.2278     87.6827
   552.0000      0.0000    805.3929      5.2045     86.8295
   552.2500      0.0000    809.0446      5.1933     86.8180
   552.5000      0.0000    810.9218      5.1986     87.9910
   552.7500      0.0000    811.5815      5.2185     89.4280
   553.0000      0.0000    811.6953      5.2446     89.5016
   553.2500      0.0000    811.6536      5.2673     86.8133
   553.5000      0.0000    811.5367      5.2837     81.2696
   553.7500      0.0000    811.2315      5.2977     74.6245
   554.0000      0.0000    810.4809      5.3137     69.4888
   554.2500      0.0000    808.7984      5.3324     67.2622
   554.5000      0.0000    805.4188      5.3526     67.0458
   554.7500      0.0000    799.6311      5.3735     66.6939
   555.0000      0.0000    791.5187      5.3944     64.6794
   555.2500      0.0000    782.4161      5.4135     60.8933
   555.5000      0.0000    774.3297      5.4285     56.2169
   555.7500      0.0000    768.6934      5.4378     51.8491
   556.0000      0.0000    765.6724      5.4410     48.8270
   556.2500      0.0000    764.5106      5.4385     47.6146
   556.5000      0.0000    764.2801      5.4306     47.8921
   556.7500      0.0000    764.3416      5.4186     48.7995
   557.0000      0.0000    764.4199      5.4044     49.5201
   557.2500      0.0000    764.5019      5.3906     49.7036
   557.5000      0.0000    764.6954      5.3803     49.4286
   557.7500      0.0000    765.1093      5.3758     48.9104
   558.0000      0.0000    765.8284      5.3779     48.3395
   558.2500      0.0000    767.0130      5.3847     47.8282
   558.5000      0.0000    769.0441      5.3946     47.2752
   558.7500      0.0000    772.4587      5.4090     46.3658
   559.0000      0.0000    777.3798      5.4311     44.9009
   559.2500      0.0000    782.6942      5.4610     43.1936
