~Version Information
VERS.                      2.0: CWLS Log ASCII Standard - VERSION 2.0
WRAP.                       NO: One line per depth step
~Well Information Block
STRT.FT                -8.5000: 
STOP.FT              2030.0000: 
STEP.FT                 0.2500: 
NULL.                -999.2500: 
COMP.          Pioneer Natural Resources: COMPANY
WELL.           Alabaster 11-8: WELL
FLD.           Purgatorie River: FIELD
LOC.           1249' FNL & 215' FWL--: LOCATION
PROV.                       CO: PROVINCE
CNTY.               Las Animas: COUNTRY
SRVC.          Patterson Wireline: SERVICE COMPANY
DATE.          Mon Jan 30 11:59:01 2006: LOG DATE
UWI.           05 071 08642 00: UNIQUE WELL ID
~Curve Information Block
DEPT.FT            0 000 00 00: Depth
CCL.                          : Casing Collar Locator
TT3.usec                      : CBL 3' Travel Time
AMP3.mV                       : CBL 3' Amplitude
GR.GAPI                       : Gamma Ray
~Parameter Information Block
~A  Depth       CCL         TT3         AMP3         GR     
# ...
  1331.5000      0.0000    263.0370     73.0640     64.5705
  1331.7500      0.0000    263.0218     72.7925     62.7434
  1332.0000      0.0000    263.0194     72.3713     59.3757
  1332.2500      0.0000    263.0242     71.9057     55.4308
  1332.5000      0.0000    263.0341     71.4404     52.4042
  1332.7500      0.0000    263.0473     71.0061     51.5280
  1333.0000      0.0000    263.0619     70.6299     53.1730
  1333.2500      0.0000    263.0756     70.3269     56.7512
  1333.5000      0.0000    263.0863     70.0920     60.9182
  1333.7500      0.0000    263.0922     69.9005     64.0183
  1334.0000      0.0000    263.0929     69.7186     64.9358
  1334.2500      0.0000    263.0897     69.5177     63.8633
  1334.5000      0.0000    263.0856     69.2864     62.1632
  1334.7500      0.0000    263.0836     69.0339     61.4513
  1335.0000      0.0000    263.0851     68.7809     62.7000
  1335.2500      0.0000    263.0903     68.5467     65.7571
  1335.5000      0.0000    263.0980     68.3426     69.4744
  1335.7500      0.0000    263.1068     68.1723     72.4387
  1336.0000      0.0000    263.1154     68.0317     73.7767
  1336.2500      0.0000    263.1225     67.9069     73.4325
  1336.5000      0.0000    263.1277     67.7747     71.9261
  1336.7500      0.0000    263.1312     67.6124     69.9272
  1337.0000      0.0000    263.1344     67.4107     67.8285
  1337.2500      0.0000    263.1387     67.1788     65.5307
  1337.5000      0.0000    263.1447     66.9348     62.7533
  1337.7500      0.0000    263.1519     66.6935     59.6752
  1338.0000      0.0000    263.1596     66.4608     57.1104
  1338.2500      0.0000    263.1679     66.2365     55.7360
  1338.5000      0.0000    263.1772     66.0195     55.1059
  1338.7500      0.0000    263.1881     65.8102     53.9200
  1339.0000      0.0000    263.2002     65.6084     51.6155
  1339.2500      0.0000    263.2117     65.4097     49.3309
  1339.5000      0.0000    263.2201     65.2041     48.9793
  1339.7500      0.0000    263.2235     64.9807     51.6390
  1340.0000      0.0000    263.2222     64.7330     56.9983
  1340.2500      0.0000    263.2181     64.4584     63.8750
  1340.5000      0.0000    263.2141     64.1522     70.9210
  1340.7500      0.0000    263.2122     63.8086     77.2147
  1341.0000      0.0000    263.2138     63.4319     82.7107
  1341.2500      0.0000    263.2204     63.0436     88.2786
  1341.5000      0.0000    263.2330     62.6683     95.2248
  1341.7500      0.0000    263.2515     62.3131    104.5465
  1342.0000      0.0000    263.2746     61.9617    116.1821
  1342.2500      0.0000    263.2996     61.5859    128.5966
  1342.5000      0.0000    263.3238     61.1607    139.0645
  1342.7500      0.0000    263.3452     60.6743    144.7439
  1343.0000      0.0000    263.3629     60.1337    144.3451
  1343.2500      0.0000    263.3764     59.5567    139.5307
  1343.5000      0.0000    263.3858     58.9617    134.3351
  1343.7500      0.0000    263.3919     58.3692    132.0890
  1344.0000      0.0000    263.3972     57.8093    132.5646
  1344.2500      0.0000    263.4045     57.3127    132.7053
  1344.5000      0.0000    263.4161     56.8888    130.2520
  1344.7500      0.0000    263.4326     56.5191    126.1130
  1345.0000      0.0000    263.4537     56.1746    122.9361
  1345.2500      0.0000    263.4787     55.8358    121.9318
  1345.5000      0.0000    263.5057     55.4978    121.7291
  1345.7500      0.0000    263.5317     55.1612    120.1902
  1346.0000      0.0000    263.5538     54.8193    116.6690
  1346.2500      0.0000    263.5714     54.4558    112.3269
  1346.5000      0.0000    263.5868     54.0534    108.8752
  1346.7500      0.0000    263.6031     53.6062    107.3943
  1347.0000      0.0000    263.6222     53.1204    107.8299
  1347.2500      0.0000    263.6443     52.6044    109.0249
  1347.5000      0.0000    263.6697     52.0596    109.5001
  1347.7500      0.0000    263.6997     51.4853    108.6011
  1348.0000      0.0000    263.7361     50.8914    106.7585
  1348.2500      0.0000    263.7792     50.3006    104.8135
  1348.5000      0.0000    263.8286     49.7339    103.6313
  1348.7500      0.0000    263.8837     49.1995    104.1876
  1349.0000      0.0000    263.9446     48.6967    107.1013
  1349.2500      0.0000    264.0120     48.2233    111.8119
  1349.5000      0.0000    264.0857     47.7709    116.7025
  1349.7500      0.0000    264.1639     47.3201    120.3422
  1350.0000      0.0000    264.2438     46.8480    122.5588
  1350.2500      0.0000    264.3236     46.3418    124.2388
  1350.5000      0.0000    264.4049     45.7995    126.1556
  1350.7500      0.0000    264.4915     45.2210    128.1823
  1351.0000      0.0000    264.5879     44.6037    129.7250
  1351.2500      0.0000    264.6981     43.9473    130.5513
  1351.5000      0.0000    264.8236     43.2603    130.8064
  1351.7500      0.0000    264.9626     42.5602    130.4144
  1352.0000      0.0000    265.1097     41.8667    128.9037
  1352.2500      0.0000    265.2575     41.1973    125.8228
  1352.5000      0.0000    265.3992     40.5651    121.2201
  1352.7500      0.0000    265.5311     39.9766    115.9811
  1353.0000      0.0000    265.6565     39.4268    111.6102
  1353.2500      0.0000    265.7918     38.8980    109.2445
  1353.5000      0.0000    265.9968     38.3649    108.9541
  1353.7500      0.0000    266.4534     37.8001    110.3473
  1354.0000      0.0000    267.5927     37.1794    113.4774
  1354.2500      0.0000    270.1251     36.4877    118.4578
  1354.5000      0.0000    274.7142     35.7291    124.3509
  1354.7500      0.0000    281.2995     34.9388    129.2605
  1355.0000      0.0000    288.7014     34.1905    131.7055
  1355.2500      0.0000    295.1474     33.5874    131.4552
  1355.5000      0.0000    299.3107     33.2252    129.1285
  1355.7500      0.0000    300.7429     33.1486    125.6839
  1356.0000      0.0000    299.4431     33.3379    122.2444
  1356.2500      0.0000    295.4736     33.7390    119.5579
  1356.5000      0.0000    289.2736     34.3006    117.2751
  1356.7500      0.0000    282.0870     34.9902    114.0725
  1357.0000      0.0000    275.6010     35.7936    108.7370
  1357.2500      0.0000    270.9767     36.7122    101.2832
  1357.5000      0.0000    268.3234     37.7617     93.1082
  1357.7500      0.0000    267.0360     38.9672     86.0049
  1358.0000      0.0000    266.4325     40.3510     80.9293
  1358.2500      0.0000    266.0863     41.9027     77.7217
  1358.5000      0.0000    265.8219     43.5448     75.8346
  1358.7500      0.0000    265.5979     45.1353     74.9074
  1359.0000      0.0000    265.4161     46.5253     74.5704
  1359.2500      0.0000    265.2776     47.6274     74.2558
  1359.5000      0.0000    265.1748     48.4362     73.5988
  1359.7500      0.0000    265.0958     48.9996     72.8534
  1360.0000      0.0000    265.0312     49.3828     72.6398
  1360.2500      0.0000    264.9756     49.6489     73.3264
  1360.5000      0.0000    264.9278     49.8463     74.8112
  1360.7500      0.0000    264.8889     49.9970     76.7938
  1361.0000      0.0000    264.8626     50.0939     78.8834
  1361.2500      0.0000    264.8533     50.1105     80.3990
  1361.5000      0.0000    264.8649     50.0200     80.5634
  1361.7500      0.0000    264.8975     49.8179     79.1796
  1362.0000      0.0000    264.9455     49.5330     76.8389
  1362.2500      0.0000    264.9992     49.2167     74.3462
  1362.5000      0.0000    265.0497     48.9155     72.3106
  1362.7500      0.0000    265.0910     48.6525     71.3667
  1363.0000      0.0000    265.1209     48.4302     72.1717
  1363.2500      0.0000    265.1404     48.2464     74.6779
  1363.5000      0.0000    265.1518     48.1021     77.6103
  1363.7500      0.0000    265.1576     47.9980     79.1019
  1364.0000      0.0000    265.1609     47.9267     78.0450
  1364.2500      0.0000    265.1649     47.8717     74.8551
  1364.5000      0.0000    265.1722     47.8145     70.9249
  1364.7500      0.0000    265.1839     47.7427     67.4623
