~Version Information
VERS.                      2.0: CWLS Log ASCII Standard - VERSION 2.0
WRAP.                       NO: One line per depth step
~Well Information Block
STRT.FT               310.0000: 
STOP.FT              2295.5000: 
STEP.FT                 0.1000: 
NULL.                -999.2500: 
COMP.          Pioneer Natural Resources: COMPANY
WELL.               Relay 12-7: WELL
FLD.           Purgatoire River: FIELD
LOC.           1999' FNL & 848' FWL: LOCATION
PROV.                 Colorado: PROVINCE
CNTY.               Las Animas: COUNTRY
SRVC.                Patterson: SERVICE COMPANY
DATE.          Mon Dec 19 07:37:11 2005: LOG DATE
UWI.           05 071 08453 00: UNIQUE WELL ID
~Curve Information Block
DEPT.FT            0 000 00 00: Depth
DCAL.in                       : CDL Caliper
RHOB.g/cc                     : CDL Bulk Density
RHOC.g/cc                     : CDL Density Correction
DPOR.pu                       : CDL Density Porosity
GR.GAPI                       : Gamma Ray
NPOR.pu                       : Neutron Porosity
~Parameter Information Block
~A  Depth       DCAL        RHOB        RHOC        DPOR         GR         NPOR    
# ...
  1750.0000      8.0121      2.4250      0.0501     13.6381     87.4788     25.6607
  1750.1000      8.0121      2.4316      0.0579     13.2367     98.7306     26.2708
  1750.2000      8.0121      2.4327      0.0493     13.1673     97.9711     26.9286
  1750.3000      8.0177      2.4164      0.0144     14.1588     87.7885     26.7414
  1750.4000      8.0177      2.4046     -0.0005     14.8748     80.0114     25.1619
  1750.5000      8.0187      2.4150      0.0676     14.2438     75.7539     23.7530
  1750.6000      8.0187      2.4351      0.0406     13.0265     70.6473     23.5448
  1750.7000      8.0187      2.4544      0.0743     11.8519     70.8684     24.1618
  1750.8000      8.0336      2.4659      0.0569     11.1580     81.3530     24.6408
  1750.9000      8.0336      2.4588      0.0519     11.5856     96.9202     24.4456
  1751.0000      8.0454      2.4425     -0.0015     12.5735    105.4699     24.3320
  1751.1000      8.0454      2.4361      0.0370     12.9660     98.5572     24.7793
  1751.2000      8.0454      2.4335      0.0516     13.1187     84.0656     25.3467
  1751.3000      8.0522      2.4176      0.0144     14.0836     72.3780     25.5501
  1751.4000      8.0522      2.3911      0.0167     15.6885     68.0846     25.1375
  1751.5000      8.0443      2.3771     -0.0303     16.5396     71.8641     24.3050
  1751.6000      8.0443      2.3908      0.0294     15.7096     74.1507     23.8045
  1751.7000      8.0443      2.4144      0.0344     14.2801     66.1532     24.0690
  1751.8000      8.0370      2.4298      0.0365     13.3469     52.9808     24.4869
  1751.9000      8.0370      2.4504     -0.0194     12.0980     45.2384     24.4386
  1752.0000      8.0233      2.4863      0.0829      9.9185     47.6196     23.8054
  1752.1000      8.0233      2.5174      0.0971      8.0372     55.8953     23.0545
  1752.2000      8.0233      2.5264      0.0753      7.4925     63.5154     23.0037
  1752.3000      8.0059      2.5162      0.1034      8.1100     68.9103     23.6585
  1752.4000      8.0059      2.4991      0.0231      9.1464     72.1797     24.5730
  1752.5000      7.9996      2.4927      0.0526      9.5356     72.8006     24.7810
  1752.6000      7.9996      2.5041      0.0700      8.8425     73.1842     23.7213
  1752.7000      7.9996      2.5205      0.0698      7.8468     72.0664     22.9100
  1752.8000      8.0029      2.5243      0.0578      7.6205     66.2794     23.3088
  1752.9000      8.0029      2.5124      0.0677      8.3388     60.2748     24.0393
  1753.0000      8.0038      2.4996      0.0018      9.1162     57.5570     24.3988
  1753.1000      8.0038      2.4992      0.0190      9.1412     56.5466     24.5487
  1753.2000      8.0038      2.5044      0.0094      8.8239     55.1056     24.6521
  1753.3000      8.0038      2.5082      0.0336      8.5938     53.2210     24.4470
  1753.4000      8.0038      2.5152     -0.0066      8.1695     52.7079     23.7296
  1753.5000      8.0024      2.5302      0.0075      7.2607     52.5683     23.2198
  1753.6000      8.0024      2.5477      0.0666      6.1977     52.8111     23.6346
  1753.7000      8.0024      2.5504      0.1104      6.0385     56.4166     24.5431
  1753.8000      7.9998      2.5278      0.0607      7.4038     61.6864     25.1781
  1753.9000      7.9998      2.4932     -0.0062      9.5038     64.0840     25.1768
  1754.0000      8.0020      2.4660      0.0110     11.1488     63.7637     24.5130
  1754.1000      8.0020      2.4518      0.0149     12.0128     63.8800     23.4572
  1754.2000      8.0020      2.4410      0.0245     12.6659     62.8772     22.5494
  1754.3000      8.0037      2.4215      0.0137     13.8464     57.8898     22.1362
  1754.4000      8.0037      2.3965     -0.0043     15.3661     52.9841     21.9332
  1754.5000      8.0040      2.3840     -0.0238     16.1222     52.2232     21.9689
  1754.6000      8.0040      2.3928      0.0154     15.5889     53.4150     22.7121
  1754.7000      8.0040      2.4067      0.0367     14.7441     54.3124     23.8873
  1754.8000      8.0065      2.4055      0.0296     14.8157     55.9962     24.7334
  1754.9000      8.0065      2.3933     -0.0114     15.5581     59.2193     25.2712
  1755.0000      7.9930      2.3897      0.0213     15.7748     60.9961     25.5031
  1755.1000      7.9930      2.3999      0.0200     15.1551     60.9255     25.4598
  1755.2000      7.9930      2.4157      0.0685     14.2018     60.3064     25.4593
  1755.3000      8.0052      2.4261      0.0485     13.5676     56.0341     25.3663
  1755.4000      8.0052      2.4215      0.0486     13.8509     48.1498     24.9832
  1755.5000      8.0041      2.3992      0.0508     15.2015     41.6866     24.3774
  1755.6000      8.0041      2.3721     -0.0031     16.8396     40.1898     23.9441
  1755.7000      8.0041      2.3588      0.0034     17.6497     42.3603     23.9660
  1755.8000      8.0027      2.3604      0.0238     17.5503     45.2491     24.0052
  1755.9000      8.0027      2.3648      0.0326     17.2824     47.9643     23.6570
  1756.0000      8.0053      2.3717     -0.0337     16.8654     47.9218     23.3299
  1756.1000      8.0053      2.3913      0.0314     15.6759     43.1086     23.6092
  1756.2000      8.0053      2.4163      0.0312     14.1660     37.0926     23.9922
  1756.3000      8.0052      2.4278      0.0667     13.4670     35.0779     23.5412
  1756.4000      8.0052      2.4293      0.0189     13.3783     36.1175     22.5818
  1756.5000      8.0022      2.4371      0.0315     12.9013     36.9276     22.2960
  1756.6000      8.0022      2.4458      0.0737     12.3744     39.8714     22.7455
  1756.7000      8.0022      2.4412      0.0510     12.6530     45.4713     22.8523
  1756.8000      8.0077      2.4255      0.0413     13.6066     49.5764     22.4279
  1756.9000      8.0077      2.4089      0.0441     14.6144     51.2599     22.1175
  1757.0000      8.0064      2.3971      0.0297     15.3267     50.9732     22.0733
  1757.1000      8.0064      2.3937      0.0476     15.5321     48.3616     22.5623
  1757.2000      8.0064      2.3967      0.0243     15.3545     45.0813     23.7979
  1757.3000      8.0001      2.3996      0.0764     15.1766     45.3638     25.2578
  1757.4000      8.0001      2.4029      0.0416     14.9748     49.4054     26.2145
  1757.5000      7.9964      2.4076      0.0585     14.6905     52.7457     26.6540
  1757.6000      7.9964      2.3991      0.0561     15.2060     52.5183     26.8088
  1757.7000      7.9964      2.3771     -0.0492     16.5368     50.7493     26.2401
  1757.8000      7.9921      2.3673      0.0080     17.1350     50.8410     24.9751
  1757.9000      7.9921      2.3766      0.0059     16.5712     51.8574     23.5988
  1758.0000      7.9895      2.3969     -0.0020     15.3398     52.1227     22.6561
  1758.1000      7.9895      2.4207      0.0269     13.8979     51.7243     22.5097
  1758.2000      7.9895      2.4325      0.0751     13.1813     49.0106     22.9598
  1758.3000      7.9884      2.4260      0.0403     13.5742     45.7249     23.8661
  1758.4000      7.9884      2.4130      0.0322     14.3627     46.2166     24.7850
  1758.5000      7.9886      2.4025      0.0112     15.0026     47.0659     24.8503
  1758.6000      7.9886      2.3906      0.0175     15.7233     42.6321     24.3024
  1758.7000      7.9886      2.3802     -0.0313     16.3532     37.1646     23.9828
  1758.8000      7.9894      2.3855     -0.0068     16.0285     37.4876     23.7565
  1758.9000      7.9894      2.4045      0.0587     14.8809     42.2048     23.3910
  1759.0000      8.0005      2.4221      0.0540     13.8147     45.8778     23.2541
  1759.1000      8.0005      2.4338      0.0327     13.1020     45.2081     23.0770
  1759.2000      8.0005      2.4403      0.0503     12.7080     42.0537     22.7731
  1759.3000      7.9896      2.4433      0.0633     12.5279     41.0980     22.6480
  1759.4000      7.9896      2.4473      0.0478     12.2833     40.6752     22.3379
  1759.5000      7.9865      2.4532      0.0509     11.9249     38.3198     21.6451
