~Version Information
VERS.                      2.0: CWLS Log ASCII Standard - VERSION 2.0
WRAP.                       NO: One line per depth step
~Well Information Block
STRT.FT                -7.7500: 
STOP.FT              1420.5000: 
STEP.FT                 0.2500: 
NULL.                -999.2500: 
COMP.          Pioneer Natural Resources: COMPANY
WELL.          Parklane 43-34 Tr: WELL
FLD.           Purgatorie River: FIELD
LOC.           1643' FSL & 966' FEL--: LOCATION
PROV.                       CO: PROVINCE
CNTY.               Las Animas: COUNTRY
SRVC.          Patterson Wireline: SERVICE COMPANY
DATE.          Tue Aug 02 11:35:27 2005: LOG DATE
UWI.           05 071 08452 00: UNIQUE WELL ID
~Curve Information Block
DEPT.FT            0 000 00 00: Depth
CCL.                          : Casing Collar Locator
TT3.usec                      : CBL 3' Travel Time
AMP3.mV                       : CBL 3' Amplitude
GR.GAPI                       : Gamma Ray
~Parameter Information Block
~A  Depth       CCL         TT3         AMP3         GR     
# ...
  1399.2500      0.0000    577.5552     11.8237    131.1149
  1399.5000      0.0000    549.9477     11.6153    123.9293
  1399.7500      0.0000    530.8128     11.3699    117.0114
  1400.0000      0.0000    523.9589     11.1242    110.9788
  1400.2500      0.0000    527.8542     10.9032    106.3228
  1400.5000      0.0000    539.5648     10.7172    103.3753
  1400.7500      0.0000    559.4648     10.5669    102.2481
  1401.0000      0.0000    589.7806     10.4500    102.8231
  1401.2500      0.0000    628.1354     10.3656    104.8634
  1401.5000      0.0000    665.8986     10.3153    108.2229
  1401.7500      0.0000    694.8182     10.2979    112.6885
  1402.0000      0.0000    713.3721     10.3048    117.3076
  1402.2500      0.0000    725.5566     10.3199    120.3317
  1402.5000      0.0000    735.6756     10.3219    120.5787
  1402.7500      0.0000    745.5632     10.2896    118.7611
  1403.0000      0.0000    755.0139     10.2099    116.9644
  1403.2500      0.0000    762.8298     10.0848    117.0187
  1403.5000      0.0000    766.8734      9.9323    119.7967
  1403.7500      0.0000    764.1265      9.7820    125.4720
  1404.0000      0.0000    752.2039      9.6678    133.2129
  1404.2500      0.0000    732.4305      9.6164    140.6936
  1404.5000      0.0000    711.4453      9.6388    145.4348
  1404.7500      0.0000    698.5105      9.7282    147.1969
  1405.0000      0.0000    699.9677      9.8611    147.9334
  1405.2500      0.0000    715.2280      9.9989    148.9138
  1405.5000      0.0000    737.3477     10.0954    148.9859
  1405.7500      0.0000    757.6877     10.1141    145.6727
  1406.0000      0.0000    770.9937     10.0444    136.4319
  1406.2500      0.0000    777.1246      9.9071    119.0689
  1406.5000      0.0000    778.7435      9.7481     93.4049
  1406.7500      0.0000    777.6214      9.6181     63.4508
  1407.0000      0.0000    773.0806      9.5497     36.1790
  1407.2500      0.0000    763.8309      9.5481     16.9238
  1407.5000      0.0000    750.7119      9.6043      6.3922
  1407.7500      0.0000    737.1443      9.7085      1.9285
  1408.0000      0.0000    726.8167      9.8466      0.4610
  1408.2500      0.0000    721.1218      9.9911      0.0861
  1408.5000      0.0000    718.5576     10.1072      0.0117
  1408.7500      0.0000    716.3420     10.1727      0.0000
  1409.0000      0.0000    712.8279     10.1873   -999.2500
  1409.2500      0.0000    708.7661     10.1660   -999.2500
  1409.5000      0.0000    706.3221     10.1274   -999.2500
  1409.7500      0.0000    706.9390     10.0842   -999.2500
  1410.0000      0.0000    710.2480     10.0389   -999.2500
  1410.2500      0.0000    714.6785      9.9834   -999.2500
  1410.5000      0.0000    718.5205      9.9075   -999.2500
  1410.7500      0.0000    719.9656      9.8069   -999.2500
  1411.0000      0.0000    715.6328      9.6685   -999.2500
  1411.2500      0.0000    697.6473      9.4192   -999.2500
  1411.5000      0.0000    652.2272      8.8878   -999.2500
  1411.7500      0.0000    565.7534      7.8801   -999.2500
  1412.0000      0.0000    438.5887      6.3679   -999.2500
  1412.2500      0.0000    293.4973      4.6130   -999.2500
  1412.5000      0.0000    164.8306      3.0387   -999.2500
  1412.7500      0.0000     76.0683      1.9444   -999.2500
  1413.0000      0.0000     28.4119      1.3537   -999.2500
  1413.2500      0.0000      8.4951      1.1060   -999.2500
  1413.5000      0.0000      2.0151      1.0252   -999.2500
  1413.7500      0.0000      0.3734      1.0047   -999.2500
  1414.0000      0.0000      0.0499      1.0006   -999.2500
  1414.2500      0.0000   -999.2500   -999.2500   -999.2500
  1414.5000      0.0000   -999.2500   -999.2500   -999.2500
  1414.7500      0.0000   -999.2500   -999.2500   -999.2500
  1415.0000      0.0000   -999.2500   -999.2500   -999.2500
  1415.2500      0.0000   -999.2500   -999.2500   -999.2500
  1415.5000      0.0000   -999.2500   -999.2500   -999.2500
  1415.7500      0.0000   -999.2500   -999.2500   -999.2500
  1416.0000      0.0000   -999.2500   -999.2500   -999.2500
  1416.2500      0.0000   -999.2500   -999.2500   -999.2500
  1416.5000      0.0000   -999.2500   -999.2500   -999.2500
  1416.7500      0.0000   -999.2500   -999.2500   -999.2500
  1417.0000      0.0000   -999.2500   -999.2500   -999.2500
  1417.2500      0.0000   -999.2500   -999.2500   -999.2500
  1417.5000      0.0000   -999.2500   -999.2500   -999.2500
  1417.7500      0.0000   -999.2500   -999.2500   -999.2500
  1418.0000      0.0000   -999.2500   -999.2500   -999.2500
  1418.2500      0.0000   -999.2500   -999.2500   -999.2500
  1418.5000      0.0000   -999.2500   -999.2500   -999.2500
  1418.7500      0.0000   -999.2500   -999.2500   -999.2500
  1419.0000      0.0000   -999.2500   -999.2500   -999.2500
  1419.2500      0.0000   -999.2500   -999.2500   -999.2500
  1419.5000      0.0000   -999.2500   -999.2500   -999.2500
  1419.7500      0.0000   -999.2500   -999.2500   -999.2500
  1420.0000   -999.2500   -999.2500   -999.2500   -999.2500
  1420.2500   -999.2500   -999.2500   -999.2500   -999.2500
  1420.5000   -999.2500   -999.2500   -999.2500   -999.2500
