~Version Information
VERS.                      2.0: CWLS Log ASCII Standard - VERSION 2.0
WRAP.                       NO: One line per depth step
~Well Information Block
STRT.FT                 0.0000: 
STOP.FT               683.5000: 
STEP.FT                 0.2500: 
NULL.                -999.2500: 
COMP.          Pioneer Natural Resources: COMPANY
WELL.           Belvedere 14-7: WELL
FLD.           Purgatorie River: FIELD
LOC.           786' FSL & 1283' FWL: LOCATION
PROV.                 Colorado: PROVINCE
CNTY.               Las Animas: COUNTRY
SRVC.                Patterson: SERVICE COMPANY
DATE.          Fri Dec 02 12:52:31 2005: LOG DATE
UWI.           05-071-08557               : UNIQUE WELL ID
~Curve Information Block
DEPT.FT            0 000 00 00: Depth
CCL.                          : Casing Collar Locator
TT3.usec                      : CBL 3' Travel Time
AMP3.mV                       : CBL 3' Amplitude
GR.GAPI                       : Gamma Ray
~Parameter Information Block
~A  Depth       CCL         TT3         AMP3         GR     
# ...
   469.0000      0.0000    470.0728     10.7347     85.0472
   469.2500      0.0000    488.9875     10.5820     80.9068
   469.5000      0.0000    539.0875     10.3660     74.6620
   469.7500      0.0000    599.2428     10.1562     67.6085
   470.0000      0.0000    624.1959      9.9574     61.8013
   470.2500      0.0000    585.2266      9.7923     58.5742
   470.5000      0.0000    505.6155      9.7217     57.7465
   470.7500      0.0000    433.8597      9.7489     58.0734
   471.0000      0.0000    395.7035      9.8111     58.2492
   471.2500      0.0000    391.1299      9.8529     57.4899
   471.5000      0.0000    417.8500      9.8484     55.5726
   471.7500      0.0000    468.7821      9.7814     52.7091
   472.0000      0.0000    513.4917      9.6551     49.4476
   472.2500      0.0000    514.1345      9.4956     46.5021
   472.5000      0.0000    469.3138      9.3331     44.4499
   472.7500      0.0000    414.3215      9.2198     43.4939
   473.0000      0.0000    378.9291      9.1983     43.5892
   473.2500      0.0000    372.0380      9.2034     44.7022
   473.5000      0.0000    393.1224      9.1307     46.8618
   473.7500      0.0000    429.1034      9.0013     50.1592
   474.0000      0.0000    450.0730      8.9124     54.7781
   474.2500      0.0000    437.5038      8.8849     60.6386
   474.5000      0.0000    406.3412      8.8941     66.7851
   474.7500      0.0000    379.3407      8.9496     71.4048
   475.0000      0.0000    363.6910      9.0428     72.9849
   475.2500      0.0000    361.1734      9.1006     71.7544
   475.5000      0.0000    380.5864      9.0524     69.8987
   475.7500      0.0000    434.1527      8.8848     69.8879
   476.0000      0.0000    518.4270      8.6316     72.3868
   476.2500      0.0000    600.8314      8.3680     76.1470
   476.5000      0.0000    643.5807      8.1621     79.9109
   476.7500      0.0000    644.8841      7.9838     83.6077
   477.0000      0.0000    638.4163      7.7399     87.4534
   477.2500      0.0000    647.8092      7.3938     90.7212
   477.5000      0.0000    664.5300      6.9461     91.9882
   477.7500      0.0000    675.3464      6.3925     90.2113
   478.0000      0.0000    682.3439      5.8009     85.2671
   478.2500      0.0000    692.6027      5.2738     77.9062
   478.5000      0.0000    707.7832      4.8401     69.5100
   478.7500      0.0000    727.2452      4.4895     61.5602
   479.0000      0.0000    757.6155      4.2485     55.1216
   479.2500      0.0000    813.9843      4.1849     50.7786
   479.5000      0.0000    895.6313      4.3703     48.8125
   479.7500      0.0000    956.5024      4.8367     49.1550
   480.0000      0.0000    940.0015      5.5387     51.3353
   480.2500      0.0000    858.9869      6.3357     54.6577
   480.5000      0.0000    786.1839      7.0569     58.3641
   480.7500      0.0000    760.9250      7.6337     61.7928
   481.0000      0.0000    761.3817      8.1420     64.6949
   481.2500      0.0000    756.6730      8.7013     67.3680
   481.5000      0.0000    742.5934      9.3418     70.4170
   481.7500      0.0000    728.6463      9.9825     74.4063
   482.0000      0.0000    710.3384     10.5633     79.3915
   482.2500      0.0000    668.4563     11.1301     84.4759
   482.5000      0.0000    599.8033     11.7122     88.1943
   482.7500      0.0000    541.6774     12.1636     89.6430
   483.0000      0.0000    542.6646     12.2265     88.8923
   483.2500      0.0000    598.4410     11.8453     86.3539
   483.5000      0.0000    653.4698     11.3170     82.4947
   483.7500      0.0000    672.3329     10.9396     78.1221
   484.0000      0.0000    670.3239     10.6349     74.1368
   484.2500      0.0000    676.9385     10.0757     70.9321
   484.5000      0.0000    699.3230      9.0811     68.4544
   484.7500      0.0000    725.7443      7.8867     66.6420
   485.0000      0.0000    744.7153      6.9972     65.4973
   485.2500      2.0000    750.9890      6.6581     65.0233
   485.5000      0.0000    745.6510      6.6863     65.2569
   485.7500     -2.0000    733.3618      6.7774     66.1290
   486.0000      0.0000    713.1225      6.7791     67.3801
   486.2500      0.0000    682.8368      6.7993     68.9292
   486.5000      0.0000    654.5769      7.1518     71.1114
   486.7500      0.0000    643.3288      8.0586     74.1170
   487.0000      0.0000    646.2896      9.2368     77.2902
   487.2500      0.0000    654.6998      9.9696     79.3827
   487.5000      0.0000    670.1645      9.8950     79.5619
   487.7500      0.0000    692.4651      9.3932     77.9742
   488.0000      0.0000    711.9036      8.9599     75.3681
   488.2500      0.0000    722.0500      8.6967     72.5705
   488.5000      0.0000    725.1717      8.4802     70.5748
   488.7500      0.0000    725.5690      8.2273     70.6931
   489.0000      0.0000    725.4083      7.9651     73.8083
   489.2500      0.0000    725.2805      7.7837     79.2049
   489.5000      0.0000    725.2891      7.7409     84.6632
   489.7500      0.0000    725.4152      7.8027     88.2157
   490.0000      0.0000    725.6226      7.8726     89.5690
   490.2500      0.0000    725.8550      7.8806     89.5067
   490.5000      0.0000    725.9954      7.8376     88.5124
   490.7500      0.0000    725.9683      7.7996     86.7297
   491.0000      0.0000    725.8295      7.8048     84.7864
   491.2500      0.0000    725.7028      7.8538     83.6300
   491.5000      0.0000    725.6608      7.9277     83.5098
   491.7500      0.0000    725.6550      8.0064     83.6292
   492.0000      0.0000    725.5818      8.0687     82.7966
   492.2500      0.0000    725.3932      8.0976     80.3769
   492.5000      0.0000    725.1142      8.0952     76.9635
   492.7500      0.0000    724.8148      8.0848     74.2006
   493.0000      0.0000    724.5919      8.0670     73.5778
   493.2500      0.0000    724.5065      7.9948     75.1144
   493.5000      0.0000    724.4969      7.8486     77.3006
   493.7500      0.0000    724.4196      7.7055     78.4927
   494.0000      0.0000    724.0328      7.6823     78.3154
   494.2500      0.0000    722.4534      7.8351     77.5696
   494.5000      0.0000    717.8624      8.1209     76.9771
   494.7500      0.0000    709.8152      8.4331     76.5119
   495.0000      0.0000    702.9153      8.6795     75.9531
   495.2500      0.0000    704.3774      8.8527     75.4572
   495.5000      0.0000    716.1353      9.0227     75.3641
   495.7500      0.0000    733.2680      9.2604     75.9370
   496.0000      0.0000    748.4198      9.5717     77.5094
   496.2500      0.0000    755.2717      9.8707     80.3937
   496.5000      0.0000    752.6402     10.0441     84.2977
   496.7500      0.0000    743.9908     10.0712     88.1474
   497.0000      0.0000    731.4971     10.0049     90.8056
   497.2500      0.0000    715.2221      9.8681     91.9271
   497.5000      0.0000    695.5805      9.6737     92.0507
   497.7500      0.0000    677.3656      9.4848     91.8525
   498.0000      0.0000    670.6758      9.3824     91.2824
   498.2500      0.0000    679.4084      9.3911     89.5171
   498.5000      0.0000    696.2561      9.4433     85.9084
   498.7500      0.0000    714.2286      9.4366     80.9219
   499.0000      0.0000    731.2140      9.3479     75.8972
   499.2500      0.0000    744.6604      9.2530     71.9416
   499.5000      0.0000    753.0994      9.2368     69.2611
   499.7500      0.0000    759.2696      9.3271     67.3702
   500.0000      0.0000    765.8273      9.4837     65.5354
   500.2500      0.0000    770.8928      9.6227     63.0879
   500.5000      0.0000    769.6682      9.6837     59.7798
   500.7500      0.0000    758.7483      9.6811     56.0485
   501.0000      0.0000    742.7985      9.6628     52.7742
   501.2500      0.0000    737.0359      9.6278     50.6582
   501.5000      0.0000    750.0988      9.5430     49.8207
   501.7500      0.0000    769.4146      9.4409     49.9226
   502.0000      0.0000    776.4985      9.4195     50.5349
   502.2500      0.0000    765.5882      9.5265     51.3521
