~Version Information
VERS.                      2.0: CWLS Log ASCII Standard - VERSION 2.0
WRAP.                       NO: One line per depth step
~Well Information Block
STRT.FT                -7.0000: 
STOP.FT              1239.2500: 
STEP.FT                 0.2500: 
NULL.                -999.2500: 
COMP.          Pioneer Natural Resources: COMPANY
WELL.              Julie 11-30: WELL
FLD.           Purgatorie River: FIELD
LOC.           672' FNL & 1052' FWL--: LOCATION
CNTY.               Las Animas: COUNTY
SRVC.          Patterson Wireline: SERVICE COMPANY
DATE.          Tue Apr 18 11:12:35 2006: LOG DATE
UWI.           05 071 08724 00: UNIQUE WELL ID
STAT.                       CO: STATE
~Curve Information Block
DEPT.FT            0 000 00 00: Depth
CCL.                          : Casing Collar Locator
TT3.usec                      : CBL 3' Travel Time
AMP3.mV                       : CBL 3' Amplitude
GR.GAPI                       : Gamma Ray
~Parameter Information Block
~A  Depth       CCL         TT3         AMP3         GR     
    -7.0000   -999.2500   -999.2500   -999.2500     86.0189
    -6.7500   -999.2500   -999.2500   -999.2500     84.1266
    -6.5000   -999.2500   -999.2500   -999.2500     81.7583
    -6.2500   -999.2500   -999.2500   -999.2500     80.1332
    -6.0000   -999.2500   -999.2500   -999.2500     79.7393
    -5.7500   -999.2500   -999.2500   -999.2500     80.2546
    -5.5000   -999.2500   -999.2500   -999.2500     81.1001
    -5.2500   -999.2500   -999.2500   -999.2500     81.6032
    -5.0000   -999.2500   -999.2500   -999.2500     81.0282
    -4.7500   -999.2500   -999.2500   -999.2500     78.9987
    -4.5000   -999.2500   -999.2500   -999.2500     75.9888
    -4.2500   -999.2500   -999.2500   -999.2500     73.3077
    -4.0000   -999.2500   -999.2500   -999.2500     72.5679
    -3.7500   -999.2500   -999.2500   -999.2500     74.8115
    -3.5000   -999.2500   -999.2500   -999.2500     79.5633
    -3.2500   -999.2500   -999.2500   -999.2500     84.6152
    -3.0000   -999.2500   -999.2500   -999.2500     87.4349
    -2.7500   -999.2500   -999.2500   -999.2500     87.3567
    -2.5000   -999.2500   -999.2500   -999.2500     86.0612
    -2.2500   -999.2500   1161.0000      1.0093     85.6977
    -2.0000   -999.2500   1161.0000      1.0066     86.9945
    -1.7500   -999.2500   1161.0000      1.0001     89.1238
    -1.5000   -999.2500   1161.0000      0.9939     90.6026
    -1.2500   -999.2500   1161.0000      0.9916     90.1890
    -1.0000   -999.2500   1161.0000      0.9939     87.4805
    -0.7500   -999.2500   1161.0000      0.9979     82.9219
    -0.5000   -999.2500   1161.0000      0.9984     77.3292
    -0.2500   -999.2500   1161.0000      0.9918     71.5875
     0.0000   -999.2500   1161.0000      0.9687     62.6056
     0.2500   -999.2500   1161.0000      0.9625     59.1136
     0.5000   -999.2500   1161.0000      0.9608     54.7840
     0.7500   -999.2500   1161.0000      0.9601     48.9370
     1.0000   -999.2500   1161.0000      0.9576     42.4720
     1.2500   -999.2500   1161.0000      0.9530     37.2586
     1.5000   -999.2500   1161.0000      0.9473     34.4365
     1.7500   -999.2500   1161.0000      0.9407     33.5698
     2.0000   -999.2500   1161.0000      0.9326     33.6315
     2.2500   -999.2500   1161.0000      0.9234     34.4844
     2.5000   -999.2500   1161.0000      0.9164     37.0190
     2.7500   -999.2500   1161.0000      0.9156     41.9235
     3.0000      0.0000   1161.0000      0.9246     48.6628
     3.2500      0.0000   1161.0000      0.9438     55.7225
     3.5000      0.0000   1161.0000      0.9704     61.5107
     3.7500      0.0000   1160.9948      0.9988     64.9591
     4.0000      0.0000   1160.9429      1.0228     65.8631
     4.2500      0.0000   1160.6189      1.0407     65.0596
     4.5000      0.0000   1159.1166      1.0645     63.9739
     4.7500      0.0000   1153.5149      1.1564     63.6862
     5.0000      0.0000   1136.6648      1.5395     64.2373
     5.2500      0.0000   1095.7167      2.8119     64.6100
     5.5000      0.0000   1015.3325      6.1422     63.5987
     5.7500      0.0000    888.0540     13.0443     61.1330
     6.0000      0.0000    725.9254     24.3873     58.6683
     6.2500      0.0000    560.3108     39.1592     58.0057
     6.5000      0.0000    425.0920     54.3798     59.8623
     6.7500      0.0000    337.1165     66.7571     63.6808
     7.0000      0.0000    291.6183     74.6562     68.3490
     7.2500      0.0000    272.9473     78.5193     72.9524
     7.5000      0.0000    266.8736     79.7213     77.4383
     7.7500      0.0000    265.3116     79.3095     82.6957
     8.0000      0.0000    265.0152     77.5998     89.3616
     8.2500      0.0000    265.0465     74.4909     96.3619
     8.5000      0.0000    265.2791     69.9310    101.2466
     8.7500      0.0000    265.8906     64.1511    102.3384
     9.0000      0.0000    267.3299     57.6160    100.1091
     9.2500      0.0000    270.2879     50.8511     96.2629
     9.5000      0.0000    275.3857     44.2969     92.2751
     9.7500      0.0000    282.5836     38.2371     89.2611
    10.0000      0.0000    290.9257     32.8085     88.2758
    10.2500      0.0000    299.2106     28.0572     89.6143
    10.5000      0.0000    307.0555     23.9833     92.0765
    10.7500      0.0000    315.0865     20.5486     93.7258
    11.0000      0.0000    323.9501     17.6823     93.5385
    11.2500      0.0000    333.3712     15.3194     92.2921
    11.5000      0.0000    342.3023     13.4400     92.0401
    11.7500      0.0000    349.6544     12.0527     94.6228
    12.0000      0.0000    354.6283     11.1349    100.1076
    12.2500      0.0000    356.8348     10.5990    106.1803
    12.5000      0.0000    356.8066     10.3186    109.4453
    12.7500      0.0000    356.2421     10.1780    108.2147
    13.0000      0.0000    357.4409     10.0986    104.1957
    13.2500      0.0000    363.1987     10.0347    100.9405
    13.5000      0.0000    378.6888      9.9580    100.5852
    13.7500      0.0000    413.0826      9.8452    102.3439
    14.0000      0.0000    475.5601      9.6816    103.7864
    14.2500      0.0000    565.4272      9.4747    102.9538
    14.5000      0.0000    666.4171      9.2596     99.5415
    14.7500      0.0000    754.8093      9.0807     94.9033
    15.0000      0.0000    815.0851      8.9658     91.1301
    15.2500      0.0000    847.2095      8.9145     89.6297
    15.5000      0.0000    860.8282      8.9065     90.1345
    15.7500      0.0000    865.9621      8.9156     91.1744
    16.0000      0.0000    868.7861      8.9209     91.6344
    16.2500      0.0000    872.2262      8.9121     91.6017
    16.5000      0.0000    877.4214      8.8909     91.6989
    16.7500      0.0000    884.3136      8.8662     92.0160
    17.0000      0.0000    892.3798      8.8484     91.8196
    17.2500      0.0000    902.2217      8.8457     90.1845
    17.5000      0.0000    916.4684      8.8654     87.1580
    17.7500      0.0000    937.5522      8.9155     84.3636
    18.0000      0.0000    963.9886      9.0019     83.8572
    18.2500      0.0000    990.5354      9.1208     85.9071
    18.5000      0.0000   1013.5496      9.2519     88.2211
    18.7500      0.0000   1034.4432      9.3618     87.8792
    19.0000      0.0000   1055.1746      9.4193     84.0708
    19.2500      0.0000   1071.7769      9.4137     78.6670
    19.5000      0.0000   1075.8107      9.3622     74.1165
    19.7500      0.0000   1062.2102      9.2999     71.2274
    20.0000      0.0000   1033.8444      9.2602     69.2323
    20.2500      0.0000    999.1678      9.2618     67.4799
    20.5000      0.0000    967.5283      9.3059     66.3029
    20.7500      0.0000    945.7996      9.3786     66.3262
    21.0000      0.0000    936.1189      9.4558     67.6509
    21.2500      0.0000    935.4897      9.5126     69.7600
    21.5000      0.0000    938.6110      9.5349     71.7542
    21.7500      0.0000    941.5380      9.5235     72.7654
    22.0000      0.0000    942.8217      9.4899     72.5030
    22.2500      0.0000    942.1948      9.4499     71.2363
    22.5000      0.0000    939.3028      9.4179     69.3219
    22.7500      0.0000    933.7902      9.3995     67.3207
    23.0000      0.0000    925.9023      9.3846     66.4401
    23.2500      0.0000    916.2998      9.3481     67.9591
    23.5000      0.0000    905.2103      9.2622     71.9116
    23.7500      0.0000    892.4036      9.1172     76.7979
    24.0000      0.0000    878.1659      8.9351     80.7101
    24.2500      0.0000    863.6686      8.7595     82.3770
    24.5000      0.0000    850.2942      8.6282     81.2736
    24.7500      0.0000    839.0464      8.5517     77.5480
    25.0000      0.0000    830.3712      8.5117     72.2471
    25.2500      0.0000    824.0386      8.4762     67.0859
    25.5000      0.0000    819.4261      8.4197     63.5338
    25.7500      0.0000    816.2823      8.3389     62.2126
    26.0000      0.0000    814.9641      8.2559     62.9898
    26.2500      0.0000    815.6294      8.2043     65.0741
