~Version Information
VERS.                      2.0: CWLS Log ASCII Standard - VERSION 2.0
WRAP.                       NO: One line per depth step
~Well Information Block
STRT.FT                 0.0000: 
STOP.FT              1201.0000: 
STEP.FT                 0.2500: 
NULL.                -999.2500: 
COMP.          Pioneer Natural Resources: COMPANY
WELL.             Margaux 11-1: WELL
FLD.           Purgatoire River: FIELD
LOC.           1154' FNL & 472' FWL --------: LOCATION
PROV.                 Colorado: PROVINCE
CNTY.               Las Animas: COUNTRY
SRVC.                         : SERVICE COMPANY
DATE.          Thu Jan 05 11:16:55 2006: LOG DATE
UWI.                          : UNIQUE WELL ID
~Curve Information Block
DEPT.FT            0 000 00 00: Depth
CCL.                          : Casing Collar Locator
TT3.usec                      : CBL 3' Travel Time
AMP3.mV                       : CBL 3' Amplitude
AMP5.mV                       : CBL 5' Amplitude
GR.GAPI                       : Gamma Ray
~Parameter Information Block
~A  Depth       CCL         TT3         AMP3        AMP5         GR     
# ...
  1092.0000      0.0000    728.8766     13.0836      3.6872     61.6116
  1092.2500      0.0000    728.2311     12.7755      3.5462     63.8444
  1092.5000      0.0000    724.5513     12.1826      3.5131     65.0932
  1092.7500      0.0000    721.6131     11.4131      3.4287     65.2258
  1093.0000      0.0000    721.5135     10.7008      3.1794     63.9989
  1093.2500      0.0000    724.9481     10.2048      2.7676     61.6406
  1093.5000      0.0000    731.1314      9.9432      2.2894     59.1295
  1093.7500      0.0000    737.9517      9.8464      1.8575     57.4562
  1094.0000      0.0000    743.1259      9.8276      1.5445     56.7181
  1094.2500      0.0000    745.8441      9.8166      1.3744     56.3236
  1094.5000      0.0000    746.9247      9.7733      1.3458     55.9094
  1094.7500      0.0000    747.2134      9.6983      1.4532     55.5618
  1095.0000      0.0000    746.4191      9.6324      1.6792     55.2488
  1095.2500      0.0000    743.7855      9.6306      1.9695     54.7157
  1095.5000      0.0000    739.2573      9.7214      2.2263     54.0673
  1095.7500      0.0000    733.5472      9.8820      2.3455     53.8641
  1096.0000      0.0000    727.5196     10.0543      2.2738     54.3834
  1096.2500      0.0000    721.7938     10.1855      2.0407     55.2583
  1096.5000      0.0000    716.6319     10.2544      1.7405     56.0528
  1096.7500      0.0000    712.1262     10.2638      1.4765     56.7716
  1097.0000      0.0000    708.6608     10.2196      1.3071     57.6216
  1097.2500      0.0000    706.9445     10.1284      1.2340     58.6205
  1097.5000      0.0000    707.2556     10.0093      1.2313     59.5928
  1097.7500      0.0000    708.8966      9.8960      1.2793     60.4072
  1098.0000      0.0000    710.7130      9.8192      1.3734     61.1497
  1098.2500      0.0000    711.9971      9.7878      1.5115     62.0045
  1098.5000      0.0000    712.7167      9.7888      1.6844     62.9435
  1098.7500      0.0000    713.1300      9.7999      1.8812     63.7182
  1099.0000      0.0000    713.4239      9.8004      2.0965     64.2185
  1099.2500      0.0000    713.6484      9.7774      2.3206     64.6873
  1099.5000      0.0000    713.7968      9.7303      2.5265     65.5579
  1099.7500      0.0000    713.8624      9.6702      2.6796     67.1320
  1100.0000      0.0000    713.8532      9.6095      2.7601     69.1906
  1100.2500      0.0000    713.7895      9.5520      2.7695     70.7862
  1100.5000      0.0000    713.7058      9.4909      2.7174     70.6656
  1100.7500      0.0000    713.6417      9.4151      2.6120     68.1439
  1101.0000      0.0000    713.6188      9.3201      2.4640     63.6199
  1101.2500      0.0000    713.6183      9.2166      2.2897     58.3664
  1101.5000      0.0000    713.5834      9.1317      2.1056     53.9792
  1101.7500      0.0000    713.4608      9.0941      1.9221     51.9805
  1102.0000      0.0000    713.2567      9.1093      1.7445     53.4777
  1102.2500      0.0000    713.0405      9.1487      1.5788     58.5467
  1102.5000      0.0000    712.8773      9.1687      1.4347     65.7157
  1102.7500      0.0000    712.7355      9.1416      1.3258     72.4972
  1103.0000      0.0000    712.4035      9.0699      1.2652     76.9493
  1103.2500      0.0000    711.4192      8.9802      1.2597     78.7661
  1103.5000      0.0000    709.1230      8.9030      1.3077     78.7692
  1103.7500      0.0000    705.1058      8.8447      1.4032     77.7397
  1104.0000      0.0000    699.9219      8.7785      1.5381     76.1148
  1104.2500      0.0000    695.2787      8.6656      1.6973     74.4731
  1104.5000      0.0000    693.1727      8.4880      1.8567     73.5108
  1104.7500      0.0000    694.7915      8.2568      1.9916     73.2958
  1105.0000      0.0000    700.1883      7.9970      2.0891     73.0295
  1105.2500      0.0000    708.3384      7.7369      2.1472     71.8170
  1105.5000      0.0000    716.9971      7.5077      2.1616     69.4370
  1105.7500      0.0000    723.1404      7.3392      2.1208     66.3951
  1106.0000      0.0000    724.5629      7.2472      2.0223     63.6353
  1106.2500      0.0000    721.2289      7.2241      1.8885     62.1504
  1106.5000      0.0000    714.7977      7.2388      1.7536     62.4302
  1106.7500      0.0000    707.2190      7.2447      1.6330     64.1764
  1107.0000      0.0000    700.3695      7.2063      1.5142     66.6111
  1107.2500      0.0000    696.4892      7.1310      1.3796     68.8988
  1107.5000      0.0000    697.4890      7.0735      1.2317     70.3968
  1107.7500      0.0000    703.1439      7.0994      1.0970     70.9340
  1108.0000      0.0000    710.5286      7.2417      1.0160     70.9110
  1108.2500      0.0000    715.9672      7.4897      1.0326     70.8873
  1108.5000      0.0000    717.6912      7.8066      1.1745     71.0861
  1108.7500      0.0000    716.5754      8.1488      1.4217     71.4312
  1109.0000      0.0000    714.6100      8.4698      1.6920     71.7754
  1109.2500      0.0000    713.1245      8.7202      1.8719     71.6615
  1109.5000      0.0000    712.3747      8.8592      1.8822     70.1498
  1109.7500      0.0000    712.1089      8.8780      1.7266     66.6026
  1110.0000      0.0000    712.0587      8.8115      1.4821     61.7943
  1110.2500      0.0000    712.0458      8.7196      1.2417     57.8134
  1110.5000      0.0000    711.9611      8.6502      1.0616     56.4781
  1110.7500      0.0000    711.7697      8.6196      0.9544     57.7872
  1111.0000      0.0000    711.4960      8.6189      0.9187     60.1090
  1111.2500      0.0000    711.1926      8.6303      0.9639     61.8193
  1111.5000      0.0000    710.9109      8.6329      1.1023     62.3688
  1111.7500      0.0000    710.6918      8.6055      1.3234     61.8688
  1112.0000      0.0000    710.5508      8.5317      1.5814     60.5263
  1112.2500      0.0000    710.4664      8.4073      1.8080     58.8752
  1112.5000      0.0000    710.3939      8.2410      1.9380     57.8946
  1112.7500      0.0000    710.3085      8.0509      1.9318     58.3575
  1113.0000      0.0000    710.2003      7.8561      1.7944     60.3583
  1113.2500      0.0000    709.9821      7.6703      1.5872     63.6577
  1113.5000      0.0000    709.4105      7.5031      1.4118     67.9430
  1113.7500      0.0000    708.2590      7.3700      1.3559     72.3773
  1114.0000      0.0000    706.8494      7.2929      1.4368     75.4672
  1114.2500      0.0000    706.3459      7.2808      1.5893     76.2130
  1114.5000      0.0000    707.8779      7.3153      1.7090     75.2596
  1114.7500      0.0000    710.8704      7.3593      1.7154     74.2598
  1115.0000      0.0000    712.8500      7.3814      1.5958     74.1325
  1115.2500      0.0000    711.7552      7.3706      1.4096     74.5260
  1115.5000      0.0000    708.1558      7.3300      1.2524     74.8890
  1115.7500      0.0000    704.4431      7.2653      1.1968     75.2732
  1116.0000      0.0000    702.1437      7.1841      1.2421     75.9588
  1116.2500      0.0000    700.9247      7.0990      1.3145     77.0371
  1116.5000      0.0000    700.1158      7.0237      1.3295     78.5912
  1116.7500      0.0000    700.0594      6.9651      1.2687     80.7334
  1117.0000      0.0000    701.4167      6.9253      1.1937     83.2775
  1117.2500      0.0000    703.9449      6.9069      1.1765     85.7218
  1117.5000      0.0000    706.7051      6.9038      1.2164     87.6340
  1117.7500      0.0000    709.1926      6.8908      1.2431     88.8266
  1118.0000      0.0000    711.7012      6.8363      1.2057     89.1647
  1118.2500      0.0000    714.5348      6.7342      1.1426     88.3860
  1118.5000      0.0000    717.1492      6.6161      1.1476     86.1897
  1118.7500      0.0000    718.3628      6.5322      1.2673     82.6678
  1119.0000      0.0000    717.5795      6.5183      1.4429     78.7344
  1119.2500      0.0000    715.6163      6.5720      1.5572     75.8274
  1119.5000      0.0000    714.1971      6.6524      1.5373     74.8410
  1119.7500      0.0000    714.8110      6.7120      1.4129     75.3997
