~Version Information
VERS.                      2.0: CWLS Log ASCII Standard - VERSION 2.0
WRAP.                       NO: One line per depth step
~Well Information Block
STRT.FT               440.0000: 
STOP.FT              1300.5000: 
STEP.FT                 0.1000: 
NULL.                -999.2500: 
COMP.          Pioneer Natural Resources: COMPANY
WELL.              Yoshi 14-30: WELL
FLD.           Purgatoire River: FIELD
LOC.           993' FSL & 823' FWL: LOCATION
CNTY.               Las Animas: COUNTY
SRVC.                Patterson: SERVICE COMPANY
DATE.          Fri Feb 17 14:59:28 2006: LOG DATE
UWI.           05 071 08699 00: UNIQUE WELL ID
STAT.                 Colorado: STATE
~Curve Information Block
DEPT.FT            0 000 00 00: Depth
DCAL.in                       : CDL Caliper
RHOB.g/cc                     : CDL Bulk Density
RHOC.g/cc                     : CDL Density Correction
DPOR.pu                       : CDL Density Porosity
GR.GAPI                       : Gamma Ray
NPOR.pu                       : Neutron Porosity
~Parameter Information Block
~A  Depth       DCAL        RHOB        RHOC        DPOR         GR         NPOR    
# ...
  1284.8000      7.8287      2.5690      0.0731      4.9102   -999.2500     13.9828
  1284.9000      7.8287      2.5714      0.0824      4.7636   -999.2500     15.2360
  1285.0000      7.8304      2.5729      0.0890      4.6728   -999.2500     15.9031
  1285.1000      7.8304      2.5800      0.0759      4.2434   -999.2500     15.7409
  1285.2000      7.8304      2.5866      0.1058      3.8407   -999.2500     15.7045
  1285.3000      7.8314      2.5855      0.1044      3.9117   -999.2500     16.1074
  1285.4000      7.8314      2.5836      0.0731      4.0244   -999.2500     16.2380
  1285.5000      7.8318      2.5894      0.0788      3.6757   -999.2500     15.7252
  1285.6000      7.8318      2.5940      0.1052      3.3956   -999.2500     15.3360
  1285.7000      7.8318      2.5824      0.0981      4.0969   -999.2500     15.8420
  1285.8000      7.8316      2.5565      0.0487      5.6686   -999.2500     16.8174
  1285.9000      7.8316      2.5312      0.0404      7.2005   -999.2500     17.4197
  1286.0000      7.8310      2.5144      0.0369      8.2186   -999.2500     17.4359
  1286.1000      7.8310      2.5030      0.0417      8.9117   -999.2500     17.0695
  1286.2000      7.8310      2.4946      0.0365      9.4175   -999.2500     16.3832
  1286.3000      7.8305      2.4958      0.0210      9.3453   -999.2500     15.3827
  1286.4000      7.8305      2.5093      0.0405      8.5246   -999.2500     14.4928
  1286.5000      7.8305      2.5228      0.0557      7.7107   -999.2500     14.0725
  1286.6000      7.8305      2.5299      0.0005      7.2760   -999.2500     14.2583
  1286.7000      7.8305      2.5341      0.0669      7.0261   -999.2500     16.4258
  1286.8000      7.8310      2.5290      0.0570      7.3357   -999.2500     24.4864
  1286.9000      7.8310      2.5160      0.0697      8.1236   -999.2500     38.3889
  1287.0000      7.8315      2.5108      0.0355      8.4378   -999.2500     48.5859
  1287.1000      7.8315      2.5191      0.0713      7.9360   -999.2500     52.1574
  1287.2000      7.8315      2.5322      0.0414      7.1413   -999.2500     52.8440
  1287.3000      7.8314      2.5483      0.0537      6.1637   -999.2500     52.9165
  1287.4000      7.8314      2.5706      0.0670      4.8137   -999.2500     52.9205
  1287.5000      7.8309      2.5933      0.0975      3.4369   -999.2500   -999.2500
  1287.6000      7.8309      2.6081      0.0792      2.5409   -999.2500   -999.2500
  1287.7000      7.8309      2.6155      0.0518      2.0900   -999.2500   -999.2500
  1287.8000      7.8311      2.6155      0.0801      2.0893   -999.2500   -999.2500
  1287.9000      7.8311      2.6017      0.0222      2.9266   -999.2500   -999.2500
  1288.0000      7.8316      2.5743      0.0445      4.5865   -999.2500   -999.2500
  1288.1000      7.8316      2.5464      0.0088      6.2812   -999.2500   -999.2500
  1288.2000      7.8316      2.5344      0.0219      7.0053   -999.2500   -999.2500
  1288.3000      7.8321      2.5330      0.0486      7.0930   -999.2500   -999.2500
  1288.4000      7.8321      2.5242      0.0550      7.6248   -999.2500   -999.2500
  1288.5000      7.8328      2.5151      0.0089      8.1741   -999.2500   -999.2500
  1288.6000      7.8328      2.5200      0.0303      7.8773   -999.2500   -999.2500
  1288.7000      7.8328      2.5273      0.0920      7.4388   -999.2500   -999.2500
  1288.8000      7.8328      2.5186      0.0870      7.9609   -999.2500   -999.2500
  1288.9000      7.8328      2.4978      0.0414      9.2255   -999.2500   -999.2500
  1289.0000      7.8336      2.4812      0.0504     10.2300   -999.2500   -999.2500
  1289.1000      7.8336      2.4806      0.0038     10.2669   -999.2500   -999.2500
  1289.2000      7.8336      2.4977      0.0301      9.2314   -999.2500   -999.2500
  1289.3000      7.8367      2.5208      0.0357      7.8287   -999.2500   -999.2500
  1289.4000      7.8367      2.5422      0.0340      6.5312   -999.2500   -999.2500
  1289.5000      7.8301      2.5625      0.0775      5.3007   -999.2500   -999.2500
  1289.6000      7.8301      2.5704      0.1067      4.8236   -999.2500   -999.2500
  1289.7000      7.8301      2.5586      0.0920      5.5403   -999.2500   -999.2500
  1289.8000      7.8112      2.5386      0.0899      6.7521   -999.2500   -999.2500
  1289.9000      7.8112      2.5193      0.0504      7.9210   -999.2500   -999.2500
  1290.0000      7.7987      2.5000      0.0753      9.0919   -999.2500   -999.2500
  1290.1000      7.7987      2.4840      0.0255     10.0583   -999.2500   -999.2500
  1290.2000      7.7987      2.4762      0.0669     10.5363   -999.2500   -999.2500
  1290.3000      7.7966      2.4702      0.0518     10.8976   -999.2500   -999.2500
  1290.4000      7.7966      2.4614      0.0453     11.4318   -999.2500   -999.2500
  1290.5000      7.7970      2.4558      0.0532     11.7719   -999.2500   -999.2500
  1290.6000      7.7970      2.4604      0.0701     11.4936   -999.2500   -999.2500
  1290.7000      7.7970      2.4701      0.0755     10.9039   -999.2500   -999.2500
  1290.8000      7.7980      2.4754      0.0542     10.5830   -999.2500   -999.2500
  1290.9000      7.7980      2.4758      0.0399     10.5548   -999.2500   -999.2500
  1291.0000      7.7989      2.4756      0.0450     10.5669   -999.2500   -999.2500
  1291.1000      7.7989      2.4765      0.0304     10.5144   -999.2500   -999.2500
  1291.2000      7.7989      2.4759      0.0360     10.5536   -999.2500   -999.2500
  1291.3000      7.7993      2.4699      0.0306     10.9127   -999.2500   -999.2500
  1291.4000      7.7993      2.4572      0.0397     11.6850   -999.2500   -999.2500
  1291.5000      7.7996      2.4411      0.0280     12.6577   -999.2500   -999.2500
  1291.6000      7.7996      2.4351      0.0137     13.0228   -999.2500   -999.2500
  1291.7000      7.7996      2.4476      0.0219     12.2681   -999.2500   -999.2500
  1291.8000      7.8012      2.4689      0.0492     10.9753   -999.2500   -999.2500
  1291.9000      7.8012      2.4834      0.0659     10.0974   -999.2500   -999.2500
  1292.0000      7.8018      2.4882      0.0696      9.8052   -999.2500   -999.2500
  1292.1000      7.8018      2.4948      0.0586      9.4062   -999.2500   -999.2500
  1292.2000      7.8018      2.5033      0.0875      8.8902   -999.2500   -999.2500
  1292.3000      7.7986      2.4984      0.0613      9.1879   -999.2500   -999.2500
  1292.4000      7.7986      2.4846      0.0066     10.0225   -999.2500   -999.2500
  1292.5000      7.7954      2.4866      0.0173      9.9019   -999.2500   -999.2500
  1292.6000      7.7954      2.5157      0.0185      8.1376   -999.2500   -999.2500
  1292.7000      7.7954      2.5537      0.1048      5.8390   -999.2500   -999.2500
  1292.8000      7.7969      2.5722      0.0689      4.7156   -999.2500   -999.2500
  1292.9000      7.7969      2.5700      0.0533      4.8504   -999.2500   -999.2500
  1293.0000      7.7993      2.5668      0.0569      5.0439   -999.2500   -999.2500
  1293.1000      7.7993      2.5748      0.0985      4.5600   -999.2500   -999.2500
  1293.2000      7.7993      2.5877      0.1006      3.7752   -999.2500   -999.2500
  1293.3000      7.8000      2.5911      0.0902      3.5699   -999.2500   -999.2500
  1293.4000      7.8000      2.5825      0.0341      4.0934   -999.2500   -999.2500
  1293.5000      7.8014      2.5754      0.0432      4.5234   -999.2500   -999.2500
  1293.6000      7.8014      2.5741      0.0538      4.5977   -999.2500   -999.2500
  1293.7000      7.8014      2.5693      0.0356      4.8907   -999.2500   -999.2500
  1293.8000      7.8045      2.5588      0.0291      5.5282   -999.2500   -999.2500
  1293.9000      7.8045      2.5486      0.0002      6.1464   -999.2500   -999.2500
  1294.0000      7.8095      2.5433     -0.0038      6.4696   -999.2500   -999.2500
  1294.1000      7.8095      2.5422      0.0290      6.5311   -999.2500   -999.2500
  1294.2000      7.8095      2.5460      0.0342      6.3042   -999.2500   -999.2500
  1294.3000      7.8162      2.5507      0.0389      6.0186   -999.2500   -999.2500
