~Version Information
VERS.                      2.0: CWLS Log ASCII Standard - VERSION 2.0
WRAP.                       NO: One line per depth step
~Well Information Block
STRT.FT               645.0000: 
STOP.FT              2131.0000: 
STEP.FT                 0.1000: 
NULL.                -999.2500: 
COMP.          Pioneer Natural Resources: COMPANY
WELL.          Gunslinger 13-24: WELL
FLD.           Purgatoire River: FIELD
LOC.           1968' FSL & 633' FWL: LOCATION
PROV.                 Colorado: PROVINCE
CNTY.               Las Animas: COUNTRY
SRVC.                Patterson: SERVICE COMPANY
DATE.          Sat Jul 30 08:07:53 2005: LOG DATE
UWI.           05 071 08442 00: UNIQUE WELL ID
~Curve Information Block
DEPT.FT            0 000 00 00: Depth
DCAL.in                       : CDL Caliper
RHOB.g/cc                     : CDL Bulk Density
RHOC.g/cc                     : CDL Density Correction
DPOR.pu                       : CDL Density Porosity
GR.GAPI                       : Gamma Ray
NPOR.pu                       : Neutron Porosity
~Parameter Information Block
~A  Depth       DCAL        RHOB        RHOC        DPOR         GR         NPOR    
# ...
  1134.6000      8.0691      2.4952     -0.0076      9.3793    133.7613     24.6647
  1134.7000      8.0691      2.4948     -0.0105      9.4044    140.5866     25.3155
  1134.8000      8.0605      2.5196      0.0111      7.9021    145.3259     25.2994
  1134.9000      8.0605      2.5549      0.0659      5.7644    149.3682     24.4509
  1135.0000      8.0549      2.5748      0.0467      4.5556    152.9491     24.0620
  1135.1000      8.0549      2.5769      0.0420      4.4300    149.4294     25.0390
  1135.2000      8.0549      2.5737      0.0591      4.6232    142.7923     26.2600
  1135.3000      8.0478      2.5716      0.0477      4.7490    140.3673     26.6807
  1135.4000      8.0478      2.5688      0.0721      4.9222    140.3054     27.1915
  1135.5000      8.0399      2.5695      0.0159      4.8771    140.4893     28.3572
  1135.6000      8.0399      2.5904      0.0312      3.6133    140.3526     29.1182
  1135.7000      8.0399      2.6240      0.0888      1.5750    139.4694     28.7778
  1135.8000      8.0423      2.6432      0.0444      0.4149    139.8027     27.5483
  1135.9000      8.0423      2.6406      0.0396      0.5668    141.3901     25.6374
  1136.0000      8.0502      2.6237      0.0209      1.5965    139.9645     23.8201
  1136.1000      8.0502      2.6017      0.0245      2.9272    136.0526     23.5206
  1136.2000      8.0502      2.5801      0.0051      4.2358    133.6158     24.5295
  1136.3000      8.0516      2.5556      0.0487      5.7194    132.5422     25.2506
  1136.4000      8.0516      2.5333     -0.0182      7.0738    133.6441     25.3481
  1136.5000      8.0809      2.5236      0.0133      7.6597    137.9321     25.7589
  1136.6000      8.0809      2.5273      0.0037      7.4368    143.5164     26.7251
  1136.7000      8.0809      2.5448     -0.0006      6.3764    147.5794     27.1035
  1136.8000      8.1273      2.5658      0.0440      5.1051    149.9242     26.5428
  1136.9000      8.1273      2.5750      0.0551      4.5451    151.9535     26.0514
  1137.0000      8.1187      2.5722      0.0955      4.7132    151.2448     26.3164
  1137.1000      8.1187      2.5530      0.0996      5.8810    147.9299     27.0338
  1137.2000      8.1187      2.5075      0.0332      8.6359    146.0546     27.4953
  1137.3000      8.1295      2.4392      0.0380     12.7733    147.1611     27.7894
  1137.4000      8.1295      2.3621     -0.0162     17.4480    149.8139     28.2336
  1137.5000      8.1368      2.3004     -0.0562     21.1870    151.4514     28.3932
  1137.6000      8.1368      2.2735     -0.0470     22.8205    151.6926     28.2343
  1137.7000      8.1368      2.2750     -0.0195     22.7280    152.1049     28.3590
  1137.8000      8.1380      2.2895     -0.0471     21.8491    154.9453     28.9096
  1137.9000      8.1380      2.3145      0.0130     20.3330    158.6280     29.3584
  1138.0000      8.1372      2.3547      0.0216     17.8950    158.3683     29.0127
  1138.1000      8.1372      2.4125      0.1352     14.3962    153.7545     28.0911
  1138.2000      8.1372      2.4739      0.2220     10.6720    148.0639     27.5996
  1138.3000      8.1350      2.5209      0.2052      7.8251    142.5080     28.1585
  1138.4000      8.1350      2.5506      0.1864      6.0239    138.1513     29.6774
  1138.5000      8.1431      2.5612      0.1454      5.3842    139.4671     30.9766
  1138.6000      8.1431      2.5505      0.0717      6.0323    147.8320     31.0187
  1138.7000      8.1431      2.5231      0.0751      7.6910    154.1163     30.4601
  1138.8000      8.1412      2.4771      0.0732     10.4763    156.1651     30.1508
  1138.9000      8.1412      2.4068      0.0088     14.7370    163.2816     29.5905
  1139.0000      8.1385      2.3163     -0.0335     20.2228    175.5568     28.4427
  1139.1000      8.1385      2.2069     -0.0224     26.8526    180.4466     27.8706
  1139.2000      8.1385      2.0759     -0.0631     34.7931    174.0016     28.5846
  1139.3000      8.1393      1.9436     -0.1012     42.8114    164.8736     29.5280
  1139.4000      8.1393      1.8463     -0.1869     48.7080    159.6998     29.7855
  1139.5000      8.1435      1.7949     -0.0836     51.8223    154.9251     29.9266
  1139.6000      8.1435      1.7757     -0.0824     52.9898    147.6609     30.5344
  1139.7000      8.1435      1.7930     -0.0373     51.9378    140.8671     31.3752
  1139.8000      8.1405      1.8603      0.0432     47.8614    133.7565     32.0815
  1139.9000      8.1405      1.9616      0.1834     41.7237    126.2592     32.5964
  1140.0000      8.1503      2.0649      0.2043     35.4586    124.4838     33.1041
  1140.1000      8.1503      2.1520      0.2322     30.1822    129.0049     33.7924
  1140.2000      8.1503      2.2158      0.1875     26.3180    134.3862     34.2579
  1140.3000      8.1936      2.2552      0.1218     23.9282    140.1338     33.8618
  1140.4000      8.1936      2.2773      0.0906     22.5879    147.1047     32.8576
  1140.5000      8.2027      2.2931      0.0528     21.6275    151.4900     32.4708
  1140.6000      8.2027      2.3129      0.0336     20.4324    151.1581     32.8211
  1140.7000      8.2027      2.3383      0.0470     18.8895    150.8778     32.5385
  1140.8000      8.1813      2.3635      0.0862     17.3638    155.5614     31.4223
  1140.9000      8.1813      2.3860      0.0594     16.0012    161.4825     30.5851
  1141.0000      8.1823      2.3980      0.1005     15.2723    161.7719     30.9011
  1141.1000      8.1823      2.3907      0.0412     15.7157    156.5459     32.0634
  1141.2000      8.1823      2.3714      0.0445     16.8843    150.2039     32.7267
  1141.3000      8.1780      2.3448      0.0411     18.4981    148.3127     32.2478
  1141.4000      8.1780      2.3078     -0.0003     20.7375    152.8765     31.3181
  1141.5000      8.1735      2.2653     -0.0345     23.3133    158.3252     31.1205
  1141.6000      8.1735      2.2226      0.0089     25.9009    157.7706     32.1344
  1141.7000      8.1735      2.1893     -0.0666     27.9206    149.2628     33.4094
  1141.8000      8.1784      2.1815     -0.0342     28.3921    138.2021     33.6137
  1141.9000      8.1784      2.1994      0.0200     27.3099    132.6817     32.7152
  1142.0000      8.1830      2.2311      0.0537     25.3856    132.7767     31.7711
  1142.1000      8.1830      2.2768      0.0665     22.6200    133.1495     31.1193
  1142.2000      8.1830      2.3419      0.0992     18.6748    131.1155     30.3004
  1142.3000      8.1881      2.4187      0.1731     14.0204    126.8511     29.5478
  1142.4000      8.1881      2.4915      0.2283      9.6090    125.1691     29.5312
  1142.5000      8.1773      2.5548      0.2671      5.7726    129.9425     29.8393
  1142.6000      8.1773      2.6063      0.3743      2.6496    136.1811     29.9112
  1142.7000      8.1773      2.6324      0.3489      1.0645    136.3619     29.6554
  1142.8000      8.3241      2.6283      0.3440      1.3173    133.2812     29.3384
  1142.9000      8.3241      2.6065      0.2468      2.6368    132.5434     29.3282
  1143.0000      8.5686      2.5836      0.1493      4.0214    131.4045     29.5471
  1143.1000      8.5686      2.5726      0.0428      4.6927    127.5881     29.4558
  1143.2000      8.5686      2.5717      0.0661      4.7437    123.2074     28.9752
  1143.3000      8.3510      2.5622      0.0769      5.3201    117.3212     29.0094
  1143.4000      8.3510      2.5400      0.0198      6.6651    111.6293     29.5368
  1143.5000      8.1457      2.5243     -0.0188      7.6157    111.5836     29.4484
  1143.6000      8.1457      2.5216      0.0157      7.7814    113.9907     28.6013
  1143.7000      8.1457      2.5188      0.0019      7.9538    114.4507     27.9693
  1143.8000      8.1372      2.5177     -0.0165      8.0204    116.2762     28.2619
  1143.9000      8.1372      2.5327     -0.0185      7.1062    121.9859     29.0734
  1144.0000      8.1440      2.5627      0.0328      5.2887    125.3357     29.7606
  1144.1000      8.1440      2.5960      0.0525      3.2757    122.3286     29.7977
