~Version Information
VERS.                      2.0: CWLS Log ASCII Standard - VERSION 2.0
WRAP.                       NO: One line per depth step
~Well Information Block
STRT.FT               491.0000: 
STOP.FT              1911.5000: 
STEP.FT                 0.2500: 
NULL.                -999.2500: 
COMP.          Pioneer Natural Resources: COMPANY
WELL.            Corazon 13-10: WELL
FLD.           Purgatoire River: FIELD
LOC.           2510' FSL & 439' FWL: LOCATION
PROV.                 Colorado: PROVINCE
CNTY.               Las Animas: COUNTRY
SRVC.                Patterson: SERVICE COMPANY
DATE.          Wed Nov 30 22:14:48 2005: LOG DATE
UWI.           05 071 08613 00: UNIQUE WELL ID
~Curve Information Block
DEPT.FT            0 000 00 00: Depth
SN.Ohm-m                      : IEL Short Normal
SP.mV                         : IEL Spontaneous Potential
DIR.Ohm-m                     : IEL Induction Resistivity
GR.GAPI                       : Gamma Ray
~Parameter Information Block
~A  Depth        SN          SP         DIR          GR     
# ...
   591.5000   2000.0000   2000.0000      6.7883    119.6103
   591.7500   2000.0000   2000.0000      6.7901    115.5687
   592.0000   2000.0000   2000.0000      6.7867    112.9883
   592.2500   2000.0000   2000.0000      6.7849    114.2300
   592.5000   2000.0000   2000.0000      6.7877    119.4718
   592.7500   2000.0000   2000.0000      6.7935    123.8357
   593.0000   2000.0000   2000.0000      6.7983    129.7026
   593.2500   2000.0000   2000.0000      6.7967    132.6770
   593.5000   2000.0000   2000.0000      6.7824    135.6297
   593.7500   2000.0000   2000.0000      6.7492    136.5921
   594.0000   2000.0000   2000.0000      6.6942    136.6345
   594.2500   2000.0000   2000.0000      6.6194    136.0670
   594.5000   2000.0000   2000.0000      6.5317    135.1930
   594.7500   2000.0000   2000.0000      6.4413    134.8984
   595.0000   2000.0000   2000.0000      6.3581    134.7428
   595.2500   2000.0000   2000.0000      6.2906    134.5895
   595.5000   2000.0000   2000.0000      6.2447    134.1518
   595.7500   2000.0000   2000.0000      6.2231    133.8324
   596.0000   2000.0000   2000.0000      6.2236    133.5565
   596.2500   2000.0000   2000.0000      6.2389    133.6588
   596.5000   2000.0000   2000.0000      6.2590    134.5751
   596.7500   2000.0000   2000.0000      6.2748    135.7714
   597.0000   2000.0000   2000.0000      6.2829    138.0854
   597.2500   2000.0000   2000.0000      6.2876    139.6650
   597.5000   2000.0000   2000.0000      6.2978    141.8046
   597.7500   2000.0000   2000.0000      6.3220    142.9618
   598.0000   2000.0000   2000.0000      6.3637    143.9626
   598.2500   2000.0000   2000.0000      6.4205    144.0421
   598.5000   2000.0000   2000.0000      6.4857    143.5279
   598.7500   2000.0000   2000.0000      6.5515    143.0003
   599.0000   2000.0000   2000.0000      6.6119    142.1781
   599.2500   2000.0000   2000.0000      6.6657    141.6724
   599.5000   2000.0000   2000.0000      6.7170    140.9923
   599.7500   2000.0000   2000.0000      6.7718    140.4154
   600.0000   2000.0000   2000.0000      6.8324    138.6474
   600.2500   2000.0000   2000.0000      6.8952    136.4508
   600.5000   2000.0000   2000.0000      6.9538    131.6152
   600.7500   2000.0000   2000.0000      7.0044    127.8489
   601.0000   2000.0000   2000.0000      7.0492    122.4997
   601.2500   2000.0000   2000.0000      7.0935    119.7234
   601.5000   2000.0000   2000.0000      7.1416    117.8932
   601.7500   2000.0000   2000.0000      7.1953    118.9810
   602.0000   2000.0000   2000.0000      7.2541    124.4395
   602.2500   2000.0000   2000.0000      7.3169    129.7420
   602.5000   2000.0000   2000.0000      7.3827    137.4140
   602.7500   2000.0000   2000.0000      7.4494    141.0002
   603.0000   2000.0000   2000.0000      7.5134    143.4589
   603.2500   2000.0000   2000.0000      7.5685    143.5390
   603.5000   2000.0000   2000.0000      7.6072    142.1215
   603.7500   2000.0000   2000.0000      7.6230    140.4081
   604.0000   2000.0000   2000.0000      7.6137    137.0762
   604.2500   2000.0000   2000.0000      7.5839    134.7831
   604.5000   2000.0000   2000.0000      7.5455    132.3157
   604.7500   2000.0000   2000.0000      7.5146    131.8774
   605.0000   2000.0000   2000.0000      7.5065    133.2131
   605.2500   2000.0000   2000.0000      7.5298    134.9375
   605.5000   2000.0000   2000.0000      7.5837    137.3990
   605.7500   2000.0000   2000.0000      7.6578    138.2684
   606.0000   2000.0000   2000.0000      7.7367    137.8598
   606.2500   2000.0000   2000.0000      7.8063    136.6419
   606.5000   2000.0000   2000.0000      7.8594    134.8288
   606.7500   2000.0000   2000.0000      7.8966    134.6771
   607.0000   2000.0000   2000.0000      7.9221    136.5323
   607.2500   2000.0000   2000.0000      7.9385    138.3385
   607.5000   2000.0000   2000.0000      7.9440    140.0263
   607.7500   2000.0000   2000.0000      7.9354    140.0825
   608.0000   2000.0000   2000.0000      7.9122    139.2563
   608.2500   2000.0000   2000.0000      7.8795    138.6090
   608.5000   2000.0000   2000.0000      7.8457    137.6289
   608.7500   2000.0000   2000.0000      7.8185    136.7738
   609.0000   2000.0000   2000.0000      7.8031    135.2107
   609.2500   2000.0000   2000.0000      7.8015    134.2945
   609.5000   2000.0000   2000.0000      7.8133    133.5360
   609.7500   2000.0000   2000.0000      7.8352    133.4207
   610.0000   2000.0000   2000.0000      7.8601    133.7741
   610.2500   2000.0000   2000.0000      7.8758    134.5618
   610.5000   2000.0000   2000.0000      7.8659    136.8542
   610.7500   2000.0000   2000.0000      7.8146    138.7665
   611.0000   2000.0000   2000.0000      7.7150    140.8072
   611.2500   2000.0000   2000.0000      7.5765    141.0090
   611.5000   2000.0000   2000.0000      7.4249    139.6986
   611.7500   2000.0000   2000.0000      7.2919    138.0773
   612.0000   2000.0000   2000.0000      7.2029    134.2232
   612.2500   2000.0000   2000.0000      7.1691    130.0489
   612.5000   2000.0000   2000.0000      7.1897    120.9325
   612.7500   2000.0000   2000.0000      7.2596    113.7509
   613.0000   2000.0000   2000.0000      7.3829    104.0760
   613.2500   2000.0000   2000.0000      7.5878     99.9469
   613.5000   2000.0000   2000.0000      7.9448     98.8404
   613.7500   2000.0000   2000.0000      8.5908    101.6376
   614.0000   2000.0000   2000.0000      9.7706    109.9511
   614.2500   2000.0000   2000.0000     11.9291    116.7007
   614.5000   2000.0000   2000.0000     15.9170    125.2854
   614.7500   2000.0000   2000.0000     23.3506    128.4658
   615.0000   2000.0000   2000.0000     36.5692    128.7211
   615.2500   2000.0000   2000.0000     54.8497    126.5189
   615.5000   2000.0000   2000.0000     67.3291    121.6204
   615.7500   2000.0000   2000.0000     68.6768    118.4749
   616.0000   2000.0000   2000.0000     71.6737    115.5185
   616.2500   2000.0000   2000.0000     98.7194    115.2617
   616.5000   2000.0000   2000.0000    748.9446    117.6259
   616.7500   2000.0000   2000.0000 100000.0000    120.6918
   617.0000   2000.0000   2000.0000 100000.0000    126.2939
   617.2500   2000.0000   2000.0000 100000.0000    129.8595
   617.5000   2000.0000   2000.0000 100000.0000    134.0400
   617.7500   2000.0000   2000.0000 100000.0000    136.1265
   618.0000   2000.0000   2000.0000 100000.0000    139.1593
   618.2500   2000.0000   2000.0000 100000.0000    141.5712
   618.5000   2000.0000   2000.0000 100000.0000    145.3848
   618.7500   2000.0000   2000.0000 100000.0000    147.1905
   619.0000   2000.0000   2000.0000 100000.0000    147.3327
   619.2500   2000.0000   2000.0000 100000.0000    145.4088
   619.5000   2000.0000   2000.0000 100000.0000    139.6755
   619.7500   2000.0000   2000.0000 100000.0000    133.8976
   620.0000   2000.0000   2000.0000 100000.0000    121.6888
   620.2500   2000.0000   2000.0000 100000.0000    111.2143
   620.5000   2000.0000   2000.0000 100000.0000     93.8171
   620.7500   2000.0000   2000.0000      8.2931     82.8157
   621.0000   2000.0000   2000.0000      2.1309     69.5135
   621.2500   2000.0000   2000.0000      1.1879     63.2515
   621.5000   2000.0000   2000.0000      0.8888     57.4411
   621.7500   2000.0000   2000.0000      0.8120     55.4385
   622.0000   2000.0000   2000.0000      0.8589     54.1530
   622.2500   2000.0000   2000.0000      0.9915     53.8307
   622.5000   2000.0000   2000.0000      1.1712     53.3383
   622.7500   2000.0000   2000.0000      1.3477     52.6576
   623.0000   2000.0000   2000.0000      1.5035     50.6836
   623.2500   2000.0000   2000.0000      1.7008     48.6586
   623.5000   2000.0000   2000.0000      2.0930     44.9644
   623.7500   2000.0000   2000.0000      3.0459     42.6522
   624.0000   2000.0000   2000.0000      6.0710     40.7566
   624.2500   2000.0000   2000.0000     35.3486     41.2411
   624.5000   2000.0000   2000.0000 100000.0000     45.1390
   624.7500   2000.0000   2000.0000 100000.0000     49.7513
