~Version Information
VERS.                      2.0: CWLS Log ASCII Standard - VERSION 2.0
WRAP.                       NO: One line per depth step
~Well Information Block
STRT.FT               233.8000: 
STOP.FT              1692.5000: 
STEP.FT                 0.1000: 
NULL.                -999.2500: 
COMP.          Pioneer Natural Resources: COMPANY
WELL.            Relay 12-7 Tr: WELL
FLD.           Purgatoire River: FIELD
LOC.           2025' FNL & 790' FWL: LOCATION
PROV.                 Colorado: PROVINCE
CNTY.               Las Animas: COUNTRY
SRVC.                Patterson: SERVICE COMPANY
DATE.          Mon Jan 16 13:23:17 2006: LOG DATE
UWI.           05 071 08603 00: UNIQUE WELL ID
~Curve Information Block
DEPT.FT            0 000 00 00: Depth
DCAL.in                       : CDL Caliper
RHOB.g/cc                     : CDL Bulk Density
RHOC.g/cc                     : CDL Density Correction
DPOR.pu                       : CDL Density Porosity
GR.GAPI                       : Gamma Ray
~Parameter Information Block
~A  Depth       DCAL        RHOB        RHOC        DPOR         GR     
# ...
   726.6000      7.9574      2.5477      0.0516      6.1982     83.9383
   726.7000      7.9574      2.5411      0.0657      6.5978     86.3526
   726.8000      8.0771      2.5354      0.0130      6.9433     90.1671
   726.9000      8.0771      2.5308      0.0443      7.2257     92.4003
   727.0000      8.1725      2.5155      0.0479      8.1537     93.7957
   727.1000      8.1725      2.4901      0.0333      9.6935     93.5395
   727.2000      8.1725      2.4647      0.0353     11.2295     89.0064
   727.3000      8.1909      2.4466     -0.0209     12.3286     81.6068
   727.4000      8.1909      2.4407      0.0092     12.6854     79.1318
   727.5000      8.1691      2.4423      0.0024     12.5850     83.8444
   727.6000      8.1691      2.4446      0.0074     12.4513     87.9896
   727.7000      8.1691      2.4469      0.0238     12.3077     86.0613
   727.8000      8.0946      2.4480      0.0282     12.2420     80.7295
   727.9000      8.0946      2.4476      0.0191     12.2651     77.8727
   728.0000      8.0229      2.4514      0.0507     12.0356     77.7147
   728.1000      8.0229      2.4601      0.0621     11.5087     77.2718
   728.2000      8.0229      2.4703      0.0506     10.8915     80.2205
   728.3000      7.9650      2.4789      0.0898     10.3726     88.3037
   728.4000      7.9650      2.4835      0.0563     10.0936     97.3201
   728.5000      7.9071      2.4895      0.0721      9.7301    102.9465
   728.6000      7.9071      2.4989      0.1707      9.1571    103.0531
   728.7000      7.9071      2.5091      0.1213      8.5367     98.0030
   728.8000      7.9351      2.5175      0.1091      8.0275     93.0678
   728.9000      7.9351      2.5062      0.1689      8.7174     93.8563
   729.0000      7.9562      2.4665      0.0842     11.1184     96.0751
   729.1000      7.9562      2.4306      0.0373     13.2975     93.0975
   729.2000      7.9562      2.4230      0.0893     13.7566     86.6066
   729.3000      7.9549      2.4278      0.0567     13.4671     80.8382
   729.4000      7.9549      2.4280      0.0548     13.4547     78.8937
   729.5000      7.9620      2.4280      0.0342     13.4561     78.3938
   729.6000      7.9620      2.4272      0.0896     13.5016     74.0257
   729.7000      7.9620      2.4210      0.0721     13.8774     67.8172
   729.8000      7.9800      2.4235      0.0248     13.7282     63.9826
   729.9000      7.9800      2.4412      0.0939     12.6533     63.5377
   730.0000      7.9795      2.4552      0.0699     11.8043     65.2392
   730.1000      7.9795      2.4499      0.0841     12.1270     67.5969
   730.2000      7.9795      2.4277      0.0426     13.4705     72.0892
   730.3000      7.9752      2.4027      0.0391     14.9908     79.6128
   730.4000      7.9752      2.3884      0.0044     15.8524     86.2241
   730.5000      7.9731      2.3870      0.0394     15.9408     86.7352
   730.6000      7.9731      2.3836      0.0298     16.1457     81.9580
   730.7000      7.9731      2.3643      0.0404     17.3129     75.3660
   730.8000      7.9725      2.3395      0.0243     18.8156     68.2011
   730.9000      7.9725      2.3327     -0.0088     19.2307     61.4525
   731.0000      7.9729      2.3462      0.0011     18.4109     59.0721
   731.1000      7.9729      2.3601      0.0413     17.5669     64.6613
   731.2000      7.9729      2.3602      0.0762     17.5658     74.4404
   731.3000      7.9780      2.3617      0.0553     17.4716     81.4367
   731.4000      7.9780      2.3858      0.1072     16.0119     81.2337
   731.5000      7.9897      2.4206      0.1468     13.9007     75.8347
   731.6000      7.9897      2.4436      0.1827     12.5120     71.9773
   731.7000      7.9897      2.4533      0.1288     11.9235     72.8657
   731.8000      7.9792      2.4625      0.0992     11.3617     75.0505
   731.9000      7.9792      2.4748      0.1462     10.6168     75.1188
   732.0000      8.0011      2.4848      0.1216     10.0129     73.3363
   732.1000      8.0011      2.4958      0.0957      9.3477     70.4373
   732.2000      8.0011      2.5088      0.1346      8.5577     67.7780
   732.3000      8.0270      2.5133      0.0905      8.2846     64.9221
   732.4000      8.0270      2.5020      0.0953      8.9685     59.8352
   732.5000      8.0630      2.4777      0.0565     10.4414     56.7936
   732.6000      8.0630      2.4469      0.0581     12.3113     60.8141
   732.7000      8.0630      2.4113      0.0620     14.4670     67.6045
   732.8000      8.0465      2.3754      0.0196     16.6426     72.4000
   732.9000      8.0465      2.3506      0.0191     18.1457     77.5737
   733.0000      8.0324      2.3425      0.0057     18.6341     84.5183
   733.1000      8.0324      2.3484      0.0223     18.2767     91.1821
   733.2000      8.0324      2.3636      0.0557     17.3601     94.3587
   733.3000      8.0464      2.3868      0.0818     15.9527     92.9134
   733.4000      8.0464      2.4229      0.1562     13.7663     91.3463
   733.5000      8.0682      2.4691      0.2346     10.9629     92.7139
   733.6000      8.0682      2.5030      0.3165      8.9101     97.5271
   733.7000      8.0682      2.4955      0.3228      9.3628    106.5850
   733.8000      8.0826      2.4395      0.2692     12.7584    118.7209
   733.9000      8.0826      2.3541      0.1610     17.9363    128.1925
   734.0000      8.1159      2.2685      0.0865     23.1197    130.6124
   734.1000      8.1159      2.2008      0.0461     27.2236    129.3337
   734.2000      8.1159      2.1431      0.0479     30.7238    125.8574
   734.3000      8.2871      2.0749      0.0425     34.8518    118.2291
   734.4000      8.2871      1.9984     -0.0057     39.4936    111.8301
   734.5000      8.3290      1.9484     -0.0118     42.5192    114.3698
   734.6000      8.3290      1.9697      0.1270     41.2293    122.7611
   734.7000      8.3290      2.0765      0.3512     34.7606    126.1691
   734.8000      8.2310      2.2389      0.4507     24.9177    120.8543
   734.9000      8.2310      2.4182      0.4906     14.0505    113.8274
   735.0000      8.2116      2.5930      0.5381      3.4532    110.6632
   735.1000      8.2116      2.7355      0.6588     -5.1796    112.0170
   735.2000      8.2116      2.8038      0.6220     -9.3205    116.3899
   735.3000      8.2064      2.7879      0.5353     -8.3579    120.2336
   735.4000      8.2064      2.7191      0.3663     -4.1866    121.4473
   735.5000      8.2332      2.6404      0.2366      0.5820    120.5149
   735.6000      8.2332      2.5838      0.1706      4.0115    115.6284
   735.7000      8.2332      2.5577      0.0963      5.5920    108.3873
   735.8000      8.1809      2.5503      0.0983      6.0446    107.1513
   735.9000      8.1809      2.5449      0.0761      6.3687    110.1530
   736.0000      8.1903      2.5405      0.0500      6.6355    108.5061
   736.1000      8.1903      2.5486      0.0711      6.1450    104.4590
   736.2000      8.1903      2.5676      0.0789      4.9929    102.9959
   736.3000      8.1532      2.5774      0.1177      4.3976    101.8992
   736.4000      8.1532      2.5743      0.0526      4.5859    100.5985
   736.5000      8.0377      2.5824      0.0715      4.0948    102.3969
   736.6000      8.0377      2.6051      0.0713      2.7210    107.3204
   736.7000      8.0377      2.6177      0.0996      1.9590    112.1850
   736.8000      7.9917      2.6148      0.0516      2.1343    115.4946
   736.9000      7.9917      2.6115      0.0760      2.3356    117.5724
   737.0000      7.9688      2.6060      0.0708      2.6645    118.1111
   737.1000      7.9688      2.5926      0.0493      3.4768    115.1864
   737.2000      7.9688      2.5792      0.0441      4.2914    110.9961
   737.3000      7.9487      2.5687      0.0538      4.9295    110.6732
   737.4000      7.9487      2.5575      0.0274      5.6070    112.7216
   737.5000      7.9346      2.5495      0.0487      6.0927    112.7276
   737.6000      7.9346      2.5392      0.0668      6.7169    114.8024
   737.7000      7.9346      2.5131      0.0742      8.2965    121.2229
