~Version Information
VERS.                      2.0: CWLS Log ASCII Standard - VERSION 2.0
WRAP.                       NO: One line per depth step
~Well Information Block
STRT.FT                -6.2500: 
STOP.FT              2245.0000: 
STEP.FT                 0.0500: 
NULL.                -999.2500: 
COMP.          Pioneer Natural Resources: COMPANY
WELL.          Roadster 41-33 Kv: WELL
FLD.           Purgatoire River: FIELD
LOC.           903' FNL & 248' FEL--: LOCATION
PROV.                 Colorado: PROVINCE
CNTY.               Las Animas: COUNTRY
SRVC.                Patterson: SERVICE COMPANY
DATE.          Tue Jan 17 11:20:00 2006: LOG DATE
UWI.           05 071 08615 00: UNIQUE WELL ID
~Curve Information Block
DEPT.FT            0 000 00 00: Depth
CCL.                          : Casing Collar Locator
TT3.usec                      : CBL 3' Travel Time
AMP3.mV                       : CBL 3' Amplitude
GR.GAPI                       : Gamma Ray
~Parameter Information Block
~A  Depth       CCL         TT3         AMP3         GR     
# ...
   744.1500      0.0000    720.1172      5.1306    136.7896
   744.2000      0.0000    720.1172      5.1306    136.7896
   744.2500      0.0000    724.6862      5.1997    131.9699
   744.3000      0.0000    724.6862      5.1997    131.9699
   744.3500      0.0000    724.6862      5.1997    131.9699
   744.4000      0.0000    724.6862      5.1997    131.9699
   744.4500      0.0000    724.6862      5.1997    131.9699
   744.5000      0.0000    730.9401      5.2755    127.1093
   744.5500      0.0000    730.9401      5.2755    127.1093
   744.6000      0.0000    730.9401      5.2755    127.1093
   744.6500      0.0000    730.9401      5.2755    127.1093
   744.7000      0.0000    730.9401      5.2755    127.1093
   744.7500      0.0000    736.7336      5.3500    122.5135
   744.8000      0.0000    736.7336      5.3500    122.5135
   744.8500      0.0000    736.7336      5.3500    122.5135
   744.9000      0.0000    736.7336      5.3500    122.5135
   744.9500      0.0000    736.7336      5.3500    122.5135
   745.0000      0.0000    739.3091      5.4187    116.7007
   745.0500      0.0000    739.3091      5.4187    116.7007
   745.1000      0.0000    739.3091      5.4187    116.7007
   745.1500      0.0000    739.3091      5.4187    116.7007
   745.2000      0.0000    739.3091      5.4187    116.7007
   745.2500      0.0000    737.3018      5.4819    108.2846
   745.3000      0.0000    737.3018      5.4819    108.2846
   745.3500      0.0000    737.3018      5.4819    108.2846
   745.4000      0.0000    737.3018      5.4819    108.2846
   745.4500      0.0000    737.3018      5.4819    108.2846
   745.5000      0.0000    731.8379      5.5397     98.0540
   745.5500      0.0000    731.8379      5.5397     98.0540
   745.6000      0.0000    731.8379      5.5397     98.0540
   745.6500      0.0000    731.8379      5.5397     98.0540
   745.7000      0.0000    731.8379      5.5397     98.0540
   745.7500      0.0000    725.5182      5.5884     88.8056
   745.8000      0.0000    725.5182      5.5884     88.8056
   745.8500      0.0000    725.5182      5.5884     88.8056
   745.9000      0.0000    725.5182      5.5884     88.8056
   745.9500      0.0000    725.5182      5.5884     88.8056
   746.0000      0.0000    720.2526      5.6210     83.0492
   746.0500      0.0000    720.2526      5.6210     83.0492
   746.1000      0.0000    720.2526      5.6210     83.0492
   746.1500      0.0000    720.2526      5.6210     83.0492
   746.2000      0.0000    720.2526      5.6210     83.0492
   746.2500      0.0000    715.7812      5.6262     80.9289
   746.3000      0.0000    715.7812      5.6262     80.9289
   746.3500      0.0000    715.7812      5.6262     80.9289
   746.4000      0.0000    715.7812      5.6262     80.9289
   746.4500      0.0000    715.7812      5.6262     80.9289
   746.5000      0.0000    709.4229      5.5917     80.4249
   746.5500      0.0000    709.4229      5.5917     80.4249
   746.6000      0.0000    709.4229      5.5917     80.4249
   746.6500      0.0000    709.4229      5.5917     80.4249
   746.7000      0.0000    709.4229      5.5917     80.4249
   746.7500      0.0000    696.9456      5.5184     79.4604
   746.8000      0.0000    696.9456      5.5184     79.4604
   746.8500      0.0000    696.9456      5.5184     79.4604
   746.9000      0.0000    696.9456      5.5184     79.4604
   746.9500      0.0000    696.9456      5.5184     79.4604
   747.0000      0.0000    675.1946      5.4278     77.6781
   747.0500      0.0000    675.1946      5.4278     77.6781
   747.1000      0.0000    675.1946      5.4278     77.6781
   747.1500      0.0000    675.1946      5.4278     77.6781
   747.2000      0.0000    675.1946      5.4278     77.6781
   747.2500      0.0000    646.3893      5.3492     76.2975
   747.3000      0.0000    646.3893      5.3492     76.2975
   747.3500      0.0000    646.3893      5.3492     76.2975
   747.4000      0.0000    646.3893      5.3492     76.2975
   747.4500      0.0000    646.3893      5.3492     76.2975
   747.5000      0.0000    620.2856      5.2995     76.6108
   747.5500      0.0000    620.2856      5.2995     76.6108
   747.6000      0.0000    620.2856      5.2995     76.6108
   747.6500      0.0000    620.2856      5.2995     76.6108
   747.7000      0.0000    620.2856      5.2995     76.6108
   747.7500      0.0000    609.5118      5.2771     78.8973
   747.8000      0.0000    609.5118      5.2771     78.8973
   747.8500      0.0000    609.5118      5.2771     78.8973
   747.9000      0.0000    609.5118      5.2771     78.8973
   747.9500      0.0000    609.5118      5.2771     78.8973
   748.0000      0.0000    620.0847      5.2670     82.6559
   748.0500      0.0000    620.0847      5.2670     82.6559
   748.1000      0.0000    620.0847      5.2670     82.6559
   748.1500      0.0000    620.0847      5.2670     82.6559
   748.2000      0.0000    620.0847      5.2670     82.6559
   748.2500      0.0000    646.3354      5.2475     87.2062
   748.3000      0.0000    646.3354      5.2475     87.2062
   748.3500      0.0000    646.3354      5.2475     87.2062
   748.4000      0.0000    646.3354      5.2475     87.2062
   748.4500      0.0000    646.3354      5.2475     87.2062
   748.5000      0.0000    675.6707      5.2014     91.6081
   748.5500      0.0000    675.6707      5.2014     91.6081
   748.6000      0.0000    675.6707      5.2014     91.6081
   748.6500      0.0000    675.6707      5.2014     91.6081
   748.7000      0.0000    675.6707      5.2014     91.6081
   748.7500      0.0000    697.7868      5.1350     94.7188
   748.8000      0.0000    697.7868      5.1350     94.7188
   748.8500      0.0000    697.7868      5.1350     94.7188
   748.9000      0.0000    697.7868      5.1350     94.7188
   748.9500      0.0000    697.7868      5.1350     94.7188
   749.0000      0.0000    709.5925      5.0724     96.2039
   749.0500      0.0000    709.5925      5.0724     96.2039
   749.1000      0.0000    709.5925      5.0724     96.2039
   749.1500      0.0000    709.5925      5.0724     96.2039
   749.2000      0.0000    709.5925      5.0724     96.2039
   749.2500      0.0000    713.8901      5.0204     97.0215
   749.3000      0.0000    713.8901      5.0204     97.0215
   749.3500      0.0000    713.8901      5.0204     97.0215
   749.4000      0.0000    713.8901      5.0204     97.0215
   749.4500      0.0000    713.8901      5.0204     97.0215
   749.5000      0.0000    715.8072      4.9494     98.2425
   749.5500      0.0000    715.8072      4.9494     98.2425
   749.6000      0.0000    715.8072      4.9494     98.2425
   749.6500      0.0000    715.8072      4.9494     98.2425
   749.7000      0.0000    715.8072      4.9494     98.2425
   749.7500      0.0000    720.0531      4.8245     99.9492
   749.8000      0.0000    720.0531      4.8245     99.9492
   749.8500      0.0000    720.0531      4.8245     99.9492
   749.9000      0.0000    720.0531      4.8245     99.9492
   749.9500      0.0000    720.0531      4.8245     99.9492
   750.0000      0.0000    729.4178      4.6546    101.7028
   750.0500      0.0000    729.4178      4.6546    101.7028
   750.1000      0.0000    729.4178      4.6546    101.7028
   750.1500      0.0000    729.4178      4.6546    101.7028
   750.2000      0.0000    729.4178      4.6546    101.7028
   750.2500      0.0000    744.2078      4.4934    103.3329
   750.3000      0.0000    744.2078      4.4934    103.3329
   750.3500      0.0000    744.2078      4.4934    103.3329
   750.4000      0.0000    744.2078      4.4934    103.3329
   750.4500      0.0000    744.2078      4.4934    103.3329
   750.5000      0.0000    762.4615      4.3855    104.8313
   750.5500      0.0000    762.4615      4.3855    104.8313
   750.6000      0.0000    762.4615      4.3855    104.8313
   750.6500      0.0000    762.4615      4.3855    104.8313
   750.7000      2.0000    762.4615      4.3855    104.8313
   750.7500      2.0000    780.9171      4.3303    106.0610
   750.8000      2.0000    780.9171      4.3303    106.0610
