~Version Information
VERS.                      2.0: CWLS Log ASCII Standard - VERSION 2.0
WRAP.                       NO: One line per depth step
~Well Information Block
STRT.FT                -5.0000: 
STOP.FT              1761.2500: 
STEP.FT                 0.2500: 
NULL.                -999.2500: 
COMP.          Pioneer Natural Resources: COMPANY
WELL.          Manville 42-14 Tr: WELL
FLD.           Purgatoire River: FIELD
LOC.           2018'FNL & 562' FEL: LOCATION
STAT.                 Colorado: State
CNTY.               Las Animas: COUNTY
CTRY. USA : Country
SECT. 14 : Section
TOWN. 32S : Township
RANG. 66W : Range
SRVC.                Patterson: SERVICE COMPANY
DATE.          Fri Sep 23 10:37:02 2005: LOG DATE
API. 05-071-08522             : UNIQUE WELL ID
~Curve Information Block
DEPT.FT            0 000 00 00: Depth
CCL.                          : Casing Collar Locator
TT3.usec                      : CBL 3' Travel Time
AMP3.mV                       : CBL 3' Amplitude
AMP5.mV                       : CBL 5' Amplitude
GR.GAPI                       : Gamma Ray
~Parameter Information Block
~A  Depth       CCL         TT3         AMP3        AMP5         GR     
# ...
   219.0000      0.0000    311.1747     14.5467      8.7435     59.7033
   219.2500      2.0000    310.5756     14.6716      9.7010     60.1161
   219.5000      0.0000    310.1179     14.8759      9.7881     57.7653
   219.7500      0.0000    309.2736     15.2108      9.6140     53.8767
   220.0000      0.0000    307.6085     15.7639      9.5270     50.8778
   220.2500      0.0000    305.0396     16.6465      9.2658     50.2025
   220.5000      0.0000    302.1796     17.9259      9.3529     51.3462
   220.7500      0.0000    300.1671     19.5112      9.1788     52.9922
   221.0000      0.0000    299.7767     21.1416      9.1788     54.3262
   221.2500      0.0000    300.7379     22.5108      9.7881     54.9215
   221.5000      0.0000    302.1082     23.3950      4.9135     54.0901
   221.7500      0.0000    303.1617     23.7105     22.3228     51.3881
   222.0000      0.0000    303.7520     23.5309     10.4845     47.8360
   222.2500      0.0000    304.0515     23.0487     16.4036     45.7986
   222.5000      0.0000    304.2302     22.4706     15.6202     47.0095
   222.7500      0.0000    304.3654     21.9183     14.2275     50.7363
   223.0000      0.0000    304.4831     21.4075     13.2700     54.2110
   223.2500      0.0000    304.5942     20.9045     12.4865     55.0398
   223.5000      0.0000    304.7042     20.3944     12.5736     53.2114
   223.7500      0.0000    304.8081     19.9059     12.3995     50.8236
   224.0000      0.0000    304.8980     19.4861     13.0959     50.1033
   224.2500      0.0000    304.9707     19.1689     11.9643     51.7894
   224.5000      0.0000    305.0277     18.9654     12.1384     55.0111
   224.7500      0.0000    305.0706     18.8722     11.7902     58.0884
   225.0000      0.0000    305.0995     18.8783     12.0513     59.4448
   225.2500      0.0000    305.1140     18.9690     11.8772     58.3236
   225.5000      0.0000    305.1168     19.1244     11.9643     54.9618
   225.7500      0.0000    305.1141     19.3119     11.7902     50.1392
   226.0000      0.0000    305.1134     19.4917     11.5290     44.7888
   226.2500      0.0000    305.1188     19.6429     11.4420     40.0532
   226.5000      0.0000    305.1284     19.7816     11.6161     37.1937
   226.7500      0.0000    305.1350     19.9393     12.1384     37.0042
   227.0000      0.0000    305.1294     20.1270     12.3995     39.2671
   227.2500      0.0000    305.1056     20.3311     12.7477     42.8594
   227.5000      0.0000    305.0664     20.5333     12.3124     46.5376
   227.7500      0.0000    305.0238     20.7170     12.6606     49.7007
   228.0000      0.0000    304.9913     20.8637     12.5736     52.4483
   228.2500      0.0000    304.9749     20.9619     12.9218     55.0753
   228.5000      0.0000    304.9701     21.0218     12.8347     57.7205
   228.7500      0.0000    304.9676     21.0716     12.9218     60.3358
   229.0000      0.0000    304.9588     21.1384     13.0088     62.7265
   229.2500      0.0000    304.9379     21.2378     13.4441     64.6855
   229.5000      0.0000    304.9001     21.3742     13.1829     66.1492
   229.7500      0.0000    304.8436     21.5392     13.4441     66.9891
   230.0000      0.0000    304.7752     21.7094     13.0088     66.6125
   230.2500      0.0000    304.7109     21.8559     13.7052     64.2820
   230.5000      0.0000    304.6666     21.9618     13.0959     60.1666
   230.7500      0.0000    304.6479     22.0293     13.5311     55.7791
   231.0000      0.0000    304.6471     22.0748     13.7052     53.0471
   231.2500      0.0000    304.6505     22.1217     13.8793     52.9539
   231.5000      0.0000    304.6481     22.1890     13.7052     54.8115
   231.7500      0.0000    304.6387     22.2766     14.0534     56.5200
   232.0000      0.0000    304.6265     22.3638     14.5757     55.9553
   232.2500      0.0000    304.6145     22.4253     13.7052     52.7360
   232.5000      0.0000    304.6023     22.4474     14.4886     48.6594
   232.7500      0.0000    304.5899     22.4332     13.7922     46.1650
   233.0000      0.0000    304.5791     22.4017     14.3145     46.3461
   233.2500      0.0000    304.5722     22.3830     14.1404     48.3244
   233.5000      0.0000    304.5692     22.4030     15.0109     50.2093
   233.7500      0.0000    304.5680     22.4708     14.7498     50.6197
   234.0000      0.0000    304.5642     22.5797     14.7498     49.5953
   234.2500      0.0000    304.5528     22.7124     14.7498     48.3034
   234.5000      0.0000    304.5299     22.8413     14.4886     47.8811
   234.7500      0.0000    304.4940     22.9375     14.8368     48.5144
   235.0000      0.0000    304.4460     22.9984     14.9239     49.5813
   235.2500      0.0000    304.3872     23.0605     14.9239     50.4451
   235.5000      0.0000    304.3175     23.1751     15.8814     50.8928
   235.7500      0.0000    304.2374     23.3686     15.7943     51.1015
   236.0000      0.0000    304.1508     23.6265     15.2720     51.6166
   236.2500      0.0000    304.0663     23.9062     15.1850     53.2244
   236.5000      0.0000    303.9942     24.1599     14.9239     56.4373
   236.7500      0.0000    303.9431     24.3569     15.3591     60.9930
   237.0000      0.0000    303.9175     24.4996     15.2720     65.9257
   237.2500      0.0000    303.9150     24.6182     15.7943     70.0692
   237.5000      0.0000    303.9268     24.7379     15.5332     72.4912
   237.7500      0.0000    303.9409     24.8509     16.3166     72.5719
   238.0000      0.0000    303.9502     24.9175     15.8814     69.9620
   238.2500      0.0000    303.9579     24.8954     16.2296     64.9082
   238.5000      0.0000    303.9743     24.7688     15.7943     58.7472
   238.7500      0.0000    304.0069     24.5601     16.0555     53.6516
   239.0000      0.0000    304.0542     24.3162     15.7073     51.4324
   239.2500      0.0000    304.1090     24.0846     15.8814     52.3754
   239.5000      0.0000    304.1634     23.9033     15.5332     55.0776
   239.7500      0.0000    304.2101     23.8053     15.3591     57.3795
   240.0000      0.0000    304.2427     23.8148     15.7073     57.8097
   240.2500      0.0000    304.2574     23.9286     16.4036     56.5043
   240.5000      0.0000    304.2555     24.1032     16.1425     54.8271
   240.7500      0.0000    304.2418     24.2695     16.0555     54.1716
   241.0000      0.0000    304.2221     24.3690     15.8814     55.2418
   241.2500      0.0000    304.2006     24.3855     15.6202     58.2255
   241.5000      0.0000    304.1759     24.3497     15.8814     63.0208
   241.7500      0.0000    304.1400     24.3169     15.9684     68.9768
   242.0000      0.0000    304.0823     24.3375     16.2296     74.8484
   242.2500      0.0000    303.9976     24.4372     16.3166     79.5337
   242.5000      0.0000    303.8912     24.6087     15.8814     82.7063
   242.7500      0.0000    303.7777     24.8136     15.6202     84.2875
   243.0000      0.0000    303.6732     24.9997     15.1850     83.7563
   243.2500      0.0000    303.5871     25.1263     15.4461     80.9560
   243.5000      0.0000    303.5202     25.1797     15.1850     77.5019
   243.7500      0.0000    303.4706     25.1720     15.6202     76.3141
   244.0000      0.0000    303.4384     25.1332     15.8814     79.1503
   244.2500      0.0000    303.4238     25.1036     16.2296     84.8702
   244.5000      0.0000    303.4221     25.1197     16.4036     90.3842
   244.7500      0.0000    303.4234     25.2016     16.6648     93.1143
   245.0000      0.0000    303.4142     25.3525     17.1000     92.5202
   245.2500      0.0000    303.3754     25.5692     17.1000     89.7414
   245.5000      0.0000    303.2545     25.8510     18.1446     86.2845
   245.7500      0.0000    302.8824     26.1985     18.3187     83.2312
   246.0000      0.0000    301.8404     26.6055     18.2316     81.4261
   246.2500      0.0000    299.4209     27.0530     18.8410     81.7875
   246.5000      0.0000    294.9480     27.5183     18.4057     84.8966
   246.7500      0.0000    288.4522     27.9880     19.1891     90.1268
