~Version Information
VERS.                      2.0: CWLS Log ASCII Standard - VERSION 2.0
WRAP.                       NO: One line per depth step
~Well Information Block
STRT.FT               262.8000: 
STOP.FT              1134.7000: 
STEP.FT                 0.1000: 
NULL.                -999.2500: 
COMP.          Pioneer Natural Resources: COMPANY
WELL.          Black Cat 13-32 Tr: WELL
FLD.           Purgatoire River: FIELD
LOC.           1679' FSL & 1150' FWL--: LOCATION
CNTY.               Las Animas: COUNTY
SRVC.                Patterson: SERVICE COMPANY
DATE.          Tue Mar 07 12:42:54 2006: LOG DATE
UWI.           05 071 08721 00: UNIQUE WELL ID
STAT.                 Colorado: STATE
~Curve Information Block
DEPT.FT            0 000 00 00: Depth
DCAL.in                       : CDL Caliper
RHOB.g/cc                     : CDL Bulk Density
RHOC.g/cc                     : CDL Density Correction
DPOR.pu                       : CDL Density Porosity
GR.GAPI                       : Gamma Ray
~Parameter Information Block
~A  Depth       DCAL        RHOB        RHOC        DPOR         GR     
# ...
  1046.8000      7.8543      2.4975      0.0563      9.2419     94.1372
  1046.9000      7.8543      2.5010      0.0894      9.0301     86.5120
  1047.0000      7.8418      2.5069      0.1005      8.6738     78.6202
  1047.1000      7.8418      2.5075      0.0871      8.6344     73.1423
  1047.2000      7.8418      2.5145      0.0628      8.2131     68.4950
  1047.3000      7.8402      2.5336      0.0745      7.0562     64.7281
  1047.4000      7.8402      2.5556      0.0783      5.7222     62.3375
  1047.5000      7.8482      2.5692      0.0925      4.8973     60.7603
  1047.6000      7.8482      2.5680      0.1042      4.9668     59.7303
  1047.7000      7.8482      2.5579      0.0961      5.5833     58.8362
  1047.8000      7.8603      2.5543      0.0556      5.7992     57.9883
  1047.9000      7.8603      2.5626      0.0788      5.2981     57.1366
  1048.0000      7.8687      2.5721      0.0532      4.7217     55.5160
  1048.1000      7.8687      2.5765      0.0749      4.4531     54.7210
  1048.2000      7.8687      2.5739      0.0825      4.6151     57.7882
  1048.3000      7.8706      2.5654      0.0497      5.1268     61.3113
  1048.4000      7.8706      2.5664      0.0174      5.0686     60.0037
  1048.5000      7.8711      2.5901      0.0787      3.6332     57.2255
  1048.6000      7.8711      2.6244      0.0870      1.5525     57.9545
  1048.7000      7.8711      2.6466      0.0693      0.2043     60.1498
  1048.8000      7.8745      2.6468      0.1147      0.1969     61.4444
  1048.9000      7.8745      2.6284      0.0825      1.3104     64.5956
  1049.0000      7.8811      2.6064      0.0478      2.6401     68.9016
  1049.1000      7.8811      2.5956     -0.0004      3.2978     68.7378
  1049.2000      7.8811      2.5964      0.0431      3.2457     65.5967
  1049.3000      7.8857      2.6015      0.0676      2.9421     66.8449
  1049.4000      7.8857      2.6133      0.0347      2.2264     72.8366
  1049.5000      7.8871      2.6370      0.1075      0.7852     76.8655
  1049.6000      7.8871      2.6657      0.0646     -0.9519     76.2196
  1049.7000      7.8871      2.6916      0.0890     -2.5199     75.1517
  1049.8000      7.8864      2.7125      0.0812     -3.7880     77.0191
  1049.9000      7.8864      2.7311      0.0942     -4.9122     79.9324
  1050.0000      7.8849      2.7396      0.1147     -5.4273     80.7467
  1050.1000      7.8849      2.7226      0.0939     -4.4008     80.4609
  1050.2000      7.8849      2.6902      0.0205     -2.4353     81.3759
  1050.3000      7.8848      2.6651      0.0434     -0.9131     84.7870
  1050.4000      7.8848      2.6442      0.0419      0.3505     90.2201
  1050.5000      7.8841      2.6137     -0.0190      2.1983     95.1711
  1050.6000      7.8841      2.5768     -0.0672      4.4338     99.9285
  1050.7000      7.8841      2.5427     -0.0332      6.5059    105.6998
  1050.8000      7.8773      2.5115      0.0175      8.3939    110.5676
  1050.9000      7.8773      2.4859     -0.0061      9.9483    115.4455
  1051.0000      7.8673      2.4765      0.0561     10.5168    122.2222
  1051.1000      7.8673      2.4781      0.0654     10.4163    125.9848
  1051.2000      7.8673      2.4675      0.0529     11.0635    122.7338
  1051.3000      7.8623      2.4363      0.0155     12.9538    119.6919
  1051.4000      7.8623      2.3978      0.0295     15.2838    124.3705
  1051.5000      7.8606      2.3636     -0.0064     17.3590    133.0499
  1051.6000      7.8606      2.3338      0.0427     19.1647    138.2559
  1051.7000      7.8606      2.3111     -0.0414     20.5392    139.4259
  1051.8000      7.8601      2.3143     -0.0406     20.3446    137.8551
  1051.9000      7.8601      2.3519      0.0122     18.0648    135.5367
  1052.0000      7.8643      2.3989      0.0895     15.2164    136.4492
  1052.1000      7.8643      2.4275      0.0812     13.4867    139.8479
  1052.2000      7.8643      2.4452      0.0786     12.4129    143.3408
  1052.3000      7.8709      2.4734      0.1161     10.7020    146.4379
  1052.4000      7.8709      2.5089      0.1895      8.5520    149.2247
  1052.5000      7.8714      2.5412      0.1054      6.5923    149.9133
  1052.6000      7.8714      2.5690      0.1430      4.9107    146.7568
  1052.7000      7.8714      2.5808      0.1426      4.1963    142.8841
  1052.8000      7.8692      2.5751      0.0934      4.5377    140.2671
  1052.9000      7.8692      2.5706      0.0653      4.8151    137.0995
  1053.0000      7.8723      2.5718      0.0852      4.7403    133.0251
  1053.1000      7.8723      2.5732      0.0168      4.6523    130.8210
  1053.2000      7.8723      2.5778      0.0224      4.3762    130.0936
  1053.3000      7.8800      2.5809      0.0295      4.1884    127.0505
  1053.4000      7.8800      2.5796      0.0397      4.2678    122.0238
  1053.5000      7.8863      2.5867      0.0356      3.8341    120.2216
  1053.6000      7.8863      2.6107      0.0598      2.3822    123.2787
  1053.7000      7.8863      2.6421      0.0693      0.4778    123.7200
  1053.8000      7.8881      2.6602      0.0911     -0.6181    117.5638
  1053.9000      7.8881      2.6430      0.0595      0.4214    112.8264
  1054.0000      7.8870      2.5960     -0.0163      3.2720    116.1665
  1054.1000      7.8870      2.5593     -0.0771      5.4973    123.6117
  1054.2000      7.8870      2.5638     -0.0489      5.2235    125.6146
  1054.3000      7.8851      2.6005     -0.0170      2.9986    120.9072
  1054.4000      7.8851      2.6386     -0.0011      0.6927    117.2555
  1054.5000      7.8817      2.6498      0.0144      0.0115    118.4216
  1054.6000      7.8817      2.6332     -0.0217      1.0184    120.7444
  1054.7000      7.8817      2.6124      0.0090      2.2802    120.6165
  1054.8000      7.8779      2.6001      0.0515      3.0241    119.2821
  1054.9000      7.8779      2.5981      0.0402      3.1464    118.5579
  1055.0000      7.8774      2.6096      0.0555      2.4513    117.3984
  1055.1000      7.8774      2.6265      0.0942      1.4268    117.7847
  1055.2000      7.8774      2.6318      0.0849      1.1041    122.0954
  1055.3000      7.8797      2.6262      0.0496      1.4400    126.5351
  1055.4000      7.8797      2.6263      0.0269      1.4369    127.3309
  1055.5000      7.8827      2.6368      0.0290      0.7974    124.1717
  1055.6000      7.8827      2.6467     -0.0052      0.1981    118.9559
  1055.7000      7.8827      2.6435      0.0265      0.3911    115.3674
  1055.8000      7.8853      2.6269      0.0073      1.4005    114.0006
  1055.9000      7.8853      2.6114     -0.0363      2.3404    111.5726
  1056.0000      7.8869      2.6073      0.0081      2.5899    107.2905
  1056.1000      7.8869      2.6119     -0.0381      2.3105    102.7938
  1056.2000      7.8869      2.6211      0.0312      1.7535     99.6935
  1056.3000      7.8883      2.6276      0.0336      1.3566     99.0748
  1056.4000      7.8883      2.6256      0.0340      1.4799     99.7292
  1056.5000      7.8878      2.6149      0.0377      2.1296     98.5545
  1056.6000      7.8878      2.6049     -0.0120      2.7351     94.6704
  1056.7000      7.8878      2.6024      0.0403      2.8854     90.4051
  1056.8000      7.8880      2.6022     -0.0101      2.8955     88.4536
  1056.9000      7.8880      2.6043      0.0369      2.7691     90.8728
  1057.0000      7.8884      2.6070      0.0480      2.6070     96.6776
  1057.1000      7.8884      2.5993      0.0656      3.0710    101.3547
  1057.2000      7.8884      2.5741      0.0189      4.5995    103.5883
  1057.3000      7.8855      2.5422     -0.0069      6.5306    103.4273
  1057.4000      7.8855      2.5189     -0.0222      7.9468    100.7201
  1057.5000      7.8835      2.4951      0.0524      9.3868    100.2148
  1057.6000      7.8835      2.4441      0.0452     12.4785    105.4023
  1057.7000      7.8835      2.3689     -0.0404     17.0347    112.6998
  1057.8000      7.8860      2.3084     -0.0698     20.7022    115.4211
  1057.9000      7.8860      2.2835     -0.0351     22.2139    113.9515
