~Version Information
VERS.                      2.0: CWLS Log ASCII Standard - VERSION 2.0
WRAP.                       NO: One line per depth step
~Well Information Block
STRT.FT               615.0000: 
STOP.FT              1609.0000: 
STEP.FT                 0.2500: 
NULL.                -999.2500: 
COMP.          Pioneer Natural Resources: COMPANY
WELL.          Galloway 32-13 Tr: WELL
FLD.           Purgatoire River: FIELD
LOC.           1910' FNL & 2002' FEL: LOCATION
PROV.                 Colorado: PROVINCE
CNTY.               Las Animas: COUNTRY
SRVC.                Patterson: SERVICE COMPANY
DATE.          Sat Nov 12 20:19:28 2005: LOG DATE
UWI.           05 071 08608 00: UNIQUE WELL ID
~Curve Information Block
DEPT.FT            0 000 00 00: Depth
SN.Ohm-m                      : IEL Short Normal
SP.mV                         : IEL Spontaneous Potential
DIR.Ohm-m                     : IEL Induction Resistivity
GR.GAPI                       : Gamma Ray
~Parameter Information Block
~A  Depth        SN          SP         DIR          GR     
# ...
   816.0000     19.2868     35.9616     17.4802    111.1171
   816.2500     21.0589     35.6559     18.3913    107.9525
   816.5000     23.5665     35.3903     19.3102    104.1737
   816.7500     26.7058     35.1633     20.1481    101.7072
   817.0000     30.0807     34.9769     20.8101     97.1404
   817.2500     33.3498     34.8382     21.2305     93.4670
   817.5000     36.2995     34.7553     21.3904     87.7151
   817.7500     38.4815     34.7332     21.3141     84.4052
   818.0000     39.1140     34.7701     21.0580     81.8638
   818.2500     37.7080     34.8584     20.7010     82.9028
   818.5000     34.7337     34.9871     20.3306     89.8344
   818.7500     31.4185     35.1421     20.0202     97.7809
   819.0000     28.8521     35.3058     19.8071    112.3463
   819.2500     27.3839     35.4617     19.6859    122.0139
   819.5000     26.7653     35.6027     19.6235    134.2858
   819.7500     26.5286     35.7362     19.5885    140.5602
   820.0000     26.2165     35.8808     19.5765    146.9977
   820.2500     25.5848     36.0549     19.6136    149.1909
   820.5000     24.7534     36.2662     19.7400    149.2798
   820.7500     24.1261     36.5075     19.9887    147.4187
   821.0000     24.2142     36.7608     20.3729    141.9854
   821.2500     25.6090     37.0056     20.8854    136.3307
   821.5000     28.8956     37.2274     21.5107    124.1118
   821.7500     34.3045     37.4243     22.2422    113.6495
   822.0000     41.4295     37.6059     23.0937     96.5656
   822.2500     49.2919     37.7831     24.0927     86.1062
   822.5000     56.6184     37.9624     25.2628     74.4152
   822.7500     62.1202     38.1485     26.6042     69.9517
   823.0000     64.7242     38.3494     28.0779     68.2772
   823.2500     63.9421     38.5722     29.5915     70.1850
   823.5000     60.4252     38.8117     30.9859     76.3402
   823.7500     55.9410     39.0461     32.0428     81.3699
   824.0000     52.2361     39.2469     32.5363     87.8167
   824.2500     49.8917     39.3959     32.3262     90.4601
   824.5000     48.4286     39.4969     31.4371     92.0393
   824.7500     47.1751     39.5727     30.0566     92.3178
   825.0000     45.7497     39.6510     28.4527     93.4483
   825.2500     43.9534     39.7501     26.8704     95.6720
   825.5000     41.6391     39.8720     25.4672    101.9867
   825.7500     38.8403     40.0052     24.3026    107.7939
   826.0000     35.8163     40.1333     23.3638    117.1641
   826.2500     32.8596     40.2441     22.5999    122.8418
   826.5000     30.1746     40.3350     21.9465    129.5049
   826.7500     27.9117     40.4122     21.3390    132.4065
   827.0000     26.1714     40.4846     20.7208    133.9962
   827.2500     24.9781     40.5545     20.0578    133.1850
   827.5000     24.2820     40.6143     19.3513    130.2247
   827.7500     23.9313     40.6552     18.6413    128.3087
   828.0000     23.6987     40.6814     17.9954    127.4324
   828.2500     23.4134     40.7123     17.4878    128.4865
   828.5000     23.0363     40.7635     17.1775    131.4236
   828.7500     22.5987     40.8306     17.0902    133.1899
   829.0000     22.1722     40.8951     17.2088    133.9540
   829.2500     21.8978     40.9439     17.4764    132.7346
   829.5000     21.9321     40.9790     17.8143    128.4793
   829.7500     22.3434     41.0139     18.1530    124.5938
   830.0000     23.0563     41.0640     18.4623    118.0190
   830.2500     23.8769     41.1385     18.7597    113.0094
   830.5000     24.6713     41.2366     19.0940    103.8666
   830.7500     25.5190     41.3482     19.5172     96.9280
   831.0000     26.6147     41.4615     20.0651     87.4057
   831.2500     28.1189     41.5696     20.7521     83.2625
   831.5000     30.0902     41.6733     21.5753     81.9675
   831.7500     32.4191     41.7779     22.5192     84.1401
   832.0000     34.8148     41.8855     23.5567     89.7964
   832.2500     36.9311     41.9899     24.6501     93.5287
   832.5000     38.5823     42.0770     25.7565     96.9435
   832.7500     39.8539     42.1300     26.8356     97.3698
   833.0000     40.9809     42.1354     27.8489     96.0180
   833.2500     42.0787     42.0895     28.7494     94.7401
   833.5000     42.9602     42.0041     29.4753     93.8383
   833.7500     43.3113     41.9049     29.9622     94.4047
   834.0000     43.0274     41.8175     30.1632     96.7943
   834.2500     42.2769     41.7553     30.0484     98.8103
   834.5000     41.2968     41.7210     29.5829    101.1647
   834.7500     40.2190     41.7151     28.7206    101.5446
   835.0000     39.0505     41.7413     27.4493     99.3805
   835.2500     37.6931     41.8043     25.8524     96.1473
   835.5000     35.9759     41.9065     24.1136     90.2582
   835.7500     33.7509     42.0454     22.4441     87.2280
   836.0000     31.0011     42.2104     20.9999     86.4086
   836.2500     27.9613     42.3841     19.8474     88.9171
   836.5000     25.1596     42.5443     18.9761     96.5404
   836.7500     23.0949     42.6686     18.3296    103.0433
   837.0000     21.8299     42.7393     17.8330    112.6889
   837.2500     21.0641     42.7490     17.4126    118.1272
   837.5000     20.4874     42.7056     17.0086    124.3075
   837.7500     19.9477     42.6322     16.5859    127.2457
   838.0000     19.4162     42.5568     16.1399    130.1015
   838.2500     18.9630     42.4950     15.6896    130.8744
   838.5000     18.7763     42.4432     15.2581    130.0299
   838.7500     19.0111     42.3883     14.8541    128.1121
   839.0000     19.5388     42.3204     14.4692    123.4877
   839.2500     20.0527     42.2351     14.0920    119.3833
   839.5000     20.4352     42.1320     13.7257    111.9819
   839.7500     20.7447     42.0194     13.3913    106.8919
   840.0000     20.9097     41.9140     13.1171    101.4311
   840.2500     20.7344     41.8279     12.9238    100.6865
   840.5000     20.1693     41.7536     12.8179    104.6968
   840.7500     19.3789     41.6693     12.7942    110.1078
   841.0000     18.5474     41.5589     12.8417    120.1715
   841.2500     17.7815     41.4220     12.9469    126.7124
   841.5000     17.1775     41.2662     13.0949    133.7367
   841.7500     16.7976     41.0955     13.2700    135.5461
   842.0000     16.5732     40.9091     13.4599    134.0671
   842.2500     16.2964     40.7074     13.6637    131.3371
   842.5000     15.8034     40.4998     13.8970    126.5679
   842.7500     15.1904     40.3059     14.1894    123.4820
   843.0000     14.7200     40.1518     14.5752    119.1966
   843.2500     14.6956     40.0591     15.0853    116.7677
   843.5000     15.5738     40.0337     15.7444    114.3424
   843.7500     17.8598     40.0613     16.5721    113.5693
   844.0000     21.7337     40.1165     17.5843    112.8658
   844.2500     26.8495     40.1805     18.7898    112.1079
   844.5000     32.3926     40.2528     20.1871    110.1269
   844.7500     37.4399     40.3471     21.7618    108.2811
   845.0000     41.5583     40.4738     23.4819    104.5741
   845.2500     45.0399     40.6283     25.2873    101.1858
   845.5000     48.3771     40.7972     27.0747     94.5911
   845.7500     51.5826     40.9720     28.6913     89.7490
   846.0000     54.1907     41.1549     29.9514     83.7935
   846.2500     55.8685     41.3556     30.6819     81.8284
   846.5000     56.7480     41.5833     30.7792     82.6111
   846.7500     57.0089     41.8409     30.2523     85.2125
   847.0000     56.4452     42.1224     29.2267     90.9155
   847.2500     54.6700     42.4149     27.9011     95.3490
   847.5000     51.5358     42.7030     26.4755    102.8234
   847.7500     47.2872     42.9723     25.0888    108.6220
   848.0000     42.4258     43.2117     23.7963    118.6751
   848.2500     37.4117     43.4148     22.5892    125.8605
   848.5000     32.5481     43.5818     21.4359    136.0700
   848.7500     28.1305     43.7184     20.3159    141.7158
   849.0000     24.4821     43.8313     19.2325    147.3129
   849.2500     21.8273     43.9219     18.2062    148.7622
