~Version Information
VERS.                      2.0: CWLS Log ASCII Standard - VERSION 2.0
WRAP.                       NO: One line per depth step
~Well Information Block
STRT.FT                -7.7500: 
STOP.FT              1485.2500: 
STEP.FT                 0.2500: 
NULL.                -999.2500: 
COMP.          Pioneer Natural Resources: COMPANY
WELL.          Hammerhead 24-24 Tr: WELL
FLD.           Purgatorie River: FIELD
LOC.           953' FSL & 1922' FWL--: LOCATION
CNTY.               Las Animas: COUNTY
SRVC.          Patterson Wireline: SERVICE COMPANY
DATE.          Thu Feb 02 15:03:23 2006: LOG DATE
UWI.           05 071 08669 00: UNIQUE WELL ID
STAT.                       CO: STATE
~Curve Information Block
DEPT.FT            0 000 00 00: Depth
CCL.                          : Casing Collar Locator
TT3.usec                      : CBL 3' Travel Time
AMP3.mV                       : CBL 3' Amplitude
GR.GAPI                       : Gamma Ray
~Parameter Information Block
~A  Depth       CCL         TT3         AMP3         GR     
# ...
  1064.2500      0.0000    530.0780      8.9388    121.7042
  1064.5000      0.0000    542.5967      8.8461    122.0498
  1064.7500      0.0000    526.3530      8.7544    121.0019
  1065.0000      0.0000    488.0385      8.6743    117.8849
  1065.2500      0.0000    445.1803      8.6149    112.6474
  1065.5000      0.0000    411.4554      8.5839    106.1400
  1065.7500      0.0000    390.3389      8.5831     99.2796
  1066.0000      0.0000    379.7796      8.6050     92.6165
  1066.2500      0.0000    379.3980      8.6371     86.7660
  1066.5000      0.0000    392.6978      8.6695     82.6452
  1066.7500      0.0000    423.3542      8.7013     81.0685
  1067.0000      0.0000    468.7163      8.7380     82.1661
  1067.2500      0.0000    516.0032      8.7838     84.9872
  1067.5000      0.0000    547.0414      8.8389     87.4549
  1067.7500      0.0000    550.8564      8.9037     87.3298
  1068.0000      0.0000    533.6174      8.9834     84.0783
  1068.2500      0.0000    515.9319      9.0814     79.7673
  1068.5000      0.0000    519.1354      9.1867     77.4177
  1068.7500      0.0000    551.1917      9.2703     78.2903
  1069.0000      0.0000    602.4016      9.2941     81.2310
  1069.2500      0.0000    653.9205      9.2221     84.5898
  1069.5000      0.0000    691.3264      9.0299     88.0009
  1069.7500      0.0000    711.1677      8.7163     92.0435
  1070.0000      0.0000    717.2336      8.3067     96.9630
  1070.2500      0.0000    714.1292      7.8371    102.3329
  1070.5000      0.0000    705.2933      7.3387    107.5201
  1070.7500      0.0000    695.0761      6.8512    111.8357
  1071.0000      0.0000    689.6791      6.4471    114.2067
  1071.2500      0.0000    693.8728      6.2128    113.2388
  1071.5000      0.0000    706.3655      6.1859    108.2769
  1071.7500      0.0000    719.3857      6.3204    100.6276
  1072.0000      0.0000    724.0573      6.5214     93.3395
  1072.2500      0.0000    717.0306      6.7102     89.3502
  1072.5000     -2.0000    701.6212      6.8579     89.5057
  1072.7500      2.0000    681.0983      6.9822     92.0495
  1073.0000      0.0000    651.4581      7.1373     93.9434
  1073.2500      0.0000    604.6616      7.3997     92.8629
  1073.5000      0.0000    540.4996      7.8181     88.1357
  1073.7500      0.0000    471.6718      8.3438     80.2241
  1074.0000      0.0000    414.8125      8.8316     70.1366
  1074.2500      0.0000    378.4693      9.1553     59.6397
  1074.5000      0.0000    360.2514      9.3175     51.3131
  1074.7500      0.0000    352.5345      9.4222     47.5734
  1075.0000      0.0000    348.8792      9.5568     49.5206
  1075.2500      0.0000    346.4170      9.7250     56.8183
  1075.5000      0.0000    344.6882      9.8748     68.3381
  1075.7500      0.0000    343.7568      9.9606     82.4941
  1076.0000      0.0000    343.4914      9.9758     97.2223
  1076.2500      0.0000    343.8301      9.9411    110.4920
  1076.5000      0.0000    345.0989      9.8803    121.2616
  1076.7500      0.0000    348.0022      9.8080    129.5338
  1077.0000      0.0000    353.1713      9.7317    135.3060
  1077.2500      0.0000    360.3662      9.6562    138.2911
  1077.5000      0.0000    368.0203      9.5880    139.0895
  1077.7500      0.0000    374.0102      9.5374    139.6090
  1078.0000      0.0000    377.5670      9.5130    141.3127
  1078.2500      0.0000    381.0352      9.5140    143.4847
  1078.5000      0.0000    390.3448      9.5262    144.0919
  1078.7500      0.0000    413.5547      9.5299    142.2899
  1079.0000      0.0000    456.8305      9.5113    139.4854
  1079.2500      0.0000    518.7456      9.4673    137.7702
  1079.5000      0.0000    587.7964      9.4023    137.7802
  1079.7500      0.0000    647.9754      9.3206    138.5408
  1080.0000      0.0000    688.7333      9.2203    139.2151
  1080.2500      0.0000    709.5953      9.0952    140.2638
  1080.5000      0.0000    716.3948      8.9422    142.5079
  1080.7500      0.0000    715.4680      8.7687    145.5834
  1081.0000      0.0000    711.4083      8.5907    147.9351
  1081.2500      0.0000    707.4606      8.4212    148.0755
  1081.5000      0.0000    705.5441      8.2591    145.4085
  1081.7500      0.0000    705.8085      8.0940    140.2537
  1082.0000      0.0000    707.3044      7.9309    133.6284
  1082.2500      0.0000    709.3110      7.8119    126.9256
  1082.5000      0.0000    711.5562      7.7987    121.4425
  1082.7500      0.0000    713.3918      7.9191    117.8139
  1083.0000      0.0000    713.6326      8.1304    115.5024
  1083.2500      0.0000    711.5277      8.3394    113.0209
  1083.5000      0.0000    707.7278      8.4569    109.2593
  1083.7500      0.0000    703.9925      8.4368    104.6399
  1084.0000      0.0000    701.5424      8.2800    100.6389
  1084.2500      0.0000    699.7206      8.0262     98.2656
  1084.5000      0.0000    696.8243      7.7495     97.2600
  1084.7500      0.0000    692.2496      7.5503     96.5508
  1085.0000      0.0000    687.1935      7.5198     95.0551
  1085.2500      0.0000    683.3055      7.6882     92.1941
  1085.5000      0.0000    681.3887      7.9963     88.2666
  1085.7500      0.0000    681.5040      8.3201     84.3260
  1086.0000      0.0000    683.6248      8.5348     81.2387
  1086.2500      0.0000    687.5832      8.5721     79.0537
  1086.5000      0.0000    692.3546      8.4320     77.5863
  1086.7500      0.0000    695.8965      8.1604     77.1842
  1087.0000      0.0000    696.3754      7.8240     78.4689
  1087.2500      0.0000    693.7801      7.5022     81.6102
  1087.5000      0.0000    690.0554      7.2779     86.1910
  1087.7500      0.0000    687.4986      7.2103     91.4617
  1088.0000      0.0000    686.9682      7.3025     96.3127
  1088.2500      0.0000    686.8235      7.4926     99.2927
  1088.5000      0.0000    683.2869      7.6858     99.4123
  1088.7500      0.0000    673.2813      7.8073     97.1585
  1089.0000      0.0000    658.5897      7.8365     94.2939
  1089.2500      0.0000    646.5713      7.8010     92.3945
  1089.5000      0.0000    645.0630      7.7418     91.7265
  1089.7500      0.0000    656.0187      7.6842     91.6598
  1090.0000      0.0000    673.8348      7.6365     91.8649
  1090.2500      0.0000    689.4404      7.6100     92.6527
  1090.5000      0.0000    696.7034      7.6310     94.3127
  1090.7500      0.0000    695.9438      7.7267     96.8338
  1091.0000      0.0000    691.9664      7.8994    100.3485
  1091.2500      0.0000    689.2847      8.1201    105.2181
  1091.5000      0.0000    688.6473      8.3495    111.3655
  1091.7500      0.0000    685.7357      8.5635    117.7657
  1092.0000      0.0000    671.8818      8.7597    122.7510
  1092.2500      0.0000    638.3874      8.9415    124.9832
  1092.5000      0.0000    584.1057      9.1003    124.5702
  1092.7500      0.0000    519.5604      9.2153    123.3400
  1093.0000      0.0000    461.3022      9.2724    123.5929
  1093.2500      0.0000    420.7969      9.2797    126.2644
  1093.5000      0.0000    398.9211      9.2649    130.3195
  1093.7500      0.0000    389.6328      9.2580    133.8570
  1094.0000      0.0000    386.4164      9.2733    135.4964
  1094.2500      0.0000    385.4587      9.3026    134.6922
  1094.5000      0.0000    385.5394      9.3236    131.4628
  1094.7500      0.0000    387.3044      9.3159    126.6304
  1095.0000      0.0000    393.4452      9.2730    122.0145
  1095.2500      0.0000    409.1750      9.2028    119.4329
  1095.5000      0.0000    440.8298      9.1180    119.2340
  1095.7500      0.0000    491.1597      9.0283    120.1096
  1096.0000      0.0000    554.3348      8.9391    120.3976
  1096.2500      0.0000    616.6595      8.8566    119.2907
  1096.5000      0.0000    664.2990      8.7894    116.6387
  1096.7500      0.0000    691.2872      8.7452    112.1310
  1097.0000      0.0000    701.0203      8.7232    105.6569
  1097.2500      0.0000    701.8423      8.7106     98.5350
  1097.5000      0.0000    701.6055      8.6889     93.3625
