~Version Information
VERS.                      2.0: CWLS Log ASCII Standard - VERSION 2.0
WRAP.                       NO: One line per depth step
~Well Information Block
STRT.FT                -4.0000: 
STOP.FT               675.2500: 
STEP.FT                 0.2500: 
NULL.                -999.2500: 
COMP.          Pioneer Natural Resources: COMPANY
WELL.          Razor Clam 23-27: WELL
FLD.           Purgatoire River: FIELD
LOC.           2499' FSL & 2636' FWL: LOCATION
CNTY.               Las Animas: COUNTY
SRVC.                         : SERVICE COMPANY
DATE.          Thu Mar 09 13:15:19 2006: LOG DATE
UWI.           05 071 08667 00: UNIQUE WELL ID
STAT.                       CO: STATE
~Curve Information Block
DEPT.FT            0 000 00 00: Depth
GR.GAPI                       : Gamma Ray
CCL.                          : Casing Collar Locator
TT3.usec                      : CBL 3' Travel Time
AMP3.mV                       : CBL 3' Amplitude
~Parameter Information Block
~A  Depth        GR         CCL         TT3         AMP3    
# ...
   465.0000     85.3949      0.0000    697.3598     11.6414
   465.2500     88.9814      0.0000    687.5412     10.6076
   465.5000     93.5378      0.0000    688.0383      9.3057
   465.7500     98.6503      0.0000    701.2693      7.8678
   466.0000    104.1125      0.0000    720.2866      6.4601
   466.2500    109.6365      0.0000    734.9362      5.2142
   466.5000    114.6422      0.0000    740.5957      4.1794
   466.7500    118.2900      0.0000    739.3334      3.3366
   467.0000    119.5199      0.0000    734.7998      2.6493
   467.2500    117.1068      0.0000    728.5903      2.0982
   467.5000    110.2768      0.0000    720.3761      1.6814
   467.7500     99.7914      0.0000    709.5720      1.3972
   468.0000     88.2102      0.0000    697.1919      1.2291
   468.2500     78.6203      0.0000    686.5123      1.1480
   468.5000     72.8413      0.0000    681.1278      1.1299
   468.7500     70.6681      0.0000    682.2357      1.1721
   469.0000     70.6577      0.0000    688.3069      1.2932
   469.2500     71.5971      0.0000    697.0207      1.5219
   469.5000     73.2537      0.0000    706.6422      1.8873
   469.7500     75.9446      0.0000    715.8170      2.4180
   470.0000     79.7338      0.0000    723.5044      3.1424
   470.2500     84.1934      0.0000    729.5372      4.0805
   470.5000     88.7516      0.0000    733.4826      5.2272
   470.7500     93.1055      0.0000    732.5097      6.5349
   471.0000     97.4565      0.0000    723.2867      7.9063
   471.2500    102.5685      0.0000    707.7189      9.2079
   471.5000    109.2171      0.0000    693.7764     10.3187
   471.7500    116.9030      0.0000    687.5305     11.1929
   472.0000    123.2565      0.0000    686.6828     11.8747
   472.2500    125.4349      0.0000    685.4515     12.4151
   472.5000    122.3154      0.0000    684.2599     12.7480
   472.7500    115.3175      0.0000    690.3022     12.6885
   473.0000    107.4223      0.0000    707.7796     12.1349
   473.2500    101.5119      0.0000    731.1887     11.2840
   473.5000     98.9970      0.0000    750.6065     10.5607
   473.7500     99.2926      0.0000    761.2096     10.2823
   474.0000    100.4947      0.0000    764.8248     10.4168
   474.2500    100.8235      0.0000    764.3340     10.6778
   474.5000     99.7349     -2.0000    760.0635     10.7991
   474.7500     98.1130      0.0000    750.8471     10.6908
   475.0000     97.5324      0.0000    735.9251     10.3954
   475.2500     98.9588      0.0000    716.3431      9.9656
   475.5000    101.9731      0.0000    696.2868      9.3845
   475.7500    105.2944      0.0000    682.4262      8.5887
   476.0000    107.6581      0.0000    680.5715      7.5863
   476.2500    107.9409      0.0000    692.3677      6.5358
   476.5000    105.1041      0.0000    714.3395      5.6592
   476.7500     98.8086      0.0000    738.8937      5.0810
   477.0000     90.1059      0.0000    757.3703      4.7809
   477.2500     81.1924      0.0000    764.8760      4.6767
   477.5000     74.4567      0.0000    762.3759      4.7084
   477.7500     71.6157      0.0000    753.2068      4.8627
   478.0000     73.0314      0.0000    739.1885      5.1719
   478.2500     77.3174      0.0000    721.7783      5.7039
   478.5000     82.1030      0.0000    704.8813      6.5250
   478.7500     85.7915      0.0000    693.7805      7.6448
   479.0000     88.4838      0.0000    691.4016      8.9907
   479.2500     91.2658      0.0000    696.5355     10.4319
   479.5000     95.0745      0.0000    705.2550     11.8258
   479.7500    100.0761      0.0000    713.5660     13.0465
   480.0000    105.3918      0.0000    719.2828     13.9927
   480.2500    109.3340      0.0000    722.2467     14.5922
   480.5000    110.3419      0.0000    723.3617     14.8247
   480.7500    107.9133      0.0000    723.5680     14.7546
   481.0000    102.8880      0.0000    723.4377     14.5281
   481.2500     97.2820      0.0000    723.2344     14.3089
   481.5000     93.6238      0.0000    723.0611     14.2045
   481.7500     93.4008      0.0000    722.9135     14.2395
   482.0000     95.6737      0.0000    722.6552     14.3936
   482.2500     97.8664      0.0000    721.9776     14.6478
   482.5000     98.3996      0.0000    720.5314     14.9808
   482.7500     97.9928      0.0000    718.3597     15.3349
   483.0000     98.0595      0.0000    716.2958     15.6225
   483.2500     98.6662      0.0000    715.6095     15.7812
   483.5000     98.9025      0.0000    716.9150     15.8144
   483.7500     98.6671      0.0000    719.5449     15.7682
   484.0000     98.8670      0.0000    722.1946     15.6686
   484.2500     99.8262      0.0000    724.0047     15.4846
   484.5000    100.4792      0.0000    724.9055     15.1625
   484.7500     99.5756      0.0000    725.2304     14.7123
   485.0000     97.3762      0.0000    725.2867     14.2555
   485.2500     95.7789      0.0000    725.2171     13.9630
   485.5000     96.5431      0.0000    725.0576     13.9403
   485.7500     99.4165      0.0000    724.8257     14.1828
   486.0000    102.2969      0.0000    724.5656     14.6167
   486.2500    103.2986      0.0000    724.3214     15.1397
   486.5000    102.3914      0.0000    724.0918     15.6343
   486.7500    101.0023      0.0000    723.8340     16.0048
   487.0000    100.4533      0.0000    723.5248     16.2273
   487.2500    100.8905      0.0000    723.2040     16.3399
   487.5000    101.3998      0.0000    722.9463     16.3763
   487.7500    100.8346      0.0000    722.8001     16.3340
   488.0000     98.4450      0.0000    722.7549     16.2133
   488.2500     94.0535      0.0000    722.7628     16.0526
   488.5000     88.3181      0.0000    722.7893     15.8925
   488.7500     82.9711      0.0000    722.8319     15.7203
   489.0000     80.2625      0.0000    722.8883     15.4855
   489.2500     81.6665      0.0000    722.9344     15.1693
   489.5000     87.0179      0.0000    722.9570     14.8144
   489.7500     94.6667      0.0000    722.9846     14.4937
   490.0000    102.2124      0.0000    723.0566     14.2659
   490.2500    107.3671      0.0000    723.1611     14.1545
   490.5000    108.7934      0.0000    723.2276     14.1533
   490.7500    106.4577      0.0000    723.1922     14.2429
   491.0000    101.2178      0.0000    723.0609     14.3951
   491.2500     94.3336      0.0000    722.9019     14.5724
   491.5000     87.6427      0.0000    722.7809     14.7283
   491.7500     83.6088      0.0000    722.7135     14.8149
   492.0000     84.0210      0.0000    722.6749     14.8091
   492.2500     88.2139      0.0000    722.6394     14.7467
   492.5000     93.1864      0.0000    722.6028     14.7119
   492.7500     95.9846      0.0000    722.5759     14.7688
   493.0000     95.9158      0.0000    722.5677     14.9062
   493.2500     94.3870      0.0000    722.5778     15.0493
   493.5000     93.0650      0.0000    722.6002     15.1153
   493.7500     92.6547      0.0000    722.6292     15.0771
   494.0000     93.2278      0.0000    722.6622     14.9924
   494.2500     94.9272      0.0000    722.6936     14.9580
   494.5000     97.7694      0.0000    722.7056     15.0203
   494.7500    101.0942      0.0000    722.6741     15.1407
   495.0000    103.8729      0.0000    722.5939     15.2507
   495.2500    105.4418      0.0000    722.4988     15.3142
   495.5000    105.3802      0.0000    722.4492     15.3332
   495.7500    102.9855      0.0000    722.4952     15.3279
   496.0000     97.8054      0.0000    722.6463     15.3236
   496.2500     90.8320      0.0000    722.8635     15.3260
   496.5000     84.5456      0.0000    723.0784     15.2946
   496.7500     81.3739      0.0000    723.2256     15.1726
   497.0000     82.0229      0.0000    723.2767     14.9558
   497.2500     85.0900      0.0000    723.2551     14.7087
   497.5000     88.1557      0.0000    723.2087     14.5045
   497.7500     89.4156      0.0000    723.1593     14.3735
   498.0000     88.7623      0.0000    723.0897     14.3055
   498.2500     87.5985      0.0000    722.9849     14.2773
