~Version Information
VERS.                      2.0: CWLS Log ASCII Standard - VERSION 2.0
WRAP.                       NO: One line per depth step
~Well Information Block
STRT.FT               687.7500: 
STOP.FT              1252.7500: 
STEP.FT                 0.2500: 
NULL.                -999.2500: 
COMP.          Pioneer Natural Resources: COMPANY
WELL.          Rock Island 44-24 Tr: WELL
FLD.           Purgatoire River: FIELD
LOC.           814' FSL & 761' FEL--: LOCATION
CNTY.               Las Animas: COUNTY
SRVC.                Patterson: SERVICE COMPANY
DATE.          Wed Apr 19 21:31:44 2006: LOG DATE
UWI.           05 071 08680 00: UNIQUE WELL ID
STAT.                 Colorado: STATE
~Curve Information Block
DEPT.FT            0 000 00 00: Depth
DIR.Ohm-m                     : IEL Induction Resistivity
GR.GAPI                       : Gamma Ray
~Parameter Information Block
~A  Depth       DIR          GR     
# ...
   855.0000     10.1357    121.9099
   855.2500     10.1706    122.7229
   855.5000     10.1997    125.4570
   855.7500     10.2344    128.1254
   856.0000     10.2783    132.2558
   856.2500     10.3282    134.2767
   856.5000     10.3772    135.2016
   856.7500     10.4201    134.2141
   857.0000     10.4584    130.7755
   857.2500     10.5046    127.9861
   857.5000     10.5794    124.9775
   857.7500     10.7057    124.5090
   858.0000     10.9006    125.7849
   858.2500     11.1694    127.0302
   858.5000     11.5052    127.9639
   858.7500     11.8927    127.6084
   859.0000     12.3157    125.9586
   859.2500     12.7649    124.5870
   859.5000     13.2383    122.7082
   859.7500     13.7360    121.4930
   860.0000     14.2537    118.8276
   860.2500     14.7802    115.9048
   860.5000     15.2989    109.8253
   860.7500     15.7886    105.5286
   861.0000     16.2217    100.9127
   861.2500     16.5598     99.9623
   861.5000     16.7542    101.8019
   861.7500     16.7525    104.4065
   862.0000     16.5134    108.3505
   862.2500     16.0270    110.1610
   862.5000     15.3273    111.7621
   862.7500     14.4869    112.8341
   863.0000     13.5937    115.4827
   863.2500     12.7230    117.9346
   863.5000     11.9231    121.9464
   863.7500     11.2158    124.4667
   864.0000     10.6056    127.6518
   864.2500     10.0879    129.2621
   864.5000      9.6544    130.9398
   864.7500      9.2944    131.7868
   865.0000      8.9975    133.0750
   865.2500      8.7553    133.9652
   865.5000      8.5631    135.0739
   865.7500      8.4197    135.5934
   866.0000      8.3258    136.1456
   866.2500      8.2814    136.2981
   866.5000      8.2836    135.8607
   866.7500      8.3252    135.1426
   867.0000      8.3956    134.0391
   867.2500      8.4820    133.5728
   867.5000      8.5728    132.9346
   867.7500      8.6619    132.1145
   868.0000      8.7513    130.2412
   868.2500      8.8517    129.0998
   868.5000      8.9780    128.5910
   868.7500      9.1424    129.2375
   869.0000      9.3460    131.1482
   869.2500      9.5729    132.5081
   869.5000      9.7878    133.8392
   869.7500      9.9406    133.8387
   870.0000      9.9819    131.7289
   870.2500      9.8881    128.5678
   870.5000      9.6819    121.4808
   870.7500      9.4307    116.0011
   871.0000      9.2272    108.5363
   871.2500      9.1800    105.0064
   871.5000      9.4449    102.6501
   871.7500     10.3368    102.8824
   872.0000     12.7193    105.0572
   872.2500     20.2801    107.2788
   872.5000    106.5091    111.3792
   872.7500 100000.0000    114.3558
   873.0000 100000.0000    118.3240
   873.2500 100000.0000    120.0994
   873.5000 100000.0000    120.8958
   873.7500 100000.0000    120.0982
   874.0000 100000.0000    117.3918
   874.2500 100000.0000    115.4860
   874.5000 100000.0000    114.7115
   874.7500 100000.0000    116.4515
   875.0000     23.9055    121.9643
   875.2500     11.8000    126.4113
   875.5000      8.1464    132.3566
   875.7500      6.3782    135.4028
   876.0000      5.4269    138.7477
   876.2500      5.1086    140.2407
   876.5000      5.6569    140.9395
   876.7500      8.5888    140.0260
   877.0000     53.5214    136.6381
   877.2500 100000.0000    133.5469
   877.5000 100000.0000    128.8975
   877.7500 100000.0000    126.5167
   878.0000 100000.0000    125.0773
   878.2500 100000.0000    125.6906
   878.5000     61.4420    127.7616
   878.7500      1.5232    128.5716
   879.0000      0.4898    126.9114
   879.2500      0.1868    123.4189
   879.5000      0.0733    115.1881
   879.7500      0.0348    108.8263
   880.0000      0.0228    100.9184
   880.2500      0.0217     98.4167
   880.5000      0.0299     99.6531
   880.7500      0.0584    102.4002
   881.0000      0.1457    104.8162
   881.2500      0.3911    103.0011
   881.5000      1.2099     94.5007
   881.7500     35.2127     86.5405
   882.0000 100000.0000     74.9316
   882.2500 100000.0000     69.0317
   882.5000 100000.0000     64.0306
   882.7500 100000.0000     63.2409
   883.0000 100000.0000     65.3719
   883.2500     29.0313     68.4107
   883.5000      3.5072     73.5923
   883.7500      2.0529     76.1248
   884.0000      1.8864     76.7809
   884.2500      2.6867     74.8748
   884.5000     11.7806     69.3869
   884.7500 100000.0000     64.8532
   885.0000 100000.0000     58.1531
   885.2500 100000.0000     54.3882
   885.5000 100000.0000     50.5209
   885.7500 100000.0000     49.2692
   886.0000 100000.0000     49.0535
   886.2500 100000.0000     49.5872
   886.5000 100000.0000     50.5757
   886.7500 100000.0000     51.0012
   887.0000 100000.0000     51.2594
   887.2500 100000.0000     51.5967
   887.5000      2.9536     53.4325
   887.7500      0.7965     55.9828
   888.0000      0.4120     61.7886
   888.2500      0.2778     66.6423
   888.5000      0.2379     74.6975
   888.7500      0.2569     80.2051
   889.0000      0.3364     88.0976
   889.2500      0.5032     92.9482
   889.5000      0.8114     99.7234
   889.7500      1.2636    103.9169
   890.0000      1.4118    108.9874
   890.2500      0.9222    110.8610
   890.5000      0.4496    111.0243
   890.7500      0.1902    109.9539
   891.0000      0.0723    107.9288
   891.2500      0.0290    106.4716
   891.5000      0.0141    103.4258
   891.7500      0.0084    100.7077
   892.0000      0.0060     96.9981
   892.2500      0.0049     96.0324
   892.5000      0.0046     97.8305
   892.7500      0.0049    100.5714
   893.0000      0.0061    104.8440
   893.2500      0.0095    106.9251
   893.5000      0.0188    109.1645
   893.7500      0.0468    110.9833
   894.0000      0.1306    115.4212
   894.2500      0.3438    119.2925
   894.5000      0.8463    124.7047
   894.7500      2.3318    127.1104
   895.0000      8.0806    128.8622
   895.2500     16.7468    129.5517
   895.5000      7.9537    131.0516
   895.7500      3.8978    132.3644
   896.0000      2.5540    133.8012
   896.2500      2.0888    133.7198
   896.5000      2.0378    131.2841
   896.7500      2.3272    128.0242
   897.0000      3.1340    121.2540
   897.2500      5.2843    116.2038
   897.5000     15.0354    109.0965
   897.7500 100000.0000    105.1005
   898.0000 100000.0000    100.3130
   898.2500 100000.0000     97.6476
   898.5000 100000.0000     93.4494
   898.7500 100000.0000     89.9548
   899.0000 100000.0000     83.7574
   899.2500 100000.0000     79.8565
   899.5000 100000.0000     76.3617
   899.7500 100000.0000     76.3749
   900.0000 100000.0000     80.0937
   900.2500 100000.0000     84.7322
   900.5000 100000.0000     93.9515
   900.7500     38.4635    100.6129
   901.0000     14.9370    109.1595
   901.2500     10.5632    112.9431
   901.5000      9.1627    115.6739
   901.7500      8.8464    116.2065
   902.0000      9.0879    116.2788
   902.2500      9.6574    116.1786
   902.5000     10.4030    115.9474
   902.7500     11.1995    115.8454
   903.0000     11.9510    115.9682
   903.2500     12.6014    116.0904
   903.5000     13.1311    115.5401
   903.7500     13.5426    114.3214
   904.0000     13.8540    111.5154
   904.2500     14.0977    109.4798
   904.5000     14.3172    106.3872
   904.7500     14.5579    103.8892
   905.0000     14.8576     98.7756
   905.2500     15.2412     94.4892
   905.5000     15.7219     87.4205
   905.7500     16.3050     82.7283
   906.0000     16.9894     76.3941
   906.2500     17.7652     73.0437
   906.5000     18.6087     69.8839
   906.7500     19.4781     69.0194
   907.0000     20.3198     68.8990
   907.2500     21.0862     69.0687
   907.5000     21.7583     69.1890
   907.7500     22.3560     69.2201
   908.0000     22.9233     69.6092
   908.2500     23.5024     70.3165
   908.5000     24.1115     71.9622
   908.7500     24.7397     73.0036
   909.0000     25.3595     73.4215
   909.2500     25.9456     72.6163
   909.5000     26.4896     70.2791
   909.7500     27.0004     68.6165
   910.0000     27.4907     66.6384
   910.2500     27.9565     65.5123
   910.5000     28.3586     63.4850
