~Version Information
VERS.                      2.0: CWLS Log ASCII Standard - VERSION 2.0
WRAP.                       NO: One line per depth step
~Well Information Block
STRT.FT               555.0000: 
STOP.FT              1158.0000: 
STEP.FT                 0.1000: 
NULL.                -999.2500: 
COMP.          Pioneer Natural Resources: COMPANY
WELL.              Draco 31-21: WELL
FLD.           Purgatoire River: FIELD
LOC.           491' FNL & 2446' FEL: LOCATION
CNTY.               Las Animas: COUNTY
SRVC.                Patterson: SERVICE COMPANY
DATE.          Wed Feb 01 07:01:32 2006: LOG DATE
UWI.           05 071 08672 00: UNIQUE WELL ID
STAT.                 Colorado: STATE
~Curve Information Block
DEPT.FT            0 000 00 00: Depth
DCAL.in                       : CDL Caliper
RHOB.g/cc                     : CDL Bulk Density
RHOC.g/cc                     : CDL Density Correction
DPOR.pu                       : CDL Density Porosity
GR.GAPI                       : Gamma Ray
NPOR.pu                       : Neutron Porosity
~Parameter Information Block
~A  Depth       DCAL        RHOB        RHOC        DPOR         GR         NPOR    
# ...
   910.2000      7.9114      2.6015      0.0456      2.9399     57.0375     22.9983
   910.3000      7.9115      2.6053      0.0409      2.7094     52.1528     23.1554
   910.4000      7.9115      2.5950      0.0502      3.3363     48.4025     23.4416
   910.5000      7.9120      2.5754      0.0260      4.5192     48.7505     24.2525
   910.6000      7.9120      2.5572     -0.0050      5.6261     51.0063     25.1973
   910.7000      7.9120      2.5394      0.0231      6.7042     54.6137     26.2485
   910.8000      7.9176      2.5159     -0.0189      8.1269     63.7438     27.4193
   910.9000      7.9176      2.4901     -0.0253      9.6906     76.7559     28.0149
   911.0000      7.9125      2.4552      0.0431     11.8066     86.3392     27.6385
   911.1000      7.9125      2.3914     -0.0063     15.6697     91.1087     27.0492
   911.2000      7.9125      2.2976     -0.0263     21.3547     92.8606     27.6833
   911.3000      7.9161      2.1904     -0.0700     27.8563     90.0872     29.7691
   911.4000      7.9161      2.0806     -0.0628     34.5103     83.0054     31.7327
   911.5000      7.9209      1.9718     -0.1086     41.1017     76.3692     32.2524
   911.6000      7.9209      1.8660     -0.1103     47.5146     73.5777     31.9441
   911.7000      7.9209      1.7559     -0.1311     54.1891     71.6911     31.8898
   911.8000      7.9306      1.6425     -0.1352     61.0602     68.0646     31.9776
   911.9000      7.9306      1.5471     -0.1269     66.8450     63.9575     31.9062
   912.0000      7.9398      1.4840     -0.0595     70.6671     59.3722     32.0111
   912.1000      7.9398      1.4581     -0.0754     72.2373     54.8215     32.4962
   912.2000      7.9398      1.4814     -0.0174     70.8230     53.3392     32.9286
   912.3000      7.9654      1.5545      0.0465     66.3967     57.1221     32.8967
   912.4000      7.9654      1.6537      0.1147     60.3848     63.0089     32.6882
   912.5000      7.9323      1.7599      0.1041     53.9428     66.4545     32.7912
   912.6000      7.9323      1.8751      0.1466     46.9611     68.7723     33.0039
   912.7000      7.9323      1.9923      0.2005     39.8584     72.4417     32.5832
   912.8000      7.9266      2.0949      0.1848     33.6416     76.0668     31.5460
   912.9000      7.9266      2.1853      0.1723     28.1666     78.5641     30.8075
   913.0000      7.9040      2.2701      0.1675     23.0270     81.3600     30.7417
   913.1000      7.9040      2.3405      0.1536     18.7583     83.9082     31.1307
   913.2000      7.9040      2.3856      0.1165     16.0262     83.9197     31.6457
   913.3000      7.8989      2.4063      0.0803     14.7678     84.6300     31.9580
   913.4000      7.8989      2.4140      0.0629     14.3028     92.9452     32.0397
   913.5000      7.8992      2.4211      0.0590     13.8755    105.8716     32.1915
   913.6000      7.8992      2.4361      0.0755     12.9666    111.7458     32.4429
   913.7000      7.8992      2.4586      0.0718     11.6026    107.8692     32.1479
   913.8000      7.8945      2.4765      0.0863     10.5139    102.1884     30.8944
   913.9000      7.8945      2.4770      0.0500     10.4879    100.8023     29.5237
   914.0000      7.8970      2.4574      0.0511     11.6714    102.4535     28.9818
   914.1000      7.8970      2.4249      0.0456     13.6413    104.1848     28.8013
   914.2000      7.8970      2.3910      0.0177     15.6954    107.2761     28.3741
   914.3000      7.8981      2.3626      0.0061     17.4176    112.0223     28.2692
   914.4000      7.8981      2.3429     -0.0345     18.6121    115.4629     28.7574
   914.5000      7.8965      2.3320      0.0051     19.2745    116.7440     29.4873
   914.6000      7.8965      2.3188      0.0303     20.0751    115.7491     30.4084
   914.7000      7.8965      2.2965      0.0229     21.4219    113.6918     31.5506
   914.8000      7.8976      2.2704      0.0310     23.0054    112.6669     32.7241
   914.9000      7.8976      2.2495     -0.0093     24.2710    112.3849     33.3791
   915.0000      7.8989      2.2410      0.0206     24.7907    112.1638     33.2626
   915.1000      7.8989      2.2413      0.0429     24.7707    110.0857     32.8165
   915.2000      7.8989      2.2464      0.0665     24.4630    104.2116     32.1705
   915.3000      7.9021      2.2553      0.0971     23.9196     96.5200     31.4408
   915.4000      7.9021      2.2619      0.1059     23.5193     91.3091     31.1424
   915.5000      7.8981      2.2495      0.1180     24.2757     90.1111     31.3493
   915.6000      7.8981      2.2012      0.0764     27.2030     90.2218     31.6987
   915.7000      7.8981      2.1261      0.0091     31.7506     88.1692     31.8850
   915.8000      7.8982      2.0527     -0.0171     36.2003     85.4011     32.0528
   915.9000      7.8982      1.9911     -0.0036     39.9358     84.0922     32.3391
   916.0000      7.8975      1.9295     -0.0113     43.6674     81.7684     32.1538
   916.1000      7.8975      1.8659     -0.0460     47.5202     76.8375     31.3538
   916.2000      7.8975      1.8144     -0.0401     50.6435     70.3199     30.7958
   916.3000      7.9111      1.7884     -0.0612     52.2169     63.3214     31.0574
   916.4000      7.9111      1.7960     -0.0240     51.7557     59.2271     31.4697
   916.5000      7.8775      1.8339      0.0324     49.4609     61.3838     31.4510
   916.6000      7.8775      1.8864      0.0819     46.2778     66.9609     31.7446
   916.7000      7.8775      1.9406      0.1067     42.9923     71.1666     32.4411
   916.8000      7.8710      1.9952      0.1293     39.6861     75.3002     32.8145
   916.9000      7.8710      2.0533      0.1270     36.1661     81.3296     32.7410
   917.0000      7.8696      2.1158      0.1418     32.3727     85.3306     32.3652
   917.1000      7.8696      2.1778      0.1369     28.6185     83.8562     31.6816
   917.2000      7.8696      2.2299      0.1058     25.4615     79.9823     31.0865
   917.3000      7.8697      2.2707      0.0790     22.9867     77.4727     30.9640
   917.4000      7.8697      2.3117      0.0770     20.5014     74.9677     31.1024
   917.5000      7.8828      2.3649      0.1012     17.2812     72.5503     31.1110
   917.6000      7.8828      2.4316      0.1239     13.2353     72.3819     30.9043
   917.7000      7.8828      2.4994      0.1582      9.1274     72.0038     30.3487
   917.8000      7.8690      2.5512      0.1209      5.9859     71.9002     29.4737
   917.9000      7.8690      2.5871      0.1146      3.8139     73.9408     28.6072
   918.0000      7.8637      2.6149      0.1382      2.1266     74.1894     27.7022
   918.1000      7.8637      2.6323      0.1238      1.0745     70.7860     26.9259
   918.2000      7.8637      2.6335      0.0905      0.9996     65.4081     26.6035
   918.3000      7.8628      2.6164      0.0871      2.0367     60.3237     26.3940
   918.4000      7.8628      2.5880      0.0060      3.7581     57.9438     26.2976
   918.5000      7.8636      2.5622      0.0140      5.3222     58.4788     26.4809
   918.6000      7.8636      2.5419      0.0205      6.5510     60.2855     26.8266
   918.7000      7.8636      2.5202      0.0181      7.8663     62.2876     27.1671
   918.8000      7.8631      2.4971     -0.0025      9.2687     65.0020     27.0289
   918.9000      7.8631      2.4833     -0.0328     10.1034     71.2693     26.6557
   919.0000      7.8627      2.4827     -0.0023     10.1369     80.6052     26.5789
   919.1000      7.8627      2.4918     -0.0063      9.5908     86.8809     26.5626
   919.2000      7.8627      2.5013      0.0462      9.0131     86.1780     26.9199
   919.3000      7.8575      2.4923      0.0415      9.5587     83.2517     27.8707
   919.4000      7.8575      2.4710      0.0133     10.8484     85.0919     28.4167
   919.5000      7.8564      2.4718      0.0213     10.7982     91.0454     28.2162
   919.6000      7.8564      2.4952      0.0753      9.3809     99.5409     28.1526
   919.7000      7.8564      2.5058      0.1192      8.7395    109.5254     28.8150
