~Version Information
VERS.                      2.0: CWLS Log ASCII Standard - VERSION 2.0
WRAP.                       NO: One line per depth step
~Well Information Block
STRT.FT               370.0000: 
STOP.FT              2831.7500: 
STEP.FT                 0.2500: 
NULL.                -999.2500: 
COMP.          Pioneer Natural Resources: COMPANY
WELL.          Black Cat 13-32: WELL
FLD.           Purgatoire River: FIELD
LOC.           1865' FSL & 1120' FWL--: LOCATION
PROV.                 Colorado: PROVINCE
CNTY.               Las Animas: COUNTRY
SRVC.                Patterson: SERVICE COMPANY
DATE.          Sun Jul 31 08:49:16 2005: LOG DATE
UWI.           05 071 08450 00: UNIQUE WELL ID
~Curve Information Block
DEPT.FT            0 000 00 00: Depth
DIR.Ohm-m                     : IEL Induction Resistivity
SN.Ohm-m                      : IEL Short Normal
SP.mV                         : IEL Spontaneous Potential
GR.GAPI                       : Gamma Ray
~Parameter Information Block
~A  Depth       DIR          SN          SP          GR     
# ...
  2480.5000     16.5955     16.6517    195.8884    103.3194
  2480.7500     16.7345     16.5801    195.6428     98.1849
  2481.0000     16.8957     16.5566    195.3939     92.4238
  2481.2500     17.0749     16.6106    195.1477     89.6796
  2481.5000     17.2579     16.7647    194.9047     87.7306
  2481.7500     17.4250     17.0251    194.6612     88.6330
  2482.0000     17.5620     17.3702    194.4112     93.4118
  2482.2500     17.6681     17.7511    194.1482     97.6393
  2482.5000     17.7553     18.1132    193.8684    102.6775
  2482.7500     17.8427     18.4265    193.5722    104.3166
  2483.0000     17.9523     18.6979    193.2662    104.4603
  2483.2500     18.1049     18.9538    192.9636    103.4420
  2483.5000     18.3140     19.2113    192.6831    100.3597
  2483.7500     18.5763     19.4605    192.4473     96.9463
  2484.0000     18.8668     19.6683    192.2796     89.3747
  2484.2500     19.1422     19.7971    192.2009     83.2874
  2484.5000     19.3541     19.8241    192.2266     75.5905
  2484.7500     19.4616     19.7509    192.3636     73.4446
  2485.0000     19.4362     19.5979    192.6091     76.1253
  2485.2500     19.2579     19.3859    192.9508     80.9505
  2485.5000     18.9106     19.1188    193.3675     89.5743
  2485.7500     18.3862     18.7840    193.8324     94.6240
  2486.0000     17.6945     18.3685    194.3161    100.0634
  2486.2500     16.8700     17.8751    194.7904    102.6542
  2486.5000     15.9669     17.3232    195.2316    106.4017
  2486.7500     15.0460     16.7392    195.6224    109.3658
  2487.0000     14.1596     16.1447    195.9536    114.6933
  2487.2500     13.3431     15.5524    196.2230    118.9492
  2487.5000     12.6143     14.9642    196.4350    126.9104
  2487.7500     11.9777     14.3713    196.5973    133.0742
  2488.0000     11.4275     13.7552    196.7194    141.4757
  2488.2500     10.9504     13.0948    196.8087    144.9899
  2488.5000     10.5282     12.3817    196.8695    146.3438
  2488.7500     10.1422     11.6338    196.9005    145.3600
  2489.0000      9.7780     10.8967    196.8955    142.6699
  2489.2500      9.4289     10.2277    196.8433    140.6266
  2489.5000      9.0945      9.6736    196.7297    137.6754
  2489.7500      8.7781      9.2608    196.5399    135.9315
  2490.0000      8.4843      9.0009    196.2613    133.7945
  2490.2500      8.2185      8.8978    195.8858    132.7271
  2490.5000      7.9879      8.9438    195.4128    131.5808
  2490.7500      7.8006      9.1076    194.8508    131.0234
  2491.0000      7.6651      9.3341    194.2178    130.4232
  2491.2500      7.5884      9.5611    193.5414    129.9983
  2491.5000      7.5758      9.7436    192.8559    128.3419
  2491.7500      7.6306      9.8649    192.1999    125.9225
  2492.0000      7.7537      9.9280    191.6110    120.4478
  2492.2500      7.9421      9.9364    191.1217    116.6555
  2492.5000      8.1881      9.8808    190.7546    113.3342
  2492.7500      8.4788      9.7451    190.5194    113.5057
  2493.0000      8.7970      9.5273    190.4119    116.1403
  2493.2500      9.1245      9.2654    190.4143    117.6595
  2493.5000      9.4452      9.0489    190.4979    117.1633
  2493.7500      9.7477      9.0044    190.6276    115.2064
  2494.0000     10.0266      9.2512    190.7660    112.6711
  2494.2500     10.2811      9.8427    190.8789    112.8777
  2494.5000     10.5107     10.7263    190.9387    116.4855
  2494.7500     10.7107     11.7503    190.9276    120.0844
  2495.0000     10.8736     12.7213    190.8386    125.0713
  2495.2500     10.9957     13.4797    190.6759    127.1172
  2495.5000     11.0829     13.9508    190.4528    127.1803
  2495.7500     11.1505     14.1507    190.1898    125.3346
  2496.0000     11.2158     14.1540    189.9111    121.7427
  2496.2500     11.2935     14.0506    189.6411    120.3932
  2496.5000     11.3943     13.9170    189.4005    121.2753
  2496.7500     11.5255     13.8089    189.2027    123.3555
  2497.0000     11.6890     13.7633    189.0503    126.8363
  2497.2500     11.8788     13.7989    188.9343    128.5153
  2497.5000     12.0798     13.9147    188.8341    130.0325
  2497.7500     12.2710     14.0902    188.7208    131.1742
  2498.0000     12.4319     14.2919    188.5622    134.4182
  2498.2500     12.5475     14.4843    188.3283    137.6230
  2498.5000     12.6107     14.6392    187.9966    142.7121
  2498.7500     12.6247     14.7414    187.5551    145.2765
  2499.0000     12.6059     14.7893    187.0028    146.6266
  2499.2500     12.5836     14.7943    186.3476    145.9730
  2499.5000     12.5937     14.7774    185.6033    144.4322
  2499.7500     12.6677     14.7603    184.7863    144.0652
  2500.0000     12.8227     14.7567    183.9127    144.4030
  2500.2500     13.0576     14.7723    182.9971    144.2018
  2500.5000     13.3555     14.8159    182.0522    141.5784
  2500.7500     13.6910     14.9059    181.0880    137.9452
  2501.0000     14.0398     15.0657    180.1125    130.1413
  2501.2500     14.3852     15.3087    179.1313    123.8907
  2501.5000     14.7189     15.6260    178.1477    113.6450
  2501.7500     15.0384     15.9858    177.1625    106.5870
  2502.0000     15.3451     16.3489    176.1747     96.7229
  2502.2500     15.6431     16.6908    175.1820     91.5117
  2502.5000     15.9344     17.0139    174.1815     87.1922
  2502.7500     16.2128     17.3397    173.1707     87.1079
  2503.0000     16.4602     17.6919    172.1479     90.5673
  2503.2500     16.6535     18.0826    171.1134     93.8343
  2503.5000     16.7797     18.5077    170.0702     96.9404
  2503.7500     16.8486     18.9502    169.0260     96.6427
  2504.0000     16.8919     19.3904    167.9942     93.0984
  2504.2500     16.9495     19.8182    166.9958     89.9655
  2504.5000     17.0545     20.2344    166.0613     86.4730
  2504.7500     17.2258     20.6391    165.2309     85.8136
  2505.0000     17.4703     21.0187    164.5541     87.7343
  2505.2500     17.7885     21.3387    164.0868     90.5774
  2505.5000     18.1735     21.5426    163.8864     95.3056
  2505.7500     18.6037     21.5532    164.0050     97.1158
  2506.0000     19.0309     21.2865    164.4810     95.4581
  2506.2500     19.3766     20.6829    165.3312     91.2683
  2506.5000     19.5477     19.7489    166.5449     82.7232
  2506.7500     19.4707     18.5795    168.0809     77.9615
  2507.0000     19.1257     17.3401    169.8687     76.1450
  2507.2500     18.5541     16.2136    171.8140     79.3489
  2507.5000     17.8347     15.3444    173.8085     88.8101
  2507.7500     17.0487     14.8074    175.7412     95.8608
  2508.0000     16.2570     14.6103    177.5104    104.1874
  2508.2500     15.4948     14.7112    179.0347    107.6583
  2508.5000     14.7799     15.0362    180.2594    111.0596
  2508.7500     14.1248     15.4936    181.1603    113.4310
  2509.0000     13.5451     15.9917    181.7412    118.3980
  2509.2500     13.0619     16.4581    182.0292    122.3767
  2509.5000     12.6979     16.8508    182.0677    128.1192
  2509.7500     12.4712     17.1551    181.9087    131.2569
  2510.0000     12.3909     17.3700    181.6070    134.2599
  2510.2500     12.4551     17.4946    181.2154    134.6735
  2510.5000     12.6516     17.5260    180.7831    131.9857
  2510.7500     12.9588     17.4697    180.3546    127.4998
  2511.0000     13.3480     17.3524    179.9692    116.8920
  2511.2500     13.7840     17.2183    179.6606    108.6030
  2511.5000     14.2248     17.1070    179.4553     98.2330
  2511.7500     14.6210     17.0260    179.3701     94.1639
  2512.0000     14.9173     16.9416    179.4106     91.3244
  2512.2500     15.0585     16.7968    179.5692     89.9004
  2512.5000     15.0028     16.5451    179.8254     87.0856
  2512.7500     14.7368     16.1743    180.1472     85.6331
  2513.0000     14.2845     15.7073    180.4943     86.7805
  2513.2500     13.7011     15.1875    180.8220     90.5054
  2513.5000     13.0543     14.6616    181.0853     99.1871
  2513.7500     12.4044     14.1670    181.2425    105.6320
