~Version Information
VERS.                      2.0: CWLS Log ASCII Standard - VERSION 2.0
WRAP.                       NO: One line per depth step
~Well Information Block
STRT.FT               240.0000: 
STOP.FT              1159.2000: 
STEP.FT                 0.1000: 
NULL.                -999.2500: 
COMP.          Pioneer Natural Resources: COMPANY
WELL.               Ryan 41-17: WELL
FLD.           Purgatoire River: FIELD
LOC.           822' FNL & 532' FEL--: LOCATION
CNTY.               Las Animas: COUNTY
SRVC.                Patterson: SERVICE COMPANY
DATE.          Fri Mar 17 07:19:36 2006: LOG DATE
UWI.           05 071 08719 00: UNIQUE WELL ID
STAT.                 Colorado: STATE
~Curve Information Block
DEPT.FT            0 000 00 00: Depth
DCAL.in                       : CDL Caliper
RHOB.g/cc                     : CDL Bulk Density
RHOC.g/cc                     : CDL Density Correction
DPOR.pu                       : CDL Density Porosity
NPOR.pu                       : Neutron Porosity
GR.GAPI                       : Gamma Ray
~Parameter Information Block
~A  Depth       DCAL        RHOB        RHOC        DPOR        NPOR         GR     
# ...
   355.2000      8.1689      1.7139      0.2298     56.7339      4.5528     86.2593
   355.3000      8.1883      1.8193      0.2326     50.3460      5.8451     88.0269
   355.4000      8.1883      1.9139      0.2366     44.6149      7.5142     87.9907
   355.5000      8.1840      2.0034      0.2773     39.1853      9.2871     88.3039
   355.6000      8.1840      2.0809      0.3088     34.4901     10.8349     92.8266
   355.7000      8.1840      2.1339      0.2834     31.2770     11.9707     99.5945
   355.8000      8.1433      2.1708      0.1799     29.0395     12.8979    106.5516
   355.9000      8.1433      2.2099      0.1446     26.6755     13.8370    114.3146
   356.0000      8.0697      2.2359      0.1404     25.0949     14.5054    119.8637
   356.1000      8.0697      2.2187      0.0588     26.1369     14.6643    119.9646
   356.2000      8.0697      2.1710     -0.0066     29.0326     14.7271    118.3835
   356.3000      7.9988      2.1373     -0.0526     31.0747     15.0256    121.0455
   356.4000      7.9988      2.1441      0.0370     30.6579     15.3558    128.2314
   356.5000      7.9643      2.1902      0.0452     27.8687     15.4899    134.8169
   356.6000      7.9643      2.2587      0.1663     23.7146     15.5800    136.8854
   356.7000      7.9643      2.3247      0.1497     19.7175     15.8933    137.4643
   356.8000      7.9559      2.3745      0.1460     16.6964     16.4017    140.0977
   356.9000      7.9559      2.4121      0.1266     14.4155     16.8602    141.8414
   357.0000      7.9568      2.4407      0.1523     12.6835     16.9595    142.4009
   357.1000      7.9568      2.4560      0.1438     11.7562     16.5615    144.3863
   357.2000      7.9568      2.4625      0.0848     11.3645     16.0093    144.9700
   357.3000      7.9546      2.4699      0.1015     10.9163     15.7902    141.4493
   357.4000      7.9546      2.4790      0.0489     10.3627     16.1184    135.8387
   357.5000      7.9369      2.4943      0.0468      9.4381     16.8236    129.6898
   357.6000      7.9369      2.5188      0.0654      7.9522     17.2673    125.5629
   357.7000      7.9369      2.5390      0.0791      6.7255     17.1146    126.5308
   357.8000      7.9042      2.5410      0.0516      6.6079     16.7454    129.5754
   357.9000      7.9042      2.5342      0.0305      7.0158     16.5912    128.8650
   358.0000      7.8706      2.5360      0.0370      6.9109     16.6966    125.1270
   358.1000      7.8706      2.5538      0.0093      5.8310     16.8151    121.1420
   358.2000      7.8706      2.5904      0.0448      3.6129     16.7991    112.8326
   358.3000      7.8437      2.6308      0.1173      1.1648     17.0678     99.4255
   358.4000      7.8437      2.6591      0.0849     -0.5511     17.8973     88.2931
   358.5000      7.8365      2.6832      0.0473     -2.0105     18.8785     82.3948
   358.6000      7.8365      2.7113      0.1004     -3.7168     19.7025     79.0833
   358.7000      7.8365      2.7407      0.0666     -5.4980     20.4607     75.5325
   358.8000      7.8397      2.7642      0.1114     -6.9238     21.2518     71.3252
   358.9000      7.8397      2.7662      0.0981     -7.0426     22.0741     68.8162
   359.0000      7.8281      2.7488      0.0494     -5.9876     23.0165     69.2988
   359.1000      7.8281      2.7386      0.0244     -5.3704     23.9597     70.4581
   359.2000      7.8281      2.7457      0.0297     -5.8030     24.4277     68.9828
   359.3000      7.8280      2.7557      0.0224     -6.4074     24.2645     66.2691
   359.4000      7.8280      2.7503      0.0044     -6.0763     23.7686     67.5117
   359.5000      7.8473      2.7157     -0.0155     -3.9841     23.0365     72.3083
   359.6000      7.8473      2.6565     -0.0630     -0.3957     22.0966     74.7287
   359.7000      7.8473      2.5992     -0.0801      3.0759     21.2877     74.0956
   359.8000      7.8549      2.5676     -0.0447      4.9953     20.6173     74.2950
   359.9000      7.8549      2.5575      0.0411      5.6059     19.7811     75.1738
   360.0000      7.8456      2.5486      0.0399      6.1448     18.9251     74.2590
   360.1000      7.8456      2.5363     -0.0063      6.8936     18.4891     71.8702
   360.2000      7.8456      2.5307     -0.0120      7.2302     18.5997     68.3660
   360.3000      7.8377      2.5353     -0.0059      6.9495     18.9138     65.6193
   360.4000      7.8377      2.5546     -0.0288      5.7841     19.1653     66.4417
   360.5000      7.8460      2.5856      0.0767      3.9059     19.4986     68.9420
   360.6000      7.8460      2.5987      0.1050      3.1072     19.9517     69.1510
   360.7000      7.8460      2.5864     -0.0113      3.8535     20.2785     67.7407
   360.8000      7.8729      2.5809      0.0513      4.1856     20.7603     68.0530
   360.9000      7.8729      2.5952      0.0372      3.3193     21.8650     72.3588
   361.0000      7.9007      2.6118      0.0518      2.3126     23.2383     79.7564
   361.1000      7.9007      2.6211      0.0468      1.7532     24.1413     85.9234
   361.2000      7.9007      2.6339      0.0396      0.9778     24.4626     87.5412
   361.3000      7.9081      2.6503      0.1016     -0.0200     24.7543     87.2197
   361.4000      7.9081      2.6450      0.1152      0.3034     25.2827     90.3036
   361.5000      7.9207      2.5955      0.0809      3.3012     25.5414     96.7178
   361.6000      7.9207      2.5167     -0.0394      8.0762     25.0375    102.6926
   361.7000      7.9207      2.4545     -0.0868     11.8479     24.3299    106.6516
   361.8000      7.9641      2.4314     -0.0638     13.2508     23.8060    110.9231
   361.9000      7.9641      2.4293     -0.0703     13.3727     22.9673    116.5135
   362.0000      8.0049      2.4276      0.0052     13.4804     21.7714    121.6305
   362.1000      8.0049      2.4315      0.0036     13.2427     20.6310    125.9526
   362.2000      8.0049      2.4554      0.1047     11.7955     19.7155    127.5212
   362.3000      8.0107      2.4888      0.1472      9.7725     19.1712    122.6931
   362.4000      8.0107      2.5084      0.2014      8.5827     19.0329    114.8855
   362.5000      7.9964      2.5164      0.1310      8.0940     18.9691    113.2636
   362.6000      7.9964      2.5439      0.1529      6.4292     18.8792    118.3150
   362.7000      7.9964      2.5944      0.2186      3.3717     19.0159    119.0019
   362.8000      7.9696      2.6339      0.1575      0.9788     19.5493    110.9991
   362.9000      7.9696      2.6484      0.1088      0.0944     20.2657    101.8220
   363.0000      7.9413      2.6506      0.0857     -0.0360     20.7516     98.5109
   363.1000      7.9413      2.6452      0.1021      0.2884     21.0935    100.3350
   363.2000      7.9413      2.6246      0.0902      1.5413     21.6042     99.1751
   363.3000      7.9237      2.5922      0.0388      3.5003     22.3209     94.4888
   363.4000      7.9237      2.5777     -0.0078      4.3846     23.1562     94.2158
   363.5000      7.9195      2.6093      0.0217      2.4653     23.8413     98.3684
   363.6000      7.9195      2.6701      0.0918     -1.2201     24.1458    101.4718
   363.7000      7.9195      2.7118      0.1003     -3.7470     24.2530    100.7610
   363.8000      7.9294      2.7157      0.0908     -3.9790     24.5978     98.3953
   363.9000      7.9294      2.6929      0.1009     -2.5996     25.3552    100.8127
   364.0000      7.9421      2.6544      0.0645     -0.2644     26.0978    108.4272
   364.1000      7.9421      2.6187     -0.0096      1.8990     26.3645    113.9466
   364.2000      7.9421      2.6042      0.0035      2.7767     26.1284    114.5459
   364.3000      7.9440      2.5983      0.0336      3.1325     25.5752    114.2479
   364.4000      7.9440      2.5775     -0.0093      4.3936     25.0173    113.8331
   364.5000      7.9300      2.5440     -0.0285      6.4232     24.6230    112.8103
   364.6000      7.9300      2.5217     -0.0390      7.7745     24.1040    113.2036
   364.7000      7.9300      2.5201      0.0598      7.8723     23.2280    113.1856
