~Version Information
VERS.                      2.0: CWLS Log ASCII Standard - VERSION 2.0
WRAP.                       NO: One line per depth step
~Well Information Block
STRT.FT               686.2000: 
STOP.FT              1252.7000: 
STEP.FT                 0.1000: 
NULL.                -999.2500: 
COMP.          Pioneer Natural Resources: COMPANY
WELL.          Rock Island 44-24 Tr: WELL
FLD.           Purgatoire River: FIELD
LOC.           814' FSL & 761' FEL--: LOCATION
CNTY.               Las Animas: COUNTY
SRVC.                Patterson: SERVICE COMPANY
DATE.          Thu Apr 20 08:34:45 2006: LOG DATE
UWI.           05 071 08680 00: UNIQUE WELL ID
STAT.                 Colorado: STATE
~Curve Information Block
DEPT.FT            0 000 00 00: Depth
DCAL.in                       : CDL Caliper
RHOB.g/cc                     : CDL Bulk Density
RHOC.g/cc                     : CDL Density Correction
DPOR.pu                       : CDL Density Porosity
GR.GAPI                       : Gamma Ray
~Parameter Information Block
~A  Depth       DCAL        RHOB        RHOC        DPOR         GR     
# ...
   943.8000      7.9821      2.5050      0.0788      8.7853    106.3361
   943.9000      7.9821      2.5206      0.0688      7.8436    102.2156
   944.0000      7.9851      2.5398      0.1038      6.6775    103.2996
   944.1000      7.9851      2.5497      0.1053      6.0795    109.7973
   944.2000      7.9851      2.5487      0.1019      6.1377    113.8339
   944.3000      7.9904      2.5416      0.0866      6.5714    113.7071
   944.4000      7.9904      2.5273      0.0925      7.4367    113.3643
   944.5000      8.0013      2.5125      0.0327      8.3327    112.2687
   944.6000      8.0013      2.5061      0.0891      8.7226    108.5629
   944.7000      8.0013      2.5060      0.0182      8.7258    102.8954
   944.8000      8.0110      2.5100      0.0542      8.4857     99.9796
   944.9000      8.0110      2.5066      0.0781      8.6899    104.7807
   945.0000      8.0133      2.4893      0.0371      9.7374    113.4854
   945.1000      8.0133      2.4732      0.0412     10.7122    120.3807
   945.2000      8.0133      2.4669      0.0453     11.0999    124.7579
   945.3000      8.0147      2.4675      0.0399     11.0624    124.6584
   945.4000      8.0147      2.4763      0.0543     10.5282    119.7076
   945.5000      8.0164      2.4898      0.0808      9.7078    113.5734
   945.6000      8.0164      2.4993      0.0738      9.1328    109.6615
   945.7000      8.0164      2.5048      0.0641      8.7995    108.3059
   945.8000      8.0067      2.5140      0.0739      8.2431    108.3763
   945.9000      8.0067      2.5338      0.0969      7.0412    109.6066
   946.0000      7.9828      2.5692      0.0737      4.8967    111.9212
   946.1000      7.9828      2.6169      0.0915      2.0045    114.6776
   946.2000      7.9828      2.6565      0.0933     -0.3914    115.0714
   946.3000      7.9654      2.6606      0.1438     -0.6454    113.0926
   946.4000      7.9654      2.6278      0.0706      1.3443    113.5265
   946.5000      7.9610      2.5898      0.0686      3.6502    117.9422
   946.6000      7.9610      2.5687      0.0766      4.9300    126.0358
   946.7000      7.9610      2.5660      0.0081      5.0914    136.8775
   946.8000      7.9599      2.5773      0.0666      4.4066    143.9090
   946.9000      7.9599      2.5866      0.0416      3.8407    141.9331
   947.0000      7.9589      2.5835      0.0285      4.0281    136.5472
   947.1000      7.9589      2.5736      0.0262      4.6287    136.3141
   947.2000      7.9589      2.5634      0.0271      5.2479    139.0590
   947.3000      7.9580      2.5503      0.0304      6.0400    137.5715
   947.4000      7.9580      2.5325      0.0228      7.1195    131.7911
   947.5000      7.9574      2.5194      0.0003      7.9139    127.1853
   947.6000      7.9574      2.5194      0.0376      7.9122    127.6802
   947.7000      7.9574      2.5252      0.0516      7.5628    130.9006
   947.8000      7.9534      2.5285      0.0522      7.3655    130.4920
   947.9000      7.9534      2.5301      0.0222      7.2660    127.6546
   948.0000      7.9443      2.5269      0.0342      7.4633    128.0529
   948.1000      7.9443      2.5128      0.0119      8.3131    129.2135
   948.2000      7.9443      2.4939      0.0493      9.4594    126.9924
   948.3000      7.9341      2.4886      0.0103      9.7837    124.4692
   948.4000      7.9341      2.5107      0.0322      8.4433    124.1555
   948.5000      7.9259      2.5473      0.1020      6.2256    123.8968
   948.6000      7.9259      2.5775      0.0763      4.3945    122.8849
   948.7000      7.9259      2.5967      0.0935      3.2297    121.0957
   948.8000      7.9225      2.6070      0.0778      2.6045    117.8666
   948.9000      7.9225      2.6122      0.0762      2.2909    112.9343
   949.0000      7.9265      2.6115      0.0790      2.3331    106.2316
   949.1000      7.9265      2.5967      0.0929      3.2285     98.2335
   949.2000      7.9265      2.5710      0.0239      4.7867     90.5780
   949.3000      7.9337      2.5456      0.0269      6.3259     82.9067
   949.4000      7.9337      2.5179      0.0355      8.0045     75.0933
   949.5000      7.9398      2.4898     -0.0325      9.7109     70.2604
   949.6000      7.9398      2.4778      0.0051     10.4362     69.8866
   949.7000      7.9398      2.4815      0.0052     10.2125     70.4341
   949.8000      7.9444      2.4837     -0.0060     10.0781     68.3434
   949.9000      7.9444      2.4807     -0.0033     10.2605     64.3707
   950.0000      7.9432      2.4845      0.0030     10.0274     60.1973
   950.1000      7.9432      2.4988      0.0687      9.1612     55.5820
   950.2000      7.9432      2.5099      0.1146      8.4906     51.5653
   950.3000      7.9351      2.5082      0.0553      8.5968     49.0331
   950.4000      7.9351      2.4940      0.0659      9.4543     46.7427
   950.5000      7.9311      2.4706      0.0393     10.8745     46.0684
   950.6000      7.9311      2.4454      0.0169     12.4002     51.0063
   950.7000      7.9311      2.4258      0.0085     13.5868     60.3255
   950.8000      7.9377      2.4084      0.0309     14.6412     67.0940
   950.9000      7.9377      2.3890     -0.0146     15.8202     67.0845
   951.0000      7.9511      2.3804      0.0119     16.3378     63.4377
   951.1000      7.9511      2.3916      0.1073     15.6625     61.4564
   951.2000      7.9511      2.4126      0.0969     14.3867     64.0329
   951.3000      7.9595      2.4366      0.1093     12.9338     72.2531
   951.4000      7.9595      2.4651      0.1372     11.2075     83.4755
   951.5000      7.9572      2.4958      0.1391      9.3433     94.5507
   951.6000      7.9572      2.5135      0.0854      8.2711    104.2329
   951.7000      7.9572      2.5058      0.0519      8.7420    109.0174
   951.8000      7.9492      2.4840     -0.0091     10.0607    106.5982
   951.9000      7.9492      2.4686     -0.0062     10.9922    100.1393
   952.0000      7.9432      2.4613      0.0123     11.4340     90.8561
   952.1000      7.9432      2.4435      0.0479     12.5147     78.5846
   952.2000      7.9432      2.3949      0.0604     15.4616     68.6282
   952.3000      7.9423      2.3133     -0.0125     20.4050     63.5842
   952.4000      7.9423      2.2192     -0.0938     26.1092     59.3621
   952.5000      7.9454      2.1373     -0.1312     31.0712     54.1637
   952.6000      7.9454      2.0779     -0.1447     34.6749     50.2080
   952.7000      7.9454      2.0337     -0.0923     37.3521     47.8119
   952.8000      7.9463      1.9961     -0.0548     39.6307     45.9758
   952.9000      7.9463      1.9690     -0.0278     41.2752     44.3811
   953.0000      7.9400      1.9616      0.0089     41.7226     40.9314
   953.1000      7.9400      1.9791      0.0456     40.6613     34.8753
   953.2000      7.9400      2.0186      0.1046     38.2697     29.5752
   953.3000      7.9368      2.0614      0.1335     35.6700     28.7528
   953.4000      7.9368      2.0800      0.1735     34.5448     32.3191
   953.5000      7.9447      2.0564      0.1391     35.9776     35.4818
   953.6000      7.9447      1.9942      0.0973     39.7463     34.9863
   953.7000      7.9447      1.9197      0.0258     44.2592     33.1702
   953.8000      7.9542      1.8610      0.0181     47.8206     33.0367
   953.9000      7.9542      1.8269     -0.0046     49.8841     34.8122
   954.0000      7.9575      1.8138      0.0177     50.6780     38.6382
   954.1000      7.9575      1.8160     -0.0046     50.5473     44.4295
   954.2000      7.9575      1.8345     -0.0164     49.4263     49.7827
   954.3000      7.9567      1.8757      0.0211     46.9285     52.4405
   954.4000      7.9567      1.9340      0.1006     43.3955     50.7173
   954.5000      7.9517      1.9869      0.1980     40.1860     44.7367
   954.6000      7.9517      2.0177      0.1964     38.3239     38.3212
   954.7000      7.9517      2.0298      0.1778     37.5866     34.2762
   954.8000      7.9423      2.0301      0.1863     37.5722     32.3938
   954.9000      7.9423      2.0133      0.1579     38.5893     31.4646
