~Version Information
VERS.                      2.0: CWLS Log ASCII Standard - VERSION 2.0
WRAP.                       NO: One line per depth step
~Well Information Block
STRT.FT               555.0000: 
STOP.FT              2322.2000: 
STEP.FT                 0.1000: 
NULL.                -999.2500: 
COMP.          Pioneer Natural Resources: COMPANY
WELL.          Fittipaldi 21-12: WELL
FLD.           Purgatoire River: FIELD
LOC.           207' FNL & 2110' FWL--: LOCATION
CNTY.               Las Animas: COUNTY
SRVC.                Patterson: SERVICE COMPANY
DATE.          Wed Mar 22 07:11:06 2006: LOG DATE
UWI.           05 071 08492 00: UNIQUE WELL ID
STAT.                 Colorado: STATE
~Curve Information Block
DEPT.FT            0 000 00 00: Depth
DCAL.in                       : CDL Caliper
RHOB.g/cc                     : CDL Bulk Density
RHOC.g/cc                     : CDL Density Correction
DPOR.pu                       : CDL Density Porosity
NPOR.pu                       : Neutron Porosity
GR.GAPI                       : Gamma Ray
~Parameter Information Block
~A  Depth       DCAL        RHOB        RHOC        DPOR        NPOR         GR     
# ...
  2062.2000      7.8714      2.5507      0.0707      6.0192     27.9361     63.8584
  2062.3000      7.8709      2.5472      0.0363      6.2324     28.1703     65.0987
  2062.4000      7.8709      2.5449      0.0148      6.3681     27.5761     64.1006
  2062.5000      7.8776      2.5583      0.0690      5.5593     26.5551     60.9362
  2062.6000      7.8776      2.5758      0.0866      4.4943     25.7636     58.6468
  2062.7000      7.8776      2.5818      0.0533      4.1360     25.8733     59.1412
  2062.8000      7.8904      2.5748      0.0702      4.5594     26.6477     58.7818
  2062.9000      7.8904      2.5523      0.0707      5.9208     27.4044     56.2210
  2063.0000      7.9006      2.5246      0.0020      7.6028     27.8124     57.7289
  2063.1000      7.9006      2.5223     -0.0209      7.7407     27.6943     66.0778
  2063.2000      7.9006      2.5494      0.0483      6.0984     27.0699     73.3255
  2063.3000      7.8996      2.5690      0.0666      4.9092     26.6735     73.7681
  2063.4000      7.8996      2.5568      0.0418      5.6482     26.9994     70.7028
  2063.5000      7.8940      2.5250      0.0391      7.5751     27.5064     67.4480
  2063.6000      7.8940      2.4913      0.0299      9.6176     27.5535     65.3093
  2063.7000      7.8940      2.4699     -0.0194     10.9142     27.1602     64.0458
  2063.8000      7.8988      2.4737     -0.0120     10.6867     26.7232     61.4255
  2063.9000      7.8988      2.4991      0.0015      9.1425     26.4835     58.4785
  2064.0000      7.9003      2.5259      0.0484      7.5191     26.6350     56.7068
  2064.1000      7.9003      2.5402      0.0253      6.6561     27.2262     55.6523
  2064.2000      7.9003      2.5517      0.0177      5.9576     27.7935     57.3003
  2064.3000      7.9001      2.5673      0.0585      5.0100     28.0817     60.9280
  2064.4000      7.9001      2.5759      0.0397      4.4934     28.2937     64.2799
  2064.5000      7.9129      2.5682      0.0231      4.9550     28.3883     67.2126
  2064.6000      7.9129      2.5462      0.0094      6.2895     28.1021     68.4586
  2064.7000      7.9129      2.5273      0.0016      7.4394     27.4556     67.1352
  2064.8000      7.9280      2.5290      0.0543      7.3321     26.8970     63.4510
  2064.9000      7.9280      2.5439      0.0356      6.4315     26.7782     59.3693
  2065.0000      7.9394      2.5533      0.0322      5.8583     26.9716     56.9464
  2065.1000      7.9394      2.5512      0.0385      5.9861     27.2151     57.4961
  2065.2000      7.9394      2.5428      0.0279      6.4984     27.4192     61.5069
  2065.3000      7.9447      2.5336      0.0117      7.0548     27.6122     68.0978
  2065.4000      7.9447      2.5272      0.0177      7.4435     27.7376     73.8820
  2065.5000      7.9461      2.5268      0.0412      7.4654     27.7115     76.6512
  2065.6000      7.9461      2.5326      0.0394      7.1159     27.6680     77.6143
  2065.7000      7.9461      2.5424      0.0413      6.5200     27.8555     76.8389
  2065.8000      7.9533      2.5517      0.0627      5.9579     28.1926     73.5316
  2065.9000      7.9533      2.5555      0.0592      5.7279     28.3370     67.9999
  2066.0000      7.9621      2.5505      0.0598      6.0304     28.3432     63.4479
  2066.1000      7.9621      2.5383      0.0767      6.7690     28.3755     63.5004
  2066.2000      7.9621      2.5289      0.0242      7.3391     28.5284     65.7421
  2066.3000      7.9604      2.5249      0.0589      7.5796     28.8189     64.9821
  2066.4000      7.9604      2.5146      0.0949      8.2084     28.9218     62.8139
  2066.5000      7.9362      2.4998      0.0520      9.1026     28.7521     63.5484
  2066.6000      7.9362      2.4970      0.0350      9.2753     28.6663     66.3690
  2066.7000      7.9362      2.5053      0.0907      8.7702     28.9134     67.4155
  2066.8000      7.9028      2.5097      0.1030      8.5049     29.2962     65.3521
  2066.9000      7.9028      2.5000      0.0654      9.0897     29.6109     61.8895
  2067.0000      7.8899      2.4763      0.0959     10.5291     29.9364     58.5584
  2067.1000      7.8899      2.4496      0.0363     12.1457     30.2938     58.1821
  2067.2000      7.8899      2.4279      0.0444     13.4579     30.6337     62.4193
  2067.3000      7.8907      2.3927      0.0633     15.5917     31.0568     66.4024
  2067.4000      7.8907      2.3156      0.0468     20.2694     31.4884     66.0319
  2067.5000      7.8907      2.1989     -0.0216     27.3384     31.7670     62.8865
  2067.6000      7.8907      2.0831     -0.0955     34.3594     31.7737     58.2904
  2067.7000      7.8907      2.0052     -0.0950     39.0792     31.5174     53.1356
  2067.8000      7.8904      1.9602     -0.0380     41.8064     31.4440     49.5260
  2067.9000      7.8904      1.9250     -0.0707     43.9371     31.5044     49.1756
  2068.0000      7.8866      1.9021     -0.0742     45.3253     31.2524     51.7801
  2068.1000      7.8866      1.9045     -0.0135     45.1812     30.9919     55.6423
  2068.2000      7.8866      1.9344      0.0332     43.3683     30.9480     59.6723
  2068.3000      7.8763      1.9910      0.1241     39.9404     30.8151     62.0945
  2068.4000      7.8763      2.0706      0.1736     35.1164     30.3491     61.7406
  2068.5000      7.8568      2.1650      0.2043     29.3937     29.4948     60.4083
  2068.6000      7.8568      2.2598      0.2443     23.6508     28.6553     60.0849
  2068.7000      7.8568      2.3408      0.2412     18.7404     28.3410     59.1801
  2068.8000      7.8358      2.4147      0.1944     14.2586     28.1415     56.6178
  2068.9000      7.8358      2.4914      0.2129      9.6114     27.4211     55.5549
  2069.0000      7.8162      2.5538      0.1871      5.8331     26.4074     58.0751
  2069.1000      7.8162      2.5860      0.1697      3.8798     25.6808     61.7659
  2069.2000      7.8162      2.5989      0.1273      3.0956     25.4320     64.7125
  2069.3000      7.7963      2.6101      0.1264      2.4171     25.5228     66.3279
  2069.4000      7.7963      2.6247      0.1266      1.5351     25.6549     64.5626
  2069.5000      7.7850      2.6406      0.0815      0.5676     25.5542     58.8201
  2069.6000      7.7850      2.6547      0.1036     -0.2844     25.3457     52.8643
  2069.7000      7.7850      2.6602      0.0703     -0.6188     25.3621     50.4735
  2069.8000      7.7874      2.6543      0.0212     -0.2618     25.4074     52.0875
  2069.9000      7.7874      2.6345      0.0703      0.9391     24.9940     54.9638
  2070.0000      7.7994      2.6087     -0.0166      2.5039     24.2597     55.6892
  2070.1000      7.7994      2.6006      0.0177      2.9959     23.8131     53.4578
  2070.2000      7.7994      2.6076      0.0656      2.5708     23.9337     50.6619
  2070.3000      7.8129      2.6052      0.0265      2.7146     24.4483     51.6906
  2070.4000      7.8129      2.5883      0.0434      3.7393     25.0530     58.1524
  2070.5000      7.8220      2.5667      0.0458      5.0456     25.4776     65.7805
  2070.6000      7.8220      2.5510      0.0080      5.9982     25.6207     68.3562
  2070.7000      7.8220      2.5487      0.0294      6.1384     25.6470     65.2196
  2070.8000      7.8247      2.5586      0.0434      5.5378     25.6405     61.4177
  2070.9000      7.8247      2.5696      0.0577      4.8755     25.3267     59.8778
  2071.0000      7.8239      2.5758      0.0361      4.4953     24.6083     59.3468
  2071.1000      7.8239      2.5847      0.0285      3.9587     24.0105     58.1725
  2071.2000      7.8239      2.6006      0.0505      2.9948     23.8338     55.6431
  2071.3000      7.8193      2.6192      0.0342      1.8665     23.6756     52.7851
  2071.4000      7.8193      2.6336      0.0786      0.9950     23.3789     53.6138
  2071.5000      7.8133      2.6364      0.0733      0.8263     23.3122     59.8673
  2071.6000      7.8133      2.6300      0.0594      1.2135     23.5024     64.7828
  2071.7000      7.8133      2.6203      0.0681      1.8025     23.8496     62.9690
