~Version Information
VERS.                      2.0: CWLS Log ASCII Standard - VERSION 2.0
WRAP.                       NO: One line per depth step
~Well Information Block
STRT.FT                -5.7500: 
STOP.FT              2734.0000: 
STEP.FT                 0.2500: 
NULL.                -999.2500: 
COMP.          Pioneer Natural Resources: COMPANY
WELL.              Loews 41-32: WELL
FLD.           Purgatoire River: FIELD
LOC.           751' FNL & 128' FEL--: LOCATION
CNTY.               Las Animas: COUNTY
SRVC.                         : SERVICE COMPANY
DATE.          Sat Mar 04 08:20:59 2006: LOG DATE
UWI.           05 071 08693 00: UNIQUE WELL ID
STAT.                       CO: STATE
~Curve Information Block
DEPT.FT            0 000 00 00: Depth
GR.GAPI                       : Gamma Ray
CCL.                          : Casing Collar Locator
TT3.usec                      : CBL 3' Travel Time
AMP3.mV                       : CBL 3' Amplitude
~Parameter Information Block
~A  Depth        GR         CCL         TT3         AMP3    
# ...
  2707.7500     78.2744      0.0000    261.3309     70.2954
  2708.0000     78.9986      0.0000    260.3002     69.4369
  2708.2500     78.8694      0.0000    260.3453     67.0733
  2708.5000     78.6725      0.0000    261.6309     63.7490
  2708.7500     79.4847      0.0000    266.1802     59.9124
  2709.0000     81.6844      0.0000    278.9197     55.5691
  2709.2500     84.2428      0.0000    307.5312     50.3003
  2709.5000     85.3808      0.0000    358.6189     43.7736
  2709.7500     84.2057      0.0000    431.1834     36.2580
  2710.0000     81.6858      0.0000    513.6750     28.6195
  2710.2500     79.9956      0.0000    589.0294     21.8319
  2710.5000     80.8861      0.0000    643.0165     16.4467
  2710.7500     84.4498      0.0000    668.8505     12.4358
  2711.0000     89.1013      0.0000    667.0225      9.4527
  2711.2500     92.6449      0.0000    642.6239      7.1941
  2711.5000     93.6962      0.0000    602.1247      5.5432
  2711.7500     92.5557     -2.0000    552.2464      4.4796
  2712.0000     90.8355      1.5439    501.3954      3.9480
  2712.2500     90.0972      0.0000    459.7772      3.8093
  2712.5000     90.8417      0.0000    436.3912      3.8898
  2712.7500     92.7783      0.0000    436.2657      4.0580
  2713.0000     95.5573      0.0000    459.5840      4.2449
  2713.2500     98.7973      0.0000    500.1168      4.3990
  2713.5000    101.6952      0.0000    544.2061      4.4606
  2713.7500    103.1828      0.0000    575.2953      4.4027
  2714.0000    102.6286      0.0000    582.5009      4.2656
  2714.2500    100.3512      0.0000    565.2020      4.1202
  2714.5000     97.5368      0.0000    530.7632      4.0066
  2714.7500     95.6561      0.0000    490.0025      3.9219
  2715.0000     95.6173      0.0000    453.2698      3.8490
  2715.2500     97.2070      0.0000    426.9726      3.7804
  2715.5000     99.3384      0.0000    411.9275      3.7213
  2715.7500    100.8678      0.0000    405.0303      3.6782
  2716.0000    101.2542      0.0000    402.4718      3.6504
  2716.2500    100.8045      0.0000    401.6827      3.6300
  2716.5000    100.4316      0.0000    401.4739      3.6113
  2716.7500    100.7647      0.0000    401.4467      3.5949
  2717.0000    101.2914      0.0000    401.5149      3.5845
  2717.2500    100.7749      0.0000    401.6961      3.5807
  2717.5000     98.5963      0.0000    402.0485      3.5775
  2717.7500     95.4183      0.0000    402.6225      3.5660
  2718.0000     92.6766      0.0000    403.5468      3.5439
  2718.2500     91.5699      0.0000    405.4081      3.5189
  2718.5000     92.1516      0.0000    409.9760      3.5006
  2718.7500     93.2241      0.0000    420.2126      3.4868
  2719.0000     93.4789      0.0000    437.7555      3.4555
  2719.2500     92.7224      0.0000    457.2570      3.3593
  2719.5000     91.5830      0.0000    462.2514      3.1277
  2719.7500     90.4002      0.0000    431.1808      2.6990
  2720.0000     89.0887      0.0000    354.5737      2.0816
  2720.2500     87.7495      0.0000    247.9903      1.3871
  2720.5000     86.6800      0.0000    143.7674      0.7766
  2720.7500     86.0216      0.0000     67.8590      0.3577
  2721.0000     85.8857      0.0000     25.7554      0.1334
  2721.2500     86.4377      0.0000      7.7910      0.0399
  2721.5000     87.3614      0.0000      1.8651      0.0095
  2721.7500     87.6566      0.0000      0.3487      0.0018
  2722.0000     86.5108      0.0000      0.0473      0.0002
  2722.2500     84.2765      0.0000   -999.2500   -999.2500
  2722.5000     82.3216      0.0000   -999.2500   -999.2500
  2722.7500     81.8686      0.0000   -999.2500   -999.2500
  2723.0000     83.0093      0.0000   -999.2500   -999.2500
  2723.2500     84.8845      0.0000   -999.2500   -999.2500
  2723.5000     86.7829      0.0000   -999.2500   -999.2500
  2723.7500     88.7888      0.0000   -999.2500   -999.2500
  2724.0000     91.0739      0.0000   -999.2500   -999.2500
  2724.2500     92.7716      0.0000   -999.2500   -999.2500
  2724.5000     92.1674      0.0000   -999.2500   -999.2500
  2724.7500     88.3011      0.0000   -999.2500   -999.2500
  2725.0000     82.2194      0.0000   -999.2500   -999.2500
  2725.2500     76.3982      0.0000   -999.2500   -999.2500
  2725.5000     72.9474      0.0000   -999.2500   -999.2500
  2725.7500     72.4241      0.0000   -999.2500   -999.2500
  2726.0000     74.1551      0.0000   -999.2500   -999.2500
  2726.2500     77.3717      0.0000   -999.2500   -999.2500
  2726.5000     81.8804      0.0000   -999.2500   -999.2500
  2726.7500     87.5488      0.0000   -999.2500   -999.2500
  2727.0000     93.2089      0.0000   -999.2500   -999.2500
  2727.2500     96.6131      0.0000   -999.2500   -999.2500
  2727.5000     96.1041      0.0000   -999.2500   -999.2500
  2727.7500     92.2854   -999.2500   -999.2500   -999.2500
  2728.0000     87.5296   -999.2500   -999.2500   -999.2500
  2728.2500     83.8298   -999.2500   -999.2500   -999.2500
  2728.5000     81.5097   -999.2500   -999.2500   -999.2500
  2728.7500     79.8391   -999.2500   -999.2500   -999.2500
  2729.0000     78.1946   -999.2500   -999.2500   -999.2500
  2729.2500     76.2506   -999.2500   -999.2500   -999.2500
  2729.5000     73.2902   -999.2500   -999.2500   -999.2500
  2729.7500     67.8224   -999.2500   -999.2500   -999.2500
  2730.0000     58.3687   -999.2500   -999.2500   -999.2500
  2730.2500     44.9799   -999.2500   -999.2500   -999.2500
  2730.5000     29.9845   -999.2500   -999.2500   -999.2500
  2730.7500     16.8098   -999.2500   -999.2500   -999.2500
  2731.0000      7.7562   -999.2500   -999.2500   -999.2500
  2731.2500      2.8996   -999.2500   -999.2500   -999.2500
  2731.5000      0.8682   -999.2500   -999.2500   -999.2500
  2731.7500      0.2062   -999.2500   -999.2500   -999.2500
  2732.0000      0.0383   -999.2500   -999.2500   -999.2500
  2732.2500      0.0052   -999.2500   -999.2500   -999.2500
  2732.5000      0.0000   -999.2500   -999.2500   -999.2500
  2732.7500   -999.2500   -999.2500   -999.2500   -999.2500
  2733.0000   -999.2500   -999.2500   -999.2500   -999.2500
  2733.2500   -999.2500   -999.2500   -999.2500   -999.2500
  2733.5000   -999.2500   -999.2500   -999.2500   -999.2500
  2733.7500   -999.2500   -999.2500   -999.2500   -999.2500
  2734.0000   -999.2500   -999.2500   -999.2500   -999.2500
