~Version Information
VERS.                      2.0: CWLS Log ASCII Standard - VERSION 2.0
WRAP.                       NO: One line per depth step
~Well Information Block
STRT.FT               260.0000: 
STOP.FT              1230.0000: 
STEP.FT                 0.2500: 
NULL.                -999.2500: 
COMP.          Pioneer Natural Resources: COMPANY
WELL.             Mahalo 12-20: WELL
FLD.           Purgatoire River: FIELD
LOC.           1689' FNL & 479' FWL: LOCATION
CNTY.               Las Animas: COUNTY
SRVC.                Patterson: SERVICE COMPANY
DATE.          Thu Feb 23 20:25:01 2006: LOG DATE
UWI.           05 071 08700 00: UNIQUE WELL ID
STAT.                 Colorado: STATE
~Curve Information Block
DEPT.FT            0 000 00 00: Depth
SN.Ohm-m                      : IEL Short Normal
SP.mV                         : IEL Spontaneous Potential
DIR.Ohm-m                     : IEL Induction Resistivity
GR.GAPI                       : Gamma Ray
~Parameter Information Block
~A  Depth        SN          SP         DIR          GR     
# ...
   896.5000     31.2912     51.5755     31.2865     57.0451
   896.7500     31.7048     51.7685     31.7691     55.0361
   897.0000     32.0375     51.9905     32.2615     53.7065
   897.2500     32.3285     52.2237     32.7345     54.0880
   897.5000     32.6678     52.4554     33.1893     55.8902
   897.7500     33.0046     52.6756     33.6577     57.2651
   898.0000     33.2389     52.8756     34.1755     58.2839
   898.2500     33.3993     53.0475     34.7499     57.4948
   898.5000     33.5451     53.1848     35.3353     53.5019
   898.7500     33.6519     53.2811     35.8196     49.4707
   899.0000     33.6882     53.3312     36.0332     43.4101
   899.2500     33.6407     53.3382     35.7951     40.4954
   899.5000     33.4681     53.3198     34.9827     38.5921
   899.7500     33.1174     53.3071     33.5736     38.8287
   900.0000     32.5380     53.3344     31.6340     41.0046
   900.2500     31.7104     53.4242     29.2915     43.5065
   900.5000     30.6812     53.5770     26.7221     48.3319
   900.7500     29.4860     53.7720     24.1319     51.6989
   901.0000     28.0606     53.9771     21.7102     56.2038
   901.2500     26.3055     54.1616     19.5814     59.0847
   901.5000     24.2155     54.3082     17.7892     64.8150
   901.7500     21.9285     54.4208     16.3159     70.4491
   902.0000     19.6579     54.5215     15.1148     81.6312
   902.2500     17.5913     54.6369     14.1350     90.0483
   902.5000     15.8643     54.7860     13.3317    102.3281
   902.7500     14.5486     54.9772     12.6663    109.5296
   903.0000     13.5834     55.2089     12.1065    117.9962
   903.2500     12.8282     55.4672     11.6281    121.6788
   903.5000     12.2388     55.7253     11.2190    123.8840
   903.7500     11.8868     55.9521     10.8792    123.3012
   904.0000     11.7636     56.1251     10.6174    120.4325
   904.2500     11.7266     56.2376     10.4449    118.1688
   904.5000     11.6771     56.2988     10.3689    115.7833
   904.7500     11.6123     56.3277     10.3873    115.1404
   905.0000     11.5556     56.3444     10.4869    114.5510
   905.2500     11.5774     56.3632     10.6480    113.2657
   905.5000     11.7698     56.3896     10.8551    108.4510
   905.7500     12.1291     56.4229     11.1058    103.2018
   906.0000     12.5438     56.4585     11.4119     93.5132
   906.2500     12.9105     56.4887     11.7899     86.9444
   906.5000     13.2113     56.5035     12.2478     78.2512
   906.7500     13.4822     56.4913     12.7748     73.3908
   907.0000     13.7655     56.4413     13.3385     67.4110
   907.2500     14.1010     56.3464     13.8921     64.4792
   907.5000     14.4826     56.2068     14.3888     62.0245
   907.7500     14.8371     56.0316     14.7986     61.3408
   908.0000     15.1112     55.8387     15.1165     60.2896
   908.2500     15.3299     55.6514     15.3591     58.9797
   908.5000     15.5382     55.4930     15.5532     56.5482
   908.7500     15.7442     55.3817     15.7239     55.4541
   909.0000     15.9371     55.3256     15.8874     55.6736
   909.2500     16.1259     55.3196     16.0498     56.9470
   909.5000     16.3160     55.3492     16.2087     59.2671
   909.7500     16.4523     55.3980     16.3581     60.2929
   910.0000     16.4735     55.4552     16.4933     60.5002
   910.2500     16.4317     55.5150     16.6137     59.9424
   910.5000     16.4702     55.5750     16.7204     58.8999
   910.7500     16.6581     55.6379     16.8128     58.6121
   911.0000     16.9186     55.7137     16.8875     59.1450
   911.2500     17.1440     55.8164     16.9426     59.7893
   911.5000     17.2840     55.9547     16.9822     60.2884
   911.7500     17.3522     56.1236     17.0179     60.2959
   912.0000     17.4193     56.3039     17.0644     60.8694
   912.2500     17.5158     56.4679     17.1351     62.2140
   912.5000     17.5692     56.5864     17.2373     65.4953
   912.7500     17.5490     56.6381     17.3725     67.8623
   913.0000     17.5475     56.6175     17.5399     70.7793
   913.2500     17.6214     56.5367     17.7430     72.2337
   913.5000     17.7203     56.4202     17.9905     73.7129
   913.7500     17.7995     56.2932     18.2873     73.8615
   914.0000     17.8754     56.1727     18.6247     71.7057
   914.2500     18.0144     56.0656     18.9789     68.3885
   914.5000     18.2795     55.9717     19.3224     61.6345
   914.7500     18.6457     55.8866     19.6360     57.1958
   915.0000     19.0206     55.7996     19.9120     52.3167
   915.2500     19.3521     55.6914     20.1529     50.4420
   915.5000     19.6709     55.5398     20.3680     49.2573
   915.7500     20.0021     55.3311     20.5695     49.4669
   916.0000     20.2907     55.0669     20.7641     51.6343
   916.2500     20.4728     54.7599     20.9405     54.4756
   916.5000     20.5476     54.4291     21.0612     60.5382
   916.7500     20.5367     54.1038     21.0662     65.2652
   917.0000     20.4436     53.8259     20.8934     72.1243
   917.2500     20.2694     53.6374     20.5060     75.8446
   917.5000     20.0279     53.5612     19.9098     79.5254
   917.7500     19.7295     53.5917     19.1468     80.7512
   918.0000     19.3296     53.7029     18.2755     81.2895
   918.2500     18.7484     53.8636     17.3537     81.3173
   918.5000     17.9925     54.0478     16.4300     82.0947
   918.7500     17.1623     54.2366     15.5387     83.8254
   919.0000     16.3470     54.4199     14.6969     88.9372
   919.2500     15.6030     54.5992     13.9059     93.8764
   919.5000     14.9420     54.7894     13.1624    102.3565
   919.7500     14.3106     55.0118     12.4705    107.7207
   920.0000     13.6819     55.2832     11.8460    114.0425
   920.2500     13.0952     55.6054     11.3099    116.9303
   920.5000     12.6417     55.9619     10.8775    119.6571
   920.7500     12.4103     56.3233     10.5489    120.6218
   921.0000     12.3511     56.6580     10.3066    121.1137
   921.2500     12.3418     56.9435     10.1207    121.1923
   921.5000     12.3337     57.1728      9.9611    121.5926
   921.7500     12.3012     57.3535      9.8132    122.0130
   922.0000     12.2197     57.5002      9.6836    122.4568
   922.2500     12.1249     57.6256      9.5927    122.6600
   922.5000     12.0443     57.7324      9.5610    123.0097
   922.7500     11.9750     57.8152      9.6008    122.9126
   923.0000     11.9587     57.8711      9.7154    121.2489
   923.2500     12.0376     57.9055      9.9040    119.0678
   923.5000     12.2258     57.9283     10.1672    115.2967
   923.7500     12.5152     57.9439     10.5089    113.1314
   924.0000     12.8690     57.9502     10.9359    110.5413
   924.2500     13.3118     57.9422     11.4537    108.8385
   924.5000     13.9285     57.9156     12.0634    105.6447
   924.7500     14.7125     57.8642     12.7601    102.9727
   925.0000     15.5653     57.7806     13.5351     98.1280
   925.2500     16.4309     57.6627     14.3790     94.1994
   925.5000     17.3195     57.5212     15.2827     87.0990
   925.7500     18.2458     57.3785     16.2378     81.9826
   926.0000     19.2534     57.2592     17.2374     75.3609
   926.2500     20.4689     57.1817     18.2796     72.4202
   926.5000     22.0288     57.1537     19.3725     70.1712
   926.7500     23.9244     57.1714     20.5380     69.5230
   927.0000     25.9643     57.2210     21.8083     68.9089
   927.2500     27.9113     57.2833     23.2132     68.4375
   927.5000     29.6244     57.3414     24.7568     67.2123
   927.7500     31.0999     57.3861     26.3986     65.7345
   928.0000     32.4090     57.4178     28.0580     62.0289
   928.2500     33.5505     57.4451     29.6452     58.5306
   928.5000     34.4482     57.4821     31.0932     52.4493
   928.7500     35.1315     57.5434     32.3570     48.6502
   929.0000     35.7441     57.6377     33.3813     44.9155
   929.2500     36.3310     57.7623     34.0813     44.4177
   929.5000     36.7406     57.9017     34.3708     46.8418
   929.7500     36.7869     58.0297     34.2173     49.9396
