~Version Information
VERS.                      2.0: CWLS Log ASCII Standard - VERSION 2.0
WRAP.                       NO: One line per depth step
~Well Information Block
STRT.FT               645.0000: 
STOP.FT              1320.0000: 
STEP.FT                 0.1000: 
NULL.                -999.2500: 
COMP.          Pioneer Natural Resources: COMPANY
WELL.          Rockfish 11-30 Tr: WELL
FLD.           Purgatoire River: FIELD
LOC.           1063' FNL & 1068' FWL: LOCATION
STAT.                 Colorado: State
CNTY.               Las Animas: COUNTY
CTRY. USA : Country
SECT. 30 : Section
TOWN. 32S : Township
RANG. 65W : Range
SRVC.                Patterson: SERVICE COMPANY
DATE.          Wed Nov 16 07:46:07 2005: LOG DATE
API.           05 071 08585 00: UNIQUE WELL ID
~Curve Information Block
DEPT.FT            0 000 00 00: Depth
DCAL.in                       : CDL Caliper
RHOB.g/cc                     : CDL Bulk Density
RHOC.g/cc                     : CDL Density Correction
DPOR.pu                       : CDL Density Porosity
GR.GAPI                       : Gamma Ray
NPOR.pu                       : Neutron Porosity
~Parameter Information Block
~A  Depth       DCAL        RHOB        RHOC        DPOR         GR         NPOR    
# ...
   913.8000      7.8648      2.8360      0.2159    -11.2710     80.4639     25.3305
   913.9000      7.8648      2.8212      0.1677    -10.3748     69.7594     24.7223
   914.0000      7.8717      2.7774      0.1070     -7.7202     61.5437     23.8919
   914.1000      7.8717      2.7234      0.0644     -4.4467     57.8122     22.8290
   914.2000      7.8717      2.6683      0.0050     -1.1087     58.1461     21.4138
   914.3000      7.8900      2.6132     -0.0130      2.2285     57.9559     19.9888
   914.4000      7.8900      2.5536     -0.0591      5.8436     57.0501     19.2238
   914.5000      7.9083      2.4910     -0.0878      9.6390     57.5891     18.9447
   914.6000      7.9083      2.4389     -0.1211     12.7968     58.5586     18.5129
   914.7000      7.9083      2.4068     -0.1033     14.7383     59.8167     17.9956
   914.8000      7.9493      2.3915     -0.0633     15.6656     60.8267     17.8494
   914.9000      7.9493      2.3900      0.0134     15.7586     61.7869     17.8354
   915.0000      7.9611      2.4074     -0.0396     14.7005     66.3302     17.6456
   915.1000      7.9611      2.4382      0.0587     12.8383     71.4152     17.4511
   915.2000      7.9611      2.4554      0.0851     11.7923     67.6185     17.1717
   915.3000      7.9613      2.4415      0.0891     12.6393     57.2957     16.5328
   915.4000      7.9613      2.4071      0.0338     14.7225     52.0003     15.7081
   915.5000      7.9632      2.3811     -0.0147     16.2955     51.2871     15.1403
   915.6000      7.9632      2.3769      0.0650     16.5489     47.2750     14.8109
   915.7000      7.9632      2.3805      0.0694     16.3340     40.8810     14.4750
   915.8000      7.9598      2.3816      0.1012     16.2688     38.1227     14.2087
   915.9000      7.9598      2.3830      0.1209     16.1800     40.2235     14.1728
   916.0000      7.9568      2.3890      0.0958     15.8201     42.4418     14.3867
   916.1000      7.9568      2.3969      0.1138     15.3423     41.1441     14.6958
   916.2000      7.9568      2.3982      0.1186     15.2590     38.0365     14.9506
   916.3000      7.9563      2.4003      0.0674     15.1362     36.1716     15.1474
   916.4000      7.9563      2.4131      0.1295     14.3583     37.1378     15.1475
   916.5000      7.9403      2.4305      0.1020     13.3057     40.5096     14.8598
   916.6000      7.9403      2.4481      0.1295     12.2337     43.0183     14.5595
   916.7000      7.9403      2.4590      0.1380     11.5775     41.8460     14.5059
   916.8000      7.9523      2.4546      0.1260     11.8444     38.1571     14.7173
   916.9000      7.9523      2.4377      0.0830     12.8692     35.7057     14.8954
   917.0000      7.9654      2.4106      0.1227     14.5096     35.8591     14.9279
   917.1000      7.9654      2.3820      0.0216     16.2429     37.9885     14.9480
   917.2000      7.9654      2.3724      0.0295     16.8251     41.1286     14.9512
   917.3000      7.9631      2.3875      0.0306     15.9118     43.6574     15.0209
   917.4000      7.9631      2.4109      0.0888     14.4884     44.7126     15.0729
   917.5000      7.9650      2.4264      0.0563     13.5498     43.2276     15.0719
   917.6000      7.9650      2.4280      0.0937     13.4529     40.1459     15.0915
   917.7000      7.9650      2.4179      0.0113     14.0678     38.7297     14.9405
   917.8000      7.9653      2.4077      0.0587     14.6849     40.1161     14.7440
   917.9000      7.9653      2.4031      0.0330     14.9661     41.8668     14.8380
   918.0000      7.9819      2.4048      0.0176     14.8615     40.7014     15.1194
   918.1000      7.9819      2.4161      0.0357     14.1745     37.3648     15.3173
   918.2000      7.9819      2.4371      0.0404     12.9026     35.4407     15.3309
   918.3000      7.9864      2.4627      0.0442     11.3486     34.8850     15.1732
   918.4000      7.9864      2.4748      0.1025     10.6202     34.3393     14.9879
   918.5000      7.9903      2.4585      0.0857     11.6082     34.1343     14.7763
   918.6000      7.9903      2.4274      0.0775     13.4912     32.7879     14.4409
   918.7000      7.9903      2.4089      0.0034     14.6103     30.1848     14.2344
   918.8000      7.9699      2.4161      0.0213     14.1751     29.7394     14.3079
   918.9000      7.9699      2.4365      0.0240     12.9399     32.3442     14.4045
   919.0000      7.9744      2.4473      0.0743     12.2841     35.1670     14.4965
   919.1000      7.9744      2.4383      0.0675     12.8287     36.2150     14.7593
   919.2000      7.9744      2.4248      0.0058     13.6461     34.3832     15.0598
   919.3000      7.9682      2.4324      0.0297     13.1853     30.5568     15.0497
   919.4000      7.9682      2.4612      0.0408     11.4400     28.0704     14.7646
   919.5000      7.9741      2.4881      0.0791      9.8110     28.1570     14.4665
   919.6000      7.9741      2.5001      0.0137      9.0871     29.5562     14.4353
   919.7000      7.9741      2.4989      0.0946      9.1555     31.2137     14.9420
   919.8000      7.9846      2.4829      0.0799     10.1253     31.8277     15.7241
   919.9000      7.9846      2.4609      0.0333     11.4625     31.8443     16.0631
   920.0000      7.9863      2.4507      0.0127     12.0762     33.8624     15.8048
   920.1000      7.9863      2.4558      0.0548     11.7672     35.8406     15.3817
   920.2000      7.9863      2.4650      0.0643     11.2094     34.4107     15.1228
   920.3000      7.9784      2.4669      0.0536     11.0981     33.3348     15.1005
   920.4000      7.9784      2.4663     -0.0015     11.1322     36.5779     15.3681
   920.5000      7.9782      2.4758      0.0596     10.5556     41.7784     15.8850
   920.6000      7.9782      2.4938      0.0449      9.4697     44.5879     16.2180
   920.7000      7.9782      2.5090      0.0601      8.5435     43.3727     16.0376
   920.8000      7.9835      2.5123      0.0280      8.3448     40.7473     15.7194
   920.9000      7.9835      2.5066      0.0248      8.6935     39.1750     15.8169
   921.0000      7.9763      2.4991      0.0741      9.1435     38.0935     16.2059
   921.1000      7.9763      2.4888      0.0610      9.7676     37.4248     16.2552
   921.2000      7.9763      2.4764      0.0095     10.5241     37.2080     15.9784
   921.3000      7.9885      2.4711      0.0160     10.8434     36.1294     15.9667
   921.4000      7.9885      2.4804      0.0092     10.2812     33.9042     16.3585
   921.5000      7.9863      2.5018      0.0400      8.9822     32.1835     16.8082
   921.6000      7.9863      2.5186      0.0749      7.9609     31.5600     17.0237
   921.7000      7.9863      2.5207      0.0452      7.8341     32.2153     17.2065
   921.8000      7.9960      2.5261      0.0209      7.5115     34.3762     17.7709
   921.9000      7.9960      2.5440      0.0200      6.4272     35.5494     18.4986
   922.0000      7.9874      2.5509      0.1040      6.0080     35.3513     18.8162
   922.1000      7.9874      2.5391      0.0002      6.7223     36.9941     18.6361
   922.2000      7.9874      2.5306      0.0392      7.2358     39.5368     18.2919
   922.3000      7.9896      2.5256      0.0746      7.5400     39.9933     18.1083
   922.4000      7.9896      2.5102      0.0014      8.4738     39.1217     18.0373
   922.5000      8.0031      2.4924      0.0267      9.5501     39.5633     17.8455
   922.6000      8.0031      2.4874      0.0313      9.8556     42.0211     17.6508
   922.7000      8.0031      2.4986      0.0349      9.1767     43.6566     17.6706
   922.8000      7.9791      2.5171      0.0385      8.0551     42.0435     17.7547
   922.9000      7.9791      2.5244      0.0761      7.6121     38.5163     17.6496
   923.0000      7.9694      2.5102      0.0165      8.4746     36.0831     17.4785
   923.1000      7.9694      2.4928      0.0183      9.5248     34.9971     17.5612
   923.2000      7.9694      2.5001     -0.0243      9.0866     34.1278     17.7308
   923.3000      7.9741      2.5337      0.0197      7.0467     33.7108     17.7400
