~Version Information
VERS.                      2.0: CWLS Log ASCII Standard - VERSION 2.0
WRAP.                       NO: One line per depth step
~Well Information Block
STRT.FT               550.0000: 
STOP.FT              1664.0000: 
STEP.FT                 0.2500: 
NULL.                -999.2500: 
COMP.          Pioneer Natural Resources: COMPANY
WELL.          Stock Canyon 34-33: WELL
FLD.           Purgatorie River: FIELD
LOC.           980' FSL & 2191' FEL: LOCATION
PROV.                 Colorado: PROVINCE
CNTY.               Las Animas: COUNTRY
SRVC.                Patterson: SERVICE COMPANY
DATE.          Mon Dec 05 09:58:03 2005: LOG DATE
UWI.                          : UNIQUE WELL ID
~Curve Information Block
DEPT.FT            0 000 00 00: Depth
SN.Ohm-m                      : IEL Short Normal
SP.mV                         : IEL Spontaneous Potential
DIR.Ohm-m                     : IEL Induction Resistivity
GR.GAPI                       : Gamma Ray
~Parameter Information Block
~A  Depth        SN          SP         DIR          GR     
# ...
  1186.5000     20.0339    317.0902     13.1470     91.6293
  1186.7500     19.4839    317.0235     12.6487     86.5349
  1187.0000     18.7328    317.0274     12.1657     80.9106
  1187.2500     17.8170    317.0991     11.6867     79.7476
  1187.5000     16.7825    317.2170     11.2176     82.9149
  1187.7500     15.6710    317.3419     10.7799     87.7408
  1188.0000     14.5144    317.4243     10.3972     96.8727
  1188.2500     13.3400    317.4203     10.0798    103.1927
  1188.5000     12.1814    317.3078      9.8195    112.5432
  1188.7500     11.0883    317.0988      9.5971    118.7431
  1189.0000     10.1272    316.8391      9.3969    127.4392
  1189.2500      9.3704    316.5857      9.2159    132.0119
  1189.5000      8.8770    316.3733      9.0628    135.7807
  1189.7500      8.6763    316.1993      8.9515    136.3248
  1190.0000      8.7600    316.0405      8.8944    136.0647
  1190.2500      9.0870    315.8818      8.8999    136.5676
  1190.5000      9.5975    315.7260      8.9723    139.4165
  1190.7500     10.2275    315.5822      9.1126    142.2543
  1191.0000     10.9184    315.4576      9.3184    146.3400
  1191.2500     11.6211    315.3634      9.5837    148.3405
  1191.5000     12.2985    315.3224      9.9000    150.0632
  1191.7500     12.9276    315.3632     10.2566    150.3012
  1192.0000     13.5040    315.5062     10.6419    148.6712
  1192.2500     14.0411    315.7543     11.0430    145.8544
  1192.5000     14.5635    316.0941     11.4439    139.0295
  1192.7500     15.0940    316.5015     11.8245    133.2058
  1193.0000     15.6377    316.9449     12.1613    123.7505
  1193.2500     16.1723    317.3839     12.4314    117.7450
  1193.5000     16.6469    317.7689     12.6186    110.5039
  1193.7500     16.9931    318.0543     12.7174    107.4411
  1194.0000     17.1430    318.2201     12.7316    105.6053
  1194.2500     17.0495    318.2816     12.6684    105.5299
  1194.5000     16.7014    318.2771     12.5336    105.1094
  1194.7500     16.1278    318.2441     12.3323    103.6931
  1195.0000     15.3911    318.2059     12.0739     99.9863
  1195.2500     14.5719    318.1736     11.7735     97.3951
  1195.5000     13.7510    318.1555     11.4495     94.7716
  1195.7500     12.9928    318.1600     11.1187     94.0906
  1196.0000     12.3351    318.1917     10.7935     94.7470
  1196.2500     11.7859    318.2513     10.4802     96.5717
  1196.5000     11.3269    318.3419     10.1791    101.3879
  1196.7500     10.9231    318.4695      9.8857    105.1558
  1197.0000     10.5347    318.6320      9.5945    109.6355
  1197.2500     10.1302    318.8094      9.3029    111.3643
  1197.5000      9.6979    318.9706      9.0128    113.0375
  1197.7500      9.2514    319.0901      8.7296    114.4168
  1198.0000      8.8273    319.1614      8.4594    117.3667
  1198.2500      8.4739    319.1974      8.2070    119.3854
  1198.5000      8.2328    319.2234      7.9754    120.9501
  1198.7500      8.1213    319.2681      7.7659    120.4350
  1199.0000      8.1228    319.3567      7.5784    117.5870
  1199.2500      8.1904    319.5040      7.4116    114.9867
  1199.5000      8.2618    319.7092      7.2621    111.2675
  1199.7500      8.2789    319.9598      7.1246    109.3999
  1200.0000      8.2038    320.2450      6.9931    107.8089
  1200.2500      8.0266    320.5639      6.8627    107.4281
  1200.5000      7.7635    320.9173      6.7320    107.5666
  1200.7500      7.4487    321.2965      6.6038    108.1135
  1201.0000      7.1237    321.6850      6.4840    109.7950
  1201.2500      6.8272    322.0698      6.3793    111.5694
  1201.5000      6.5874    322.4380      6.2943    115.0996
  1201.7500      6.4194    322.7630      6.2309    117.6453
  1202.0000      6.3249    322.9998      6.1885    120.5511
  1202.2500      6.2967    323.0970      6.1654    121.3205
  1202.5000      6.3222    323.0146      6.1613    120.8507
  1202.7500      6.3884    322.7365      6.1769    119.9770
  1203.0000      6.4843    322.2716      6.2139    118.4767
  1203.2500      6.6019    321.6498      6.2740    117.4522
  1203.5000      6.7364    320.9154      6.3576    116.0747
  1203.7500      6.8847    320.1183      6.4652    115.4730
  1204.0000      7.0439    319.3055      6.5975    115.1349
  1204.2500      7.2107    318.5153      6.7557    115.0687
  1204.5000      7.3814    317.7775      6.9394    114.6651
  1204.7500      7.5518    317.1209      7.1434    114.0462
  1205.0000      7.7180    316.5791      7.3557    113.0760
  1205.2500      7.8759    316.1906      7.5585    112.9669
  1205.5000      8.0198    315.9886      7.7313    113.7920
  1205.7500      8.1413    315.9832      7.8564    114.2078
  1206.0000      8.2287    316.1495      7.9232    112.8092
  1206.2500      8.2704    316.4328      7.9312    110.1894
  1206.5000      8.2587    316.7710      7.8890    104.8182
  1206.7500      8.1944    317.1161      7.8108    101.3226
  1207.0000      8.0872    317.4417      7.7116     97.4754
  1207.2500      7.9511    317.7328      7.6038     95.9196
  1207.5000      7.7977    317.9742      7.4949     94.2121
  1207.7500      7.6306    318.1490      7.3884     92.8611
  1208.0000      7.4462    318.2510      7.2841     90.4693
  1208.2500      7.2398    318.2944      7.1800     89.4288
  1208.5000      7.0137    318.3112      7.0739     90.4862
  1208.7500      6.7816    318.3337      6.9644     93.3967
  1209.0000      6.5663    318.3745      6.8523    100.3507
  1209.2500      6.3919    318.4199      6.7404    105.7396
  1209.5000      6.2750    318.4449      6.6334    113.1021
  1209.7500      6.2190    318.4387      6.5352    116.7674
  1210.0000      6.2146    318.4166      6.4486    120.3665
  1210.2500      6.2444    318.4055      6.3744    122.0529
  1210.5000      6.2890    318.4229      6.3125    124.0207
  1210.7500      6.3324    318.4699      6.2632    124.7015
  1211.0000      6.3650    318.5316      6.2277    124.5597
  1211.2500      6.3838    318.5788      6.2084    124.1089
  1211.5000      6.3918    318.5756      6.2075    123.5525
  1211.7500      6.3960    318.4955      6.2263    123.1046
  1212.0000      6.4036    318.3318      6.2643    121.7470
  1212.2500      6.4193    318.0942      6.3184    120.3722
  1212.5000      6.4433    317.8015      6.3839    118.1036
  1212.7500      6.4714    317.4787      6.4543    116.9033
  1213.0000      6.4983    317.1520      6.5228    116.4551
  1213.2500      6.5209    316.8407      6.5838    117.2840
  1213.5000      6.5406    316.5509      6.6334    119.5351
  1213.7500      6.5634    316.2793      6.6709    121.0113
  1214.0000      6.5973    316.0242      6.6985    122.7465
  1214.2500      6.6493    315.7939      6.7207    123.8959
  1214.5000      6.7225    315.6024      6.7439    126.0598
  1214.7500      6.8140    315.4570      6.7752    127.5172
  1215.0000      6.9155    315.3483      6.8213    128.6980
  1215.2500      7.0152    315.2513      6.8876    128.4051
  1215.5000      7.1024    315.1309      6.9767    126.1217
  1215.7500      7.1712    314.9469      7.0884    123.3176
  1216.0000      7.2236    314.6594      7.2211    117.5726
  1216.2500      7.2697    314.2434      7.3726    113.6016
  1216.5000      7.3252    313.7066      7.5402    109.7673
  1216.7500      7.4078    313.0920      7.7194    109.6102
  1217.0000      7.5323    312.4598      7.9023    112.4275
  1217.2500      7.7074    311.8671      8.0777    114.7348
  1217.5000      7.9333    311.3627      8.2339    115.9051
  1217.7500      8.2017    310.9887      8.3628    114.5644
  1218.0000      8.4988    310.7771      8.4628    110.4641
  1218.2500      8.8099    310.7455      8.5387    107.3249
  1218.5000      9.1228    310.8977      8.5979    103.0244
  1218.7500      9.4276    311.2327      8.6468    100.6072
  1219.0000      9.7110    311.7499      8.6878     97.4239
  1219.2500      9.9475    312.4467      8.7187     95.1579
  1219.5000     10.0947    313.3124      8.7341     90.9510
  1219.7500     10.0982    314.3268      8.7276     88.0312
