~Version Information
VERS.                      2.0: CWLS Log ASCII Standard - VERSION 2.0
WRAP.                       NO: One line per depth step
~Well Information Block
STRT.FT               460.0000: 
STOP.FT              2311.7500: 
STEP.FT                 0.2500: 
NULL.                -999.2500: 
COMP.          Pioneer Natural Resources: COMPANY
WELL.          McDonald 33-31 R: WELL
FLD.           Purgatoire River: FIELD
LOC.           1386' FSL & 1926' FEL: LOCATION
STAT.                 Colorado: State
CNTY.               Las Animas: COUNTY
CTRY.                      USA: Country
SECT.                       31: Section
TOWN.                      32S: Township
RANG.                      66W: Range
SRVC.                Patterson: SERVICE COMPANY
DATE.          Fri Sep 23 00:08:18 2005: LOG DATE
API.           05 071 08533 00: API#
~Curve Information Block
DEPT.FT            0 000 00 00: Depth
SN.Ohm-m                      : IEL Short Normal
SP.mV                         : IEL Spontaneous Potential
DIR.Ohm-m                     : IEL Induction Resistivity
GR.GAPI                       : Gamma Ray
~Parameter Information Block
~A  Depth        SN          SP         DIR          GR     
# ...
   694.5000      0.0814   -414.4411     17.0283    136.1927
   694.7500      0.0775   -414.3835     16.9527    135.0830
   695.0000      0.0920   -414.2851     16.8923    130.5054
   695.2500      0.1202   -414.1521     16.7932    126.0584
   695.5000      0.1369   -414.0063     16.5972    118.6605
   695.7500      0.1243   -413.8838     16.2622    114.2351
   696.0000      0.0926   -413.8275     15.7803    110.0686
   696.2500      0.0687   -413.8778     15.1780    109.4554
   696.5000      0.0666   -414.0598     14.4982    111.1043
   696.7500      0.0755   -414.3757     13.7799    112.8427
   697.0000      0.0778   -414.8005     13.0499    114.9094
   697.2500      0.0718   -415.2840     12.3277    115.9502
   697.5000      0.0716   -415.7599     11.6318    118.3997
   697.7500      0.0864   -416.1590     10.9842    121.4087
   698.0000      0.1030   -416.4217     10.4079    127.8825
   698.2500      0.0958   -416.5110      9.9229    132.5871
   698.5000      0.0547   -416.4179      9.5423    138.4566
   698.7500      0.0013   -416.1616      9.2716    141.0995
   699.0000     -0.0274   -415.7833      9.1094    143.2419
   699.2500     -0.0120   -415.3376      9.0497    143.5309
   699.5000      0.0301   -414.8828      9.0823    142.0794
   699.7500      0.0593   -414.4719      9.1933    139.9052
   700.0000      0.0479   -414.1471      9.3648    135.6388
   700.2500      0.0051   -413.9355      9.5760    132.7341
   700.5000     -0.0351   -413.8466      9.8064    128.7707
   700.7500     -0.0451   -413.8726     10.0392    126.3169
   701.0000     -0.0248   -413.9905     10.2626    122.8049
   701.2500      0.0022   -414.1669     10.4677    120.7005
   701.5000      0.0109   -414.3647     10.6460    118.1741
   701.7500     -0.0024   -414.5510     10.7890    116.9382
   702.0000     -0.0180   -414.7038     10.8888    115.6353
   702.2500     -0.0148   -414.8157     10.9407    115.0293
   702.5000      0.0074   -414.8940     10.9457    114.2401
   702.7500      0.0291   -414.9563     10.9119    113.6320
   703.0000      0.0309   -415.0239     10.8545    112.6875
   703.2500      0.0135   -415.1153     10.7923    112.3760
   703.5000     -0.0012   -415.2397     10.7432    112.9805
   703.7500      0.0080   -415.3941     10.7196    114.1555
   704.0000      0.0388   -415.5622     10.7255    116.6973
   704.2500      0.0653   -415.7167     10.7562    118.5700
   704.5000      0.0632   -415.8241     10.7996    120.9095
   704.7500      0.0339   -415.8510     10.8401    121.7269
   705.0000      0.0011   -415.7711     10.8629    121.7557
   705.2500     -0.0173   -415.5716     10.8585    121.5183
   705.5000     -0.0296   -415.2578     10.8265    122.0172
   705.7500     -0.0560   -414.8553     10.7744    123.2025
   706.0000     -0.0977   -414.4085     10.7135    125.6531
   706.2500     -0.1309   -413.9776     10.6525    127.1146
   706.5000     -0.1323   -413.6305     10.5931    128.3253
   706.7500     -0.1046   -413.4349     10.5311    128.3946
   707.0000     -0.0735   -413.4475     10.4610    127.7711
   707.2500     -0.0624   -413.7011     10.3804    127.3849
   707.5000     -0.0683   -414.1925     10.2916    127.8950
   707.7500     -0.0650   -414.8730     10.1990    129.1203
   708.0000     -0.0281   -415.6456     10.1051    131.1379
   708.2500      0.0404   -416.3737     10.0102    131.6398
   708.5000      0.1105   -416.9036      9.9130    130.7763
   708.7500      0.1454   -417.0978      9.8131    129.8999
   709.0000      0.1309   -416.8715      9.7109    129.7000
   709.2500      0.0875   -416.2206      9.6057    130.5945
   709.5000      0.0549   -415.2307      9.4947    132.8785
   709.7500      0.0608   -414.0605      9.3739    134.4376
   710.0000      0.0972   -412.9034      9.2410    135.9490
   710.2500      0.1267   -411.9391      9.0972    136.1693
   710.5000      0.1148   -411.2918      8.9482    135.6104
   710.7500      0.0622   -411.0060      8.8037    135.0461
   711.0000      0.0011   -411.0477      8.6763    134.3579
   711.2500     -0.0333   -411.3262      8.5788    134.0108
   711.5000     -0.0300   -411.7260      8.5225    133.6681
   711.7500     -0.0052   -412.1374      8.5156    133.7557
   712.0000      0.0144   -412.4782      8.5626    134.5389
   712.2500      0.0151   -412.7024      8.6648    135.0115
   712.5000      0.0037   -412.7982      8.8208    133.8537
   712.7500     -0.0059   -412.7808      9.0277    131.0144
   713.0000     -0.0063   -412.6819      9.2838    124.0578
   713.2500      0.0029   -412.5410      9.5908    118.8019
   713.5000      0.0217   -412.3987      9.9547    111.9972
   713.7500      0.0524   -412.2902     10.3848    108.6513
   714.0000      0.0950   -412.2430     10.8907    105.1639
   714.2500      0.1420   -412.2733     11.4790    103.5832
   714.5000      0.1780   -412.3852     12.1505    102.0828
   714.7500      0.1924   -412.5713     12.8979    101.5509
   715.0000      0.1912   -412.8133     13.7048    101.0475
   715.2500      0.1902   -413.0854     14.5440    100.5790
   715.5000      0.1928   -413.3567     15.3806     99.1980
   715.7500      0.1816   -413.5957     16.1810     97.6806
   716.0000      0.1407   -413.7739     16.9282     94.4240
   716.2500      0.0808   -413.8694     17.6302     91.6019
   716.5000      0.0345   -413.8703     18.3117     86.6524
   716.7500      0.0266   -413.7747     18.9909     83.3539
   717.0000      0.0502   -413.5907     19.6574     79.6622
   717.2500      0.0741   -413.3333     20.2635     78.6007
   717.5000      0.0712   -413.0206     20.7332     79.1058
   717.7500      0.0439   -412.6710     20.9832     80.3737
   718.0000      0.0202   -412.3008     20.9454     82.8969
   718.2500      0.0275   -411.9240     20.5878     84.8824
   718.5000      0.0661   -411.5529     19.9272     88.6740
   718.7500      0.1085   -411.1993     19.0280     92.0171
   719.0000      0.1220   -410.8752     17.9871     98.3904
   719.2500      0.0972   -410.5927     16.9089    103.2862
   719.5000      0.0560   -410.3633     15.8802    110.6450
   719.7500      0.0329   -410.1972     14.9549    114.9920
   720.0000      0.0472   -410.1023     14.1519    120.2466
   720.2500      0.0883   -410.0823     13.4650    122.9485
   720.5000      0.1254   -410.1357     12.8784    125.9045
   720.7500      0.1351   -410.2531     12.3810    127.2027
   721.0000      0.1229   -410.4170     11.9725    128.6052
   721.2500      0.1129   -410.6028     11.6613    129.6776
   721.5000      0.1192   -410.7819     11.4565    132.2187
   721.7500      0.1318   -410.9278     11.3599    134.5584
   722.0000      0.1314   -411.0219     11.3630    138.2202
   722.2500      0.1122   -411.0586     11.4477    140.0195
   722.5000      0.0866   -411.0463     11.5899    140.8333
   722.7500      0.0702   -411.0065     11.7655    140.0897
   723.0000      0.0647   -410.9684     11.9555    137.6537
   723.2500      0.0586   -410.9646     12.1515    135.6331
   723.5000      0.0448   -411.0253     12.3564    132.8512
   723.7500      0.0323   -411.1747     12.5830    131.5956
   724.0000      0.0386   -411.4269     12.8497    130.8225
   724.2500      0.0716   -411.7823     13.1766    130.6488
   724.5000      0.1206   -412.2245     13.5819    129.5807
   724.7500      0.1627   -412.7188     14.0778    127.6560
   725.0000      0.1809   -413.2153     14.6684    122.7228
   725.2500      0.1782   -413.6561     15.3511    118.4644
   725.5000      0.1715   -413.9859     16.1248    111.5185
   725.7500      0.1669   -414.1637     16.9969    106.9009
   726.0000      0.1493   -414.1714     17.9830    100.3923
   726.2500      0.1032   -414.0168     19.0951     96.3645
   726.5000      0.0404   -413.7321     20.3296     90.3323
   726.7500     -0.0033   -413.3669     21.6640     85.9727
   727.0000     -0.0002   -412.9802     23.0637     79.0447
   727.2500      0.0444   -412.6309     24.4913     74.7082
   727.5000      0.0971   -412.3692     25.9068     69.5070
   727.7500      0.1246   -412.2296     27.2679     66.9936
