~Version Information
VERS.                      2.0: CWLS Log ASCII Standard - VERSION 2.0
WRAP.                       NO: One line per depth step
~Well Information Block
STRT.FT               615.0000: 
STOP.FT              2815.0000: 
STEP.FT                 0.2500: 
NULL.                -999.2500: 
COMP.          Pioneer Natural Resources: COMPANY
WELL.              Loews 41-32: WELL
FLD.           Purgatoire River: FIELD
LOC.           751' FNL & 128' FEL: LOCATION
CNTY.               Las Animas: COUNTY
SRVC.                Patterson: SERVICE COMPANY
DATE.          Sun Feb 12 02:27:11 2006: LOG DATE
UWI.           05 071 08693 00: UNIQUE WELL ID
STAT.                 Colorado: STATE
~Curve Information Block
DEPT.FT            0 000 00 00: Depth
SN.Ohm-m                      : IEL Short Normal
SP.mV                         : IEL Spontaneous Potential
DIR.Ohm-m                     : IEL Induction Resistivity
GR.GAPI                       : Gamma Ray
~Parameter Information Block
~A  Depth        SN          SP         DIR          GR     
# ...
  1620.0000     58.7497    -17.1068     42.0997     76.8201
  1620.2500     57.9457    -16.9363     41.8594     82.3633
  1620.5000     56.6181    -16.6999     41.7354     91.3725
  1620.7500     54.9635    -16.4155     41.6620     97.3565
  1621.0000     53.4888    -16.1175     41.5839    104.9428
  1621.2500     52.5220    -15.8421     41.4367    108.2913
  1621.5000     51.9329    -15.6082     41.1083    110.5197
  1621.7500     51.4172    -15.4056     40.4454    110.7194
  1622.0000     50.9572    -15.1995     39.3507    110.0929
  1622.2500     50.7972    -14.9483     37.9022    109.1914
  1622.5000     50.9845    -14.6248     36.3523    107.1973
  1622.7500     51.2156    -14.2260     34.9803    105.8987
  1623.0000     51.1159    -13.7713     33.9369    105.0595
  1623.2500     50.4840    -13.2926     33.2025    105.4301
  1623.5000     49.2689    -12.8246     32.6516    107.0047
  1623.7500     47.4198    -12.3963     32.1455    108.6641
  1624.0000     44.8984    -12.0236     31.5913    112.5396
  1624.2500     41.8306    -11.7059     30.9472    116.2682
  1624.5000     38.5385    -11.4267     30.2076    123.3206
  1624.7500     35.4585    -11.1610     29.3914    128.4241
  1625.0000     32.9873    -10.8863     28.5360    134.6752
  1625.2500     31.2402    -10.5935     27.6874    136.1639
  1625.5000     29.9769    -10.2883     26.8901    132.0347
  1625.7500     28.8144     -9.9840     26.1772    125.3181
  1626.0000     27.6293     -9.6931     25.5629    113.0097
  1626.2500     26.7206     -9.4226     25.0362    106.2146
  1626.5000     26.4013     -9.1735     24.5638    101.6174
  1626.7500     26.6669     -8.9465     24.1011    102.5828
  1627.0000     27.2988     -8.7509     23.6074    107.4765
  1627.2500     27.8975     -8.6048     23.0583    110.3985
  1627.5000     27.9637     -8.5214     22.4531    110.4901
  1627.7500     27.2599     -8.4979     21.8129    107.4037
  1628.0000     25.9551     -8.5191     21.1702    101.3707
  1628.2500     24.4032     -8.5685     20.5536     99.2151
  1628.5000     22.9620     -8.6365     19.9802    101.6729
  1628.7500     21.8819     -8.7201     19.4592    106.8554
  1629.0000     21.1487     -8.8179     19.0015    117.2390
  1629.2500     20.5275     -8.9267     18.6196    124.1266
  1629.5000     19.8709     -9.0411     18.3193    132.5400
  1629.7500     19.2511     -9.1552     18.0891    136.6548
  1630.0000     18.7626     -9.2622     17.9025    141.2008
  1630.2500     18.3805     -9.3529     17.7294    143.6259
  1630.5000     18.0708     -9.4192     17.5508    146.7035
  1630.7500     17.8917     -9.4588     17.3656    148.1690
  1631.0000     17.9098     -9.4777     17.1865    148.7262
  1631.2500     18.1009     -9.4827     17.0341    147.7049
  1631.5000     18.3809     -9.4753     16.9347    144.1472
  1631.7500     18.7118     -9.4534     16.9225    140.4778
  1632.0000     19.1727     -9.4211     17.0374    132.6117
  1632.2500     19.8864     -9.3928     17.3097    125.7307
  1632.5000     20.8526     -9.3852     17.7407    114.7070
  1632.7500     21.9008     -9.4041     18.2893    109.0318
  1633.0000     22.8154     -9.4395     18.8851    106.5101
  1633.2500     23.4838     -9.4732     19.4638    109.3818
  1633.5000     23.9386     -9.4925     20.0006    118.1836
  1633.7500     24.2701     -9.4966     20.5115    124.5397
  1634.0000     24.5135     -9.4949     21.0223    130.9297
  1634.2500     24.6580     -9.5013     21.5385    132.0573
  1634.5000     24.7355     -9.5294     22.0405    129.7728
  1634.7500     24.8073     -9.5879     22.5001    126.9696
  1635.0000     24.8789     -9.6793     22.8989    123.2218
  1635.2500     24.9388     -9.8001     23.2317    121.7975
  1635.5000     25.0475     -9.9448     23.4980    121.5919
  1635.7500     25.2684    -10.1099     23.6942    122.7585
  1636.0000     25.5520    -10.2935     23.8224    126.4384
  1636.2500     25.7769    -10.4918     23.9062    129.8197
  1636.5000     25.8821    -10.6981     23.9956    134.8666
  1636.7500     25.9173    -10.9042     24.1539    137.3379
  1637.0000     25.9828    -11.1032     24.4343    138.9037
  1637.2500     26.1900    -11.2920     24.8604    138.4321
  1637.5000     26.6519    -11.4747     25.4174    135.6064
  1637.7500     27.3987    -11.6615     26.0530    132.5705
  1638.0000     28.3563    -11.8594     26.6898    127.0200
  1638.2500     29.4981    -12.0659     27.2503    123.1193
  1638.5000     30.9159    -12.2749     27.6878    117.6414
  1638.7500     32.6815    -12.4855     28.0112    114.5354
  1639.0000     34.6966    -12.6971     28.2849    111.0071
  1639.2500     36.7001    -12.8959     28.6005    109.4230
  1639.5000     38.4104    -13.0564     29.0333    107.8852
  1639.7500     39.7127    -13.1583     29.6091    107.1585
  1640.0000     40.7381    -13.2040     30.2967    106.2673
  1640.2500     41.7171    -13.2212     31.0313    105.7502
  1640.5000     42.7855    -13.2550     31.7493    104.8106
  1640.7500     43.9282    -13.3541     32.4150    103.8215
  1641.0000     45.0363    -13.5521     33.0276    101.6784
  1641.2500     46.0233    -13.8503     33.6147    100.0117
  1641.5000     46.8798    -14.2146     34.2165     97.4909
  1641.7500     47.5874    -14.5931     34.8634     95.7631
  1642.0000     48.0919    -14.9430     35.5587     92.8610
  1642.2500     48.4479    -15.2486     36.2787     90.7165
  1642.5000     48.8250    -15.5247     36.9875     87.4539
  1642.7500     49.3014    -15.8037     37.6496     85.4290
  1643.0000     49.8015    -16.1147     38.2298     82.8601
  1643.2500     50.2377    -16.4651     38.6859     81.5122
  1643.5000     50.5966    -16.8360     38.9673     79.7569
  1643.7500     50.8998    -17.1949     39.0313     78.3953
  1644.0000     51.1905    -17.5152     38.8711     75.5999
  1644.2500     51.5160    -17.7857     38.5324     73.3142
  1644.5000     51.8310    -18.0053     38.0965     69.9107
  1644.7500     52.0259    -18.1704     37.6421     68.0977
  1645.0000     52.0768    -18.2681     37.2187     66.5351
  1645.2500     52.0160    -18.2785     36.8494     66.3029
  1645.5000     51.7682    -18.1845     36.5442     66.7533
  1645.7500     51.1593    -17.9807     36.3035     67.0926
  1646.0000     50.0946    -17.6766     36.1091     66.7763
  1646.2500     48.6500    -17.2963     35.9230     65.8331
  1646.5000     47.0009    -16.8739     35.7023     63.8881
  1646.7500     45.3432    -16.4443     35.4181     62.7344
  1647.0000     43.8134    -16.0301     35.0645     61.2763
  1647.2500     42.4322    -15.6320     34.6439     59.9702
  1647.5000     41.2303    -15.2319     34.1396     56.8583
  1647.7500     40.3085    -14.8073     33.5123     54.3769
  1648.0000     39.6775    -14.3426     32.7405     51.5270
  1648.2500     39.2199    -13.8331     31.8796     50.8108
  1648.5000     38.8395    -13.2842     31.0715     51.3003
  1648.7500     38.5138    -12.7122     30.4833     52.0403
  1649.0000     38.2572    -12.1447     30.2220     52.7457
  1649.2500     38.1106    -11.6166     30.2817     52.7762
  1649.5000     38.0779    -11.1587     30.5393     52.7217
  1649.7500     38.0665    -10.7853     30.8060     53.0726
  1650.0000     37.9719    -10.4921     30.9209     54.3791
  1650.2500     37.7807    -10.2641     30.8308     55.6321
  1650.5000     37.5038    -10.0857     30.5872     58.3880
  1650.7500     37.0644     -9.9461     30.2691     61.5336
  1651.0000     36.3431     -9.8381     29.9094     69.5529
  1651.2500     35.2759     -9.7544     29.4813     77.1916
  1651.5000     33.8380     -9.6841     28.9215     90.3963
  1651.7500     32.0160     -9.6146     28.1584     98.5370
  1652.0000     29.9353     -9.5352     27.1347    106.3056
  1652.2500     27.9809     -9.4392     25.8356    107.0139
  1652.5000     26.6454     -9.3255     24.3118    100.7281
  1652.7500     26.1828     -9.2014     22.6685     92.6158
  1653.0000     26.4843     -9.0841     21.0231     77.8716
  1653.2500     27.2837     -8.9973     19.4687     68.5157
