~Version Information
 VERS.                                  2.0 : CWLS LAS VERSION
 WRAP.                                   NO : WRAPING MODE
 SWARE .                 MController 2.5.0N : SOFTWARE VERSION
~Well Information
 WELL.                      Pioneer 34-27TR : WELL
 COMP.  Pioneer Natural Resources USA, Inc. : COMPANY
 FLD.                      Purgatoire River : FIELD
 LOC.               SW/SE Sec 27 T32S  R67W : LOCATION
 DATE.                            10/5-6/05 : DATE(S) LOGGED
 SRVC.       BLANCO Geological Services LLC : SERVICE COMPANY
 STAT.                                   CO : STATE
 CNTY.                           Las Animas : COUNTY
 CTRY.                                  USA : COUNTRY
 API.                       05-071-08548-00 : API NUMBER
 STRT.FT                             486.00 : START DEPTH
 STOP.FT                            1560.00 : STOP DEPTH
 STEP.FT                               1.00 : DEPTH INCREMENT
 NULL.                                -9999 : NULL VALUE
~Curve information
 DEPTH.FT                                   :
 ROP.MIN/FT                                 :
 GAS.UNITS                                  :
~ASCII Log data
# ...
      1286.0         1.80        453.6 
      1287.0         0.67        454.1 
      1288.0         0.47        353.7 
      1289.0         0.42        247.3 
      1290.0         0.37        174.0 
      1291.0         0.43        117.8 
      1292.0         0.37         76.6 
      1293.0         0.37         52.4 
      1294.0         0.57         38.2 
      1295.0         0.57         22.4 
      1296.0         0.28         12.2 
      1297.0         0.27         51.5 
      1298.0         0.33        116.5 
      1299.0         0.37        148.3 
      1300.0         0.30        157.8 
      1301.0         0.33        164.6 
      1302.0         0.30        169.1 
      1303.0         0.27        172.9 
      1304.0         0.23        175.5 
      1305.0         0.27        187.0 
      1306.0         0.23        190.3 
      1307.0         0.25        171.0 
      1308.0         0.20        147.2 
      1309.0         0.20        151.0 
      1310.0         0.23        178.7 
      1311.0         0.27        195.4 
      1312.0         0.23        206.1 
      1313.0         0.23        213.4 
      1314.0         0.30        197.6 
      1315.0         0.27        149.7 
      1316.0         1.85        382.8 
      1317.0         0.23        386.0 
      1318.0         0.20        371.4 
      1319.0         0.30        342.9 
      1320.0         0.37        318.7 
      1321.0         0.30        305.1 
      1322.0         0.23        277.1 
      1323.0         0.20        256.7 
      1324.0         0.33        229.9 
      1325.0         0.30        200.3 
      1326.0         0.32        200.1 
      1327.0         0.27        185.3 
      1328.0         0.27        186.1 
      1329.0         0.33        190.0 
      1330.0         0.23        187.4 
      1331.0         0.27        184.1 
      1332.0         0.27        171.0 
      1333.0         0.33        151.6 
      1334.0         0.50        147.0 
      1335.0         0.30        122.3 
      1336.0         0.42        145.8 
      1337.0         0.33        162.2 
      1338.0         0.33        164.1 
      1339.0         0.20        147.5 
      1340.0         0.20        143.2 
      1341.0         0.23        139.2 
      1342.0         0.33        141.3 
      1343.0         0.40        141.7 
      1344.0         0.37        145.1 
      1345.0         0.33        124.5 
      1346.0         1.98        349.4 
      1347.0         0.43        341.4 
      1348.0         0.53        283.7 
      1349.0         0.45        257.2 
      1350.0         0.37        214.7 
      1351.0         0.30        185.0 
      1352.0         0.30        175.5 
      1353.0         0.40        167.6 
      1354.0         0.50        158.1 
      1355.0         0.53        150.0 
      1356.0         0.27        132.3 
      1357.0         0.33        141.9 
      1358.0         0.28        131.3 
      1359.0         0.33        133.4 
      1360.0         0.33        142.8 
      1361.0         0.33        147.2 
      1362.0         0.37        151.0 
      1363.0         0.37        150.9 
      1364.0         0.37        148.7 
      1365.0         0.33        146.3 
      1366.0         0.37        146.2 
      1367.0         0.38        149.2 
      1368.0         0.33        153.6 
      1369.0         0.30        154.8 
      1370.0         0.30        154.5 
      1371.0         0.30        150.2 
      1372.0         0.33        142.3 
      1373.0         0.33        152.6 
      1374.0         0.33        152.7 
      1375.0         0.30        129.2 
      1376.0         2.42        462.2 
      1377.0         0.33        446.3 
      1378.0         0.30        381.9 
      1379.0         0.30        315.3 
      1380.0         0.30        251.4 
      1381.0         0.32        215.3 
      1382.0         0.27        186.1 
      1383.0         0.33        156.6 
      1384.0         0.40        131.0 
      1385.0         0.30        134.2 
      1386.0         0.27        145.0 
      1387.0         0.23        147.4 
      1388.0         0.27        150.2 
      1389.0         0.27        146.2 
      1390.0         0.30        147.4 
      1391.0         0.27        148.3 
      1392.0         0.18        151.7 
      1393.0         0.23        151.9 
      1394.0         0.20        147.4 
      1395.0         0.27        138.6 
      1396.0         0.37        132.9 
      1397.0         0.37        126.7 
      1398.0         0.37        129.7 
      1399.0         0.27        128.6 
      1400.0         0.37        132.5 
      1401.0         0.30        140.6 
      1402.0         0.30        141.9 
      1403.0         0.35        129.9 
      1404.0         0.20        106.2 
      1405.0         0.27        101.0 
      1406.0         1.93        455.9 
      1407.0         0.33        457.8 
      1408.0         0.52        416.5 
      1409.0         0.33        299.8 
      1410.0         0.37        231.3 
      1411.0         0.37        176.7 
      1412.0         0.27        129.6 
      1413.0         0.27        108.3 
      1414.0         0.37         88.6 
      1415.0         0.37        101.6 
      1416.0         0.30        113.6 
      1417.0         0.20        126.6 
      1418.0         0.25        136.2 
      1419.0         0.37        145.7 
      1420.0         0.27        143.4 
      1421.0         0.33        124.7 
      1422.0         0.37        107.5 
      1423.0         0.37        112.6 
      1424.0         0.33        126.1 
      1425.0         0.23        126.4 
      1426.0         0.37        130.2 
      1427.0         0.35        129.8 
      1428.0         0.40        125.7 
      1429.0         0.53        124.6 
      1430.0         0.37        126.6 
      1431.0         0.37        131.6 
      1432.0         0.27        130.4 
      1433.0         0.27        136.2 
      1434.0         0.23        132.4 
      1435.0         0.20        112.1 
      1436.0         2.18        445.4 
      1437.0         0.17        463.6 
      1438.0         0.20        463.6 
      1439.0         0.23        445.4 
      1440.0         0.23        399.6 
      1441.0         0.37        339.9 
      1442.0         0.25        256.4 
      1443.0         0.27        215.7 
      1444.0         0.30        179.1 
      1445.0         0.33        146.4 
      1446.0         0.33        117.6 
      1447.0         0.53         88.9 
      1448.0         0.37         56.2 
      1449.0         0.37         44.2 
      1450.0         0.30         38.6 
      1451.0         0.32         38.7 
      1452.0         0.40         40.1 
      1453.0         0.37         41.1 
      1454.0         0.37         45.7 
      1455.0         0.93         51.0 
      1456.0         0.43         36.7 
      1457.0         0.40         25.5 
      1458.0         0.45         16.4 
      1459.0         0.37         11.3 
      1460.0         0.27         16.7 
      1461.0         0.23         25.5 
      1462.0         0.50         44.9 
      1463.0         0.27         46.8 
      1464.0         0.43         45.2 
      1465.0         0.23         37.1 
      1466.0         3.75        131.0 
      1467.0         0.18        190.5 
      1468.0         0.53        305.3 
      1469.0         0.23        308.3 
      1470.0         0.27        301.5 
      1471.0         0.33        270.8 
      1472.0         0.23        227.7 
      1473.0         0.23        199.6 
      1474.0         0.20        173.9 
      1475.0         0.27        153.0 
      1476.0         0.33        128.1 
      1477.0         0.40        104.3 
      1478.0         0.45         80.4 
      1479.0         0.40         64.7 
      1480.0         0.53         54.4 
      1481.0         0.53         44.8 
      1482.0         0.50         35.5 
      1483.0         0.47         31.0 
      1484.0         0.47         27.8 
      1485.0         0.52         30.2 
