~Version Information
VERS.                      2.0: CWLS Log ASCII Standard - VERSION 2.0
WRAP.                       NO: One line per depth step
~Well Information Block
STRT.FT               345.0000: 
STOP.FT              2167.7000: 
STEP.FT                 0.1000: 
NULL.                -999.2500: 
COMP.          Pioneer Natural Resources: COMPANY
WELL.          Hemisphere 32-24: WELL
FLD.           Purgatoire River: FIELD
LOC.           1850' FNL & 2284' FEL--: LOCATION
PROV.                 Colorado: PROVINCE
CNTY.               Las Animas: COUNTRY
SRVC.                Patterson: SERVICE COMPANY
DATE.          Mon Aug 15 07:19:13 2005: LOG DATE
UWI.           05 071 08440 00: UNIQUE WELL ID
~Curve Information Block
DEPT.FT            0 000 00 00: Depth
DCAL.in                       : CDL Caliper
RHOB.g/cc                     : CDL Bulk Density
RHOC.g/cc                     : CDL Density Correction
DPOR.pu                       : CDL Density Porosity
NPOR.pu                       : Neutron Porosity
GR.GAPI                       : Gamma Ray
~Parameter Information Block
~A  Depth       DCAL        RHOB        RHOC        DPOR        NPOR         GR     
# ...
  1900.2000      7.9368      2.5657      0.0499      5.1095     24.5276    101.2158
  1900.3000      7.9357      2.5822      0.1083      4.1065     23.8692    101.9663
  1900.4000      7.9357      2.5771      0.0962      4.4160     23.7301    102.4364
  1900.5000      7.9374      2.5545      0.0197      5.7887     24.0623    101.9573
  1900.6000      7.9374      2.5453      0.0082      6.3453     24.4848     98.5650
  1900.7000      7.9374      2.5595      0.0893      5.4877     24.7416     95.5476
  1900.8000      7.9384      2.5734      0.0652      4.6414     24.9556     95.5999
  1900.9000      7.9384      2.5699      0.0662      4.8543     25.2035     93.8949
  1901.0000      7.9364      2.5547      0.0571      5.7733     25.1743     88.2086
  1901.1000      7.9364      2.5368      0.0794      6.8608     24.7332     87.5102
  1901.2000      7.9364      2.5171      0.0680      8.0536     24.1264     97.4564
  1901.3000      7.9340      2.5021      0.0077      8.9615     23.5100    110.1614
  1901.4000      7.9340      2.4977      0.0566      9.2303     23.1838    115.2045
  1901.5000      7.9334      2.4959      0.0711      9.3416     23.4876    110.9513
  1901.6000      7.9334      2.4943      0.0486      9.4339     24.3201    106.4512
  1901.7000      7.9334      2.4977      0.0484      9.2294     24.9969    107.6043
  1901.8000      7.9356      2.5083      0.0656      8.5867     24.8701    108.2295
  1901.9000      7.9356      2.5256      0.0713      7.5422     24.2233    105.4349
  1902.0000      7.9397      2.5395      0.0931      6.6942     23.7406    103.9237
  1902.1000      7.9397      2.5380      0.0724      6.7882     23.4971    104.3502
  1902.2000      7.9397      2.5178      0.0976      8.0094     23.0723    105.1981
  1902.3000      7.9412      2.4924      0.0223      9.5498     22.5297    106.7175
  1902.4000      7.9412      2.4854      0.0348      9.9756     22.2209    108.2855
  1902.5000      7.9356      2.5018      0.0699      8.9838     22.2135    108.2016
  1902.6000      7.9356      2.5247      0.0555      7.5939     22.8693    106.8582
  1902.7000      7.9356      2.5397      0.0910      6.6843     23.9973    106.0133
  1902.8000      7.9243      2.5450      0.0780      6.3624     24.6818    103.5014
  1902.9000      7.9243      2.5503      0.0933      6.0416     24.7826     96.5608
  1903.0000      7.9171      2.5626      0.1245      5.2970     24.5521     92.6003
  1903.1000      7.9171      2.5743      0.1072      4.5880     24.0209     98.1597
  1903.2000      7.9171      2.5741      0.1275      4.5983     23.5570    106.2696
  1903.3000      7.9212      2.5607      0.1064      5.4096     23.5734    108.6833
  1903.4000      7.9212      2.5465      0.0291      6.2716     23.7885    107.7196
  1903.5000      7.9304      2.5426      0.0544      6.5070     23.7013    106.5806
  1903.6000      7.9304      2.5438      0.0352      6.4380     23.3718    104.8844
  1903.7000      7.9304      2.5409      0.0560      6.6113     22.8426    101.5892
  1903.8000      7.9345      2.5301      0.0957      7.2668     22.2099     96.6240
  1903.9000      7.9345      2.5156      0.0459      8.1472     21.7955     94.4875
  1904.0000      7.9354      2.5104      0.0188      8.4598     21.4540     95.5719
  1904.1000      7.9354      2.5204      0.0158      7.8538     21.1010     94.8219
  1904.2000      7.9354      2.5328      0.0699      7.1054     21.0543     93.9257
  1904.3000      7.9366      2.5398      0.0128      6.6774     21.4040     99.4378
  1904.4000      7.9366      2.5559      0.0406      5.7058     21.8174    107.7601
  1904.5000      7.9385      2.5790      0.1056      4.3003     22.2128    108.2280
  1904.6000      7.9385      2.5883      0.0627      3.7407     22.7718     98.3640
  1904.7000      7.9385      2.5782      0.0813      4.3496     23.2290     89.8478
  1904.8000      7.9403      2.5563      0.0395      5.6774     23.1026     91.3134
  1904.9000      7.9403      2.5352      0.0608      6.9553     22.3454     95.5732
  1905.0000      7.9412      2.5267      0.0813      7.4744     21.5495     94.9168
  1905.1000      7.9412      2.5288      0.1150      7.3436     21.3466     90.1989
  1905.2000      7.9412      2.5301      0.0956      7.2663     21.6010     83.8343
  1905.3000      7.9404      2.5269      0.0836      7.4590     21.7998     78.5727
  1905.4000      7.9404      2.5295      0.0431      7.3028     21.8265     77.5098
  1905.5000      7.9397      2.5431      0.0784      6.4799     21.8193     78.0242
  1905.6000      7.9397      2.5496      0.1055      6.0830     21.7189     77.7230
  1905.7000      7.9397      2.5441      0.0244      6.4204     21.5202     78.2691
  1905.8000      7.9397      2.5469      0.0516      6.2502     21.4450     81.7167
  1905.9000      7.9397      2.5553      0.0725      5.7414     21.4213     88.6057
  1906.0000      7.9380      2.5464      0.0692      6.2780     21.2833     93.9532
  1906.1000      7.9380      2.5198      0.0445      7.8920     21.3093     92.3160
  1906.2000      7.9380      2.4965      0.0074      9.3010     21.5049     88.3891
  1906.3000      7.9367      2.4880      0.0491      9.8189     21.6778     87.0338
  1906.4000      7.9367      2.4871      0.0376      9.8709     21.8327     86.2744
  1906.5000      7.9374      2.4944      0.0047      9.4294     21.9602     86.3061
  1906.6000      7.9374      2.5216      0.0433      7.7823     21.9915     86.6102
  1906.7000      7.9374      2.5617      0.1020      5.3492     21.7679     83.5390
  1906.8000      7.9363      2.5870      0.1208      3.8207     21.3934     78.9917
  1906.9000      7.9363      2.5893      0.0789      3.6792     21.1836     76.5889
  1907.0000      7.9349      2.5931      0.1076      3.4484     20.9979     74.8324
  1907.1000      7.9349      2.6137      0.1248      2.2028     20.7396     74.3113
  1907.2000      7.9349      2.6392      0.1413      0.6517     20.6429     76.8769
  1907.3000      7.9378      2.6489      0.1467      0.0692     20.4916     79.8152
  1907.4000      7.9378      2.6365      0.0918      0.8180     20.2561     80.6742
  1907.5000      7.9401      2.6179      0.0388      1.9461     20.2141     78.5653
  1907.6000      7.9401      2.5970      0.1158      3.2096     20.1834     77.3751
  1907.7000      7.9401      2.5687      0.0235      4.9243     19.9095     80.9721
  1907.8000      7.9403      2.5552      0.0052      5.7446     19.4772     83.7432
  1907.9000      7.9403      2.5617      0.0740      5.3536     19.2811     80.2713
  1908.0000      7.9378      2.5547      0.0703      5.7739     19.5407     74.7150
  1908.1000      7.9378      2.5268      0.0239      7.4657     20.0004     73.1413
  1908.2000      7.9378      2.5068      0.0176      8.6811     20.3632     75.4292
  1908.3000      7.9327      2.5119      0.0261      8.3678     20.5352     75.9515
  1908.4000      7.9327      2.5333      0.0816      7.0746     20.6573     71.0343
  1908.5000      7.9267      2.5508      0.0826      6.0100     20.8062     66.0878
  1908.6000      7.9267      2.5535      0.0959      5.8465     20.9412     66.6967
  1908.7000      7.9267      2.5450      0.0786      6.3620     21.3557     69.7351
  1908.8000      7.9202      2.5349      0.0654      6.9739     21.9849     71.8586
  1908.9000      7.9202      2.5293      0.0979      7.3138     22.1895     75.9274
  1909.0000      7.9148      2.5289      0.0573      7.3411     21.9264     81.8120
  1909.1000      7.9148      2.5313      0.1060      7.1958     21.8118     84.3976
  1909.2000      7.9148      2.5367      0.0797      6.8637     21.9745     83.3417
  1909.3000      7.9125      2.5493      0.0576      6.1019     22.1343     80.9351
  1909.4000      7.9125      2.5632      0.0794      5.2633     22.2137     79.3547
  1909.5000      7.9128      2.5678      0.0962      4.9848     21.9888     80.4810
  1909.6000      7.9128      2.5603      0.1170      5.4390     21.5138     80.2871
  1909.7000      7.9128      2.5417      0.0869      6.5658     21.1777     78.4753
