~Version Information
VERS.                      2.0: CWLS Log ASCII Standard - VERSION 2.0
WRAP.                       NO: One line per depth step
~Well Information Block
STRT.FT               555.0000: 
STOP.FT              2322.2500: 
STEP.FT                 0.2500: 
NULL.                -999.2500: 
COMP.          Pioneer Natural Resources: COMPANY
WELL.          Fittipaldi 21-12: WELL
FLD.           Purgatoire River: FIELD
LOC.           207' FNL & 2110' FWL--: LOCATION
CNTY.               Las Animas: COUNTY
SRVC.                Patterson: SERVICE COMPANY
DATE.          Tue Mar 21 10:27:48 2006: LOG DATE
UWI.           05 071 08492 00: UNIQUE WELL ID
STAT.                 Colorado: STATE
~Curve Information Block
DEPT.FT            0 000 00 00: Depth
SN.Ohm-m                      : IEL Short Normal
SP.mV                         : IEL Spontaneous Potential
DIR.Ohm-m                     : IEL Induction Resistivity
GR.GAPI                       : Gamma Ray
~Parameter Information Block
~A  Depth        SN          SP         DIR          GR     
# ...
  1828.0000      9.7322     56.8477      9.7648    126.5092
  1828.2500      9.8750     56.8449     10.1059    123.7481
  1828.5000     10.1032     56.8514     10.4703    122.3422
  1828.7500     10.3914     56.8705     10.8344    123.4083
  1829.0000     10.6830     56.9047     11.1562    126.9684
  1829.2500     10.9128     56.9545     11.3842    129.5649
  1829.5000     11.0336     57.0193     11.4785    132.3280
  1829.7500     11.0319     57.0965     11.4295    133.3211
  1830.0000     10.9281     57.1831     11.2645    134.5883
  1830.2500     10.7641     57.2760     11.0349    136.0394
  1830.5000     10.5837     57.3729     10.7954    139.5056
  1830.7500     10.4149     57.4732     10.5876    142.1824
  1831.0000     10.2627     57.5777     10.4344    145.3960
  1831.2500     10.1156     57.6889     10.3417    146.4639
  1831.5000      9.9613     57.8103     10.3029    146.2471
  1831.7500      9.7997     57.9459     10.3040    145.1480
  1832.0000      9.6446     58.0988     10.3276    143.1859
  1832.2500      9.5149     58.2712     10.3564    142.5358
  1832.5000      9.4222     58.4635     10.3765    143.4169
  1832.7500      9.3652     58.6745     10.3775    145.0627
  1833.0000      9.3314     58.9015     10.3505    148.1911
  1833.2500      9.3009     59.1409     10.2859    150.2647
  1833.5000      9.2520     59.3890     10.1746    152.9263
  1833.7500      9.1679     59.6416     10.0113    154.2804
  1834.0000      9.0420     59.8943      9.7977    155.8129
  1834.2500      8.8798     60.1415      9.5424    156.7834
  1834.5000      8.6951     60.3761      9.2584    158.5566
  1834.7500      8.5050     60.5890      8.9609    159.8256
  1835.0000      8.3273     60.7694      8.6668    161.1738
  1835.2500      8.1789     60.9064      8.3936    161.4888
  1835.5000      8.0721     60.9902      8.1579    161.5401
  1835.7500      8.0094     61.0139      7.9713    161.6614
  1836.0000      7.9798     60.9744      7.8375    161.6485
  1836.2500      7.9630     60.8728      7.7522    160.7040
  1836.5000      7.9407     60.7142      7.7041    156.6087
  1836.7500      7.9066     60.5068      7.6798    152.1265
  1837.0000      7.8684     60.2610      7.6683    144.3840
  1837.2500      7.8420     59.9881      7.6635    139.9340
  1837.5000      7.8422     59.7001      7.6653    136.2832
  1837.7500      7.8757     59.4085      7.6761    136.2584
  1838.0000      7.9370     59.1237      7.6979    138.9370
  1838.2500      8.0089     58.8551      7.7291    141.4614
  1838.5000      8.0671     58.6102      7.7650    144.6543
  1838.7500      8.0916     58.3942      7.7991    145.7713
  1839.0000      8.0777     58.2101      7.8267    145.6075
  1839.2500      8.0389     58.0589      7.8463    144.6476
  1839.5000      7.9990     57.9394      7.8603    143.5198
  1839.7500      7.9787     57.8495      7.8726    143.8766
  1840.0000      7.9866     57.7867      7.8866    146.2338
  1840.2500      8.0175     57.7486      7.9040    148.2579
  1840.5000      8.0600     57.7335      7.9254    150.4534
  1840.7500      8.1048     57.7400      7.9527    150.9098
  1841.0000      8.1503     57.7663      7.9906    150.1135
  1841.2500      8.2038     57.8101      8.0470    148.9101
  1841.5000      8.2769     57.8675      8.1313    147.0288
  1841.7500      8.3781     57.9341      8.2522    146.3058
  1842.0000      8.5069     58.0053      8.4148    146.4047
  1842.2500      8.6526     58.0777      8.6179    146.7990
  1842.5000      8.7957     58.1503      8.8516    146.0332
  1842.7500      8.9108     58.2244      9.0960    143.6060
  1843.0000      8.9714     58.3033      9.3224    137.1783
  1843.2500      8.9597     58.3914      9.4994    132.3084
  1843.5000      8.8743     58.4920      9.6018    126.8054
  1843.7500      8.7317     58.6063      9.6184    125.3139
  1844.0000      8.5601     58.7326      9.5536    126.6940
  1844.2500      8.3897     58.8660      9.4223    129.6060
  1844.5000      8.2455     58.9994      9.2429    135.3534
  1844.7500      8.1413     59.1246      9.0315    139.0120
  1845.0000      8.0787     59.2335      8.8005    143.0346
  1845.2500      8.0475     59.3193      8.5598    144.5401
  1845.5000      8.0277     59.3773      8.3186    144.9854
  1845.7500      7.9974     59.4052      8.0876    144.0273
  1846.0000      7.9436     59.4031      7.8792    140.7425
  1846.2500      7.8678     59.3735      7.7052    137.5028
  1846.5000      7.7812     59.3201      7.5744    131.6013
  1846.7500      7.6972     59.2478      7.4900    127.3338
  1847.0000      7.6279     59.1617      7.4495    121.1270
  1847.2500      7.5826     59.0666      7.4458    117.6030
  1847.5000      7.5649     58.9666      7.4680    114.0306
  1847.7500      7.5704     58.8653      7.5043    113.0038
  1848.0000      7.5901     58.7654      7.5433    113.2934
  1848.2500      7.6161     58.6688      7.5765    114.4233
  1848.5000      7.6461     58.5766      7.5991    117.0381
  1848.7500      7.6839     58.4892      7.6117    119.1056
  1849.0000      7.7356     58.4062      7.6192    122.2244
  1849.2500      7.8036     58.3266      7.6298    124.1350
  1849.5000      7.8851     58.2492      7.6536    126.5306
  1849.7500      7.9740     58.1732      7.6993    127.5411
  1850.0000      8.0654     58.0988      7.7732    127.3699
  1850.2500      8.1556     58.0276      7.8772    125.7202
  1850.5000      8.2400     57.9624      8.0087    120.8391
  1850.7500      8.3127     57.9072      8.1598    116.2360
  1851.0000      8.3684     57.8656      8.3195    107.9638
  1851.2500      8.4088     57.8402      8.4773    102.0855
  1851.5000      8.4449     57.8324      8.6275     94.2582
  1851.7500      8.4952     57.8418      8.7701     90.8062
  1852.0000      8.5745     57.8674      8.9058     89.4245
  1852.2500      8.6785     57.9080      9.0262     90.7124
  1852.5000      8.7740     57.9633      9.1069     93.9721
  1852.7500      8.8063     58.0339      9.1113     95.8894
  1853.0000      8.7281     58.1208      9.0066     98.0331
  1853.2500      8.5287     58.2251      8.7852     99.7391
  1853.5000      8.2443     58.3468      8.4734    103.9879
  1853.7500      7.9396     58.4845      8.1192    107.7779
  1854.0000      7.6748     58.6351      7.7708    113.5191
  1854.2500      7.4801     58.7937      7.4596    116.9231
  1854.5000      7.3498     58.9545      7.1956    121.6555
  1854.7500      7.2548     59.1108      6.9726    124.6436
  1855.0000      7.1605     59.2560      6.7773    128.2705
  1855.2500      7.0424     59.3841      6.5974    129.8068
  1855.5000      6.8943     59.4902      6.4255    131.0229
  1855.7500      6.7271     59.5707      6.2605    131.4341
  1856.0000      6.5595     59.6239      6.1051    131.7733
  1856.2500      6.4083     59.6496      5.9649    131.9423
  1856.5000      6.2847     59.6487      5.8464    132.5298
  1856.7500      6.1947     59.6231      5.7565    133.5020
  1857.0000      6.1435     59.5746      5.7004    136.4081
  1857.2500      6.1381     59.5046      5.6816    139.3663
  1857.5000      6.1868     59.4136      5.7001    144.3383
  1857.7500      6.2914     59.3015      5.7522    146.9448
  1858.0000      6.4398     59.1682      5.8307    148.6537
  1858.2500      6.6048     59.0140      5.9265    148.6807
  1858.5000      6.7530     58.8405      6.0316    148.4473
  1858.7500      6.8581     58.6514      6.1417    148.3759
  1859.0000      6.9085     58.4523      6.2557    147.5409
  1859.2500      6.9048     58.2504      6.3736    145.9031
  1859.5000      6.8539     58.0541      6.4936    141.7367
  1859.7500      6.7645     57.8714      6.6105    138.4266
  1860.0000      6.6473     57.7097      6.7159    134.3986
  1860.2500      6.5144     57.5749      6.7994    133.1225
  1860.5000      6.3779     57.4715      6.8507    132.9450
  1860.7500      6.2464     57.4028      6.8627    132.7784
  1861.0000      6.1236     57.3705      6.8326    130.3767
  1861.2500      6.0121     57.3761      6.7625    126.8796
