~Version Information
VERS.                      2.0: CWLS Log ASCII Standard - VERSION 2.0
WRAP.                       NO: One line per depth step
~Well Information Block
STRT.FT                -8.2500: 
STOP.FT               686.7500: 
STEP.FT                 0.2500: 
NULL.                -999.2500: 
COMP.          Pioneer Natural Resources: COMPANY
WELL.           Quintessa 23-7: WELL
FLD.           Purgatorie River: FIELD
LOC.           1964' FSL & 2589' FWL--: LOCATION
PROV.                       CO: PROVINCE
CNTY.               Las Animas: COUNTRY
SRVC.          Patterson Wireline: SERVICE COMPANY
DATE.          Wed Nov 23 10:31:07 2005: LOG DATE
UWI.           05 071 08558 00: UNIQUE WELL ID
~Curve Information Block
DEPT.FT            0 000 00 00: Depth
CCL.                          : Casing Collar Locator
TT3.usec                      : CBL 3' Travel Time
AMP3.mV                       : CBL 3' Amplitude
GR.GAPI                       : Gamma Ray
~Parameter Information Block
~A  Depth       CCL         TT3         AMP3         GR     
# ...
    25.2500      0.0000    282.2328     84.3554     63.2667
    25.5000      0.0000    282.2242     84.3644     67.3225
    25.7500      0.0000    282.2133     84.3893     72.6815
    26.0000      0.0000    282.2003     84.4260     77.1076
    26.2500      0.0000    282.1866     84.4676     79.4592
    26.5000      0.0000    282.1741     84.5099     80.3889
    26.7500      0.0000    282.1649     84.5486     81.6236
    27.0000      0.0000    282.1597     84.5751     84.5817
    27.2500      0.0000    282.1574     84.5810     89.6561
    27.5000      0.0000    282.1561     84.5647     96.2688
    27.7500      0.0000    282.1539     84.5321    103.0320
    28.0000      0.0000    282.1504     84.4930    108.2434
    28.2500      0.0000    282.1456     84.4584    110.9679
    28.5000      0.0000    282.1396     84.4377    111.5953
    28.7500      0.0000    282.1321     84.4366    111.1062
    29.0000      0.0000    282.1233     84.4582    110.0688
    29.2500      0.0000    282.1131     84.5022    108.5191
    29.5000      0.0000    282.1023     84.5614    106.3719
    29.7500      0.0000    282.0924     84.6208    103.5246
    30.0000      0.0000    282.0853     84.6632     99.7318
    30.2500      0.0000    282.0817     84.6792     94.8441
    30.5000      0.0000    282.0803     84.6703     89.2988
    30.7500      0.0000    282.0786     84.6460     84.1143
    31.0000      0.0000    282.0747     84.6168     80.2147
    31.2500      0.0000    282.0683     84.5916     77.8166
    31.5000      0.0000    282.0598     84.5757     76.3949
    31.7500      0.0000    282.0507     84.5695     74.9291
    32.0000      0.0000    282.0447     84.5613     72.3438
    32.2500      0.0000    282.0462     84.5206     68.3807
    32.5000      0.0000    282.0584     84.3949     64.2282
    32.7500      0.0000    282.0801     84.1183     61.8969
    33.0000      0.0000    282.1042     83.6319     62.7547
    33.2500      0.0000    282.1183     82.8935     66.5663
    33.5000      0.0000    282.1103     81.8574     71.6132
    33.7500      0.0000    282.0770     80.4348     75.6797
    34.0000      0.0000    282.0305     78.4834     77.3676
    34.2500      0.0000    282.0035     75.8558     76.7094
    34.5000      0.0000    282.0551     72.4769     74.4067
    34.7500      0.0000    282.2980     68.3873     70.8140
    35.0000      0.0000    282.9663     63.7289     66.2001
    35.2500      0.0000    284.5216     58.7102     61.6981
    35.5000      0.0000    287.6557     53.5818     59.0201
    35.7500      0.0000    292.9487     48.5946     58.9644
    36.0000      0.0000    300.2216     43.9363     60.8083
    36.2500      0.0000    308.2188     39.6944     63.2778
    36.5000      0.0000    315.2163     35.8830     65.5405
    36.7500      0.0000    320.1130     32.5026     67.2896
    37.0000      0.0000    322.9196     29.5845     68.6166
    37.2500      0.0000    324.3326     27.1924     70.0374
    37.5000      0.0000    325.1281     25.3710     72.1731
    37.7500      0.0000    325.9714     24.0771     75.0297
    38.0000      0.0000    328.0961     23.1715     77.6656
    38.2500      0.0000    334.6206     22.4948     78.8571
    38.5000      0.0000    351.6565     21.9546     78.3755
    38.7500      0.0000    385.9089     21.5438     77.6012
    39.0000      0.0000    436.8456     21.2888     78.4849
    39.2500      0.0000    490.8802     21.1726     81.7008
    39.5000      0.0000    531.8503     21.0640     86.0282
    39.7500      0.0000    563.9411     20.7011     89.5256
    40.0000      0.0000    616.2386     19.8214     91.0459
    40.2500      0.0000    713.1760     18.4175     90.8295
    40.5000      0.0000    843.5028     16.8582     90.0228
    40.7500      0.0000    967.3736     15.6537     89.6039
    41.0000      0.0000   1051.9672     15.0696     89.6785
    41.2500      0.0000   1094.0745     14.9998     89.7980
    41.5000      0.0000   1111.7063     15.1624     89.7148
    41.7500     -2.0000   1122.5101     15.3323     89.6220
    42.0000      0.0000   1131.4817     15.4196     89.9287
    42.2500      0.0000   1132.4891     15.4614     90.9314
    42.5000      0.0000   1115.2894     15.6303     92.4245
    42.7500      0.0000   1072.4933     16.2009     93.5392
    43.0000      0.0000   1007.0485     17.3595     93.2947
    43.2500      0.0000    933.8432     18.9519     91.4579
    43.5000      0.0000    866.1207     20.4839     88.7328
    43.7500      0.0000    798.1194     21.4787     86.0532
    44.0000      0.0000    712.0945     21.8230     83.7922
    44.2500      0.0000    607.2756     21.7431     81.6491
    44.5000      0.0000    511.7304     21.5240     79.2700
    44.7500      0.0000    459.1298     21.3150     76.9857
    45.0000      0.0000    457.7123     21.1491     75.7481
    45.2500      0.0000    482.3958     21.0526     76.1783
    45.5000      0.0000    494.7367     21.0897     77.8051
    45.7500      0.0000    473.2938     21.3046     79.3978
    46.0000      0.0000    426.9834     21.6471     79.9878
    46.2500      0.0000    379.9965     21.9794     79.4925
    46.5000      0.0000    348.4561     22.1661     78.6080
    46.7500      0.0000    333.2921     22.1582     78.3964
    47.0000      0.0000    328.1813     22.0046     79.8668
    47.2500      0.0000    328.2661     21.7980     83.5758
    47.5000      0.0000    333.5060     21.6095     89.3499
    47.7500      0.0000    348.7075     21.4508     96.2445
    48.0000      0.0000    380.2444     21.2827    102.8145
    48.2500      0.0000    427.3896     21.0649    107.6992
    48.5000      0.0000    474.3740     20.8078    110.2155
    48.7500      0.0000    497.3984     20.5773    110.5279
    49.0000      0.0000    487.6649     20.4469    109.3380
    49.2500      0.0000    466.7300     20.4416    107.4397
    49.5000      0.0000    474.8432     20.5201    105.4793
    49.7500      0.0000    543.0480     20.5989    103.7951
    50.0000      0.0000    671.9032     20.5906    102.0463
    50.2500      0.0000    829.8942     20.4339     99.0236
    50.5000      0.0000    973.1386     20.1095     93.4765
    50.7500      0.0000   1072.5654     19.6435     85.5442
    51.0000      0.0000   1125.7506     19.1034     77.0521
    51.2500      0.0000   1146.6108     18.5900     70.1802
    51.5000      0.0000   1148.2572     18.2165     66.2047
    51.7500      0.0000   1134.0256     18.0708     65.3594
    52.0000      0.0000   1099.2600     18.1752     67.0027
    52.2500      0.0000   1040.8517     18.4690     69.7441
    52.5000      0.0000    967.0408     18.8285     72.1136
    52.7500      0.0000    897.3250     19.1128     73.5300
    53.0000      0.0000    852.3538     19.2182     74.5667
    53.2500      0.0000    846.0277     19.1153     76.2549
    53.5000      0.0000    882.6830     18.8524     78.9751
    53.7500      0.0000    952.5391     18.5247     81.7136
    54.0000      0.0000   1031.5930     18.2276     82.5366
    54.2500      0.0000   1095.1777     18.0243     80.2898
    54.5000      0.0000   1133.1201     17.9402     75.8955
    54.7500      0.0000   1150.2133     17.9728     71.7017
    55.0000      0.0000   1156.0902     18.0995     69.7153
    55.2500      0.0000   1157.6309     18.2878     70.5126
    55.5000      0.0000   1157.9471     18.5038     73.2204
    55.7500      0.0000   1158.0000     18.7122     76.0771
    56.0000      0.0000   1158.0000     18.8730     77.3320
    56.2500      0.0000   1158.0000     18.9550     76.0802
    56.5000      0.0000   1158.0000     18.9639     72.5538
    56.7500      0.0000   1158.0000     18.9510     67.8950
    57.0000      0.0000   1157.9443     18.9829     63.6771
    57.2500      0.0000   1157.5817     19.1002     61.2714
    57.5000      0.0000   1155.7950     19.3025     61.2816
    57.7500      0.0000   1148.8718     19.5656     63.3902
    58.0000      0.0000   1128.2710     19.8610     66.7438
    58.2500      0.0000   1081.7183     20.1612     70.4285
    58.5000      0.0000   1003.5754     20.4329     73.5503
