~Version Information
VERS.                      2.0: CWLS Log ASCII Standard - VERSION 2.0
WRAP.                       NO: One line per depth step
~Well Information Block
STRT.FT               340.0000: 
STOP.FT              2342.7000: 
STEP.FT                 0.1000: 
NULL.                -999.2500: 
COMP.          Pioneer Natural Resources: COMPANY
WELL.          Pinkerton 41-12: WELL
FLD.           Purgatoire River: FIELD
LOC.           1222' FNL & 670' FEL--: LOCATION
CNTY.               Las Animas: COUNTY
SRVC.                Patterson: SERVICE COMPANY
DATE.          Thu Mar 16 06:39:17 2006: LOG DATE
UWI.           05 071 08500 00: UNIQUE WELL ID
STAT.                 Colorado: STATE
~Curve Information Block
DEPT.FT            0 000 00 00: Depth
DCAL.in                       : CDL Caliper
RHOB.g/cc                     : CDL Bulk Density
RHOC.g/cc                     : CDL Density Correction
DPOR.pu                       : CDL Density Porosity
NPOR.pu                       : Neutron Porosity
GR.GAPI                       : Gamma Ray
~Parameter Information Block
~A  Depth       DCAL        RHOB        RHOC        DPOR        NPOR         GR     
# ...
  1914.4000      8.0323      2.5132      0.0390      8.2900     23.4858     59.0056
  1914.5000      8.0275      2.5159      0.0219      8.1258     23.3081     54.3776
  1914.6000      8.0275      2.5209      0.0314      7.8219     22.9943     55.8622
  1914.7000      8.0275      2.5268      0.0216      7.4657     22.5894     58.1748
  1914.8000      8.0425      2.5249      0.0631      7.5830     22.1781     58.9956
  1914.9000      8.0425      2.5038      0.0340      8.8587     21.9177     58.6352
  1915.0000      8.0680      2.4657     -0.0051     11.1672     21.7016     56.3665
  1915.1000      8.0680      2.4274     -0.0390     13.4910     21.2600     55.4486
  1915.2000      8.0680      2.4122     -0.0114     14.4096     20.7570     58.6015
  1915.3000      8.0910      2.4263     -0.0121     13.5570     20.6697     61.4105
  1915.4000      8.0910      2.4535      0.0263     11.9098     21.1044     59.7956
  1915.5000      8.1003      2.4758      0.0572     10.5565     21.5989     56.1078
  1915.6000      8.1003      2.4834      0.0811     10.0965     21.9374     54.3647
  1915.7000      8.1003      2.4793      0.0618     10.3462     22.3877     53.4248
  1915.8000      8.1001      2.4786      0.0106     10.3908     22.7812     51.0118
  1915.9000      8.1001      2.4900      0.0393      9.6941     22.8823     48.6256
  1916.0000      8.0965      2.5022      0.1115      8.9586     22.8158     48.8645
  1916.1000      8.0965      2.4990      0.0721      9.1535     22.5983     52.3951
  1916.2000      8.0965      2.4810      0.0779     10.2424     22.3978     55.4056
  1916.3000      8.0879      2.4638      0.0397     11.2876     22.3655     53.1840
  1916.4000      8.0879      2.4604      0.0525     11.4923     22.3948     49.2191
  1916.5000      8.0780      2.4630      0.0704     11.3351     22.4664     47.9579
  1916.6000      8.0780      2.4594      0.0464     11.5530     22.5483     46.3648
  1916.7000      8.0780      2.4564      0.0190     11.7306     22.6707     44.6636
  1916.8000      8.0732      2.4685      0.0561     11.0001     22.8863     46.4895
  1916.9000      8.0732      2.4927      0.0531      9.5315     23.1107     49.9115
  1917.0000      8.0748      2.5129      0.0847      8.3092     23.3304     52.4314
  1917.1000      8.0748      2.5232      0.0831      7.6853     23.6046     54.1414
  1917.2000      8.0748      2.5229      0.1022      7.7044     23.9612     54.6425
  1917.3000      8.0732      2.5061      0.0895      8.7226     24.3385     51.6236
  1917.4000      8.0732      2.4828      0.0390     10.1347     24.3887     46.6776
  1917.5000      8.0672      2.4693      0.0775     10.9535     24.0189     47.2315
  1917.6000      8.0672      2.4640      0.0476     11.2757     23.4586     55.0304
  1917.7000      8.0672      2.4611      0.0701     11.4469     22.9727     60.9537
  1917.8000      8.0682      2.4561      0.0807     11.7522     22.7722     57.4469
  1917.9000      8.0682      2.4443      0.0615     12.4678     22.7317     50.5603
  1918.0000      8.0765      2.4272      0.0229     13.5057     22.6316     48.2342
  1918.1000      8.0765      2.4141     -0.0089     14.2977     22.5561     47.2664
  1918.2000      8.0765      2.4189      0.0077     14.0070     22.5688     42.9217
  1918.3000      8.0864      2.4364      0.0763     12.9445     22.4048     37.3298
  1918.4000      8.0864      2.4484      0.0280     12.2165     22.0201     34.3011
  1918.5000      8.0897      2.4555      0.0699     11.7862     21.6847     33.4513
  1918.6000      8.0897      2.4583      0.0816     11.6208     21.2954     32.7054
  1918.7000      8.0897      2.4483      0.0808     12.2251     20.8307     31.4154
  1918.8000      8.0855      2.4305      0.0543     13.3058     20.6336     30.3001
  1918.9000      8.0855      2.4193      0.0594     13.9822     20.8359     31.1949
  1919.0000      8.0791      2.4158      0.0487     14.1916     21.5151     33.1556
  1919.1000      8.0791      2.4081      0.0816     14.6606     22.3845     34.3529
  1919.2000      8.0791      2.3942      0.0256     15.5026     22.6560     34.0168
  1919.3000      8.0704      2.3865      0.0391     15.9715     22.2102     32.2116
  1919.4000      8.0704      2.3875      0.0529     15.9120     21.8855     31.8287
  1919.5000      8.0665      2.3867      0.0867     15.9555     22.2311     34.3237
  1919.6000      8.0665      2.3851      0.0467     16.0543     22.9007     37.1960
  1919.7000      8.0665      2.3970      0.0586     15.3320     23.3096     37.8338
  1919.8000      8.0763      2.4200      0.0894     13.9379     23.2438     37.9225
  1919.9000      8.0763      2.4339      0.0976     13.0997     22.7513     40.0317
  1920.0000      8.0983      2.4314      0.0792     13.2465     22.1809     42.5829
  1920.1000      8.0983      2.4268      0.0795     13.5246     21.7567     42.0863
  1920.2000      8.0983      2.4298      0.0837     13.3446     21.4237     38.6848
  1920.3000      8.1185      2.4352      0.0796     13.0210     21.3639     37.4502
  1920.4000      8.1185      2.4394      0.0620     12.7612     21.6146     41.0065
  1920.5000      8.1289      2.4415      0.0622     12.6360     21.9520     46.6321
  1920.6000      8.1289      2.4341      0.0606     13.0839     22.3657     50.1006
  1920.7000      8.1289      2.4153      0.0531     14.2244     22.6861     49.9821
  1920.8000      8.1323      2.3988      0.0232     15.2216     22.7290     47.0738
  1920.9000      8.1323      2.3941      0.0727     15.5089     22.7155     41.1154
  1921.0000      8.1292      2.3941      0.0274     15.5094     22.6111     35.3493
  1921.1000      8.1292      2.3986      0.0491     15.2354     22.2978     33.4516
  1921.2000      8.1292      2.4146      0.0231     14.2677     21.9854     33.2633
  1921.3000      8.1212      2.4349      0.0818     13.0340     21.7131     31.3863
  1921.4000      8.1212      2.4416      0.0602     12.6316     21.4386     27.9041
  1921.5000      8.1172      2.4335      0.0618     13.1241     21.2730     26.8930
  1921.6000      8.1172      2.4248      0.0558     13.6509     21.6276     32.9606
  1921.7000      8.1172      2.4261      0.0519     13.5722     22.5685     43.9523
  1921.8000      8.1142      2.4368      0.0914     12.9234     23.4852     53.5259
  1921.9000      8.1142      2.4490      0.0730     12.1824     23.9483     58.0083
  1922.0000      8.1133      2.4566      0.0755     11.7225     23.9549     58.4127
  1922.1000      8.1133      2.4578      0.0596     11.6491     23.6200     60.2216
  1922.2000      8.1133      2.4576      0.0186     11.6612     23.2916     64.8860
  1922.3000      8.1114      2.4609      0.0087     11.4584     23.2588     68.1086
  1922.4000      8.1114      2.4641      0.0515     11.2685     23.3158     67.7160
  1922.5000      8.1099      2.4633      0.0462     11.3152     23.2972     63.5311
  1922.6000      8.1099      2.4647      0.0261     11.2289     23.2531     58.1860
  1922.7000      8.1099      2.4759      0.0455     10.5530     23.0414     55.8565
  1922.8000      8.1090      2.4898      0.0816      9.7090     22.6821     54.6351
  1922.9000      8.1090      2.4887      0.0800      9.7786     22.3994     51.2321
  1923.0000      8.1077      2.4716      0.0481     10.8115     22.0372     49.4267
  1923.1000      8.1077      2.4581      0.0487     11.6275     21.4245     52.7665
  1923.2000      8.1077      2.4614      0.0473     11.4314     20.9492     56.3363
  1923.3000      8.1045      2.4744      0.0948     10.6411     21.0242     54.4699
  1923.4000      8.1045      2.4804      0.0658     10.2793     21.2963     48.5533
  1923.5000      8.0965      2.4745      0.0791     10.6360     21.1333     43.0444
  1923.6000      8.0965      2.4715      0.0533     10.8201     20.6373     41.2329
  1923.7000      8.0965      2.4846      0.0750     10.0252     20.2784     43.4508
  1923.8000      8.0870      2.5050      0.0863      8.7887     20.2410     46.4374
  1923.9000      8.0870      2.5133      0.1177      8.2823     20.6145     46.6828
