~Version Information
VERS.                      2.0: CWLS Log ASCII Standard - VERSION 2.0
WRAP.                       NO: One line per depth step
~Well Information Block
STRT.FT               680.0000: 
STOP.FT              1585.5000: 
STEP.FT                 0.1000: 
NULL.                -999.2500: 
COMP.          Pioneer Natural Resources: COMPANY
WELL.          Screamin' 12-29: WELL
FLD.           Purgatoire River: FIELD
LOC.           2038' FNL & 612' FWL: LOCATION
CNTY.               Las Animas: COUNTY
SRVC.                Patterson: SERVICE COMPANY
DATE.          Wed Mar 29 10:01:18 2006: LOG DATE
UWI.           05 071 08661 00: UNIQUE WELL ID
STAT.                 Colorado: STATE
~Curve Information Block
DEPT.FT            0 000 00 00: Depth
DCAL.in                       : CDL Caliper
RHOB.g/cc                     : CDL Bulk Density
RHOC.g/cc                     : CDL Density Correction
DPOR.pu                       : CDL Density Porosity
GR.GAPI                       : Gamma Ray
NPOR.pu                       : Neutron Porosity
~Parameter Information Block
~A  Depth       DCAL        RHOB        RHOC        DPOR         GR         NPOR    
# ...
  1390.4000      7.9569      1.7120     -0.0114     56.8468     70.5654     35.2417
  1390.5000      7.9924      1.7611     -0.0262     53.8723     72.1114     34.5325
  1390.6000      7.9924      1.8446      0.0662     48.8146     77.5853     33.1517
  1390.7000      7.9924      1.9549      0.1553     42.1247     84.9872     31.9568
  1390.8000      7.9916      2.0600      0.2052     35.7589     93.1849     31.6470
  1390.9000      7.9916      2.1574      0.2033     29.8537     99.3982     32.0374
  1391.0000      7.9263      2.2757      0.1853     22.6832    100.0843     32.3710
  1391.1000      7.9263      2.4009      0.2674     15.0980     98.6568     32.1209
  1391.2000      7.9263      2.4758      0.2689     10.5572    100.6769     31.4160
  1391.3000      7.8790      2.4924      0.1398      9.5525    106.5513     30.6053
  1391.4000      7.8790      2.4955      0.1129      9.3659    112.6400     30.0053
  1391.5000      7.8712      2.5048      0.1415      8.8023    114.0741     29.7648
  1391.6000      7.8712      2.5081      0.1216      8.6017    112.5234     29.9409
  1391.7000      7.8712      2.5002      0.0932      9.0811    112.8983     30.4645
  1391.8000      7.8641      2.4847      0.0818     10.0158    114.9427     31.0231
  1391.9000      7.8641      2.4620      0.0688     11.3968    116.8438     31.5795
  1392.0000      7.8551      2.4267      0.0553     13.5303    118.5220     31.9673
  1392.1000      7.8551      2.3806      0.0184     16.3294    117.6040     31.6020
  1392.2000      7.8551      2.3359     -0.0196     19.0354    113.9541     30.7913
  1392.3000      7.8539      2.2936      0.0109     21.5997    111.8987     30.3408
  1392.4000      7.8539      2.2474     -0.0427     24.3996    111.5603     30.3364
  1392.5000      7.8597      2.2096     -0.0328     26.6885    110.1005     30.3621
  1392.6000      7.8597      2.1903     -0.0074     27.8630    109.1648     30.2179
  1392.7000      7.8597      2.1793      0.0140     28.5272    112.1347     30.0353
  1392.8000      7.8611      2.1620      0.0342     29.5743    119.7664     29.9432
  1392.9000      7.8611      2.1277      0.0651     31.6557    129.4776     29.9575
  1393.0000      7.8600      2.0792      0.0716     34.5940    136.1631     30.3475
  1393.1000      7.8600      2.0407      0.0540     36.9278    137.8649     30.9868
  1393.2000      7.8600      2.0380      0.0499     37.0930    135.5710     31.3465
  1393.3000      7.8596      2.0703      0.1143     35.1337    132.2751     31.5000
  1393.4000      7.8596      2.1138      0.1062     32.4962    131.7576     31.7355
  1393.5000      7.8591      2.1522      0.0812     30.1675    131.4689     32.0496
  1393.6000      7.8591      2.1888      0.0900     27.9524    125.4798     32.2821
  1393.7000      7.8591      2.2351      0.1171     25.1481    115.6212     32.1743
  1393.8000      7.8591      2.2957      0.1423     21.4701    107.3974     31.5059
  1393.9000      7.8591      2.3557      0.2088     17.8387    100.3456     30.5166
  1394.0000      7.8596      2.3950      0.1826     15.4518     94.3029     29.8164
  1394.1000      7.8596      2.4152      0.1134     14.2302     93.3514     29.8759
  1394.2000      7.8596      2.4267      0.1053     13.5316     95.6606     30.6847
  1394.3000      7.8603      2.4360      0.0835     12.9717     98.0412     31.5657
  1394.4000      7.8603      2.4498      0.0789     12.1322    102.8913     31.6772
  1394.5000      7.8601      2.4676      0.0937     11.0564    108.5416     30.6740
  1394.6000      7.8601      2.4825      0.0729     10.1521    110.3817     28.9774
  1394.7000      7.8601      2.4906      0.1146      9.6588    109.1722     27.6918
  1394.8000      7.8593      2.4893      0.0950      9.7385    107.6764     27.9017
  1394.9000      7.8593      2.4815      0.0841     10.2097    106.5243     29.4213
  1395.0000      7.8586      2.4735      0.0368     10.6979    101.6346     30.3992
  1395.1000      7.8586      2.4670      0.0726     11.0887     93.3642     29.6994
  1395.2000      7.8586      2.4637      0.0380     11.2932     91.2683     28.7762
  1395.3000      7.8576      2.4674      0.0322     11.0685     98.2666     28.7298
  1395.4000      7.8576      2.4747      0.0682     10.6266    103.8225     28.6769
  1395.5000      7.8575      2.4800      0.0466     10.3035    102.5222     28.1197
  1395.6000      7.8575      2.4806      0.0594     10.2650    101.7351     27.5365
  1395.7000      7.8575      2.4722      0.0461     10.7764    103.7825     27.3536
  1395.8000      7.8586      2.4616      0.0283     11.4194    101.7380     27.7106
  1395.9000      7.8586      2.4603      0.0508     11.4963     96.4632     28.3754
  1396.0000      7.8593      2.4651      0.0540     11.2079     95.4854     28.8406
  1396.1000      7.8593      2.4709      0.0552     10.8539     98.5363     28.8417
  1396.2000      7.8593      2.4796      0.0575     10.3301    101.4253     28.5388
  1396.3000      7.8593      2.4822      0.0765     10.1707    103.8482     27.7581
  1396.4000      7.8593      2.4716      0.0547     10.8133    104.2394     26.4461
  1396.5000      7.8592      2.4633      0.0309     11.3134     99.7020     25.8754
  1396.6000      7.8592      2.4730      0.0543     10.7247     95.6686     26.6949
  1396.7000      7.8592      2.4850      0.0968     10.0001     97.8192     27.6854
  1396.8000      7.8587      2.4759      0.0724     10.5506    100.1215     28.0862
  1396.9000      7.8587      2.4582      0.0177     11.6220     95.9279     28.2050
  1397.0000      7.8575      2.4669     -0.0032     11.0967     91.7757     28.1891
  1397.1000      7.8575      2.5106      0.0483      8.4508     92.9637     28.0319
  1397.2000      7.8575      2.5583      0.0946      5.5569     94.4760     27.6076
  1397.3000      7.8570      2.5790      0.1215      4.3015     95.2566     26.9823
  1397.4000      7.8570      2.5745      0.0936      4.5771     98.7605     26.7744
  1397.5000      7.8575      2.5673      0.0678      5.0140    102.0198     26.9687
  1397.6000      7.8575      2.5637      0.0986      5.2321    100.7045     27.4229
  1397.7000      7.8575      2.5510      0.0923      5.9978     96.8369     28.0731
  1397.8000      7.8582      2.5354      0.0113      6.9452     94.6039     27.8886
  1397.9000      7.8582      2.5350      0.0307      6.9705     91.8750     26.8346
  1398.0000      7.8583      2.5420      0.0539      6.5434     85.7715     26.3331
  1398.1000      7.8583      2.5442      0.0276      6.4096     83.7117     26.9099
  1398.2000      7.8583      2.5476      0.0566      6.2085     89.7189     27.9139
  1398.3000      7.8582      2.5500      0.0671      6.0633     95.2500     28.6428
  1398.4000      7.8582      2.5429      0.0283      6.4921     93.4710     28.2172
  1398.5000      7.8584      2.5348      0.0350      6.9808     84.8673     26.7636
  1398.6000      7.8584      2.5347      0.0736      6.9889     75.1669     25.9151
  1398.7000      7.8584      2.5366      0.0388      6.8720     73.9941     26.3445
  1398.8000      7.8586      2.5386      0.0356      6.7518     83.2224     27.0135
  1398.9000      7.8586      2.5460      0.0358      6.3046     94.1756     27.4731
  1399.0000      7.8586      2.5525      0.0757      5.9086    101.3145     28.1584
  1399.1000      7.8586      2.5466      0.0746      6.2640    105.5644     28.9797
  1399.2000      7.8586      2.5324      0.0696      7.1265    108.5502     29.1189
  1399.3000      7.8592      2.5192      0.0355      7.9254    111.3321     28.0995
  1399.4000      7.8592      2.5092      0.0269      8.5359    113.6286     26.9345
  1399.5000      7.8600      2.4977      0.0463      9.2283    113.3485     26.6395
  1399.6000      7.8600      2.4800      0.0237     10.3011    111.9741     26.6975
  1399.7000      7.8600      2.4620      0.0050     11.3948    113.0654     26.5462
  1399.8000      7.8600      2.4549      0.0149     11.8252    115.9466     26.1749
  1399.9000      7.8600      2.4596      0.0168     11.5366    115.8446     26.2388
