~Version Information
VERS.                      2.0: CWLS Log ASCII Standard - VERSION 2.0
WRAP.                       NO: One line per depth step
~Well Information Block
STRT.FT                -2.7500: 
STOP.FT               973.2500: 
STEP.FT                 0.2500: 
NULL.                -999.2500: 
COMP.          Pioneer Natural Resources: COMPANY
WELL.          Red Raider 22-15: WELL
FLD.           Purgatoire River: FIELD
LOC.           1809' FNL & 2107' FWL: LOCATION
CNTY.               Las Animas: COUNTY
SRVC.                Patterson: SERVICE COMPANY
DATE.          Mon Apr 17 16:50:50 2006: LOG DATE
UWI.           05 071 08718 00: UNIQUE WELL ID
STAT.                 Colorado: STATE
~Curve Information Block
DEPT.FT            0 000 00 00: Depth
GR.GAPI                       : Gamma Ray
CCL.                          : Casing Collar Locator
TT3.usec                      : CBL 3' Travel Time
AMP3.mV                       : CBL 3' Amplitude
~Parameter Information Block
~A  Depth        GR         CCL         TT3         AMP3    
# ...
   566.7500    117.4939      0.0000    734.7944      9.6867
   567.0000    118.8137      0.0000    743.9463      9.5661
   567.2500    121.5800      0.0000    747.5198      9.4979
   567.5000    125.0693      0.0000    745.0208      9.4826
   567.7500    127.0480      0.0000    739.1348      9.5024
   568.0000    125.8427      0.0000    733.2214      9.5337
   568.2500    122.4891      0.0000    729.0974      9.5594
   568.5000    120.0179      0.0000    726.9730      9.5736
   568.7500    120.5889      0.0000    726.7322      9.5742
   569.0000    123.8436      0.0000    728.4306      9.5568
   569.2500    127.6720      0.0000    731.9212      9.5208
   569.5000    129.6919      0.0000    736.9702      9.4798
   569.7500    128.1150      0.0000    743.5158      9.4592
   570.0000    122.2491      0.0000    751.0661      9.4755
   570.2500    113.0071      0.0000    758.2094      9.5209
   570.5000    102.8044      0.0000    763.1817      9.5683
   570.7500     94.2906      0.0000    764.5085      9.5931
   571.0000     88.7482      0.0000    761.2360      9.5899
   571.2500     85.7860      0.0000    753.8041      9.5715
   571.5000     84.3910      0.0000    745.2509      9.5551
   571.7500     83.7524      0.0000    740.0928      9.5514
   572.0000     83.1078      0.0000    740.4791      9.5624
   572.2500     81.5530      0.0000    743.8906      9.5828
   572.5000     78.5308      0.0000    745.8638      9.6008
   572.7500     74.3678      0.0000    744.7932      9.6035
   573.0000     70.1635      0.0000    742.9872      9.5866
   573.2500     67.1180      0.0000    743.2150      9.5607
   573.5000     65.8003      0.0000    745.6368      9.5445
   573.7500     65.8859      0.0000    748.4718      9.5497
   574.0000     66.4913      0.0000    750.3886      9.5721
   574.2500     66.7053      0.0000    751.4316      9.5926
   574.5000     66.0599      0.0000    752.4174      9.5856
   574.7500     64.9121      0.0000    754.2085      9.5313
   575.0000     64.2848      0.0000    757.1116      9.4259
   575.2500     64.9025      0.0000    760.5203      9.2836
   575.5000     66.1744      0.0000    763.3975      9.1283
   575.7500     66.4033      0.0000    765.1731      8.9821
   576.0000     64.2898      0.0000    766.0197      8.8604
   576.2500     60.1841      0.0000    766.4160      8.7737
   576.5000     55.7617      0.0000    766.7026      8.7254
   576.7500     52.6527      0.0000    766.9844      8.7034
   577.0000     51.5008      0.0000    767.2258      8.6842
   577.2500     52.0077      0.0000    767.3567      8.6516
   577.5000     53.4207      0.0000    767.3484      8.6109
   577.7500     55.0032      0.0000    767.2100      8.5817
   578.0000     56.3903      0.0000    766.8910      8.5815
   578.2500     57.6500      0.0000    766.1719      8.6161
   578.5000     59.0169      0.0000    764.8008      8.6769
   578.7500     60.6102      0.0000    763.0241      8.7416
   579.0000     62.3488      0.0000    761.9830      8.7835
   579.2500     63.9962      0.0000    763.0219      8.7877
   579.5000     65.2610      0.0000    766.1400      8.7600
   579.7500     65.8994      0.0000    769.4804      8.7174
   580.0000     65.6569      0.0000    770.7429      8.6746
   580.2500     64.2381      0.0000    768.6531      8.6424
   580.5000     61.7096      0.0000    762.8326      8.6318
   580.7500     58.9903      0.0000    753.3390      8.6516
   581.0000     57.4784      0.0000    741.2918      8.7002
   581.2500     57.8277      0.0000    729.2122      8.7621
   581.5000     59.2801      0.0000    719.5424      8.8168
   581.7500     60.4651      0.0000    713.2436      8.8510
   582.0000     60.6041      0.0000    710.7519      8.8651
   582.2500     59.6886      0.0000    713.1506      8.8703
   582.5000     57.9362      0.0000    720.4218      8.8801
   582.7500     55.6665      0.0000    728.7405      8.9040
   583.0000     53.5553      0.0000    731.4608      8.9421
   583.2500     52.5066      0.0000    724.0283      8.9807
   583.5000     53.1141      0.0000    708.1880      8.9927
   583.7500     55.3397      0.0000    691.2484      8.9540
   584.0000     58.5580      0.0000    680.7082      8.8693
   584.2500     61.6771      0.0000    678.9191      8.7666
   584.5000     63.3846      0.0000    682.8232      8.6500
   584.7500     62.6737      0.0000    688.6882      8.4808
   585.0000     59.4047      0.0000    696.2230      8.2465
   585.2500     54.5561      0.0000    707.7253      8.0185
   585.5000     49.9594      0.0000    724.2305      7.8909
   585.7500     47.3904      0.0000    743.4009      7.8812
   586.0000     47.4619      0.0000    760.6993      7.9318
   586.2500     49.3344      0.0000    771.9235      7.9856
   586.5000     51.5826      0.0000    774.9743      8.0343
   586.7500     53.2127      0.0000    770.5237      8.1077
   587.0000     53.9878      0.0000    762.1976      8.2341
   587.2500     54.3812      0.0000    755.4482      8.3959
   587.5000     55.4445      0.0000    753.9180      8.5272
   587.7500     58.3144      0.0000    755.8578      8.5784
   588.0000     63.3550      0.0000    755.2057      8.5691
   588.2500     69.5603      0.0000    746.8884      8.5549
   588.5000     74.8861      0.0000    730.8110      8.5606
   588.7500     77.4950      0.0000    710.9695      8.5717
   589.0000     77.0126      0.0000    691.7778      8.5763
   589.2500     74.7243      0.0000    675.8208      8.5926
   589.5000     72.6360      0.0000    664.4081      8.6553
   589.7500     72.2846      0.0000    658.4512      8.7885
   590.0000     74.2422      0.0000    657.2273      8.9875
   590.2500     78.4044      0.0000    655.7555      9.2157
   590.5000     84.3168      0.0000    644.4021      9.4201
   590.7500     91.1218      0.0000    613.7563      9.5632
   591.0000     97.5884      0.0000    562.6459      9.6502
   591.2500    102.5494      0.0000    501.6190      9.7197
   591.5000    105.3360      0.0000    446.6773      9.8109
   591.7500    105.9083      0.0000    408.5955      9.9398
   592.0000    104.6796      0.0000    388.1619     10.1004
   592.2500    102.1061      0.0000    380.1271     10.2747
   592.5000     98.3485      0.0000    379.8114     10.4413
   592.7500     93.4142      0.0000    386.7190     10.5817
   593.0000     87.5699      0.0000    403.8274     10.6799
   593.2500     81.5482      0.0000    432.6719     10.7205
   593.5000     76.4818      0.0000    466.7354     10.6948
   593.7500     73.5130      0.0000    490.6648     10.6115
   594.0000     73.1006      0.0000    490.5407     10.4967
   594.2500     74.6971      0.0000    466.4230     10.3776
   594.5000     77.4128      0.0000    432.2782     10.2696
   594.7500     80.9053      0.0000    403.3511     10.1794
   595.0000     85.0471      0.0000    385.9315     10.1123
   595.2500     88.7198      0.0000    377.9911     10.0703
   595.5000     89.7558      0.0000    375.1295     10.0447
   595.7500     86.6371      0.0000    374.2993     10.0162
   596.0000     80.0611      0.0000    374.1381      9.9670
   596.2500     72.5550      0.0000    374.1590      9.8944
   596.5000     66.5449      0.0000    374.1857      9.8127
   596.7500     62.8578      0.0000    374.1664      9.7426
   597.0000     60.8394      0.0000    374.1237      9.7009
   597.2500     59.4434      0.0000    374.1118      9.6944
   597.5000     58.0234      0.0000    374.2262      9.7192
   597.7500     56.4191      0.0000    374.8614      9.7611
   598.0000     54.7421      0.0000    377.3253      9.7999
   598.2500     53.2612      0.0000    384.7519      9.8177
   598.5000     52.4019      0.0000    402.1194      9.8054
   598.7500     52.6157      0.0000    433.6464      9.7642
   599.0000     54.0004      0.0000    478.1635      9.7053
   599.2500     56.0714      0.0000    527.3937      9.6495
   599.5000     58.0754      0.0000    570.8902      9.6195
   599.7500     59.4998      0.0000    603.2811      9.6256
   600.0000     60.0891      0.0000    625.8307      9.6571
