~Version Information
VERS.                      2.0: CWLS Log ASCII Standard - VERSION 2.0
WRAP.                       NO: One line per depth step
~Well Information Block
STRT.FT               196.3000: 
STOP.FT              1631.0000: 
STEP.FT                 0.1000: 
NULL.                -999.2500: 
COMP.          Petrogulf Corporation: COMPANY
WELL.             State 16-44R: WELL
FLD.           Purgatoire River: FIELD
LOC.           632' FSL & 223' FEL--: LOCATION
PROV.                 Colorado: PROVINCE
CNTY.               Las Animas: COUNTRY
SRVC.                Patterson: SERVICE COMPANY
DATE.          Fri Oct 21 14:20:18 2005: LOG DATE
UWI.           05 071 08457 00: UNIQUE WELL ID
~Curve Information Block
DEPT.FT            0 000 00 00: Depth
DCAL.in                       : CDL Caliper
RHOB.g/cc                     : CDL Bulk Density
RHOC.g/cc                     : CDL Density Correction
DPOR.pu                       : CDL Density Porosity
NPOR.pu                       : Neutron Porosity
GR.GAPI                       : Gamma Ray
~Parameter Information Block
~A  Depth       DCAL        RHOB        RHOC        DPOR        NPOR         GR     
# ...
  1309.9000      7.8653      2.6589      0.0907     -0.5410     19.2997     53.5706
  1310.0000      7.8623      2.6684      0.0899     -1.1179     19.5756     54.7788
  1310.1000      7.8623      2.6505      0.0907     -0.0287     19.7758     52.7675
  1310.2000      7.8623      2.6170      0.0197      1.9983     19.4936     47.3274
  1310.3000      7.8532      2.6001      0.0330      3.0257     19.0585     44.2323
  1310.4000      7.8532      2.6027      0.0950      2.8661     18.9842     45.2159
  1310.5000      7.8427      2.6022      0.0762      2.8979     19.3871     49.4184
  1310.6000      7.8427      2.5976      0.0476      3.1750     19.9482     54.3441
  1310.7000      7.8427      2.6004      0.0572      3.0073     20.3108     54.5780
  1310.8000      7.8347      2.6041      0.0498      2.7833     20.2030     51.7753
  1310.9000      7.8347      2.5952      0.0781      3.3188     19.7734     54.5867
  1311.0000      7.8242      2.5811      0.0456      4.1734     19.9185     62.9188
  1311.1000      7.8242      2.5847      0.0571      3.9598     21.1711     69.5478
  1311.2000      7.8242      2.6031      0.0908      2.8405     22.8203     75.0745
  1311.3000      7.8120      2.6064      0.1362      2.6426     24.1291     83.1853
  1311.4000      7.8120      2.5823      0.0924      4.1018     24.9449     91.9673
  1311.5000      7.8110      2.5523      0.0424      5.9213     25.1434     98.9223
  1311.6000      7.8110      2.5351      0.0531      6.9607     25.0185    105.6123
  1311.7000      7.8110      2.5287      0.0334      7.3540     24.9957    113.1472
  1311.8000      7.8326      2.5289      0.0537      7.3421     25.2132    120.9857
  1311.9000      7.8326      2.5345      0.0339      7.0014     25.8239    130.6468
  1312.0000      7.8733      2.5373      0.0819      6.8306     26.6862    142.5352
  1312.1000      7.8733      2.5328      0.0327      7.1040     27.1830    151.6157
  1312.2000      7.8733      2.5321      0.0500      7.1485     27.3993    152.7209
  1312.3000      7.9081      2.5355      0.0645      6.9423     27.8083    150.1166
  1312.4000      7.9081      2.5304      0.0830      7.2464     28.2816    149.7516
  1312.5000      7.9208      2.5170      0.0672      8.0577     28.6955    149.1156
  1312.6000      7.9208      2.5050      0.0303      8.7906     29.1023    147.2551
  1312.7000      7.9208      2.4944      0.0856      9.4327     29.5450    150.6719
  1312.8000      7.9222      2.4786      0.0647     10.3865     29.8546    160.7430
  1312.9000      7.9222      2.4667      0.0296     11.1086     29.7040    168.9191
  1313.0000      7.9237      2.4721      0.0692     10.7843     29.1559    172.2798
  1313.1000      7.9237      2.4876      0.0616      9.8394     28.8220    176.8084
  1313.2000      7.9237      2.4959      0.0846      9.3413     28.9829    179.4532
  1313.3000      7.9246      2.4932      0.0530      9.5057     29.2951    173.7289
  1313.4000      7.9246      2.4946      0.0604      9.4194     29.5214    164.7467
  1313.5000      7.9251      2.5087      0.0869      8.5643     29.6717    161.4841
  1313.6000      7.9251      2.5206      0.1147      7.8447     30.0002    163.0844
  1313.7000      7.9251      2.5141      0.0712      8.2362     30.2788    164.0089
  1313.8000      7.9236      2.4997      0.0692      9.1080     29.5978    163.1607
  1313.9000      7.9236      2.4956      0.0968      9.3591     28.1041    159.9437
  1314.0000      7.9175      2.4974      0.1235      9.2473     26.8299    155.7073
  1314.1000      7.9175      2.4947      0.0826      9.4110     25.9774    155.2884
  1314.2000      7.9175      2.4950      0.0674      9.3958     25.3744    157.4655
  1314.3000      7.9069      2.5088      0.0704      8.5595     25.1380    156.9762
  1314.4000      7.9069      2.5305      0.0758      7.2453     25.1683    152.3063
  1314.5000      7.8962      2.5438      0.0941      6.4342     24.8665    145.3981
  1314.6000      7.8962      2.5469      0.0269      6.2514     24.0222    137.8500
  1314.7000      7.8962      2.5534      0.0477      5.8553     23.2282    128.3500
  1314.8000      7.8850      2.5626      0.0911      5.2974     22.8878    119.3237
  1314.9000      7.8850      2.5641      0.0745      5.2085     23.0327    112.4118
  1315.0000      7.8726      2.5626      0.0684      5.2945     23.4046    107.0619
  1315.1000      7.8726      2.5681      0.0861      4.9622     23.4311    105.0332
  1315.2000      7.8726      2.5848      0.0507      3.9511     22.8661    104.3615
  1315.3000      7.8666      2.6101      0.1287      2.4200     22.0199    101.4285
  1315.4000      7.8666      2.6275      0.1141      1.3635     21.5404     98.0224
  1315.5000      7.8661      2.6269      0.0911      1.3971     21.9454     97.3379
  1315.6000      7.8661      2.6224      0.0633      1.6742     22.8618     94.4463
  1315.7000      7.8661      2.6336      0.0892      0.9938     23.1885     89.9280
  1315.8000      7.8692      2.6535      0.1317     -0.2105     22.8812     93.1195
  1315.9000      7.8692      2.6566      0.0954     -0.4009     23.2569    101.1643
  1316.0000      7.8766      2.6379      0.1024      0.7351     24.5979    103.6630
  1316.1000      7.8766      2.6146      0.0469      2.1469     25.6880    101.5647
  1316.2000      7.8766      2.6055      0.0723      2.6960     25.7131    100.5682
  1316.3000      7.8822      2.6145      0.0511      2.1490     25.0564     98.9780
  1316.4000      7.8822      2.6280      0.1066      1.3337     24.3886     96.5257
  1316.5000      7.8792      2.6260      0.1145      1.4525     24.0170     96.8749
  1316.6000      7.8792      2.6102      0.0724      2.4095     23.9321     99.0894
  1316.7000      7.8792      2.6016      0.0577      2.9333     24.0969    102.5486
  1316.8000      7.8708      2.6004      0.0702      3.0030     24.5312    107.8595
  1316.9000      7.8708      2.5859      0.0699      3.8832     25.0542    110.6253
  1317.0000      7.8653      2.5569      0.0642      5.6441     25.4633    109.2211
  1317.1000      7.8653      2.5320      0.0631      7.1513     25.6955    107.6258
  1317.2000      7.8653      2.5173      0.0527      8.0397     25.5983    106.8517
  1317.3000      7.8668      2.5147      0.0145      8.2027     25.4525    105.7320
  1317.4000      7.8668      2.5323      0.0499      7.1304     25.8248    107.8055
  1317.5000      7.8720      2.5617      0.0741      5.3495     26.5995    116.0179
  1317.6000      7.8720      2.5816      0.0568      4.1476     27.0143    124.2966
  1317.7000      7.8720      2.5829      0.0617      4.0660     26.7524    125.5002
  1317.8000      7.8756      2.5717      0.0429      4.7465     26.3835    121.2892
  1317.9000      7.8756      2.5588      0.0559      5.5264     26.1242    117.3893
  1318.0000      7.8750      2.5475      0.0663      6.2148     25.6566    117.0991
  1318.1000      7.8750      2.5344      0.0668      7.0033     25.3340    119.7055
  1318.2000      7.8750      2.5282      0.0287      7.3840     25.4482    122.4164
  1318.3000      7.8718      2.5395      0.0660      6.6948     25.5504    122.1269
  1318.4000      7.8718      2.5623      0.0817      5.3156     25.4301    121.0556
  1318.5000      7.8698      2.5846      0.0736      3.9633     25.4768    121.5037
  1318.6000      7.8698      2.5986      0.0967      3.1126     25.4978    118.8003
  1318.7000      7.8698      2.6010      0.0882      2.9710     24.8736    112.4209
  1318.8000      7.8726      2.5953      0.0749      3.3181     24.0892    107.6630
  1318.9000      7.8726      2.5868      0.0785      3.8304     24.1885    108.2511
  1319.0000      7.8804      2.5755      0.1148      4.5158     24.8540    113.5202
  1319.1000      7.8804      2.5612      0.0658      5.3841     24.8481    120.0945
  1319.2000      7.8804      2.5501      0.0712      6.0527     24.3046    122.6820
  1319.3000      7.8910      2.5470      0.0606      6.2404     24.0162    119.2420
  1319.4000      7.8910      2.5488      0.0573      6.1320     23.9935    117.6441
