~Version Information
 VERS.                                  2.0 : CWLS LAS VERSION
 WRAP.                                   NO : WRAPING MODE
 SWARE .                 MController 2.5.0N : SOFTWARE VERSION
~Well Information
 WELL.                 Flying Horse 12-11Tr : WELL
 COMP.    Pioneer Natural Resources USA Inc : COMPANY
 FLD.                      Purgatoire River : FIELD
 LOC.                 SW/NW SEC11 T32S R66W : LOCATION
 DATE.                             09/03/05 : DATE(S) LOGGED
 SRVC.       Blanco Geological Services LLC : SERVICE COMPANY
 STAT.                             Colorado : STATE
 CNTY.                           Las Animas : COUNTY
 CTRY.                                 USA : COUNTRY
 API.                       05-071-08485-00 : API NUMBER
 STRT.FT                             565.00 : START DEPTH
 STOP.FT                            1978.00 : STOP DEPTH
 STEP.FT                               1.00 : DEPTH INCREMENT
 NULL.                                -9999 : NULL VALUE
~Curve information
 DEPTH.FT                                   :
 ROP.MIN/FT                                 :
 GAS.UNITS                                  :
~ASCII Log data
# ...
      1765.0         0.97        411.9 
      1766.0         2.28        921.5 
      1767.0         0.40        742.3 
      1768.0         0.40        694.3 
      1769.0         0.30        709.1 
      1770.0         0.25        731.7 
      1771.0         0.27        755.9 
      1772.0         0.23        753.3 
      1773.0         0.23        748.5 
      1774.0         0.23        739.4 
      1775.0         0.30        718.5 
      1776.0         0.30        682.4 
      1777.0         0.30        666.6 
      1778.0         0.30        615.0 
      1779.0         0.30        614.1 
      1780.0         0.27        595.7 
      1781.0         0.27        569.9 
      1782.0         0.20        581.2 
      1783.0         0.42        605.7 
      1784.0         0.37        584.4 
      1785.0         0.17        549.3 
      1786.0         0.17        532.9 
      1787.0         0.20        522.9 
      1788.0         0.27        475.2 
      1789.0         0.27        440.0 
      1790.0         0.20        180.8 
      1791.0         0.17        164.2 
      1792.0         0.17        164.0 
      1793.0         0.17        188.7 
      1794.0         0.27        203.9 
      1795.0         1.02        405.2 
      1796.0         1.97        461.0 
      1797.0         0.10        430.3 
      1798.0         0.50        403.1 
      1799.0         0.68        355.3 
      1800.0         0.43        351.4 
      1801.0         0.27        353.9 
      1802.0         0.43        341.7 
      1803.0         0.27        332.5 
      1804.0         0.27        332.1 
      1805.0         0.33        325.1 
      1806.0         0.17        291.3 
      1807.0         0.20        288.4 
      1808.0         0.30        304.9 
      1809.0         0.28        343.7 
      1810.0         0.23        354.0 
      1811.0         0.27        366.2 
      1812.0         0.13        366.2 
      1813.0         0.13        362.3 
      1814.0         0.37        356.2 
      1815.0         0.33        349.8 
      1816.0         0.33        354.7 
      1817.0         0.33        364.6 
      1818.0         0.40        358.5 
      1819.0         0.40        347.8 
      1820.0         0.33        336.5 
      1821.0         0.35        268.9 
      1822.0         0.27        183.2 
      1823.0         0.27        176.6 
      1824.0         0.27        175.5 
      1825.0         1.93        472.6 
      1826.0         0.13        479.2 
      1827.0         1.08        950.2 
      1828.0         0.33        887.4 
      1829.0         0.33        861.6 
      1830.0         0.10        818.4 
      1831.0         0.23        798.4 
      1832.0         0.33        798.7 
      1833.0         0.33        855.1 
      1834.0         0.27        890.6 
      1835.0         0.30        880.3 
      1836.0         0.48        860.9 
      1837.0         0.37        735.2 
      1838.0         0.27        685.3 
      1839.0         0.27        657.3 
      1840.0         0.27        619.5 
      1841.0         0.17        618.9 
      1842.0         0.40        621.8 
      1843.0         0.33        615.7 
      1844.0         0.40        615.0 
      1845.0         0.27        589.3 
      1846.0         0.38        543.2 
      1847.0         0.37        589.6 
      1848.0         0.33        613.1 
      1849.0         0.23        634.4 
      1850.0         0.17        633.1 
      1851.0         0.17        624.4 
      1852.0         0.17        624.4 
      1853.0         0.43        597.3 
      1854.0         0.50        521.6 
      1855.0         0.33        440.0 
      1856.0         2.15        472.0 
      1857.0         1.27        964.7 
      1858.0         0.40        929.9 
      1859.0         0.38        827.7 
      1860.0         0.57        812.6 
      1861.0         0.67        820.0 
      1862.0         0.40        767.1 
      1863.0         0.33        682.7 
      1864.0         0.30        647.6 
      1865.0         0.23        615.4 
      1866.0         0.37        584.7 
      1867.0         0.28        583.5 
      1868.0         0.40        580.6 
      1869.0         0.27        568.0 
      1870.0         0.27        565.7 
      1871.0         0.43        570.6 
      1872.0         0.30        569.6 
      1873.0         0.23        573.5 
      1874.0         0.27        588.3 
      1875.0         0.27        582.8 
      1876.0         0.30        569.6 
      1877.0         0.27        563.2 
      1878.0         0.22        559.0 
      1879.0         0.27        545.4 
      1880.0         0.23        545.4 
      1881.0         0.27        534.8 
      1882.0         0.23        476.5 
      1883.0         0.20        190.3 
      1884.0         0.27        193.4 
      1885.0         0.27        211.2 
      1886.0         4.65       1131.0 
      1887.0         0.27        757.8 
      1888.0         0.32        751.0 
      1889.0         0.27        734.3 
      1890.0         0.30        727.8 
      1891.0         0.27        680.8 
      1892.0         0.30        627.9 
      1893.0         0.33        593.8 
      1894.0         0.30        563.5 
      1895.0         0.27        553.2 
      1896.0         0.27        550.6 
      1897.0         0.23        546.7 
      1898.0         0.27        546.1 
      1899.0         0.28        547.7 
      1900.0         0.27        549.0 
      1901.0         0.27        558.3 
      1902.0         0.30        555.7 
      1903.0         0.30        549.0 
      1904.0         0.30        534.1 
      1905.0         0.30        537.7 
      1906.0         0.33        539.0 
      1907.0         0.27        553.2 
      1908.0         0.33        560.9 
      1909.0         0.27        565.1 
      1910.0         0.27        569.3 
      1911.0         0.32        567.0 
      1912.0         0.27        527.7 
      1913.0         0.33        514.5 
      1914.0         0.40        456.2 
      1915.0         0.43        182.5 
      1916.0         2.72        420.8 
      1917.0         0.80        421.1 
      1918.0         0.37        373.0 
      1919.0         0.30        334.4 
      1920.0         0.27        337.3 
      1921.0         0.27        348.6 
      1922.0         0.38        367.2 
      1923.0         0.43        365.0 
      1924.0         0.33        335.0 
      1925.0         0.40        329.0 
      1926.0         0.27        295.5 
      1927.0         0.23        291.1 
      1928.0         0.23        278.3 
      1929.0         0.20        272.9 
      1930.0         0.27        267.3 
      1931.0         0.27        265.4 
      1932.0         0.23        267.0 
      1933.0         0.23        268.7 
      1934.0         0.25        260.3 
      1935.0         0.20        260.3 
      1936.0         0.20        256.3 
      1937.0         0.20        250.0 
      1938.0         0.23        242.1 
      1939.0         0.17        237.3 
      1940.0         0.20        216.6 
      1941.0         0.20        213.3 
      1942.0         0.23        165.0 
      1943.0         0.20        165.0 
      1944.0         0.20        157.4 
      1945.0         0.20        169.7 
      1946.0         3.25        474.7 
      1947.0         0.47        447.0 
      1948.0         0.33        440.5 
      1949.0         0.27        400.5 
      1950.0         0.32        357.8 
      1951.0         0.33        320.8 
      1952.0         0.27        304.5 
      1953.0         0.33        299.5 
      1954.0         0.57        290.0 
      1955.0         0.50        278.4 
      1956.0         0.60        262.9 
      1957.0         0.62        255.1 
      1958.0         0.43        251.2 
      1959.0         0.37        245.1 
      1960.0         0.33        242.0 
      1961.0         0.33        242.4 
      1962.0         0.30        255.2 
      1963.0         0.33        265.1 
      1964.0         0.33        276.3 
