~Version Information
VERS.                      2.0: CWLS Log ASCII Standard - VERSION 2.0
WRAP.                       NO: One line per depth step
~Well Information Block
STRT.FT                -8.0000: 
STOP.FT              1472.2500: 
STEP.FT                 0.2500: 
NULL.                -999.2500: 
COMP.          Pioneer Natural Resources: COMPANY
WELL.           Amore 32-09 Tr: WELL
FLD.           Purgatoire River: FIELD
LOC.           1941' FNL & 2297' FEL--: LOCATION
PROV.                       CO: PROVINCE
CNTY.               Las Animas: COUNTRY
SRVC.          Patterson Wireline: SERVICE COMPANY
DATE.          Tue Nov 22 11:37:00 2005: LOG DATE
UWI.           05 071 08584 00: UNIQUE WELL ID
~Curve Information Block
DEPT.FT            0 000 00 00: Depth
CCL.                          : Casing Collar Locator
TT3.usec                      : CBL 3' Travel Time
AMP3.mV                       : CBL 3' Amplitude
GR.GAPI                       : Gamma Ray
~Parameter Information Block
~A  Depth       CCL         TT3         AMP3         GR     
# ...
   461.0000      0.0000    745.5465      5.9298     42.7409
   461.2500      0.0000    745.6697      5.9010     46.8273
   461.5000      0.0000    745.7944      5.9029     50.6055
   461.7500      0.0000    745.9024      5.9368     53.8995
   462.0000      0.0000    746.0112      5.9944     56.6294
   462.2500      0.0000    746.1763      6.0584     58.6279
   462.5000      0.0000    746.5441      6.1111     59.7176
   462.7500      0.0000    747.4093      6.1469     59.8955
   463.0000      0.0000    749.1037      6.1755     59.4906
   463.2500      0.0000    751.5726      6.2125     59.1165
   463.5000      0.0000    753.9648      6.2678     59.3064
   463.7500      0.0000    754.9750      6.3446     60.0934
   464.0000      0.0000    753.9591      6.4482     60.9976
   464.2500      0.0000    751.6263      6.5832     61.5399
   464.5000      0.0000    749.4485      6.7402     61.6830
   464.7500      0.0000    748.5997      6.8910     61.5735
   465.0000      0.0000    749.5201      7.0069     60.9573
   465.2500      0.0000    752.0106      7.0823     59.2755
   465.5000      0.0000    755.4305      7.1346     56.4615
   465.7500      0.0000    759.1560      7.1824     53.3074
   466.0000      0.0000    763.1113      7.2277     50.8553
   466.2500      0.0000    767.4089      7.2598     49.6779
   466.5000      0.0000    771.2089      7.2754     49.7383
   466.7500      0.0000    772.6243      7.2887     50.4531
   467.0000      0.0000    770.3605      7.3228     50.8663
   467.2500      0.0000    765.1627      7.3932     50.3272
   467.5000      0.0000    759.2569      7.4982     49.1258
   467.7500      0.0000    754.5656      7.6197     48.1527
   468.0000      0.0000    751.6651      7.7327     47.8954
   468.2500      0.0000    750.1066      7.8173     48.0233
   468.5000      0.0000    749.2272      7.8651     47.9722
   468.7500      0.0000    748.6113      7.8790     47.5752
   469.0000      0.0000    748.1058      7.8716     46.9023
   469.2500      0.0000    747.6838      7.8635     45.8278
   469.5000      0.0000    747.3536      7.8760     44.2200
   469.7500      0.0000    747.1232      7.9215     42.4779
   470.0000      0.0000    746.9865      7.9986     41.5281
   470.2500      0.0000    746.9148      8.0957     42.2466
   470.5000      0.0000    746.8386      8.1964     44.9590
   470.7500      0.0000    746.5903      8.2848     49.4529
   471.0000      0.0000    745.8032      8.3520     55.3916
   471.2500      0.0000    743.8578      8.3992     62.6765
   471.5000      0.0000    740.0417      8.4316     71.3535
   471.7500      0.0000    733.9578      8.4439     81.1148
   472.0000      0.0000    725.9371      8.4108     90.8601
   472.2500      0.0000    717.2957      8.2938     98.7780
   472.5000      0.0000    710.4196      8.0686    103.1120
   472.7500      0.0000    708.1803      7.7562    103.1211
   473.0000      0.0000    712.1511      7.4302     99.4062
   473.2500      0.0000    720.8528      7.1813     93.4451
   473.5000      0.0000    730.3042      7.0663     87.0021
   473.7500      0.0000    736.6545      7.0857     81.7170
   474.0000      0.0000    738.2849      7.2013     78.6838
   474.2500      0.0000    736.1133      7.3635     78.2793
   474.5000      0.0000    732.8438      7.5251     80.4682
   474.7500      0.0000    731.4935      7.6395     84.9105
   475.0000      0.0000    733.4035      7.6562     90.4574
   475.2500      0.0000    737.3951      7.5275     95.0713
   475.5000      0.0000    741.1351      7.2375     96.9363
   475.7500      0.0000    743.0588      6.8338     95.7332
   476.0000      0.0000    742.7990      6.4229     92.8229
   476.2500      0.0000    740.5508      6.1159     90.3885
   476.5000      0.0000    736.9894      5.9713     90.0956
   476.7500      0.0000    733.8546      5.9826     92.1004
   477.0000      0.0000    733.6904      6.1050     95.4121
   477.2500      0.0000    738.1339      6.2893     99.0871
   477.5000      0.0000    746.3812      6.5042    102.6334
   477.7500      0.0000    755.4800      6.7373    105.5765
   478.0000      0.0000    762.1529      6.9778    107.4524
   478.2500      0.0000    764.8805      7.1994    108.2978
   478.5000      0.0000    764.9896      7.3678    108.6518
   478.7500      0.0000    765.6198      7.4669    109.0293
   479.0000      0.0000    769.0626      7.5127    109.5928
   479.2500      0.0000    774.9843      7.5366    110.1946
   479.5000      0.0000    781.1732      7.5538    110.4551
   479.7500      0.0000    785.5870      7.5508    109.9003
   480.0000      0.0000    787.4034      7.5011    108.2340
   480.2500      0.0000    786.6472      7.3931    105.5117
   480.5000      0.0000    783.5996      7.2466    102.0560
   480.7500      0.0000    778.7319      7.1013     98.4046
   481.0000      0.0000    772.7368      6.9831     95.3192
   481.2500      0.0000    766.3154      6.8794     93.5598
   481.5000      0.0000    760.0789      6.7537     93.5081
   481.7500      0.0000    754.6639      6.5866     94.9924
   482.0000      0.0000    750.6157      6.3955     97.2771
   482.2500      0.0000    748.0648      6.2135     99.1651
   482.5000      0.0000    746.6885      6.0611     99.6439
   482.7500      0.0000    746.0144      5.9451     98.8882
   483.0000      0.0000    745.6953      5.8840     98.3130
   483.2500      0.0000    745.5733      5.9174     99.1421
   483.5000      0.0000    745.6472      6.0768    101.0174
   483.7500      0.0000    746.0640      6.3400    102.3765
   484.0000      0.0000    747.0883      6.6257    102.0596
   484.2500      0.0000    748.8964      6.8434    100.3225
   484.5000      0.0000    751.0784      6.9481     98.5674
   484.7500      0.0000    752.2549      6.9455     98.4439
   485.0000      0.0000    750.5903      6.8620    100.9004
   485.2500      0.0000    745.0767      6.7260    105.7395
   485.5000      0.0000    736.2393      6.5741    112.0421
   485.7500      0.0000    725.6343      6.4596    118.7579
   486.0000      0.0000    715.2339      6.4356    124.5993
   486.2500      0.0000    707.2653      6.5227    127.9884
   486.5000      0.0000    703.7206      6.6925    127.9979
   486.7500      0.0000    705.3668      6.8864    125.2657
   487.0000      0.0000    711.2148      7.0562    121.6464
   487.2500      0.0000    719.0784      7.1878    119.1506
   487.5000      0.0000    726.8585      7.2911    119.0182
   487.7500      0.0000    733.4980      7.3739    121.0269
   488.0000      0.0000    738.8450      7.4262    123.5176
   488.2500      0.0000    742.9274      7.4303    124.6337
   488.5000      0.0000    745.6822      7.3843    123.8583
   488.7500      0.0000    747.2100      7.3069    122.3655
   489.0000      0.0000    747.8830      7.2184    121.9304
   489.2500      0.0000    748.0779      7.1275    123.4496
   489.5000      0.0000    747.8753      7.0422    126.2047
   489.7500      0.0000    746.8221      6.9827    128.4363
   490.0000      0.0000    743.7392      6.9674    128.9211
   490.2500      0.0000    736.7152      6.9932    128.1710
   490.5000      0.0000    723.9357      7.0396    127.9253
   490.7500      0.0000    705.6321      7.0888    129.3994
   491.0000      0.0000    685.7078      7.1339    132.1133
   491.2500      0.0000    670.3921      7.1742    134.3874
   491.5000      0.0000    663.9428      7.2119    134.7640
   491.7500      0.0000    665.8189      7.2505    132.7978
   492.0000      0.0000    672.5413      7.2930    128.6897
   492.2500      0.0000    681.3802      7.3436    122.8026
   492.5000      0.0000    691.3860      7.4116    115.9071
   492.7500      0.0000    701.9771      7.5037    109.4843
   493.0000      0.0000    711.8327      7.6099    105.1219
   493.2500      0.0000    718.7230      7.7039    103.4473
   493.5000      0.0000    719.2670      7.7659    103.8320
   493.7500      0.0000    709.0358      7.8067    104.9753
   494.0000      0.0000    684.6392      7.8681    105.5485
   494.2500      0.0000    647.4583      7.9935    104.6745
