~Version Information
VERS.                      2.0: CWLS Log ASCII Standard - VERSION 2.0
WRAP.                       NO: One line per depth step
~Well Information Block
STRT.FT               240.0000: 
STOP.FT              1159.2500: 
STEP.FT                 0.2500: 
NULL.                -999.2500: 
COMP.          Pioneer Natural Resources: COMPANY
WELL.               Ryan 41-17: WELL
FLD.           Purgatoire River: FIELD
LOC.           822' FNL & 532' FEL--: LOCATION
CNTY.               Las Animas: COUNTY
SRVC.                Patterson: SERVICE COMPANY
DATE.          Thu Mar 16 16:50:09 2006: LOG DATE
UWI.           05 071 08719 00: UNIQUE WELL ID
STAT.                 Colorado: STATE
~Curve Information Block
DEPT.FT            0 000 00 00: Depth
SN.Ohm-m                      : IEL Short Normal
SP.mV                         : IEL Spontaneous Potential
DIR.Ohm-m                     : IEL Induction Resistivity
GR.GAPI                       : Gamma Ray
~Parameter Information Block
~A  Depth        SN          SP         DIR          GR     
# ...
  1044.0000     27.7927     14.3891     24.1577     81.9025
  1044.2500     28.0346     13.8185     24.6568     91.5101
  1044.5000     28.0054     13.2724     24.7573    105.8142
  1044.7500     27.8030     12.7535     24.4974    114.7204
  1045.0000     27.5338     12.2725     23.9886    126.4120
  1045.2500     27.2745     11.8455     23.3612    133.0631
  1045.5000     27.0578     11.4902     22.7212    141.9442
  1045.7500     26.8862     11.2197     22.1387    147.5581
  1046.0000     26.7551     11.0390     21.6592    155.9808
  1046.2500     26.6672     10.9422     21.3191    161.8032
  1046.5000     26.6343     10.9132     21.1483    170.9654
  1046.7500     26.6702     10.9298     21.1616    176.8834
  1047.0000     26.7822     10.9688     21.3470    183.6572
  1047.2500     26.9637     11.0110     21.6645    185.7679
  1047.5000     27.1883     11.0440     22.0562    184.6944
  1047.7500     27.4086     11.0631     22.4594    181.2305
  1048.0000     27.5689     11.0697     22.8143    172.3778
  1048.2500     27.6308     11.0690     23.0681    164.7346
  1048.5000     27.5958     11.0666     23.1870    152.6531
  1048.7500     27.5064     11.0672     23.1750    145.3457
  1049.0000     27.4203     11.0730     23.0855    136.9886
  1049.2500     27.3726     11.0834     23.0076    133.9366
  1049.5000     27.3504     11.0960     23.0300    134.1265
  1049.7500     27.2967     11.1071     23.2004    137.0455
  1050.0000     27.1420     11.1129     23.4985    142.5185
  1050.2500     26.8431     11.1115     23.8370    144.3939
  1050.5000     26.4098     11.1028     24.0956    141.5034
  1050.7500     25.9107     11.0897     24.1780    135.6088
  1051.0000     25.4567     11.0770     24.0607    123.2312
  1051.2500     25.1614     11.0712     23.7991    114.9836
  1051.5000     25.0898     11.0784     23.4910    106.6870
  1051.7500     25.2219     11.1044     23.2241    105.2415
  1052.0000     25.4630     11.1532     23.0370    108.3549
  1052.2500     25.6965     11.2268     22.9086    111.6615
  1052.5000     25.8437     11.3248     22.7801    113.5609
  1052.7500     25.8942     11.4430     22.5972    110.8941
  1053.0000     25.8965     11.5726     22.3497    101.1418
  1053.2500     25.9255     11.6994     22.0862     92.6506
  1053.5000     26.0445     11.8030     21.8964     81.0104
  1053.7500     26.2766     11.8595     21.8773     75.7209
  1054.0000     26.5909     11.8459     22.1029     72.3991
  1054.2500     26.9115     11.7466     22.6025     72.7448
  1054.5000     27.1500     11.5627     23.3461     75.4836
  1054.7500     27.2443     11.3181     24.2353     78.0280
  1055.0000     27.1794     11.0626     25.1136     82.6354
  1055.2500     26.9853     10.8668     25.8085     86.7103
  1055.5000     26.7185     10.8102     26.1999     95.6560
  1055.7500     26.4397     10.9635     26.2678    103.9003
  1056.0000     26.1915     11.3695     26.0776    118.7181
  1056.2500     25.9832     12.0292     25.7180    129.0573
  1056.5000     25.7930     12.8965     25.2494    144.1132
  1056.7500     25.5858     13.8846     24.6962    154.3146
  1057.0000     25.3345     14.8823     24.0720    171.5724
  1057.2500     25.0308     15.7754     23.4013    184.5216
  1057.5000     24.6844     16.4692     22.7207    202.7480
  1057.7500     24.3183     16.9045     22.0665    210.2587
  1058.0000     23.9626     17.0662     21.4690    208.6480
  1058.2500     23.6487     16.9814     20.9568    198.5570
  1058.5000     23.4027     16.7101     20.5651    175.5863
  1058.7500     23.2415     16.3299     20.3351    160.0537
  1059.0000     23.1702     15.9207     20.3064    142.7311
  1059.2500     23.1844     15.5512     20.5030    136.3356
  1059.5000     23.2730     15.2707     20.9202    133.3817
  1059.7500     23.4160     15.1068     21.5144    134.4736
  1060.0000     23.5819     15.0669     22.2016    137.9910
  1060.2500     23.7333     15.1441     22.8723    139.7939
  1060.5000     23.8424     15.3217     23.4264    138.7204
  1060.7500     23.9055     15.5788     23.8137    134.6042
  1061.0000     23.9451     15.8930     24.0528    124.5216
  1061.2500     23.9979     16.2423     24.2138    117.1865
  1061.5000     24.0955     16.6055     24.3757    108.6851
  1061.7500     24.2459     16.9629     24.5857    105.5418
  1062.0000     24.4300     17.2971     24.8364    103.6121
  1062.2500     24.6147     17.5938     25.0697    102.8241
  1062.5000     24.7730     17.8442     25.2109    100.6663
  1062.7500     24.8958     18.0466     25.2194     98.5248
  1063.0000     24.9912     18.2093     25.1227     95.2485
  1063.2500     25.0753     18.3519     25.0049     93.5464
  1063.5000     25.1656     18.5043     24.9606     92.1394
  1063.7500     25.2765     18.7023     25.0533     92.1902
  1064.0000     25.4153     18.9804     25.3016     94.0108
  1064.2500     25.5769     19.3612     25.6882     95.9604
  1064.5000     25.7445     19.8472     26.1763     97.8572
  1064.7500     25.8963     20.4155     26.7190     97.0280
  1065.0000     26.0151     21.0208     27.2616     91.7780
  1065.2500     26.0930     21.6044     27.7434     86.3519
  1065.5000     26.1308     22.1088     28.1080     77.6432
  1065.7500     26.1356     22.4914     28.3222     72.5221
  1066.0000     26.1173     22.7342     28.3880     66.5488
  1066.2500     26.0846     22.8452     28.3371     63.7681
  1066.5000     26.0396     22.8532     28.2109     61.6551
  1066.7500     25.9752     22.7974     28.0440     61.7786
  1067.0000     25.8788     22.7173     27.8557     63.9132
  1067.2500     25.7405     22.6443     27.6484     65.9869
  1067.5000     25.5597     22.5988     27.4069     68.8704
  1067.7500     25.3447     22.5907     27.1064     70.3311
  1068.0000     25.1103     22.6225     26.7341     72.0224
  1068.2500     24.8765     22.6923     26.3118     72.9190
  1068.5000     24.6642     22.7967     25.8979     73.6520
  1068.7500     24.4900     22.9321     25.5597     73.6989
  1069.0000     24.3614     23.0943     25.3398     73.9108
  1069.2500     24.2747     23.2784     25.2385     74.7387
  1069.5000     24.2184     23.4788     25.2229     76.9254
  1069.7500     24.1809     23.6884     25.2509     78.2739
  1070.0000     24.1581     23.8995     25.2949     78.9569
  1070.2500     24.1517     24.1040     25.3500     78.4487
  1070.5000     24.1600     24.2942     25.4248     76.9579
  1070.7500     24.1728     24.4636     25.5228     75.9572
  1071.0000     24.1753     24.6078     25.6313     75.0252
  1071.2500     24.1566     24.7243     25.7273     75.0502
  1071.5000     24.1139     24.8135     25.7953     76.3623
  1071.7500     24.0486     24.8780     25.8403     77.9757
  1072.0000     23.9647     24.9225     25.8812     80.5828
  1072.2500     23.8675     24.9527     25.9296     81.7483
  1072.5000     23.7625     24.9755     25.9708     82.0663
  1072.7500     23.6503     24.9972     25.9605     81.5949
  1073.0000     23.5236     25.0239     25.8432     80.8621
  1073.2500     23.3717     25.0609     25.5815     80.7857
  1073.5000     23.1891     25.1127     25.1793     81.3875
  1073.7500     22.9820     25.1830     24.6818     82.0552
  1074.0000     22.7671     25.2747     24.1545     83.0201
  1074.2500     22.5637     25.3901     23.6584     83.4364
  1074.5000     22.3870     25.5301     23.2376     83.4312
  1074.7500     22.2427     25.6942     22.9173     82.9045
  1075.0000     22.1282     25.8803     22.7053     81.4997
  1075.2500     22.0367     26.0846     22.5912     80.4914
  1075.5000     21.9627     26.3016     22.5469     79.4745
  1075.7500     21.9038     26.5255     22.5331     79.2348
  1076.0000     21.8586     26.7506     22.5117     79.3804
  1076.2500     21.8241     26.9722     22.4596     79.7959
  1076.5000     21.7969     27.1873     22.3777     81.1871
  1076.7500     21.7734     27.3953     22.2875     82.6611
  1077.0000     21.7502     27.5972     22.2153     84.6728
  1077.2500     21.7229     27.7956     22.1740     84.7731
