~Version Information
VERS.                      2.0: CWLS Log ASCII Standard - VERSION 2.0
WRAP.                       NO: One line per depth step
~Well Information Block
STRT.FT                -8.5000: 
STOP.FT              1945.2500: 
STEP.FT                 0.2500: 
NULL.                -999.2500: 
COMP.          Pioneer Natural Resources: COMPANY
WELL.          Flying Horse 12-11 Tr: WELL
FLD.           Purgatorie River: FIELD
LOC.           2459' FNL & 410' FWL: LOCATION
STAT.                       CO: PROVINCE
CNTY.               Las Animas: COUNTY
CTRY.        USA : Country
SECT. 11 : Section
TOWN. 32S : Township
RANG. 66W : Range
SRVC.          Patterson Wireline: SERVICE COMPANY
DATE.          Thu Sep 08 15:44:22 2005: LOG DATE
API.           05 071 08485 00: UNIQUE WELL ID
~Curve Information Block
DEPT.FT            0 000 00 00: Depth
CCL.                          : Casing Collar Locator
TT3.usec                      : CBL 3' Travel Time
AMP3.mV                       : CBL 3' Amplitude
GR.GAPI                       : Gamma Ray
~Parameter Information Block
~A  Depth       CCL         TT3         AMP3         GR     
# ...
  1130.5000      0.0000    768.5630     16.5597     95.2192
  1130.7500      0.0000    684.7380     17.6590     92.2965
  1131.0000      0.0000    613.7083     19.1888     93.2742
  1131.2500      0.0000    570.7429     20.8311     98.1970
  1131.5000      0.0000    547.6110     22.1946    105.3000
  1131.7500      0.0000    521.1750     23.0605    112.2385
  1132.0000      0.0000    478.6454     23.4560    117.1188
  1132.2500      0.0000    429.5401     23.5293    118.8945
  1132.5000      0.0000    393.4509     23.4160    117.5043
  1132.7500      0.0000    382.8864     23.2063    114.1076
  1133.0000      0.0000    398.3048     22.9676    110.8546
  1133.2500      0.0000    433.4157     22.7579    109.6979
  1133.5000      0.0000    482.5867     22.6205    111.1054
  1133.7500      0.0000    544.2633     22.5720    114.0104
  1134.0000      0.0000    617.0267     22.5946    117.0059
  1134.2500      0.0000    693.1419     22.6409    119.5797
  1134.5000      0.0000    759.4189     22.6575    122.2648
  1134.7500      0.0000    805.8307     22.6152    125.6299
  1135.0000      0.0000    831.5981     22.5200    129.3179
  1135.2500      0.0000    842.8620     22.3933    132.3711
  1135.5000      0.0000    846.6803     22.2473    134.3566
  1135.7500      0.0000    847.6010     22.0825    135.5727
  1136.0000      0.0000    847.6473     21.9078    136.1046
  1136.2500      0.0000    847.4698     21.7526    135.5725
  1136.5000      0.0000    847.1511     21.6546    134.1479
  1136.7500      0.0000    846.2330     21.6321    132.9755
  1137.0000      0.0000    843.1474     21.6676    133.1952
  1137.2500      0.0000    834.6270     21.7217    134.9689
  1137.5000      0.0000    816.8406     21.7630    137.3164
  1137.7500      0.0000    789.7837     21.7815    138.4293
  1138.0000      0.0000    761.5485     21.7769    136.6310
  1138.2500      0.0000    744.8925     21.7460    131.7689
  1138.5000      0.0000    746.3256     21.6833    125.4272
  1138.7500      0.0000    760.5266     21.5890    119.3655
  1139.0000      0.0000    777.4175     21.4753    114.0467
  1139.2500      0.0000    791.5395     21.3613    108.8625
  1139.5000      0.0000    802.8740     21.2596    103.4257
  1139.7500      0.0000    812.4664     21.1681     98.4579
  1140.0000      0.0000    820.1776     21.0783     95.4897
  1140.2500      0.0000    825.1606     20.9906     95.7871
  1140.5000      0.0000    826.6759     20.9186     99.5448
  1140.7500      0.0000    824.7593     20.8766    105.7857
  1141.0000      0.0000    820.9756     20.8679    112.6615
  1141.2500      0.0000    818.1752     20.8836    118.0336
  1141.5000      0.0000    818.7975     20.9135    120.3910
  1141.7500      0.0000    822.9223     20.9566    119.6896
  1142.0000      0.0000    827.7534     21.0226    117.4200
  1142.2500      0.0000    829.2094     21.1158    115.6390
  1142.5000      0.0000    824.8577     21.2198    115.4139
  1142.7500      0.0000    816.1407     21.3024    115.8157
  1143.0000      0.0000    807.6430     21.3404    114.5016
  1143.2500      0.0000    803.5532     21.3384    109.5140
  1143.5000      0.0000    804.8637     21.3218    100.7485
  1143.7500      0.0000    810.0074     21.3118     90.0812
  1144.0000      0.0000    817.1313     21.3073     80.3632
  1144.2500      0.0000    824.5064     21.2942     74.2980
  1144.5000      0.0000    828.8361     21.2670     73.7663
  1144.7500      0.0000    823.6392     21.2366     79.2851
  1145.0000      0.0000    800.3485     21.2120     89.4112
  1145.2500      0.0000    754.2737     21.1812    101.0384
  1145.5000      0.0000    693.7015     21.1198    111.2518
  1145.7500      0.0000    642.5438     21.0187    119.2823
  1146.0000      0.0000    627.5624     20.8944    126.2989
  1146.2500      0.0000    657.8647     20.7767    133.3479
  1146.5000      0.0000    717.1517     20.6981    139.9759
  1146.7500      0.0000    776.9802     20.6924    144.8065
  1147.0000      0.0000    816.5983     20.7894    146.9212
  1147.2500      0.0000    830.6643     21.0003    146.6003
  1147.5000      0.0000    823.6979     21.3072    145.0938
  1147.7500      0.0000    803.4780     21.6684    143.7939
  1148.0000      0.0000    779.2459     22.0336    143.2089
  1148.2500      0.0000    758.3715     22.3630    142.6027
  1148.5000      0.0000    739.7312     22.6382    140.9280
  1148.7500      0.0000    715.3091     22.8580    138.1674
  1149.0000      0.0000    684.6859     23.0215    135.5216
  1149.2500      0.0000    663.5435     23.1152    134.4227
  1149.5000      0.0000    669.8647     23.1193    135.6034
  1149.7500      0.0000    703.8494     23.0320    138.8553
  1150.0000      0.0000    748.2834     22.8903    143.1141
  1150.2500      0.0000    786.3379     22.7597    146.7423
  1150.5000      0.0000    812.5718     22.6902    148.3206
  1150.7500      0.0000    829.1791     22.6794    147.5805
  1151.0000      0.0000    839.1949     22.6824    145.4556
  1151.2500      0.0000    844.5057     22.6595    143.1488
  1151.5000      0.0000    846.2222     22.6104    141.1725
  1151.7500      0.0000    844.4892     22.5605    139.1012
  1152.0000      0.0000    838.9419     22.5226    136.1325
  1152.2500      0.0000    830.4023     22.4818    132.1886
  1152.5000      0.0000    821.1312     22.4182    128.6115
  1152.7500      0.0000    811.3100     22.3381    127.3353
  1153.0000      0.0000    795.8345     22.2827    128.9683
  1153.2500      0.0000    768.7735     22.3031    131.7889
  1153.5000      0.0000    733.8920     22.4177    132.9462
  1153.7500      0.0000    707.8329     22.5782    130.8932
  1154.0000      0.0000    707.5485     22.6822    126.6759
  1154.2500      0.0000    734.0780     22.6317    122.5045
  1154.5000      0.0000    772.0185     22.3918    119.0215
  1154.7500      0.0000    804.1178     22.0018    114.7469
  1155.0000      0.0000    822.7316     21.5420    108.5511
  1155.2500      0.0000    829.1084     21.0943    101.7790
  1155.5000      0.0000    827.7954     20.7176     97.2396
  1155.7500      0.0000    823.5804     20.4446     96.5791
  1156.0000      0.0000    820.4135     20.2957     99.1965
  1156.2500      0.0000    820.2631     20.2887    103.3514
  1156.5000      0.0000    822.6160     20.4244    107.6164
  1156.7500      0.0000    825.3950     20.6642    111.3554
  1157.0000      0.0000    826.4915     20.9361    114.6946
  1157.2500      0.0000    825.0450     21.1661    118.4652
  1157.5000      0.0000    821.8807     21.3027    123.7426
  1157.7500      0.0000    818.4564     21.3254    130.8915
  1158.0000      0.0000    814.8386     21.2508    138.8676
  1158.2500      0.0000    809.1096     21.1264    145.5101
  1158.5000      0.0000    799.6504     21.0040    148.7594
  1158.7500      0.0000    788.1361     20.9060    147.9558
  1159.0000      0.0000    779.2537     20.8146    144.1674
  1159.2500      0.0000    776.3906     20.6916    139.3287
  1159.5000      0.0000    777.8821     20.5120    135.0322
  1159.7500      0.0000    778.6432     20.2838    132.0082
  1160.0000      0.0000    775.6035     20.0452    130.4373
  1160.2500      0.0000    770.8016     19.8477    130.3851
  1160.5000      0.0000    769.4568     19.7386    131.6928
  1160.7500      0.0000    775.6490     19.7464    133.4799
  1161.0000      0.0000    789.2284     19.8705    134.1399
  1161.2500      0.0000    805.8926     20.0851    132.4254
  1161.5000      0.0000    819.9611     20.3535    128.7712
  1161.7500      0.0000    827.5372     20.6459    125.1231
  1162.0000      0.0000    828.0483     20.9462    123.0204
  1162.2500      0.0000    823.7564     21.2486    122.0571
  1162.5000      0.0000    817.9330     21.5475    120.6045
  1162.7500      0.0000    813.0081     21.8321    117.7762
  1163.0000      0.0000    809.8323     22.0861    114.1051
  1163.2500      0.0000    808.1530     22.2906    110.7149
  1163.5000      0.0000    807.4038     22.4278    108.8602
  1163.7500      0.0000    807.1250     22.4861    109.9308
