~Version Information
VERS.                      2.0: CWLS Log ASCII Standard - VERSION 2.0
WRAP.                       NO: One line per depth step
~Well Information Block
STRT.FT               -12.2500: 
STOP.FT              1442.2500: 
STEP.FT                 0.2500: 
NULL.                -999.2500: 
COMP.          Pioneer Natural Resources: COMPANY
WELL.              Lucky 21-36: WELL
FLD.           Purgatorie River: FIELD
LOC.           799' FNL & 1578' FWL--: LOCATION
CDN. :
PROV. :
UWI. :
STAT. :
CNTY. :
CTRY. :
API. :
COMP. :
WELL. :
FLD. :
LOC. :
DATE. :
SRVC. :
CNTY.               Las Animas: COUNTY
SRVC.          Superior Well Services: SERVICE COMPANY
DATE.          Mon Jul 21 12-16-21 2008: LOG DATE
UWI.           05 071 08456 00: UNIQUE WELL ID
STAT.                       CO: STATE
~Curve Information Block
DEPT.FT            0 000 00 00: Depth
CCL.                          : Casing Collar Locator
TT3.usec                      : CBL 3' Travel Time
AMP3.mV                       : CBL 3' Amplitude
GR.GAPI                       : Gamma Ray
~Parameter Information Block
~A  Depth       CCL         TT3         AMP3         GR     
# ...
   657.7500      0.0000    794.0950      9.5051     91.8587
   658.0000      0.0000    781.8095      9.4461     94.0389
   658.2500      0.0000    767.6240      9.4061     96.0531
   658.5000      0.0000    754.2339      9.3864     98.5643
   658.7500      0.0000    744.2823      9.3863    100.0867
   659.0000      0.0000    740.7709      9.3901     98.4950
   659.2500      0.0000    746.4286      9.3606     93.9235
   659.5000      0.0000    761.8689      9.2602     89.0667
   659.7500      0.0000    783.8909      9.0821     86.7421
   660.0000      0.0000    805.4603      8.8561     87.8144
   660.2500      0.0000    818.0812      8.6223     90.9355
   660.5000      0.0000    815.8536      8.4014     93.5085
   660.7500      0.0000    798.7962      8.1879     93.3011
   661.0000      0.0000    772.8574      7.9733     89.9915
   661.2500      0.0000    746.6786      7.7714     85.3187
   661.5000      0.0000    727.8675      7.6093     81.5567
   661.7500      0.0000    720.7029      7.4954     79.8162
   662.0000      0.0000    725.2457      7.4145     79.6451
   662.2500      0.0000    737.9955      7.3560     79.9034
   662.5000      0.0000    754.3804      7.3259     79.8678
   662.7500      0.0000    771.1279      7.3297     79.4929
   663.0000      0.0000    785.9999      7.3580     78.7158
   663.2500     -2.0000    796.0810      7.3885     76.8540
   663.5000      2.0000    798.1810      7.3978     73.0329
   663.7500      0.0000    791.3986      7.3763     67.1895
   664.0000      0.0000    778.4235      7.3366     60.3962
   664.2500      0.0000    763.8369      7.3074     54.1254
   664.5000      0.0000    751.3491      7.3214     49.4756
   664.7500      0.0000    742.5322      7.4162     47.1962
   665.0000      0.0000    737.4319      7.6249     47.9148
   665.2500      0.0000    735.7199      7.9388     51.6862
   665.5000      0.0000    737.1826      8.2863     57.3550
   665.7500      0.0000    741.1645      8.5701     62.8464
   666.0000      0.0000    745.9337      8.7261     66.3494
   666.2500      0.0000    749.3675      8.7451     67.1963
   666.5000      0.0000    750.5540      8.6489     65.6934
   666.7500      0.0000    750.1938      8.4519     62.4628
   667.0000      0.0000    749.1893      8.1495     58.2079
   667.2500      0.0000    747.3433      7.7389     53.9018
   667.5000      0.0000    743.9423      7.2441     50.8134
   667.7500      0.0000    739.2733      6.7130     50.0181
   668.0000      0.0000    734.9197      6.1931     51.6310
   668.2500      0.0000    732.1343      5.7141     54.4770
   668.5000      0.0000    730.1213      5.2865     56.7595
   668.7500      0.0000    726.5292      4.9094     57.3303
   669.0000      0.0000    719.8971      4.5842     56.3719
   669.2500      0.0000    711.3058      4.3221     54.8589
   669.5000      0.0000    703.5976      4.1386     53.4786
   669.7500      0.0000    699.5007      4.0404     52.1844
   670.0000      0.0000    700.7017      4.0183     50.7719
   670.2500      0.0000    707.6689      4.0533     49.6297
   670.5000      0.0000    718.8610      4.1260     49.5311
   670.7500      0.0000    730.0242      4.2253     50.6183
   671.0000      0.0000    736.1429      4.3531     51.9840
   671.2500      0.0000    735.7250      4.5226     52.4357
   671.5000      0.0000    732.7607      4.7517     51.4511
   671.7500      0.0000    733.4050      5.0552     49.3372
   672.0000      0.0000    740.7611      5.4397     46.8285
   672.2500      0.0000    752.9341      5.9042     44.7443
   672.5000      0.0000    765.0084      6.4433     43.8027
   672.7500      0.0000    772.1349      7.0483     44.3953
   673.0000      0.0000    771.5916      7.7032     46.2824
   673.2500      0.0000    763.1134      8.3827     48.4706
   673.5000      0.0000    747.7167      9.0542     49.6899
   673.7500      0.0000    725.9191      9.6847     49.3633
   674.0000      0.0000    697.3320     10.2474     48.0167
   674.2500      0.0000    662.5590     10.7229     46.5124
   674.5000      0.0000    625.9180     11.0967     45.1690
   674.7500      0.0000    595.4151     11.3633     43.9500
   675.0000      0.0000    577.4258     11.5484     43.1078
   675.2500      0.0000    569.4022     11.7194     43.1011
   675.5000      0.0000    559.0193     11.9513     44.0687
   675.7500      0.0000    533.8807     12.2704     45.8315
   676.0000      0.0000    493.6362     12.6367     48.4070
   676.2500      0.0000    451.1743     12.9858     52.1682
   676.5000      0.0000    422.1601     13.2845     57.4299
   676.7500      0.0000    414.8203     13.5485     64.2031
   677.0000      0.0000    426.7849     13.8190     72.4971
   677.2500      0.0000    446.9003     14.1308     82.2488
   677.5000      0.0000    462.1208     14.4951     92.5200
   677.7500      0.0000    467.4364     14.9019    101.4097
   678.0000      0.0000    467.6184     15.3376    107.4835
   678.2500      0.0000    466.3009     15.8036    110.9132
   678.5000      0.0000    458.2348     16.3108    112.6065
   678.7500      0.0000    437.0739     16.8506    112.6845
   679.0000      0.0000    406.1268     17.3787    110.6003
   679.2500      0.0000    375.9905     17.8412    106.2719
   679.5000      0.0000    354.3429     18.2174    100.1329
   679.7500      0.0000    341.7344     18.5284     92.3670
   680.0000      0.0000    334.8091     18.8109     83.0520
   680.2500      0.0000    330.0356     19.0907     73.1030
   680.5000      0.0000    325.2160     19.3728     64.4899
   680.7500      0.0000    319.8617     19.6397     59.2803
   681.0000      0.0000    314.8622     19.8622     58.4996
   681.2500      0.0000    311.3188     20.0172     61.6995
   681.5000      0.0000    309.6883     20.0985     67.5052
   681.7500      0.0000    309.9439     20.1138     74.7687
   682.0000      0.0000    312.1805     20.0752     83.3821
   682.2500      0.0000    316.6532     19.9924     93.8864
   682.5000      0.0000    323.1385     19.8678    106.2081
   682.7500      0.0000    330.4643     19.7009    118.8361
   683.0000      0.0000    336.9720     19.5009    129.3955
   683.2500      0.0000    341.5475     19.2952    136.2086
   683.5000      0.0000    344.1210     19.1170    139.2374
   683.7500      0.0000    345.2857     18.9847    139.3788
   684.0000      0.0000    345.6940     18.8968    137.2874
   684.2500      0.0000    345.7950     18.8414    133.3425
   684.5000      0.0000    345.8441     18.8060    128.3092
   684.7500      0.0000    345.9428     18.7778    123.3804
   685.0000      0.0000    346.1063     18.7422    119.3882
   685.2500      0.0000    346.3899     18.6863    116.0588
   685.5000      0.0000    347.2866     18.6052    112.3246
   685.7500      0.0000    350.3531     18.5026    107.6730
   686.0000      0.0000    359.0335     18.3833    103.1433
   686.2500      0.0000    378.1782     18.2489    100.7197
   686.5000      0.0000    410.8182     18.1005    101.5404
   686.7500      0.0000    453.9499     17.9476    104.5430
   687.0000      0.0000    499.1658     17.8076    106.9635
   687.2500      0.0000    539.9116     17.6941    106.5288
   687.5000      0.0000    577.4573     17.6056    103.2642
   687.7500      0.0000    617.1969     17.5267     99.1371
   688.0000      0.0000    658.7607     17.4398     96.2726
   688.2500      0.0000    691.2566     17.3364     95.6166
   688.5000      0.0000    698.9242     17.2194     96.8282
   688.7500      0.0000    671.8453     17.0941     99.0776
   689.0000      0.0000    613.9855     16.9582    101.9559
   689.2500      0.0000    543.7731     16.8043    105.7714
   689.5000      0.0000    486.0475     16.6273    110.9695
   689.7500      0.0000    459.7360     16.4272    117.1741
   690.0000      0.0000    469.5780     16.2048    122.8030
   690.2500      0.0000    505.4550     15.9622    126.0227
   690.5000      0.0000    548.4557     15.7055    126.3026
   690.7500      0.0000    581.7486     15.4410    124.7923
   691.0000      0.0000    600.9137     15.1725    123.1825
